[{"id": "MC0hhfCNSBo7BrJjDR8BNw", "alias": "la-granja-hamburg", "name": "La Granja", "image_url": "https://s3-media2.fl.yelpcdn.com/bphoto/uTcrOlZKL4nBP_xXGN-ggA/o.jpg", "is_closed": false, "url": "https://www.yelp.com/biz/la-granja-hamburg?adjust_creative=hBJOknVQJ58S5goQyjmwRw&utm_campaign=yelp_api_v3&utm_medium=api_v3_business_search&utm_source=hBJOknVQJ58S5goQyjmwRw", "review_count": 17, "categories": [{"alias": "german", "title": "German"}], "rating": 4.5, "coordinates": {"latitude": 53.4352, "longitude": 9.93557}, "transactions": [], "price": "\u20ac\u20ac", "location": {"address1": "Bremer Str. 343", "address2": null, "address3": null, "city": "Hamburg", "zip_code": "21077", "country": "DE", "state": "HH", "display_address": ["Bremer Str. 343", "21077 Hamburg", "Germany"]}, "phone": "+49408816155866", "display_phone": "+49 40 8816155866", "distance": 4526.860317485744}, {"id": "Tl_AKFJyIG7z7wmPBZ2gHQ", "alias": "kutscherstuben-ii-seevetal", "name": "Kutscherstuben II", "image_url": "https://s3-media3.fl.yelpcdn.com/bphoto/_b6DzUnbXt7_ZhX5yIwGcw/o.jpg", "is_closed": false, "url": "https://www.yelp.com/biz/kutscherstuben-ii-seevetal?adjust_creative=hBJOknVQJ58S5goQyjmwRw&utm_campaign=yelp_api_v3&utm_medium=api_v3_business_search&utm_source=hBJOknVQJ58S5goQyjmwRw", "review_count": 2, "categories": [{"alias": "german", "title": "German"}], "rating": 4.5, "coordinates": {"latitude": 53.422039, "longitude": 9.9586802}, "transactions": [], "location": {"address1": "Beckedorfer Bogen 9a", "address2": "", "address3": "", "city": "Seevetal", "zip_code": "21218", "country": "DE", "state": "NI", "display_address": ["Beckedorfer Bogen 9a", "21218 Seevetal", "Germany"]}, "phone": "+4916099214595", "display_phone": "+49 160 99214595", "distance": 3592.3090550054785}, {"id": "YFPL5w5keAybWu4vdyVvNg", "alias": "orangerie-seevetal", "name": "Orangerie", "image_url": "", "is_closed": false, "url": "https://www.yelp.com/biz/orangerie-seevetal?adjust_creative=hBJOknVQJ58S5goQyjmwRw&utm_campaign=yelp_api_v3&utm_medium=api_v3_business_search&utm_source=hBJOknVQJ58S5goQyjmwRw", "review_count": 3, "categories": [{"alias": "italian", "title": "Italian"}], "rating": 3.5, "coordinates": {"latitude": 53.4061149, "longitude": 9.953765}, "transactions": [], "price": "\u20ac\u20ac", "location": {"address1": "Poststr. 5", "address2": null, "address3": null, "city": "Seevetal", "zip_code": "21218", "country": "DE", "state": "NI", "display_address": ["Poststr. 5", "21218 Seevetal", "Germany"]}, "phone": "+494105636003", "display_phone": "+49 4105 636003", "distance": 1813.921136162421}, {"id": "e-iWta6fZSAxxqOpPy0ZrQ", "alias": "paparazzi-klecken-rosengarten", "name": "Paparazzi Klecken", "image_url": "https://s3-media2.fl.yelpcdn.com/bphoto/QtlK21D8jvfe4BSgcMSoJw/o.jpg", "is_closed": false, "url": "https://www.yelp.com/biz/paparazzi-klecken-rosengarten?adjust_creative=hBJOknVQJ58S5goQyjmwRw&utm_campaign=yelp_api_v3&utm_medium=api_v3_business_search&utm_source=hBJOknVQJ58S5goQyjmwRw", "review_count": 10, "categories": [{"alias": "greek", "title": "Greek"}, {"alias": "hotdogs", "title": "Fast Food"}, {"alias": "pizza", "title": "Pizza"}], "rating": 3.5, "coordinates": {"latitude": 53.3661, "longitude": 9.92839}, "transactions": [], "price": "\u20ac", "location": {"address1": "Bahnhofstr. 36", "address2": null, "address3": null, "city": "Rosengarten", "zip_code": "21224", "country": "DE", "state": "NI", "display_address": ["Bahnhofstr. 36", "21224 Rosengarten", "Germany"]}, "phone": "+49410577138", "display_phone": "+49 4105 77138", "distance": 3183.6410002579128}, {"id": "yWMgcEEYVr4CGQF3Wb0l-Q", "alias": "die-linde-rosengarten", "name": "Die Linde", "image_url": "https://s3-media3.fl.yelpcdn.com/bphoto/AfXb7BSLpSCcJsyPaWx0Ow/o.jpg", "is_closed": false, "url": "https://www.yelp.com/biz/die-linde-rosengarten?adjust_creative=hBJOknVQJ58S5goQyjmwRw&utm_campaign=yelp_api_v3&utm_medium=api_v3_business_search&utm_source=hBJOknVQJ58S5goQyjmwRw", "review_count": 7, "categories": [{"alias": "german", "title": "German"}, {"alias": "mediterranean", "title": "Mediterranean"}], "rating": 3.5, "coordinates": {"latitude": 53.3662, "longitude": 9.9418}, "transactions": [], "price": "\u20ac\u20ac", "location": {"address1": "Poststr. 21", "address2": null, "address3": null, "city": "Rosengarten", "zip_code": "21224", "country": "DE", "state": "NI", "display_address": ["Poststr. 21", "21224 Rosengarten", "Germany"]}, "phone": "+4941055018845", "display_phone": "+49 4105 5018845", "distance": 3182.467279561021}]