[{"id": "Apz9UhdoIwKP4RGtjw7H6g", "alias": "de-krauler-kroog-hamburg-2", "name": "De Krauler Kroog", "image_url": "https://s3-media4.fl.yelpcdn.com/bphoto/4i5sxiZ6T41NoeGwBNDEqw/o.jpg", "is_closed": false, "url": "https://www.yelp.com/biz/de-krauler-kroog-hamburg-2?adjust_creative=hBJOknVQJ58S5goQyjmwRw&utm_campaign=yelp_api_v3&utm_medium=api_v3_business_search&utm_source=hBJOknVQJ58S5goQyjmwRw", "review_count": 6, "categories": [{"alias": "german", "title": "German"}], "rating": 5.0, "coordinates": {"latitude": 53.3996, "longitude": 10.2142}, "transactions": [], "price": "\u20ac\u20ac\u20ac", "location": {"address1": "Kraueler Hauptdeich 65", "address2": null, "address3": null, "city": "Hamburg", "zip_code": "21037", "country": "DE", "state": "HH", "display_address": ["Kraueler Hauptdeich 65", "21037 Hamburg", "Germany"]}, "phone": "+49407230368", "display_phone": "+49 40 7230368", "distance": 1646.4291237763646}, {"id": "NH8UdkeMrq2YFSQLMSEruQ", "alias": "hof-eggers-hamburg-3", "name": "Hof Eggers", "image_url": "https://s3-media4.fl.yelpcdn.com/bphoto/jfzfR1d-xTAeFe5dn9hlAg/o.jpg", "is_closed": false, "url": "https://www.yelp.com/biz/hof-eggers-hamburg-3?adjust_creative=hBJOknVQJ58S5goQyjmwRw&utm_campaign=yelp_api_v3&utm_medium=api_v3_business_search&utm_source=hBJOknVQJ58S5goQyjmwRw", "review_count": 5, "categories": [{"alias": "cafes", "title": "Cafes"}, {"alias": "attractionfarms", "title": "Attraction Farms"}], "rating": 5.0, "coordinates": {"latitude": 53.4106, "longitude": 10.21967}, "transactions": [], "price": "\u20ac", "location": {"address1": "Kirchwerder M\u00fchlendamm 5", "address2": null, "address3": null, "city": "Hamburg", "zip_code": "21037", "country": "DE", "state": "HH", "display_address": ["Kirchwerder M\u00fchlendamm 5", "21037 Hamburg", "Germany"]}, "phone": "+494072377385", "display_phone": "+49 40 72377385", "distance": 2336.0822708785454}, {"id": "OjgVmVhRkm62fiClP6A6uQ", "alias": "d\u00f6ner-imbiss-beim-t\u00fcv-nord-winsen", "name": "D\u00f6ner Imbiss beim T\u00dcV-Nord", "image_url": "https://s3-media3.fl.yelpcdn.com/bphoto/qkNvipocZhvRrJwTcHuSqw/o.jpg", "is_closed": false, "url": "https://www.yelp.com/biz/d%C3%B6ner-imbiss-beim-t%C3%BCv-nord-winsen?adjust_creative=hBJOknVQJ58S5goQyjmwRw&utm_campaign=yelp_api_v3&utm_medium=api_v3_business_search&utm_source=hBJOknVQJ58S5goQyjmwRw", "review_count": 7, "categories": [{"alias": "food", "title": "Food"}, {"alias": "hotdogs", "title": "Fast Food"}], "rating": 3.5, "coordinates": {"latitude": 53.3533, "longitude": 10.2227}, "transactions": [], "price": "\u20ac", "location": {"address1": "L\u00fcneburger Str. 116", "address2": null, "address3": null, "city": "Winsen", "zip_code": "21423", "country": "DE", "state": "NI", "display_address": ["L\u00fcneburger Str. 116", "21423 Winsen", "Germany"]}, "phone": "+494171668211", "display_phone": "+49 4171 668211", "distance": 4357.134229127151}, {"id": "AwL7KooU6B09c4AlQ7eN5w", "alias": "soetebier-winsen-3", "name": "Soetebier", "image_url": "https://s3-media1.fl.yelpcdn.com/bphoto/K2FZAEfyPKbpAdqaRi-Bsg/o.jpg", "is_closed": false, "url": "https://www.yelp.com/biz/soetebier-winsen-3?adjust_creative=hBJOknVQJ58S5goQyjmwRw&utm_campaign=yelp_api_v3&utm_medium=api_v3_business_search&utm_source=hBJOknVQJ58S5goQyjmwRw", "review_count": 1, "categories": [{"alias": "bakeries", "title": "Bakeries"}, {"alias": "cafes", "title": "Cafes"}], "rating": 5.0, "coordinates": {"latitude": 53.35203, "longitude": 10.230196}, "transactions": [], "location": {"address1": "L\u00fcneburger Str. 144", "address2": null, "address3": null, "city": "Winsen", "zip_code": "21423", "country": "DE", "state": "NI", "display_address": ["L\u00fcneburger Str. 144", "21423 Winsen", "Germany"]}, "phone": "+494171653821", "display_phone": "+49 4171 653821", "distance": 4430.647388869973}, {"id": "dZt3zUy7O8x0yL09p9_jgA", "alias": "b\u00e4ckerei-u-caf\u00e9-zimmer-winsen", "name": "B\u00e4ckerei u. Caf\u00e9 Zimmer", "image_url": "", "is_closed": false, "url": "https://www.yelp.com/biz/b%C3%A4ckerei-u-caf%C3%A9-zimmer-winsen?adjust_creative=hBJOknVQJ58S5goQyjmwRw&utm_campaign=yelp_api_v3&utm_medium=api_v3_business_search&utm_source=hBJOknVQJ58S5goQyjmwRw", "review_count": 1, "categories": [{"alias": "cafes", "title": "Cafes"}, {"alias": "bakeries", "title": "Bakeries"}], "rating": 3.0, "coordinates": {"latitude": 53.3574436, "longitude": 10.2127204}, "transactions": [], "price": "\u20ac\u20ac", "location": {"address1": "Marktstr. 12", "address2": "", "address3": null, "city": "Winsen", "zip_code": "21423", "country": "DE", "state": "NI", "display_address": ["Marktstr. 12", "21423 Winsen", "Germany"]}, "phone": "", "display_phone": "", "distance": 4098.522003592155}, {"id": "GorMSUXMnwwfUMzbd1vGcQ", "alias": "burger-king-winsen-aller", "name": "Burger King", "image_url": "https://s3-media3.fl.yelpcdn.com/bphoto/Vmqy2vRbNbLFe9sUUHXHVQ/o.jpg", "is_closed": false, "url": "https://www.yelp.com/biz/burger-king-winsen-aller?adjust_creative=hBJOknVQJ58S5goQyjmwRw&utm_campaign=yelp_api_v3&utm_medium=api_v3_business_search&utm_source=hBJOknVQJ58S5goQyjmwRw", "review_count": 15, "categories": [{"alias": "hotdogs", "title": "Fast Food"}, {"alias": "burgers", "title": "Burgers"}], "rating": 3.0, "coordinates": {"latitude": 53.3529019586762, "longitude": 10.2235424311539}, "transactions": [], "price": "\u20ac\u20ac", "location": {"address1": "Osttangente 191", "address2": "", "address3": "", "city": "Winsen (aller)", "zip_code": "21423", "country": "DE", "state": "NI", "display_address": ["Osttangente 191", "21423 Winsen (aller)", "Germany"]}, "phone": "+494171607938", "display_phone": "+49 4171 607938", "distance": 4390.341616817076}, {"id": "CP15eMmPVJUHL363eNV7Ag", "alias": "croque-knut-winsen", "name": "Croque Knut", "image_url": "https://s3-media3.fl.yelpcdn.com/bphoto/hgxA8LaPMwhnicJkk8GSew/o.jpg", "is_closed": false, "url": "https://www.yelp.com/biz/croque-knut-winsen?adjust_creative=hBJOknVQJ58S5goQyjmwRw&utm_campaign=yelp_api_v3&utm_medium=api_v3_business_search&utm_source=hBJOknVQJ58S5goQyjmwRw", "review_count": 8, "categories": [{"alias": "sandwiches", "title": "Sandwiches"}], "rating": 3.5, "coordinates": {"latitude": 53.3574436, "longitude": 10.2127204}, "transactions": [], "price": "\u20ac", "location": {"address1": "Wallstr. 1", "address2": "", "address3": null, "city": "Winsen", "zip_code": "21423", "country": "DE", "state": "NI", "display_address": ["Wallstr. 1", "21423 Winsen", "Germany"]}, "phone": "+4941714948", "display_phone": "+49 4171 4948", "distance": 4098.522003592155}]