[{"id": "Apz9UhdoIwKP4RGtjw7H6g", "alias": "de-krauler-kroog-hamburg-2", "name": "De Krauler Kroog", "image_url": "https://s3-media4.fl.yelpcdn.com/bphoto/4i5sxiZ6T41NoeGwBNDEqw/o.jpg", "is_closed": false, "url": "https://www.yelp.com/biz/de-krauler-kroog-hamburg-2?adjust_creative=hBJOknVQJ58S5goQyjmwRw&utm_campaign=yelp_api_v3&utm_medium=api_v3_business_search&utm_source=hBJOknVQJ58S5goQyjmwRw", "review_count": 6, "categories": [{"alias": "german", "title": "German"}], "rating": 5.0, "coordinates": {"latitude": 53.3996, "longitude": 10.2142}, "transactions": [], "price": "\u20ac\u20ac\u20ac", "location": {"address1": "Kraueler Hauptdeich 65", "address2": null, "address3": null, "city": "Hamburg", "zip_code": "21037", "country": "DE", "state": "HH", "display_address": ["Kraueler Hauptdeich 65", "21037 Hamburg", "Germany"]}, "phone": "+49407230368", "display_phone": "+49 40 7230368", "distance": 1028.4227139322136}, {"id": "YS5tqCrZXirfweAOW0yoyA", "alias": "china-restaurant-kim-long-winsen", "name": "China Restaurant Kim Long", "image_url": "https://s3-media4.fl.yelpcdn.com/bphoto/K3eHn-a98F9Ah1buGX5wVQ/o.jpg", "is_closed": false, "url": "https://www.yelp.com/biz/china-restaurant-kim-long-winsen?adjust_creative=hBJOknVQJ58S5goQyjmwRw&utm_campaign=yelp_api_v3&utm_medium=api_v3_business_search&utm_source=hBJOknVQJ58S5goQyjmwRw", "review_count": 13, "categories": [{"alias": "chinese", "title": "Chinese"}, {"alias": "panasian", "title": "Pan Asian"}], "rating": 4.5, "coordinates": {"latitude": 53.3644714, "longitude": 10.2055302}, "transactions": [], "price": "\u20ac\u20ac", "location": {"address1": "Marktstr. 28", "address2": "", "address3": "", "city": "Winsen", "zip_code": "21423", "country": "DE", "state": "NI", "display_address": ["Marktstr. 28", "21423 Winsen", "Germany"]}, "phone": "+494171652228", "display_phone": "+49 4171 652228", "distance": 3067.7756272873503}, {"id": "BSBFGOqHzyTC5YmCr02AFA", "alias": "zollenspieker-f\u00e4hrhaus-hamburg-4", "name": "Zollenspieker F\u00e4hrhaus", "image_url": "https://s3-media3.fl.yelpcdn.com/bphoto/yy50XLW1gcLpHOw4GY4eCA/o.jpg", "is_closed": false, "url": "https://www.yelp.com/biz/zollenspieker-f%C3%A4hrhaus-hamburg-4?adjust_creative=hBJOknVQJ58S5goQyjmwRw&utm_campaign=yelp_api_v3&utm_medium=api_v3_business_search&utm_source=hBJOknVQJ58S5goQyjmwRw", "review_count": 112, "categories": [{"alias": "northerngerman", "title": "Northern German"}], "rating": 3.5, "coordinates": {"latitude": 53.39915, "longitude": 10.1854099}, "transactions": [], "price": "\u20ac\u20ac\u20ac", "location": {"address1": "Zollenspieker Hauptdeich 141", "address2": "", "address3": "", "city": "Hamburg", "zip_code": "21037", "country": "DE", "state": "HH", "display_address": ["Zollenspieker Hauptdeich 141", "21037 Hamburg", "Germany"]}, "phone": "+49407931330", "display_phone": "+49 40 7931330", "distance": 1556.3364961550387}, {"id": "zithk0a8dRP3JX2SzRy9mw", "alias": "viet-thai-express-winsen-luhe", "name": "Viet Thai Express", "image_url": "https://s3-media2.fl.yelpcdn.com/bphoto/GXWLTbjPKWLUJSlWdL2EEg/o.jpg", "is_closed": false, "url": "https://www.yelp.com/biz/viet-thai-express-winsen-luhe?adjust_creative=hBJOknVQJ58S5goQyjmwRw&utm_campaign=yelp_api_v3&utm_medium=api_v3_business_search&utm_source=hBJOknVQJ58S5goQyjmwRw", "review_count": 1, "categories": [{"alias": "vietnamese", "title": "Vietnamese"}, {"alias": "panasian", "title": "Pan Asian"}, {"alias": "thai", "title": "Thai"}], "rating": 5.0, "coordinates": {"latitude": 53.363749, "longitude": 10.207596}, "transactions": [], "location": {"address1": "Rathausstr. 10", "address2": "", "address3": null, "city": "Winsen (Luhe)", "zip_code": "21423", "country": "DE", "state": "NI", "display_address": ["Rathausstr. 10", "21423 Winsen (Luhe)", "Germany"]}, "phone": "+4941716795963", "display_phone": "+49 4171 6795963", "distance": 3152.9578368295824}, {"id": "xqx-Sia1mQXYmXGW6FYCvg", "alias": "hei-nun-winsen", "name": "Hei Nun", "image_url": "https://s3-media1.fl.yelpcdn.com/bphoto/_YQipd7hK7lYu2Gj5USxRw/o.jpg", "is_closed": false, "url": "https://www.yelp.com/biz/hei-nun-winsen?adjust_creative=hBJOknVQJ58S5goQyjmwRw&utm_campaign=yelp_api_v3&utm_medium=api_v3_business_search&utm_source=hBJOknVQJ58S5goQyjmwRw", "review_count": 15, "categories": [{"alias": "chinese", "title": "Chinese"}], "rating": 3.5, "coordinates": {"latitude": 53.3625, "longitude": 10.1949}, "transactions": [], "price": "\u20ac", "location": {"address1": "L\u00f6hnfeld 1", "address2": null, "address3": null, "city": "Winsen", "zip_code": "21423", "country": "DE", "state": "NI", "display_address": ["L\u00f6hnfeld 1", "21423 Winsen", "Germany"]}, "phone": "+494171409292", "display_phone": "+49 4171 409292", "distance": 3358.037407526621}, {"id": "ygfKK-23nd4K9BO3sULFng", "alias": "coopers-winsen-luhe", "name": "Coopers", "image_url": "https://s3-media4.fl.yelpcdn.com/bphoto/EDPb4i6hFuo--isvKExyqA/o.jpg", "is_closed": false, "url": "https://www.yelp.com/biz/coopers-winsen-luhe?adjust_creative=hBJOknVQJ58S5goQyjmwRw&utm_campaign=yelp_api_v3&utm_medium=api_v3_business_search&utm_source=hBJOknVQJ58S5goQyjmwRw", "review_count": 13, "categories": [{"alias": "bars", "title": "Bars"}, {"alias": "german", "title": "German"}], "rating": 4.0, "coordinates": {"latitude": 53.35421, "longitude": 10.20721}, "transactions": [], "price": "\u20ac\u20ac", "location": {"address1": "Bahnhofsplatz 2", "address2": "", "address3": "", "city": "Winsen (luhe)", "zip_code": "21423", "country": "DE", "state": "NI", "display_address": ["Bahnhofsplatz 2", "21423 Winsen (luhe)", "Germany"]}, "phone": "+494171692072", "display_phone": "+49 4171 692072", "distance": 4215.516838192139}, {"id": "Ar2bPokFSXwqFTiY9PBppw", "alias": "pizzeria-la-piccola-winsen", "name": "Pizzeria La Piccola", "image_url": "", "is_closed": false, "url": "https://www.yelp.com/biz/pizzeria-la-piccola-winsen?adjust_creative=hBJOknVQJ58S5goQyjmwRw&utm_campaign=yelp_api_v3&utm_medium=api_v3_business_search&utm_source=hBJOknVQJ58S5goQyjmwRw", "review_count": 5, "categories": [{"alias": "italian", "title": "Italian"}, {"alias": "pizza", "title": "Pizza"}], "rating": 4.5, "coordinates": {"latitude": 53.362244, "longitude": 10.207158}, "transactions": [], "price": "\u20ac", "location": {"address1": "Rathausstr. 40", "address2": "", "address3": "", "city": "Winsen", "zip_code": "21423", "country": "DE", "state": "NI", "display_address": ["Rathausstr. 40", "21423 Winsen", "Germany"]}, "phone": "+494171787596", "display_phone": "+49 4171 787596", "distance": 3318.8387471527935}, {"id": "G5DtYjTrKtMavUCTVOtIYA", "alias": "achtern-diek-hamburg", "name": "Achtern Diek", "image_url": "https://s3-media2.fl.yelpcdn.com/bphoto/Pf-a7VGwMVHvnRfx_wfNdA/o.jpg", "is_closed": false, "url": "https://www.yelp.com/biz/achtern-diek-hamburg?adjust_creative=hBJOknVQJ58S5goQyjmwRw&utm_campaign=yelp_api_v3&utm_medium=api_v3_business_search&utm_source=hBJOknVQJ58S5goQyjmwRw", "review_count": 2, "categories": [{"alias": "polish", "title": "Polish"}, {"alias": "german", "title": "German"}], "rating": 4.5, "coordinates": {"latitude": 53.40829, "longitude": 10.20832}, "transactions": [], "price": "\u20ac\u20ac", "location": {"address1": "Kirchwerder M\u00fchlendamm 75", "address2": null, "address3": null, "city": "Hamburg", "zip_code": "21037", "country": "DE", "state": "HH", "display_address": ["Kirchwerder M\u00fchlendamm 75", "21037 Hamburg", "Germany"]}, "phone": "+494079410600", "display_phone": "+49 40 79410600", "distance": 1815.6204644294778}, {"id": "Fq9hUJwRAymWH49MT-JzqA", "alias": "kusadasi-winsen", "name": "Kusadasi", "image_url": "https://s3-media4.fl.yelpcdn.com/bphoto/Tedtubs4_8FVd2LSZi4qBQ/o.jpg", "is_closed": false, "url": "https://www.yelp.com/biz/kusadasi-winsen?adjust_creative=hBJOknVQJ58S5goQyjmwRw&utm_campaign=yelp_api_v3&utm_medium=api_v3_business_search&utm_source=hBJOknVQJ58S5goQyjmwRw", "review_count": 2, "categories": [{"alias": "turkish", "title": "Turkish"}], "rating": 5.0, "coordinates": {"latitude": 53.36455, "longitude": 10.20829}, "transactions": [], "price": "\u20ac\u20ac", "location": {"address1": "Nordertorstr. 10", "address2": "", "address3": "", "city": "Winsen", "zip_code": "21423", "country": "DE", "state": "NI", "display_address": ["Nordertorstr. 10", "21423 Winsen", "Germany"]}, "phone": "+494171600505", "display_phone": "+49 4171 600505", "distance": 3066.741703334778}, {"id": "bInFKqtCvFaLxeApWf33OQ", "alias": "laterna-magica-winsen", "name": "Laterna Magica", "image_url": "https://s3-media3.fl.yelpcdn.com/bphoto/GhBSxuypDWRvdpLYyRfzEA/o.jpg", "is_closed": false, "url": "https://www.yelp.com/biz/laterna-magica-winsen?adjust_creative=hBJOknVQJ58S5goQyjmwRw&utm_campaign=yelp_api_v3&utm_medium=api_v3_business_search&utm_source=hBJOknVQJ58S5goQyjmwRw", "review_count": 11, "categories": [{"alias": "german", "title": "German"}, {"alias": "bars", "title": "Bars"}], "rating": 4.0, "coordinates": {"latitude": 53.360975, "longitude": 10.206444}, "transactions": [], "price": "\u20ac\u20ac", "location": {"address1": "Rathausstr. 56", "address2": null, "address3": null, "city": "Winsen", "zip_code": "21423", "country": "DE", "state": "NI", "display_address": ["Rathausstr. 56", "21423 Winsen", "Germany"]}, "phone": "+494171606099", "display_phone": "+49 4171 606099", "distance": 3458.385263902637}, {"id": "TTbVupUNoYBGos_qlyam5A", "alias": "gyros-palast-winsen-luhe", "name": "Gyros Palast", "image_url": "https://s3-media4.fl.yelpcdn.com/bphoto/t3DB7hRJiwBpxrpBdrc0lQ/o.jpg", "is_closed": false, "url": "https://www.yelp.com/biz/gyros-palast-winsen-luhe?adjust_creative=hBJOknVQJ58S5goQyjmwRw&utm_campaign=yelp_api_v3&utm_medium=api_v3_business_search&utm_source=hBJOknVQJ58S5goQyjmwRw", "review_count": 2, "categories": [{"alias": "greek", "title": "Greek"}], "rating": 4.5, "coordinates": {"latitude": 53.3618484, "longitude": 10.2085294}, "transactions": [], "price": "\u20ac\u20ac", "location": {"address1": "Von-Somnitz-Ring 20", "address2": "", "address3": "", "city": "Winsen (Luhe)", "zip_code": "21423", "country": "DE", "state": "NI", "display_address": ["Von-Somnitz-Ring 20", "21423 Winsen (Luhe)", "Germany"]}, "phone": "+49417163449", "display_phone": "+49 4171 63449", "distance": 3367.538168783882}, {"id": "wW-6orI-wOFSMupJmoBIrg", "alias": "limani-winsen-luhe-2", "name": "Limani", "image_url": "https://s3-media3.fl.yelpcdn.com/bphoto/IH1KQKbFcGtN2NnqgA1WXg/o.jpg", "is_closed": false, "url": "https://www.yelp.com/biz/limani-winsen-luhe-2?adjust_creative=hBJOknVQJ58S5goQyjmwRw&utm_campaign=yelp_api_v3&utm_medium=api_v3_business_search&utm_source=hBJOknVQJ58S5goQyjmwRw", "review_count": 2, "categories": [{"alias": "mediterranean", "title": "Mediterranean"}], "rating": 4.5, "coordinates": {"latitude": 53.362556, "longitude": 10.208892}, "transactions": [], "location": {"address1": "Schanzenring 1", "address2": "", "address3": null, "city": "Winsen (Luhe)", "zip_code": "21423", "country": "DE", "state": "NI", "display_address": ["Schanzenring 1", "21423 Winsen (Luhe)", "Germany"]}, "phone": "+4941716739984", "display_phone": "+49 4171 6739984", "distance": 3292.5823115569447}, {"id": "NH8UdkeMrq2YFSQLMSEruQ", "alias": "hof-eggers-hamburg-3", "name": "Hof Eggers", "image_url": "https://s3-media4.fl.yelpcdn.com/bphoto/jfzfR1d-xTAeFe5dn9hlAg/o.jpg", "is_closed": false, "url": "https://www.yelp.com/biz/hof-eggers-hamburg-3?adjust_creative=hBJOknVQJ58S5goQyjmwRw&utm_campaign=yelp_api_v3&utm_medium=api_v3_business_search&utm_source=hBJOknVQJ58S5goQyjmwRw", "review_count": 5, "categories": [{"alias": "cafes", "title": "Cafes"}, {"alias": "attractionfarms", "title": "Attraction Farms"}], "rating": 5.0, "coordinates": {"latitude": 53.4106, "longitude": 10.21967}, "transactions": [], "price": "\u20ac", "location": {"address1": "Kirchwerder M\u00fchlendamm 5", "address2": null, "address3": null, "city": "Hamburg", "zip_code": "21037", "country": "DE", "state": "HH", "display_address": ["Kirchwerder M\u00fchlendamm 5", "21037 Hamburg", "Germany"]}, "phone": "+494072377385", "display_phone": "+49 40 72377385", "distance": 2273.0464085446997}, {"id": "4XUC1FOx0LNS3CDSqh534w", "alias": "ristorante-colosseo-winsen", "name": "Ristorante Colosseo", "image_url": "https://s3-media3.fl.yelpcdn.com/bphoto/LLlkCCyD93btJin5unrpIQ/o.jpg", "is_closed": false, "url": "https://www.yelp.com/biz/ristorante-colosseo-winsen?adjust_creative=hBJOknVQJ58S5goQyjmwRw&utm_campaign=yelp_api_v3&utm_medium=api_v3_business_search&utm_source=hBJOknVQJ58S5goQyjmwRw", "review_count": 14, "categories": [{"alias": "italian", "title": "Italian"}], "rating": 3.5, "coordinates": {"latitude": 53.358, "longitude": 10.2065}, "transactions": [], "price": "\u20ac\u20ac", "location": {"address1": "Bahnhofstr. 42", "address2": null, "address3": null, "city": "Winsen", "zip_code": "21423", "country": "DE", "state": "NI", "display_address": ["Bahnhofstr. 42", "21423 Winsen", "Germany"]}, "phone": "+494171690107", "display_phone": "+49 4171 690107", "distance": 3789.186487494625}, {"id": "x1hqRJ-4hpFAgn8WmliINw", "alias": "balkan-restaurant-winsen", "name": "Balkan-Restaurant", "image_url": "https://s3-media4.fl.yelpcdn.com/bphoto/R5HeO-HXQDHXJ3EXN8siNA/o.jpg", "is_closed": false, "url": "https://www.yelp.com/biz/balkan-restaurant-winsen?adjust_creative=hBJOknVQJ58S5goQyjmwRw&utm_campaign=yelp_api_v3&utm_medium=api_v3_business_search&utm_source=hBJOknVQJ58S5goQyjmwRw", "review_count": 6, "categories": [{"alias": "international", "title": "International"}, {"alias": "german", "title": "German"}, {"alias": "steak", "title": "Steakhouses"}], "rating": 3.5, "coordinates": {"latitude": 53.3647499332915, "longitude": 10.2035301178694}, "transactions": [], "price": "\u20ac\u20ac", "location": {"address1": "Deichstr. 15", "address2": null, "address3": null, "city": "Winsen", "zip_code": "21423", "country": "DE", "state": "NI", "display_address": ["Deichstr. 15", "21423 Winsen", "Germany"]}, "phone": "+4941713648", "display_phone": "+49 4171 3648", "distance": 3039.658652486876}, {"id": "ogs3ehIibnN3RCZJNNJzAQ", "alias": "der-m\u00fchlenladen-hamburg-2", "name": "Der M\u00fchlenladen", "image_url": "https://s3-media3.fl.yelpcdn.com/bphoto/HqgEPc4ik-TQcoUT0d5Dkw/o.jpg", "is_closed": false, "url": "https://www.yelp.com/biz/der-m%C3%BChlenladen-hamburg-2?adjust_creative=hBJOknVQJ58S5goQyjmwRw&utm_campaign=yelp_api_v3&utm_medium=api_v3_business_search&utm_source=hBJOknVQJ58S5goQyjmwRw", "review_count": 4, "categories": [{"alias": "cafes", "title": "Cafes"}, {"alias": "delicatessen", "title": "Delicatessen"}, {"alias": "german", "title": "German"}], "rating": 4.0, "coordinates": {"latitude": 53.40808, "longitude": 10.20809}, "transactions": [], "price": "\u20ac\u20ac", "location": {"address1": "Kirchwerder M\u00fchlendamm 75 A", "address2": null, "address3": null, "city": "Hamburg", "zip_code": "21037", "country": "DE", "state": "HH", "display_address": ["Kirchwerder M\u00fchlendamm 75 A", "21037 Hamburg", "Germany"]}, "phone": "+494073507395", "display_phone": "+49 40 73507395", "distance": 1790.7271063148937}, {"id": "Gwcu770yDkxpIWGbd4zD3g", "alias": "chinarestaurant-fu-gui-winsen", "name": "Chinarestaurant Fu-Gui", "image_url": "", "is_closed": false, "url": "https://www.yelp.com/biz/chinarestaurant-fu-gui-winsen?adjust_creative=hBJOknVQJ58S5goQyjmwRw&utm_campaign=yelp_api_v3&utm_medium=api_v3_business_search&utm_source=hBJOknVQJ58S5goQyjmwRw", "review_count": 1, "categories": [{"alias": "chinese", "title": "Chinese"}], "rating": 4.0, "coordinates": {"latitude": 53.35888, "longitude": 10.20616}, "transactions": [], "location": {"address1": "Bahnhofstr. 28", "address2": null, "address3": null, "city": "Winsen", "zip_code": "21423", "country": "DE", "state": "NI", "display_address": ["Bahnhofstr. 28", "21423 Winsen", "Germany"]}, "phone": "+4941714327", "display_phone": "+49 4171 4327", "distance": 3696.1858984832843}, {"id": "KrWywjHn-FcwZ2CHH5RiNQ", "alias": "k\u00f6hlers-fisch-treff-winsen-luhe", "name": "K\u00f6hlers Fisch Treff", "image_url": "https://s3-media4.fl.yelpcdn.com/bphoto/4e2HHo92FhD-xGT_Ravurg/o.jpg", "is_closed": false, "url": "https://www.yelp.com/biz/k%C3%B6hlers-fisch-treff-winsen-luhe?adjust_creative=hBJOknVQJ58S5goQyjmwRw&utm_campaign=yelp_api_v3&utm_medium=api_v3_business_search&utm_source=hBJOknVQJ58S5goQyjmwRw", "review_count": 4, "categories": [{"alias": "seafood", "title": "Seafood"}, {"alias": "german", "title": "German"}], "rating": 4.0, "coordinates": {"latitude": 53.3626, "longitude": 10.209}, "transactions": [], "price": "\u20ac\u20ac", "location": {"address1": "Plankenstr. 1", "address2": null, "address3": null, "city": "Winsen (Luhe)", "zip_code": "21423", "country": "DE", "state": "NI", "display_address": ["Plankenstr. 1", "21423 Winsen (Luhe)", "Germany"]}, "phone": "+49417161728", "display_phone": "+49 4171 61728", "distance": 3286.396714936126}, {"id": "KpKqXirjKzUn2X23S3dIeA", "alias": "brasserie-am-schlo\u00df-restaurant-winsen", "name": "Brasserie am Schlo\u00df Restaurant", "image_url": "https://s3-media3.fl.yelpcdn.com/bphoto/-XpXjHwjIO9wB4kN7DXqIQ/o.jpg", "is_closed": false, "url": "https://www.yelp.com/biz/brasserie-am-schlo%C3%9F-restaurant-winsen?adjust_creative=hBJOknVQJ58S5goQyjmwRw&utm_campaign=yelp_api_v3&utm_medium=api_v3_business_search&utm_source=hBJOknVQJ58S5goQyjmwRw", "review_count": 1, "categories": [{"alias": "restaurants", "title": "Restaurants"}], "rating": 4.0, "coordinates": {"latitude": 53.36209, "longitude": 10.20427}, "transactions": [], "price": "\u20ac\u20ac\u20ac", "location": {"address1": "Schlo\u00dfplatz 5", "address2": null, "address3": null, "city": "Winsen", "zip_code": "21423", "country": "DE", "state": "NI", "display_address": ["Schlo\u00dfplatz 5", "21423 Winsen", "Germany"]}, "phone": "+494171606200", "display_phone": "+49 4171 606200", "distance": 3333.9837271090623}, {"id": "0G3ZHPyf_juI-v-4pfgo_Q", "alias": "restaurant-zum-wei\u00dfen-ro\u00df-winsen", "name": "Restaurant Zum wei\u00dfen Ro\u00df", "image_url": "https://s3-media4.fl.yelpcdn.com/bphoto/69S5um2LJXY2z3YXWD3nPQ/o.jpg", "is_closed": false, "url": "https://www.yelp.com/biz/restaurant-zum-wei%C3%9Fen-ro%C3%9F-winsen?adjust_creative=hBJOknVQJ58S5goQyjmwRw&utm_campaign=yelp_api_v3&utm_medium=api_v3_business_search&utm_source=hBJOknVQJ58S5goQyjmwRw", "review_count": 3, "categories": [{"alias": "german", "title": "German"}], "rating": 3.5, "coordinates": {"latitude": 53.3643, "longitude": 10.207}, "transactions": [], "price": "\u20ac\u20ac", "location": {"address1": "Marktstr. 10", "address2": null, "address3": null, "city": "Winsen", "zip_code": "21423", "country": "DE", "state": "NI", "display_address": ["Marktstr. 10", "21423 Winsen", "Germany"]}, "phone": "+49417165850", "display_phone": "+49 4171 65850", "distance": 3089.987413180975}, {"id": "BTz2Hkdq7b_SPpdMX0oQeg", "alias": "zollenspieker-imbissbude-hamburg", "name": "Zollenspieker Imbissbude", "image_url": "https://s3-media1.fl.yelpcdn.com/bphoto/KLsiLIzI3En9EZ0J4LPFlQ/o.jpg", "is_closed": false, "url": "https://www.yelp.com/biz/zollenspieker-imbissbude-hamburg?adjust_creative=hBJOknVQJ58S5goQyjmwRw&utm_campaign=yelp_api_v3&utm_medium=api_v3_business_search&utm_source=hBJOknVQJ58S5goQyjmwRw", "review_count": 5, "categories": [{"alias": "currysausage", "title": "Curry Sausage"}], "rating": 1.5, "coordinates": {"latitude": 53.398, "longitude": 10.1834}, "transactions": [], "price": "\u20ac\u20ac", "location": {"address1": "Zollenspieker Hauptdeich 145", "address2": "An dem F\u00e4hranleger", "address3": null, "city": "Hamburg", "zip_code": "21037", "country": "DE", "state": "HH", "display_address": ["Zollenspieker Hauptdeich 145", "An dem F\u00e4hranleger", "21037 Hamburg", "Germany"]}, "phone": "+49407684194", "display_phone": "+49 40 7684194", "distance": 1588.7094046033387}, {"id": "M1lUgg7Yiy8bAoU0Rb_4IA", "alias": "f\u00e4hr-imbi\u00df-hamburg", "name": "F\u00e4hr Imbi\u00df", "image_url": "https://s3-media2.fl.yelpcdn.com/bphoto/Vt9qq5FK2AnLg1uJhOr-ug/o.jpg", "is_closed": false, "url": "https://www.yelp.com/biz/f%C3%A4hr-imbi%C3%9F-hamburg?adjust_creative=hBJOknVQJ58S5goQyjmwRw&utm_campaign=yelp_api_v3&utm_medium=api_v3_business_search&utm_source=hBJOknVQJ58S5goQyjmwRw", "review_count": 2, "categories": [{"alias": "hotdogs", "title": "Fast Food"}], "rating": 3.5, "coordinates": {"latitude": 53.3980670526425, "longitude": 10.1831571947782}, "transactions": [], "price": "\u20ac", "location": {"address1": "Zollenspieker Hauptdeich 143", "address2": "", "address3": "", "city": "Hamburg", "zip_code": "21037", "country": "DE", "state": "HH", "display_address": ["Zollenspieker Hauptdeich 143", "21037 Hamburg", "Germany"]}, "phone": "", "display_phone": "", "distance": 1606.4499427279045}, {"id": "qS-npAjgCVAk6_aKcvoWsw", "alias": "piazzacafe-winsen-luhe", "name": "Piazzacafe", "image_url": "https://s3-media4.fl.yelpcdn.com/bphoto/1aZI27Q_fKkw78dg0WaxNQ/o.jpg", "is_closed": false, "url": "https://www.yelp.com/biz/piazzacafe-winsen-luhe?adjust_creative=hBJOknVQJ58S5goQyjmwRw&utm_campaign=yelp_api_v3&utm_medium=api_v3_business_search&utm_source=hBJOknVQJ58S5goQyjmwRw", "review_count": 3, "categories": [{"alias": "pizza", "title": "Pizza"}, {"alias": "cafes", "title": "Cafes"}], "rating": 4.0, "coordinates": {"latitude": 53.3641, "longitude": 10.2075099}, "transactions": [], "price": "\u20ac\u20ac", "location": {"address1": "Rathausstr. 2", "address2": "", "address3": "", "city": "Winsen (luhe)", "zip_code": "21423", "country": "DE", "state": "NI", "display_address": ["Rathausstr. 2", "21423 Winsen (luhe)", "Germany"]}, "phone": "", "display_phone": "", "distance": 3114.1718294661023}, {"id": "5F6SisQK8b14kzBENh1xaA", "alias": "spieker-croqueladen-hamburg-2", "name": "Spieker Croqueladen", "image_url": "https://s3-media4.fl.yelpcdn.com/bphoto/6kkPOnyHS4NJl0XMe-g8XQ/o.jpg", "is_closed": false, "url": "https://www.yelp.com/biz/spieker-croqueladen-hamburg-2?adjust_creative=hBJOknVQJ58S5goQyjmwRw&utm_campaign=yelp_api_v3&utm_medium=api_v3_business_search&utm_source=hBJOknVQJ58S5goQyjmwRw", "review_count": 5, "categories": [{"alias": "sandwiches", "title": "Sandwiches"}, {"alias": "french", "title": "French"}], "rating": 4.5, "coordinates": {"latitude": 53.404, "longitude": 10.1856}, "transactions": [], "price": "\u20ac", "location": {"address1": "Kirchenheerweg 168", "address2": null, "address3": null, "city": "Hamburg", "zip_code": "21037", "country": "DE", "state": "HH", "display_address": ["Kirchenheerweg 168", "21037 Hamburg", "Germany"]}, "phone": "+49407230371", "display_phone": "+49 40 7230371", "distance": 1857.043184203702}, {"id": "fGEC5AVijmhEMT86yM_TYw", "alias": "kleins-weindepot-winsen", "name": "Kleins Weindepot", "image_url": "", "is_closed": false, "url": "https://www.yelp.com/biz/kleins-weindepot-winsen?adjust_creative=hBJOknVQJ58S5goQyjmwRw&utm_campaign=yelp_api_v3&utm_medium=api_v3_business_search&utm_source=hBJOknVQJ58S5goQyjmwRw", "review_count": 4, "categories": [{"alias": "beer_and_wine", "title": "Beer, Wine & Spirits"}, {"alias": "bistros", "title": "Bistros"}], "rating": 4.0, "coordinates": {"latitude": 53.362, "longitude": 10.207}, "transactions": [], "price": "\u20ac\u20ac", "location": {"address1": "Rathausstr. 46", "address2": null, "address3": null, "city": "Winsen", "zip_code": "21423", "country": "DE", "state": "NI", "display_address": ["Rathausstr. 46", "21423 Winsen", "Germany"]}, "phone": "+494171604747", "display_phone": "+49 4171 604747", "distance": 3345.5587975719172}, {"id": "v_M4HtQVoL4SJiuzrKW31g", "alias": "hoang-long-winsen", "name": "Hoang Long", "image_url": "", "is_closed": false, "url": "https://www.yelp.com/biz/hoang-long-winsen?adjust_creative=hBJOknVQJ58S5goQyjmwRw&utm_campaign=yelp_api_v3&utm_medium=api_v3_business_search&utm_source=hBJOknVQJ58S5goQyjmwRw", "review_count": 1, "categories": [{"alias": "panasian", "title": "Pan Asian"}], "rating": 4.0, "coordinates": {"latitude": 53.3619, "longitude": 10.2068}, "transactions": [], "location": {"address1": "Rathausstr. 44", "address2": "", "address3": "City Passage", "city": "Winsen", "zip_code": "21423", "country": "DE", "state": "NI", "display_address": ["Rathausstr. 44", "City Passage", "21423 Winsen", "Germany"]}, "phone": "+4941716607926", "display_phone": "+49 4171 6607926", "distance": 3356.224979699837}, {"id": "yQTeZaHrucZRE-3pC4XpoA", "alias": "mundfein-pizzawerkstatt-winsen-luhe", "name": "Mundfein Pizzawerkstatt", "image_url": "https://s3-media3.fl.yelpcdn.com/bphoto/Fq7d5cUkYI8urQzW2asTSg/o.jpg", "is_closed": false, "url": "https://www.yelp.com/biz/mundfein-pizzawerkstatt-winsen-luhe?adjust_creative=hBJOknVQJ58S5goQyjmwRw&utm_campaign=yelp_api_v3&utm_medium=api_v3_business_search&utm_source=hBJOknVQJ58S5goQyjmwRw", "review_count": 7, "categories": [{"alias": "pizza", "title": "Pizza"}], "rating": 4.5, "coordinates": {"latitude": 53.3653, "longitude": 10.2026}, "transactions": [], "price": "\u20ac\u20ac", "location": {"address1": "Deichstr. 23", "address2": null, "address3": null, "city": "Winsen (Luhe)", "zip_code": "21423", "country": "DE", "state": "NI", "display_address": ["Deichstr. 23", "21423 Winsen (Luhe)", "Germany"]}, "phone": "+4941716080676", "display_phone": "+49 4171 6080676", "distance": 2981.4645251903576}, {"id": "PMxHu9ZO9qHXsZH6tl1kwQ", "alias": "babacan-d\u00f6ner-haus-winsen", "name": "Babacan D\u00f6ner Haus", "image_url": "", "is_closed": false, "url": "https://www.yelp.com/biz/babacan-d%C3%B6ner-haus-winsen?adjust_creative=hBJOknVQJ58S5goQyjmwRw&utm_campaign=yelp_api_v3&utm_medium=api_v3_business_search&utm_source=hBJOknVQJ58S5goQyjmwRw", "review_count": 1, "categories": [{"alias": "kebab", "title": "Kebab"}], "rating": 3.0, "coordinates": {"latitude": 53.3549752110993, "longitude": 10.2060249075294}, "transactions": [], "location": {"address1": "Bahnhofstr. 90", "address2": "", "address3": "", "city": "Winsen", "zip_code": "21423", "country": "DE", "state": "NI", "display_address": ["Bahnhofstr. 90", "21423 Winsen", "Germany"]}, "phone": "", "display_phone": "", "distance": 4124.907626506106}, {"id": "Av2-ZBVVVD0rQRYbCAcktQ", "alias": "luhel\u00f6w-winsen-luhe", "name": "Luhel\u00f6w", "image_url": "", "is_closed": false, "url": "https://www.yelp.com/biz/luhel%C3%B6w-winsen-luhe?adjust_creative=hBJOknVQJ58S5goQyjmwRw&utm_campaign=yelp_api_v3&utm_medium=api_v3_business_search&utm_source=hBJOknVQJ58S5goQyjmwRw", "review_count": 4, "categories": [{"alias": "restaurants", "title": "Restaurants"}], "rating": 3.0, "coordinates": {"latitude": 53.3514839, "longitude": 10.2083805}, "transactions": [], "price": "\u20ac\u20ac", "location": {"address1": "Luhdorfer Str. 29", "address2": "", "address3": "", "city": "Winsen (Luhe)", "zip_code": "21423", "country": "DE", "state": "NI", "display_address": ["Luhdorfer Str. 29", "21423 Winsen (Luhe)", "Germany"]}, "phone": "", "display_phone": "", "distance": 4517.694598458164}, {"id": "DtRF2WlXK5QMxvjsiyBMGQ", "alias": "luhe-park-bistro-winsen-luhe", "name": "Luhe-Park Bistro", "image_url": "", "is_closed": false, "url": "https://www.yelp.com/biz/luhe-park-bistro-winsen-luhe?adjust_creative=hBJOknVQJ58S5goQyjmwRw&utm_campaign=yelp_api_v3&utm_medium=api_v3_business_search&utm_source=hBJOknVQJ58S5goQyjmwRw", "review_count": 1, "categories": [{"alias": "bistros", "title": "Bistros"}, {"alias": "german", "title": "German"}], "rating": 3.0, "coordinates": {"latitude": 53.363, "longitude": 10.2044}, "transactions": [], "location": {"address1": "Schlo\u00dfring 20", "address2": null, "address3": null, "city": "Winsen (Luhe)", "zip_code": "21423", "country": "DE", "state": "NI", "display_address": ["Schlo\u00dfring 20", "21423 Winsen (Luhe)", "Germany"]}, "phone": "+494171601889", "display_phone": "+49 4171 601889", "distance": 3232.6615285351704}, {"id": "OjgVmVhRkm62fiClP6A6uQ", "alias": "d\u00f6ner-imbiss-beim-t\u00fcv-nord-winsen", "name": "D\u00f6ner Imbiss beim T\u00dcV-Nord", "image_url": "https://s3-media3.fl.yelpcdn.com/bphoto/qkNvipocZhvRrJwTcHuSqw/o.jpg", "is_closed": false, "url": "https://www.yelp.com/biz/d%C3%B6ner-imbiss-beim-t%C3%BCv-nord-winsen?adjust_creative=hBJOknVQJ58S5goQyjmwRw&utm_campaign=yelp_api_v3&utm_medium=api_v3_business_search&utm_source=hBJOknVQJ58S5goQyjmwRw", "review_count": 7, "categories": [{"alias": "food", "title": "Food"}, {"alias": "hotdogs", "title": "Fast Food"}], "rating": 3.5, "coordinates": {"latitude": 53.3533, "longitude": 10.2227}, "transactions": [], "price": "\u20ac", "location": {"address1": "L\u00fcneburger Str. 116", "address2": null, "address3": null, "city": "Winsen", "zip_code": "21423", "country": "DE", "state": "NI", "display_address": ["L\u00fcneburger Str. 116", "21423 Winsen", "Germany"]}, "phone": "+494171668211", "display_phone": "+49 4171 668211", "distance": 4464.441803103}, {"id": "9yXQ-bebruqsap-j37aPxg", "alias": "city-cafe-am-rathaus-winsen", "name": "City Cafe am Rathaus", "image_url": "https://s3-media1.fl.yelpcdn.com/bphoto/VoCTpQnc3hM4aoZiPdvd_w/o.jpg", "is_closed": false, "url": "https://www.yelp.com/biz/city-cafe-am-rathaus-winsen?adjust_creative=hBJOknVQJ58S5goQyjmwRw&utm_campaign=yelp_api_v3&utm_medium=api_v3_business_search&utm_source=hBJOknVQJ58S5goQyjmwRw", "review_count": 2, "categories": [{"alias": "cafes", "title": "Cafes"}, {"alias": "coffee", "title": "Coffee & Tea"}], "rating": 4.5, "coordinates": {"latitude": 53.3623, "longitude": 10.2079}, "transactions": [], "location": {"address1": "Eckermannstr. 4", "address2": null, "address3": null, "city": "Winsen", "zip_code": "21423", "country": "DE", "state": "NI", "display_address": ["Eckermannstr. 4", "21423 Winsen", "Germany"]}, "phone": "+494171667585", "display_phone": "+49 4171 667585", "distance": 3314.913144572913}, {"id": "AwL7KooU6B09c4AlQ7eN5w", "alias": "soetebier-winsen-3", "name": "Soetebier", "image_url": "https://s3-media1.fl.yelpcdn.com/bphoto/K2FZAEfyPKbpAdqaRi-Bsg/o.jpg", "is_closed": false, "url": "https://www.yelp.com/biz/soetebier-winsen-3?adjust_creative=hBJOknVQJ58S5goQyjmwRw&utm_campaign=yelp_api_v3&utm_medium=api_v3_business_search&utm_source=hBJOknVQJ58S5goQyjmwRw", "review_count": 1, "categories": [{"alias": "bakeries", "title": "Bakeries"}, {"alias": "cafes", "title": "Cafes"}], "rating": 5.0, "coordinates": {"latitude": 53.35203, "longitude": 10.230196}, "transactions": [], "location": {"address1": "L\u00fcneburger Str. 144", "address2": null, "address3": null, "city": "Winsen", "zip_code": "21423", "country": "DE", "state": "NI", "display_address": ["L\u00fcneburger Str. 144", "21423 Winsen", "Germany"]}, "phone": "+494171653821", "display_phone": "+49 4171 653821", "distance": 4750.877940285984}, {"id": "IyV4XpLJcyjHqWnJG66_Dg", "alias": "altstadtcafe-winsen", "name": "Altstadtcafe", "image_url": "https://s3-media2.fl.yelpcdn.com/bphoto/uNRLrmgF-JMCYkXPgzXPKw/o.jpg", "is_closed": false, "url": "https://www.yelp.com/biz/altstadtcafe-winsen?adjust_creative=hBJOknVQJ58S5goQyjmwRw&utm_campaign=yelp_api_v3&utm_medium=api_v3_business_search&utm_source=hBJOknVQJ58S5goQyjmwRw", "review_count": 1, "categories": [{"alias": "cafes", "title": "Cafes"}, {"alias": "coffee", "title": "Coffee & Tea"}], "rating": 3.0, "coordinates": {"latitude": 53.3634, "longitude": 10.2086}, "transactions": [], "price": "\u20ac\u20ac", "location": {"address1": "Plankenstra\u00dfe", "address2": "", "address3": null, "city": "Winsen", "zip_code": "21423", "country": "DE", "state": "NI", "display_address": ["Plankenstra\u00dfe", "21423 Winsen", "Germany"]}, "phone": "", "display_phone": "", "distance": 3195.727213507919}, {"id": "N6xu8s8qhc2m3tD1KndCNQ", "alias": "soetebier-winsen-luhe-14", "name": "Soetebier", "image_url": "https://s3-media1.fl.yelpcdn.com/bphoto/5We34tZZV_8psvfg7KOiqw/o.jpg", "is_closed": false, "url": "https://www.yelp.com/biz/soetebier-winsen-luhe-14?adjust_creative=hBJOknVQJ58S5goQyjmwRw&utm_campaign=yelp_api_v3&utm_medium=api_v3_business_search&utm_source=hBJOknVQJ58S5goQyjmwRw", "review_count": 5, "categories": [{"alias": "bakeries", "title": "Bakeries"}, {"alias": "cafes", "title": "Cafes"}], "rating": 3.5, "coordinates": {"latitude": 53.3610958816157, "longitude": 10.2060619935695}, "transactions": [], "price": "\u20ac\u20ac\u20ac", "location": {"address1": "Rathausstr. 29", "address2": null, "address3": null, "city": "Winsen (Luhe)", "zip_code": "21423", "country": "DE", "state": "NI", "display_address": ["Rathausstr. 29", "21423 Winsen (Luhe)", "Germany"]}, "phone": "+494171652156", "display_phone": "+49 4171 652156", "distance": 3444.43293011}, {"id": "4Fk1QDlkbhKCviXBuyBx1w", "alias": "imbiss-am-schweinemarkt-winsen-luhe", "name": "Imbiss Am Schweinemarkt", "image_url": "", "is_closed": false, "url": "https://www.yelp.com/biz/imbiss-am-schweinemarkt-winsen-luhe?adjust_creative=hBJOknVQJ58S5goQyjmwRw&utm_campaign=yelp_api_v3&utm_medium=api_v3_business_search&utm_source=hBJOknVQJ58S5goQyjmwRw", "review_count": 1, "categories": [{"alias": "foodstands", "title": "Food Stands"}], "rating": 5.0, "coordinates": {"latitude": 53.3653937392952, "longitude": 10.2091868966818}, "transactions": [], "location": {"address1": "T\u00f6nnh\u00e4user Weg 1", "address2": "", "address3": "", "city": "Winsen (luhe)", "zip_code": "21423", "country": "DE", "state": "NI", "display_address": ["T\u00f6nnh\u00e4user Weg 1", "21423 Winsen (luhe)", "Germany"]}, "phone": "+49417163864", "display_phone": "+49 4171 63864", "distance": 2977.8340590014673}, {"id": "JgF_InebJTFsmGKbHJ4jPA", "alias": "leckere-h\u00e4hnchen-winsen", "name": "Leckere H\u00e4hnchen", "image_url": "", "is_closed": false, "url": "https://www.yelp.com/biz/leckere-h%C3%A4hnchen-winsen?adjust_creative=hBJOknVQJ58S5goQyjmwRw&utm_campaign=yelp_api_v3&utm_medium=api_v3_business_search&utm_source=hBJOknVQJ58S5goQyjmwRw", "review_count": 1, "categories": [{"alias": "hotdogs", "title": "Fast Food"}], "rating": 5.0, "coordinates": {"latitude": 53.3515, "longitude": 10.207}, "transactions": [], "location": {"address1": "Luhdorfer Str. 32", "address2": null, "address3": null, "city": "Winsen", "zip_code": "21423", "country": "DE", "state": "NI", "display_address": ["Luhdorfer Str. 32", "21423 Winsen", "Germany"]}, "phone": "", "display_phone": "", "distance": 4512.55202380212}, {"id": "2wUBmk7QQYzJB1f2uqR91w", "alias": "subway-winsen", "name": "Subway", "image_url": "https://s3-media2.fl.yelpcdn.com/bphoto/ghcTIXmZCSCUpyf7un5Ojw/o.jpg", "is_closed": false, "url": "https://www.yelp.com/biz/subway-winsen?adjust_creative=hBJOknVQJ58S5goQyjmwRw&utm_campaign=yelp_api_v3&utm_medium=api_v3_business_search&utm_source=hBJOknVQJ58S5goQyjmwRw", "review_count": 10, "categories": [{"alias": "sandwiches", "title": "Sandwiches"}, {"alias": "hotdogs", "title": "Fast Food"}], "rating": 4.5, "coordinates": {"latitude": 53.3617, "longitude": 10.2088}, "transactions": [], "price": "\u20ac\u20ac", "location": {"address1": "Von-Somnitz-Ring 13", "address2": null, "address3": null, "city": "Winsen", "zip_code": "21423", "country": "DE", "state": "NI", "display_address": ["Von-Somnitz-Ring 13", "21423 Winsen", "Germany"]}, "phone": "+494171668142", "display_phone": "+49 4171 668142", "distance": 3385.2236328062872}, {"id": "ZdqdKR3tTm-Q8f7_Sx9e2A", "alias": "michael-kaul-winsen", "name": "Michael Kaul", "image_url": "", "is_closed": false, "url": "https://www.yelp.com/biz/michael-kaul-winsen?adjust_creative=hBJOknVQJ58S5goQyjmwRw&utm_campaign=yelp_api_v3&utm_medium=api_v3_business_search&utm_source=hBJOknVQJ58S5goQyjmwRw", "review_count": 1, "categories": [{"alias": "bakeries", "title": "Bakeries"}, {"alias": "cafes", "title": "Cafes"}, {"alias": "coffee", "title": "Coffee & Tea"}], "rating": 5.0, "coordinates": {"latitude": 53.3647, "longitude": 10.20369}, "transactions": [], "location": {"address1": "Deichstr. 13", "address2": null, "address3": null, "city": "Winsen", "zip_code": "21423", "country": "DE", "state": "NI", "display_address": ["Deichstr. 13", "21423 Winsen", "Germany"]}, "phone": "+4941712469", "display_phone": "+49 4171 2469", "distance": 3043.8852401596346}, {"id": "uOfYwKHQpG-tMT14XFS9YQ", "alias": "istanbul-grill-house-winsen-luhe", "name": "Istanbul Grill House", "image_url": "https://s3-media1.fl.yelpcdn.com/bphoto/g9zUJJ8cEiDjI5aQSJuXvA/o.jpg", "is_closed": false, "url": "https://www.yelp.com/biz/istanbul-grill-house-winsen-luhe?adjust_creative=hBJOknVQJ58S5goQyjmwRw&utm_campaign=yelp_api_v3&utm_medium=api_v3_business_search&utm_source=hBJOknVQJ58S5goQyjmwRw", "review_count": 4, "categories": [{"alias": "turkish", "title": "Turkish"}, {"alias": "cafes", "title": "Cafes"}], "rating": 2.0, "coordinates": {"latitude": 53.355381635463, "longitude": 10.2060101553798}, "transactions": [], "price": "\u20ac", "location": {"address1": "Bahnhofstr. 71", "address2": "", "address3": "", "city": "Winsen (luhe)", "zip_code": "21423", "country": "DE", "state": "NI", "display_address": ["Bahnhofstr. 71", "21423 Winsen (luhe)", "Germany"]}, "phone": "+4941711366449", "display_phone": "+49 4171 1366449", "distance": 4079.7063455814127}, {"id": "dZt3zUy7O8x0yL09p9_jgA", "alias": "b\u00e4ckerei-u-caf\u00e9-zimmer-winsen", "name": "B\u00e4ckerei u. Caf\u00e9 Zimmer", "image_url": "", "is_closed": false, "url": "https://www.yelp.com/biz/b%C3%A4ckerei-u-caf%C3%A9-zimmer-winsen?adjust_creative=hBJOknVQJ58S5goQyjmwRw&utm_campaign=yelp_api_v3&utm_medium=api_v3_business_search&utm_source=hBJOknVQJ58S5goQyjmwRw", "review_count": 1, "categories": [{"alias": "cafes", "title": "Cafes"}, {"alias": "bakeries", "title": "Bakeries"}], "rating": 3.0, "coordinates": {"latitude": 53.3574436, "longitude": 10.2127204}, "transactions": [], "price": "\u20ac\u20ac", "location": {"address1": "Marktstr. 12", "address2": "", "address3": null, "city": "Winsen", "zip_code": "21423", "country": "DE", "state": "NI", "display_address": ["Marktstr. 12", "21423 Winsen", "Germany"]}, "phone": "", "display_phone": "", "distance": 3882.274181242731}, {"id": "TkiIZEZ3i-xhL8cqFBhxxw", "alias": "elkes-imbi\u00df-winsen-2", "name": "Elkes Imbi\u00df", "image_url": "", "is_closed": false, "url": "https://www.yelp.com/biz/elkes-imbi%C3%9F-winsen-2?adjust_creative=hBJOknVQJ58S5goQyjmwRw&utm_campaign=yelp_api_v3&utm_medium=api_v3_business_search&utm_source=hBJOknVQJ58S5goQyjmwRw", "review_count": 1, "categories": [{"alias": "food", "title": "Food"}, {"alias": "hotdogs", "title": "Fast Food"}], "rating": 4.0, "coordinates": {"latitude": 53.3657, "longitude": 10.1934}, "transactions": [], "location": {"address1": "Hamburger Str. 53", "address2": null, "address3": null, "city": "Winsen", "zip_code": "21423", "country": "DE", "state": "NI", "display_address": ["Hamburger Str. 53", "21423 Winsen", "Germany"]}, "phone": "+4941714526", "display_phone": "+49 4171 4526", "distance": 3034.6405719759696}, {"id": "GorMSUXMnwwfUMzbd1vGcQ", "alias": "burger-king-winsen-aller", "name": "Burger King", "image_url": "https://s3-media3.fl.yelpcdn.com/bphoto/Vmqy2vRbNbLFe9sUUHXHVQ/o.jpg", "is_closed": false, "url": "https://www.yelp.com/biz/burger-king-winsen-aller?adjust_creative=hBJOknVQJ58S5goQyjmwRw&utm_campaign=yelp_api_v3&utm_medium=api_v3_business_search&utm_source=hBJOknVQJ58S5goQyjmwRw", "review_count": 15, "categories": [{"alias": "hotdogs", "title": "Fast Food"}, {"alias": "burgers", "title": "Burgers"}], "rating": 3.0, "coordinates": {"latitude": 53.3529019586762, "longitude": 10.2235424311539}, "transactions": [], "price": "\u20ac\u20ac", "location": {"address1": "Osttangente 191", "address2": "", "address3": "", "city": "Winsen (aller)", "zip_code": "21423", "country": "DE", "state": "NI", "display_address": ["Osttangente 191", "21423 Winsen (aller)", "Germany"]}, "phone": "+494171607938", "display_phone": "+49 4171 607938", "distance": 4521.9142252864585}, {"id": "CP15eMmPVJUHL363eNV7Ag", "alias": "croque-knut-winsen", "name": "Croque Knut", "image_url": "https://s3-media3.fl.yelpcdn.com/bphoto/hgxA8LaPMwhnicJkk8GSew/o.jpg", "is_closed": false, "url": "https://www.yelp.com/biz/croque-knut-winsen?adjust_creative=hBJOknVQJ58S5goQyjmwRw&utm_campaign=yelp_api_v3&utm_medium=api_v3_business_search&utm_source=hBJOknVQJ58S5goQyjmwRw", "review_count": 8, "categories": [{"alias": "sandwiches", "title": "Sandwiches"}], "rating": 3.5, "coordinates": {"latitude": 53.3574436, "longitude": 10.2127204}, "transactions": [], "price": "\u20ac", "location": {"address1": "Wallstr. 1", "address2": "", "address3": null, "city": "Winsen", "zip_code": "21423", "country": "DE", "state": "NI", "display_address": ["Wallstr. 1", "21423 Winsen", "Germany"]}, "phone": "+4941714948", "display_phone": "+49 4171 4948", "distance": 3882.274181242731}]