[{"id": "BSBFGOqHzyTC5YmCr02AFA", "alias": "zollenspieker-f\u00e4hrhaus-hamburg-4", "name": "Zollenspieker F\u00e4hrhaus", "image_url": "https://s3-media3.fl.yelpcdn.com/bphoto/yy50XLW1gcLpHOw4GY4eCA/o.jpg", "is_closed": false, "url": "https://www.yelp.com/biz/zollenspieker-f%C3%A4hrhaus-hamburg-4?adjust_creative=hBJOknVQJ58S5goQyjmwRw&utm_campaign=yelp_api_v3&utm_medium=api_v3_business_search&utm_source=hBJOknVQJ58S5goQyjmwRw", "review_count": 112, "categories": [{"alias": "northerngerman", "title": "Northern German"}], "rating": 3.5, "coordinates": {"latitude": 53.39915, "longitude": 10.1854099}, "transactions": [], "price": "\u20ac\u20ac\u20ac", "location": {"address1": "Zollenspieker Hauptdeich 141", "address2": "", "address3": "", "city": "Hamburg", "zip_code": "21037", "country": "DE", "state": "HH", "display_address": ["Zollenspieker Hauptdeich 141", "21037 Hamburg", "Germany"]}, "phone": "+49407931330", "display_phone": "+49 40 7931330", "distance": 934.1801457699314}, {"id": "5HkbIoJJCCS3bXGwx3liZQ", "alias": "grubes-fischerh\u00fctte-winsen", "name": "Grube's Fischerh\u00fctte", "image_url": "https://s3-media4.fl.yelpcdn.com/bphoto/WfGFmJL9x2bV0WOvSlzL2g/o.jpg", "is_closed": false, "url": "https://www.yelp.com/biz/grubes-fischerh%C3%BCtte-winsen?adjust_creative=hBJOknVQJ58S5goQyjmwRw&utm_campaign=yelp_api_v3&utm_medium=api_v3_business_search&utm_source=hBJOknVQJ58S5goQyjmwRw", "review_count": 27, "categories": [{"alias": "seafood", "title": "Seafood"}, {"alias": "german", "title": "German"}], "rating": 4.0, "coordinates": {"latitude": 53.39453, "longitude": 10.17136}, "transactions": [], "price": "\u20ac\u20ac\u20ac", "location": {"address1": "Hoopter Elbdeich 32", "address2": null, "address3": null, "city": "Winsen", "zip_code": "21423", "country": "DE", "state": "NI", "display_address": ["Hoopter Elbdeich 32", "21423 Winsen", "Germany"]}, "phone": "+494171601850", "display_phone": "+49 4171 601850", "distance": 340.62925359341415}, {"id": "9VjqNQNKa5oLscdA_MGuIw", "alias": "f\u00e4hr-imbiss-winsen-luhe", "name": "F\u00e4hr-Imbiss", "image_url": "https://s3-media1.fl.yelpcdn.com/bphoto/5BFkZz9uvmaNocnuWbDhjw/o.jpg", "is_closed": false, "url": "https://www.yelp.com/biz/f%C3%A4hr-imbiss-winsen-luhe?adjust_creative=hBJOknVQJ58S5goQyjmwRw&utm_campaign=yelp_api_v3&utm_medium=api_v3_business_search&utm_source=hBJOknVQJ58S5goQyjmwRw", "review_count": 1, "categories": [{"alias": "coffee", "title": "Coffee & Tea"}, {"alias": "foodstands", "title": "Food Stands"}], "rating": 4.0, "coordinates": {"latitude": 53.3949097892251, "longitude": 10.1728106433868}, "transactions": [], "location": {"address1": "Hoopter Elbdeich 27-28", "address2": "", "address3": "", "city": "Winsen (Luhe)", "zip_code": "21423", "country": "DE", "state": "NI", "display_address": ["Hoopter Elbdeich 27-28", "21423 Winsen (Luhe)", "Germany"]}, "phone": "", "display_phone": "", "distance": 321.76297560676835}, {"id": "l-l9Wl8YVWSqY7gHyavUQg", "alias": "f\u00e4hrhaus-hoopte-winsen-luhe", "name": "F\u00e4hrhaus Hoopte", "image_url": "", "is_closed": false, "url": "https://www.yelp.com/biz/f%C3%A4hrhaus-hoopte-winsen-luhe?adjust_creative=hBJOknVQJ58S5goQyjmwRw&utm_campaign=yelp_api_v3&utm_medium=api_v3_business_search&utm_source=hBJOknVQJ58S5goQyjmwRw", "review_count": 4, "categories": [{"alias": "german", "title": "German"}], "rating": 4.5, "coordinates": {"latitude": 53.3942, "longitude": 10.1757}, "transactions": [], "location": {"address1": "Hoopter Elbdeich 21", "address2": null, "address3": null, "city": "Winsen (Luhe)", "zip_code": "21423", "country": "DE", "state": "NI", "display_address": ["Hoopter Elbdeich 21", "21423 Winsen (Luhe)", "Germany"]}, "phone": "+4941712415", "display_phone": "+49 4171 2415", "distance": 207.19991992239804}, {"id": "xqx-Sia1mQXYmXGW6FYCvg", "alias": "hei-nun-winsen", "name": "Hei Nun", "image_url": "https://s3-media1.fl.yelpcdn.com/bphoto/_YQipd7hK7lYu2Gj5USxRw/o.jpg", "is_closed": false, "url": "https://www.yelp.com/biz/hei-nun-winsen?adjust_creative=hBJOknVQJ58S5goQyjmwRw&utm_campaign=yelp_api_v3&utm_medium=api_v3_business_search&utm_source=hBJOknVQJ58S5goQyjmwRw", "review_count": 15, "categories": [{"alias": "chinese", "title": "Chinese"}], "rating": 3.5, "coordinates": {"latitude": 53.3625, "longitude": 10.1949}, "transactions": [], "price": "\u20ac", "location": {"address1": "L\u00f6hnfeld 1", "address2": null, "address3": null, "city": "Winsen", "zip_code": "21423", "country": "DE", "state": "NI", "display_address": ["L\u00f6hnfeld 1", "21423 Winsen", "Germany"]}, "phone": "+494171409292", "display_phone": "+49 4171 409292", "distance": 3570.6977079404774}, {"id": "SFTJ6Rx4vb4LntnpTY9TGg", "alias": "zur-l\u00fcttenburg-hamburg", "name": "Zur L\u00fcttenburg", "image_url": "https://s3-media2.fl.yelpcdn.com/bphoto/GJCG5UvssPGiAFdkpC1Ucg/o.jpg", "is_closed": false, "url": "https://www.yelp.com/biz/zur-l%C3%BCttenburg-hamburg?adjust_creative=hBJOknVQJ58S5goQyjmwRw&utm_campaign=yelp_api_v3&utm_medium=api_v3_business_search&utm_source=hBJOknVQJ58S5goQyjmwRw", "review_count": 16, "categories": [{"alias": "german", "title": "German"}, {"alias": "steak", "title": "Steakhouses"}], "rating": 3.0, "coordinates": {"latitude": 53.40138, "longitude": 10.168516}, "transactions": [], "price": "\u20ac\u20ac", "location": {"address1": "Kirchwerder Elbdeich 116", "address2": "", "address3": null, "city": "Hamburg", "zip_code": "21037", "country": "DE", "state": "HH", "display_address": ["Kirchwerder Elbdeich 116", "21037 Hamburg", "Germany"]}, "phone": "+494073504810", "display_phone": "+49 40 73504810", "distance": 1093.8371255611116}, {"id": "3eEB1Vmano1c96kZVeUsDA", "alias": "hofcafe-l\u00f6scher-gastronomie-winsen", "name": "Hofcafe L\u00f6scher Gastronomie", "image_url": "https://s3-media1.fl.yelpcdn.com/bphoto/kk85uxEvSmtuO9PejNsqNQ/o.jpg", "is_closed": false, "url": "https://www.yelp.com/biz/hofcafe-l%C3%B6scher-gastronomie-winsen?adjust_creative=hBJOknVQJ58S5goQyjmwRw&utm_campaign=yelp_api_v3&utm_medium=api_v3_business_search&utm_source=hBJOknVQJ58S5goQyjmwRw", "review_count": 11, "categories": [{"alias": "cafes", "title": "Cafes"}], "rating": 4.0, "coordinates": {"latitude": 53.40017, "longitude": 10.158323}, "transactions": [], "price": "\u20ac\u20ac", "location": {"address1": "Hoopter Elbdeich 77", "address2": null, "address3": null, "city": "Winsen", "zip_code": "21423", "country": "DE", "state": "NI", "display_address": ["Hoopter Elbdeich 77", "21423 Winsen", "Germany"]}, "phone": "+494171669268", "display_phone": "+49 4171 669268", "distance": 1412.223619136261}, {"id": "5F6SisQK8b14kzBENh1xaA", "alias": "spieker-croqueladen-hamburg-2", "name": "Spieker Croqueladen", "image_url": "https://s3-media4.fl.yelpcdn.com/bphoto/6kkPOnyHS4NJl0XMe-g8XQ/o.jpg", "is_closed": false, "url": "https://www.yelp.com/biz/spieker-croqueladen-hamburg-2?adjust_creative=hBJOknVQJ58S5goQyjmwRw&utm_campaign=yelp_api_v3&utm_medium=api_v3_business_search&utm_source=hBJOknVQJ58S5goQyjmwRw", "review_count": 5, "categories": [{"alias": "sandwiches", "title": "Sandwiches"}, {"alias": "french", "title": "French"}], "rating": 4.5, "coordinates": {"latitude": 53.404, "longitude": 10.1856}, "transactions": [], "price": "\u20ac", "location": {"address1": "Kirchenheerweg 168", "address2": null, "address3": null, "city": "Hamburg", "zip_code": "21037", "country": "DE", "state": "HH", "display_address": ["Kirchenheerweg 168", "21037 Hamburg", "Germany"]}, "phone": "+49407230371", "display_phone": "+49 40 7230371", "distance": 1467.940325707347}, {"id": "BTz2Hkdq7b_SPpdMX0oQeg", "alias": "zollenspieker-imbissbude-hamburg", "name": "Zollenspieker Imbissbude", "image_url": "https://s3-media1.fl.yelpcdn.com/bphoto/KLsiLIzI3En9EZ0J4LPFlQ/o.jpg", "is_closed": false, "url": "https://www.yelp.com/biz/zollenspieker-imbissbude-hamburg?adjust_creative=hBJOknVQJ58S5goQyjmwRw&utm_campaign=yelp_api_v3&utm_medium=api_v3_business_search&utm_source=hBJOknVQJ58S5goQyjmwRw", "review_count": 5, "categories": [{"alias": "currysausage", "title": "Curry Sausage"}], "rating": 1.5, "coordinates": {"latitude": 53.398, "longitude": 10.1834}, "transactions": [], "price": "\u20ac\u20ac", "location": {"address1": "Zollenspieker Hauptdeich 145", "address2": "An dem F\u00e4hranleger", "address3": null, "city": "Hamburg", "zip_code": "21037", "country": "DE", "state": "HH", "display_address": ["Zollenspieker Hauptdeich 145", "An dem F\u00e4hranleger", "21037 Hamburg", "Germany"]}, "phone": "+49407684194", "display_phone": "+49 40 7684194", "distance": 832.408104016467}, {"id": "M1lUgg7Yiy8bAoU0Rb_4IA", "alias": "f\u00e4hr-imbi\u00df-hamburg", "name": "F\u00e4hr Imbi\u00df", "image_url": "https://s3-media2.fl.yelpcdn.com/bphoto/Vt9qq5FK2AnLg1uJhOr-ug/o.jpg", "is_closed": false, "url": "https://www.yelp.com/biz/f%C3%A4hr-imbi%C3%9F-hamburg?adjust_creative=hBJOknVQJ58S5goQyjmwRw&utm_campaign=yelp_api_v3&utm_medium=api_v3_business_search&utm_source=hBJOknVQJ58S5goQyjmwRw", "review_count": 2, "categories": [{"alias": "hotdogs", "title": "Fast Food"}], "rating": 3.5, "coordinates": {"latitude": 53.3980670526425, "longitude": 10.1831571947782}, "transactions": [], "price": "\u20ac", "location": {"address1": "Zollenspieker Hauptdeich 143", "address2": "", "address3": "", "city": "Hamburg", "zip_code": "21037", "country": "DE", "state": "HH", "display_address": ["Zollenspieker Hauptdeich 143", "21037 Hamburg", "Germany"]}, "phone": "", "display_phone": "", "distance": 827.58680343884}, {"id": "iN-BjHDQcN-3CT2jVZkwfA", "alias": "gabis-imbiss-winsen", "name": "gabis imbiss", "image_url": "", "is_closed": false, "url": "https://www.yelp.com/biz/gabis-imbiss-winsen?adjust_creative=hBJOknVQJ58S5goQyjmwRw&utm_campaign=yelp_api_v3&utm_medium=api_v3_business_search&utm_source=hBJOknVQJ58S5goQyjmwRw", "review_count": 2, "categories": [{"alias": "hotdogs", "title": "Fast Food"}], "rating": 5.0, "coordinates": {"latitude": 53.3927, "longitude": 10.1771}, "transactions": [], "location": {"address1": "Hopterstra\u00dfe Hafen", "address2": null, "address3": null, "city": "Winsen", "zip_code": "21423", "country": "DE", "state": "NI", "display_address": ["Hopterstra\u00dfe Hafen", "21423 Winsen", "Germany"]}, "phone": "", "display_phone": "", "distance": 135.77066743699973}, {"id": "iCe90XaupBAUY0lCNsl5bw", "alias": "achilleon-2-hamburg", "name": "Achilleon 2", "image_url": "", "is_closed": false, "url": "https://www.yelp.com/biz/achilleon-2-hamburg?adjust_creative=hBJOknVQJ58S5goQyjmwRw&utm_campaign=yelp_api_v3&utm_medium=api_v3_business_search&utm_source=hBJOknVQJ58S5goQyjmwRw", "review_count": 2, "categories": [{"alias": "greek", "title": "Greek"}], "rating": 1.5, "coordinates": {"latitude": 53.4037463, "longitude": 10.1636574}, "transactions": [], "location": {"address1": "Kirchwerder Elbdeich 116", "address2": "", "address3": null, "city": "Hamburg", "zip_code": "21037", "country": "DE", "state": "NI", "display_address": ["Kirchwerder Elbdeich 116", "21037 Hamburg", "Germany"]}, "phone": "+494073503103", "display_phone": "+49 40 73503103", "distance": 1476.2470443862644}, {"id": "utPCO_B6b1_pUaxtdGuIgg", "alias": "restaurant-homanns-landhaus-winsen", "name": "Restaurant Homanns Landhaus", "image_url": "https://s3-media3.fl.yelpcdn.com/bphoto/IRzkvtVqjEqIG1dhSy9YNQ/o.jpg", "is_closed": false, "url": "https://www.yelp.com/biz/restaurant-homanns-landhaus-winsen?adjust_creative=hBJOknVQJ58S5goQyjmwRw&utm_campaign=yelp_api_v3&utm_medium=api_v3_business_search&utm_source=hBJOknVQJ58S5goQyjmwRw", "review_count": 1, "categories": [{"alias": "breakfast_brunch", "title": "Breakfast & Brunch"}], "rating": 4.0, "coordinates": {"latitude": 53.36751, "longitude": 10.16228}, "transactions": [], "price": "\u20ac\u20ac", "location": {"address1": "Gehrdener Deich 12", "address2": null, "address3": null, "city": "Winsen", "zip_code": "21423", "country": "DE", "state": "NI", "display_address": ["Gehrdener Deich 12", "21423 Winsen", "Germany"]}, "phone": "+4941715121", "display_phone": "+49 4171 5121", "distance": 2876.526179917855}, {"id": "TkiIZEZ3i-xhL8cqFBhxxw", "alias": "elkes-imbi\u00df-winsen-2", "name": "Elkes Imbi\u00df", "image_url": "", "is_closed": false, "url": "https://www.yelp.com/biz/elkes-imbi%C3%9F-winsen-2?adjust_creative=hBJOknVQJ58S5goQyjmwRw&utm_campaign=yelp_api_v3&utm_medium=api_v3_business_search&utm_source=hBJOknVQJ58S5goQyjmwRw", "review_count": 1, "categories": [{"alias": "food", "title": "Food"}, {"alias": "hotdogs", "title": "Fast Food"}], "rating": 4.0, "coordinates": {"latitude": 53.3657, "longitude": 10.1934}, "transactions": [], "location": {"address1": "Hamburger Str. 53", "address2": null, "address3": null, "city": "Winsen", "zip_code": "21423", "country": "DE", "state": "NI", "display_address": ["Hamburger Str. 53", "21423 Winsen", "Germany"]}, "phone": "+4941714526", "display_phone": "+49 4171 4526", "distance": 3203.4083590705086}, {"id": "xt_Ga8o9W2rq2MnIp0iruQ", "alias": "zur-alten-vierl\u00e4nder-b\u00e4ckerei-hamburg", "name": "Zur alten Vierl\u00e4nder B\u00e4ckerei", "image_url": "https://s3-media3.fl.yelpcdn.com/bphoto/6YktxL-xhUYS43RZoe7IPw/o.jpg", "is_closed": false, "url": "https://www.yelp.com/biz/zur-alten-vierl%C3%A4nder-b%C3%A4ckerei-hamburg?adjust_creative=hBJOknVQJ58S5goQyjmwRw&utm_campaign=yelp_api_v3&utm_medium=api_v3_business_search&utm_source=hBJOknVQJ58S5goQyjmwRw", "review_count": 7, "categories": [{"alias": "cafes", "title": "Cafes"}, {"alias": "pensions", "title": "Pensions"}], "rating": 4.0, "coordinates": {"latitude": 53.40137, "longitude": 10.16789}, "transactions": [], "price": "\u20ac", "location": {"address1": "Kirchwerder Elbdeich  122", "address2": "", "address3": "", "city": "Hamburg", "zip_code": "21037", "country": "DE", "state": "HH", "display_address": ["Kirchwerder Elbdeich  122", "21037 Hamburg", "Germany"]}, "phone": "+494079319444", "display_phone": "+49 40 79319444", "distance": 1111.6140159483866}]