[{"id": "gHSJt3ESDXJAqKYonmsFlQ", "alias": "restaurant-landhaus-mienenb\u00fcttel-mienenb\u00fcttel-neu-wulmstorf", "name": "Restaurant Landhaus Mienenb\u00fcttel", "image_url": "", "is_closed": false, "url": "https://www.yelp.com/biz/restaurant-landhaus-mienenb%C3%BCttel-mienenb%C3%BCttel-neu-wulmstorf?adjust_creative=hBJOknVQJ58S5goQyjmwRw&utm_campaign=yelp_api_v3&utm_medium=api_v3_business_search&utm_source=hBJOknVQJ58S5goQyjmwRw", "review_count": 1, "categories": [{"alias": "german", "title": "German"}], "rating": 4.0, "coordinates": {"latitude": 53.378968, "longitude": 9.802542}, "transactions": [], "location": {"address1": "Zum Tannenhof 2", "address2": "", "address3": null, "city": "Mienenb\u00fcttel - Neu Wulmstorf", "zip_code": "21629", "country": "DE", "state": "NI", "display_address": ["Zum Tannenhof 2", "21629 Mienenb\u00fcttel - Neu Wulmstorf", "Germany"]}, "phone": "+49416891230", "display_phone": "+49 4168 91230", "distance": 2212.650185346779}, {"id": "ycthMjyMZfUtBvbi_bidzw", "alias": "gastst\u00e4tte-zum-florian-elstorf-neu-wulmstorf", "name": "Gastst\u00e4tte Zum Florian", "image_url": "", "is_closed": false, "url": "https://www.yelp.com/biz/gastst%C3%A4tte-zum-florian-elstorf-neu-wulmstorf?adjust_creative=hBJOknVQJ58S5goQyjmwRw&utm_campaign=yelp_api_v3&utm_medium=api_v3_business_search&utm_source=hBJOknVQJ58S5goQyjmwRw", "review_count": 1, "categories": [{"alias": "postoffices", "title": "Post Offices"}, {"alias": "foodstands", "title": "Food Stands"}], "rating": 5.0, "coordinates": {"latitude": 53.4230228, "longitude": 9.7899846}, "transactions": [], "location": {"address1": "Lindenstr. 2", "address2": null, "address3": null, "city": "Elstorf - Neu Wulmstorf", "zip_code": "21629", "country": "DE", "state": "NI", "display_address": ["Lindenstr. 2", "21629 Elstorf - Neu Wulmstorf", "Germany"]}, "phone": "+491704042954", "display_phone": "+49 170 4042954", "distance": 3076.001273774989}, {"id": "nePhlx9hizp4YMQSRyXG2A", "alias": "restaurant-zum-eichenfrieden-rade-neu-wulmstorf", "name": "Restaurant Zum Eichenfrieden", "image_url": "", "is_closed": false, "url": "https://www.yelp.com/biz/restaurant-zum-eichenfrieden-rade-neu-wulmstorf?adjust_creative=hBJOknVQJ58S5goQyjmwRw&utm_campaign=yelp_api_v3&utm_medium=api_v3_business_search&utm_source=hBJOknVQJ58S5goQyjmwRw", "review_count": 1, "categories": [{"alias": "german", "title": "German"}], "rating": 4.0, "coordinates": {"latitude": 53.387239, "longitude": 9.796517}, "transactions": [], "location": {"address1": "Soltauer Str. 13", "address2": "", "address3": null, "city": "Rade - Neu Wulmstorf", "zip_code": "21629", "country": "DE", "state": "NI", "display_address": ["Soltauer Str. 13", "21629 Rade - Neu Wulmstorf", "Germany"]}, "phone": "+4941681261", "display_phone": "+49 4168 1261", "distance": 1239.4356987655096}, {"id": "vO9RL-i13lQ3NT_-FGt8JQ", "alias": "restaurant-akropolis-elstorf-neu-wulmstorf", "name": "Restaurant Akropolis", "image_url": "", "is_closed": false, "url": "https://www.yelp.com/biz/restaurant-akropolis-elstorf-neu-wulmstorf?adjust_creative=hBJOknVQJ58S5goQyjmwRw&utm_campaign=yelp_api_v3&utm_medium=api_v3_business_search&utm_source=hBJOknVQJ58S5goQyjmwRw", "review_count": 4, "categories": [{"alias": "greek", "title": "Greek"}], "rating": 3.0, "coordinates": {"latitude": 53.4246, "longitude": 9.78933}, "transactions": [], "location": {"address1": "Schwarzenberg 1", "address2": null, "address3": null, "city": "Elstorf - Neu Wulmstorf", "zip_code": "21629", "country": "DE", "state": "NI", "display_address": ["Schwarzenberg 1", "21629 Elstorf - Neu Wulmstorf", "Germany"]}, "phone": "+4941688366", "display_phone": "+49 4168 8366", "distance": 3245.2458763483737}, {"id": "IVaGCcBmkiISHs_D6ip4hg", "alias": "melkhus-ardestorf-neu-wulmstorf", "name": "Melkhus", "image_url": "https://s3-media4.fl.yelpcdn.com/bphoto/BJKZspYnLuUnfqWt5oxIQg/o.jpg", "is_closed": false, "url": "https://www.yelp.com/biz/melkhus-ardestorf-neu-wulmstorf?adjust_creative=hBJOknVQJ58S5goQyjmwRw&utm_campaign=yelp_api_v3&utm_medium=api_v3_business_search&utm_source=hBJOknVQJ58S5goQyjmwRw", "review_count": 5, "categories": [{"alias": "cafes", "title": "Cafes"}, {"alias": "convenience", "title": "Convenience Stores"}], "rating": 5.0, "coordinates": {"latitude": 53.4298, "longitude": 9.76171}, "transactions": [], "price": "\u20ac", "location": {"address1": "Grauener Weg  3", "address2": null, "address3": null, "city": "Ardestorf - Neu Wulmstorf", "zip_code": "21629", "country": "DE", "state": "NI", "display_address": ["Grauener Weg  3", "21629 Ardestorf - Neu Wulmstorf", "Germany"]}, "phone": "+4941689198714", "display_phone": "+49 4168 9198714", "distance": 4087.0005825049284}, {"id": "w7Jdq2PANZoe88TRECMBrg", "alias": "ferien-auf-der-heid-appel-2", "name": "Ferien auf der Heid", "image_url": "", "is_closed": false, "url": "https://www.yelp.com/biz/ferien-auf-der-heid-appel-2?adjust_creative=hBJOknVQJ58S5goQyjmwRw&utm_campaign=yelp_api_v3&utm_medium=api_v3_business_search&utm_source=hBJOknVQJ58S5goQyjmwRw", "review_count": 3, "categories": [{"alias": "german", "title": "German"}, {"alias": "serbocroatian", "title": "Serbo Croatian"}], "rating": 4.5, "coordinates": {"latitude": 53.4037, "longitude": 9.76575}, "transactions": [], "location": {"address1": "Karlsteinweg 45-47", "address2": null, "address3": null, "city": "Appel", "zip_code": "21279", "country": "DE", "state": "NI", "display_address": ["Karlsteinweg 45-47", "21279 Appel", "Germany"]}, "phone": "+49416597230", "display_phone": "+49 4165 97230", "distance": 1520.4559978105497}, {"id": "z-3JuSa3vtl-WlVza2qtFw", "alias": "classicrestaurant-stampe-appel-2", "name": "Classicrestaurant Stampe", "image_url": "https://s3-media4.fl.yelpcdn.com/bphoto/nOvjdFL4knv9qioNZX4hKQ/o.jpg", "is_closed": false, "url": "https://www.yelp.com/biz/classicrestaurant-stampe-appel-2?adjust_creative=hBJOknVQJ58S5goQyjmwRw&utm_campaign=yelp_api_v3&utm_medium=api_v3_business_search&utm_source=hBJOknVQJ58S5goQyjmwRw", "review_count": 3, "categories": [{"alias": "international", "title": "International"}, {"alias": "german", "title": "German"}], "rating": 4.5, "coordinates": {"latitude": 53.40408, "longitude": 9.7659}, "transactions": [], "location": {"address1": "Karlsteinweg 17", "address2": null, "address3": null, "city": "Appel", "zip_code": "21279", "country": "DE", "state": "NI", "display_address": ["Karlsteinweg 17", "21279 Appel", "Germany"]}, "phone": "+49416597200", "display_phone": "+49 4165 97200", "distance": 1556.3049454466516}, {"id": "o_0DEZW03v1HK_fZEjXu4Q", "alias": "mcdonalds-neu-wulmstorf", "name": "McDonald's", "image_url": "https://s3-media3.fl.yelpcdn.com/bphoto/vSEVncFQ7sOo_FP_4MPAcg/o.jpg", "is_closed": false, "url": "https://www.yelp.com/biz/mcdonalds-neu-wulmstorf?adjust_creative=hBJOknVQJ58S5goQyjmwRw&utm_campaign=yelp_api_v3&utm_medium=api_v3_business_search&utm_source=hBJOknVQJ58S5goQyjmwRw", "review_count": 7, "categories": [{"alias": "hotdogs", "title": "Fast Food"}, {"alias": "burgers", "title": "Burgers"}], "rating": 3.5, "coordinates": {"latitude": 53.3704224841854, "longitude": 9.80045061118694}, "transactions": [], "price": "\u20ac", "location": {"address1": "Schlepelsberg 4 - 6", "address2": null, "address3": "", "city": "Neu Wulmstorf", "zip_code": "21629", "country": "DE", "state": "NI", "display_address": ["Schlepelsberg 4 - 6", "21629 Neu Wulmstorf", "Germany"]}, "phone": "+4941652172820", "display_phone": "+49 4165 2172820", "distance": 2997.4568390649692}]