[{"id": "6njTD0ZBG9O-y1O2jm7Ddg", "alias": "restaurant-bei-kosta-rosengarten", "name": "Restaurant Bei Kosta", "image_url": "https://s3-media3.fl.yelpcdn.com/bphoto/g_jw2QwzOPdSPjS7IxQCiw/o.jpg", "is_closed": false, "url": "https://www.yelp.com/biz/restaurant-bei-kosta-rosengarten?adjust_creative=hBJOknVQJ58S5goQyjmwRw&utm_campaign=yelp_api_v3&utm_medium=api_v3_business_search&utm_source=hBJOknVQJ58S5goQyjmwRw", "review_count": 1, "categories": [{"alias": "greek", "title": "Greek"}], "rating": 5.0, "coordinates": {"latitude": 53.4024, "longitude": 9.87778}, "transactions": [], "location": {"address1": "Hauptstr. 4", "address2": "", "address3": "", "city": "Rosengarten", "zip_code": "21224", "country": "DE", "state": "NI", "display_address": ["Hauptstr. 4", "21224 Rosengarten", "Germany"]}, "phone": "+4941087128", "display_phone": "+49 4108 7128", "distance": 872.7533854299126}, {"id": "EEKdJbl4YyUORyUArak_XQ", "alias": "fritz-peters-rosengarten", "name": "Fritz Peters", "image_url": "https://s3-media3.fl.yelpcdn.com/bphoto/UGE4CQJtibWq9ylzGsd2XQ/o.jpg", "is_closed": false, "url": "https://www.yelp.com/biz/fritz-peters-rosengarten?adjust_creative=hBJOknVQJ58S5goQyjmwRw&utm_campaign=yelp_api_v3&utm_medium=api_v3_business_search&utm_source=hBJOknVQJ58S5goQyjmwRw", "review_count": 2, "categories": [{"alias": "restaurants", "title": "Restaurants"}], "rating": 4.5, "coordinates": {"latitude": 53.4089, "longitude": 9.88543}, "transactions": [], "price": "\u20ac", "location": {"address1": "Quellenweg 2", "address2": null, "address3": null, "city": "Rosengarten", "zip_code": "21224", "country": "DE", "state": "NI", "display_address": ["Quellenweg 2", "21224 Rosengarten", "Germany"]}, "phone": "+4941083102", "display_phone": "+49 4108 3102", "distance": 1714.4611677063062}, {"id": "ELshs9ioj0Uzv9_AXAGdaw", "alias": "restaurant-waldsch\u00e4nke-rosengarten", "name": "Restaurant Waldsch\u00e4nke", "image_url": "https://s3-media2.fl.yelpcdn.com/bphoto/w_zxuXGGNDob86c2BfIcxA/o.jpg", "is_closed": false, "url": "https://www.yelp.com/biz/restaurant-waldsch%C3%A4nke-rosengarten?adjust_creative=hBJOknVQJ58S5goQyjmwRw&utm_campaign=yelp_api_v3&utm_medium=api_v3_business_search&utm_source=hBJOknVQJ58S5goQyjmwRw", "review_count": 4, "categories": [{"alias": "german", "title": "German"}], "rating": 4.5, "coordinates": {"latitude": 53.4071, "longitude": 9.85659}, "transactions": [], "location": {"address1": "Rosengartenstr. 2", "address2": null, "address3": null, "city": "Rosengarten", "zip_code": "21224", "country": "DE", "state": "NI", "display_address": ["Rosengartenstr. 2", "21224 Rosengarten", "Germany"]}, "phone": "+4941087316", "display_phone": "+49 4108 7316", "distance": 1795.1478469024275}, {"id": "fOHSKKnIxqduCxecsZJC_w", "alias": "frommann-buchholz", "name": "Frommann", "image_url": "https://s3-media2.fl.yelpcdn.com/bphoto/7jukx3rGXuWXTxdI_TKgFg/o.jpg", "is_closed": false, "url": "https://www.yelp.com/biz/frommann-buchholz?adjust_creative=hBJOknVQJ58S5goQyjmwRw&utm_campaign=yelp_api_v3&utm_medium=api_v3_business_search&utm_source=hBJOknVQJ58S5goQyjmwRw", "review_count": 2, "categories": [{"alias": "german", "title": "German"}], "rating": 5.0, "coordinates": {"latitude": 53.3662, "longitude": 9.87443}, "transactions": [], "location": {"address1": "Harburger Str. 8", "address2": null, "address3": null, "city": "Buchholz", "zip_code": "21244", "country": "DE", "state": "NI", "display_address": ["Harburger Str. 8", "21244 Buchholz", "Germany"]}, "phone": "+4941812870", "display_phone": "+49 4181 2870", "distance": 3196.7358074257036}, {"id": "wpGydxJrBuTsmNYuSBD8Mw", "alias": "rosengarten-grillhaus-rosengarten", "name": "Rosengarten Grillhaus", "image_url": "", "is_closed": false, "url": "https://www.yelp.com/biz/rosengarten-grillhaus-rosengarten?adjust_creative=hBJOknVQJ58S5goQyjmwRw&utm_campaign=yelp_api_v3&utm_medium=api_v3_business_search&utm_source=hBJOknVQJ58S5goQyjmwRw", "review_count": 1, "categories": [{"alias": "kebab", "title": "Kebab"}, {"alias": "salad", "title": "Salad"}, {"alias": "currysausage", "title": "Curry Sausage"}], "rating": 5.0, "coordinates": {"latitude": 53.40707, "longitude": 9.89029}, "transactions": [], "location": {"address1": "Hauptstr. 39", "address2": "", "address3": null, "city": "Rosengarten", "zip_code": "21224", "country": "DE", "state": "NI", "display_address": ["Hauptstr. 39", "21224 Rosengarten", "Germany"]}, "phone": "+4941084899993", "display_phone": "+49 4108 4899993", "distance": 1715.397995981505}, {"id": "R-qkNDj-JJ56P8cB95hxqQ", "alias": "taverna-rhodos-buchholz", "name": "Taverna Rhodos", "image_url": "https://s3-media2.fl.yelpcdn.com/bphoto/206RsZdXRWqIY6ZzCsDj9w/o.jpg", "is_closed": false, "url": "https://www.yelp.com/biz/taverna-rhodos-buchholz?adjust_creative=hBJOknVQJ58S5goQyjmwRw&utm_campaign=yelp_api_v3&utm_medium=api_v3_business_search&utm_source=hBJOknVQJ58S5goQyjmwRw", "review_count": 3, "categories": [{"alias": "greek", "title": "Greek"}], "rating": 3.0, "coordinates": {"latitude": 53.366833, "longitude": 9.874029}, "transactions": [], "price": "\u20ac", "location": {"address1": "Am Sch\u00fctzenplatz 1", "address2": "", "address3": "", "city": "Buchholz", "zip_code": "21244", "country": "DE", "state": "NI", "display_address": ["Am Sch\u00fctzenplatz 1", "21244 Buchholz", "Germany"]}, "phone": "+4941812326269", "display_phone": "+49 4181 2326269", "distance": 3126.4561229430888}, {"id": "TI2orC_tUrfypZpFjXbLOg", "alias": "come-inn-rosengarten", "name": "Come inn", "image_url": "", "is_closed": false, "url": "https://www.yelp.com/biz/come-inn-rosengarten?adjust_creative=hBJOknVQJ58S5goQyjmwRw&utm_campaign=yelp_api_v3&utm_medium=api_v3_business_search&utm_source=hBJOknVQJ58S5goQyjmwRw", "review_count": 2, "categories": [{"alias": "hotdogs", "title": "Fast Food"}], "rating": 3.0, "coordinates": {"latitude": 53.4068, "longitude": 9.89273}, "transactions": [], "location": {"address1": "Hauptstr. 39", "address2": null, "address3": null, "city": "Rosengarten", "zip_code": "21224", "country": "DE", "state": "NI", "display_address": ["Hauptstr. 39", "21224 Rosengarten", "Germany"]}, "phone": "+494108413984", "display_phone": "+49 4108 413984", "distance": 1791.721684032506}, {"id": "hupBDwEm2VXHR3CU8oh_WA", "alias": "mcdonalds-buchholz", "name": "McDonald's", "image_url": "https://s3-media3.fl.yelpcdn.com/bphoto/BtXS631Ovaf7t-nh_imPdg/o.jpg", "is_closed": false, "url": "https://www.yelp.com/biz/mcdonalds-buchholz?adjust_creative=hBJOknVQJ58S5goQyjmwRw&utm_campaign=yelp_api_v3&utm_medium=api_v3_business_search&utm_source=hBJOknVQJ58S5goQyjmwRw", "review_count": 12, "categories": [{"alias": "hotdogs", "title": "Fast Food"}, {"alias": "burgers", "title": "Burgers"}], "rating": 3.0, "coordinates": {"latitude": 53.36354, "longitude": 9.87273}, "transactions": [], "price": "\u20ac\u20ac", "location": {"address1": "Harburger Str. 19", "address2": null, "address3": null, "city": "Buchholz", "zip_code": "21244", "country": "DE", "state": "NI", "display_address": ["Harburger Str. 19", "21244 Buchholz", "Germany"]}, "phone": "+494181210690", "display_phone": "+49 4181 210690", "distance": 3494.309105154087}, {"id": "oXxMdWPxtjqXdlHMM145lA", "alias": "china-restaurant-jade-rosengarten", "name": "China-Restaurant Jade", "image_url": "https://s3-media2.fl.yelpcdn.com/bphoto/P_Gy-fn06-gRqSxhq18PeQ/o.jpg", "is_closed": false, "url": "https://www.yelp.com/biz/china-restaurant-jade-rosengarten?adjust_creative=hBJOknVQJ58S5goQyjmwRw&utm_campaign=yelp_api_v3&utm_medium=api_v3_business_search&utm_source=hBJOknVQJ58S5goQyjmwRw", "review_count": 9, "categories": [{"alias": "chinese", "title": "Chinese"}], "rating": 3.5, "coordinates": {"latitude": 53.3788, "longitude": 9.89448}, "transactions": [], "price": "\u20ac", "location": {"address1": "Bremer Str. 59", "address2": null, "address3": null, "city": "Rosengarten", "zip_code": "21224", "country": "DE", "state": "NI", "display_address": ["Bremer Str. 59", "21224 Rosengarten", "Germany"]}, "phone": "+4941088647", "display_phone": "+49 4108 8647", "distance": 2234.842384356586}, {"id": "VbfhaETEByAuRuq5Lr37Jg", "alias": "b\u00f6ttchers-gasthaus-rosengarten-2", "name": "B\u00f6ttchers Gasthaus", "image_url": "", "is_closed": false, "url": "https://www.yelp.com/biz/b%C3%B6ttchers-gasthaus-rosengarten-2?adjust_creative=hBJOknVQJ58S5goQyjmwRw&utm_campaign=yelp_api_v3&utm_medium=api_v3_business_search&utm_source=hBJOknVQJ58S5goQyjmwRw", "review_count": 4, "categories": [{"alias": "northerngerman", "title": "Northern German"}], "rating": 3.0, "coordinates": {"latitude": 53.3797799, "longitude": 9.89579}, "transactions": [], "location": {"address1": "Bremer Str. 44", "address2": "", "address3": "", "city": "Rosengarten", "zip_code": "21224", "country": "DE", "state": "NI", "display_address": ["Bremer Str. 44", "21224 Rosengarten", "Germany"]}, "phone": "+4941087147", "display_phone": "+49 4108 7147", "distance": 2164.797245158402}, {"id": "QyjsnQNKCaswI-0sCobI6Q", "alias": "cordes-restaurant-rosengarten", "name": "Cordes Restaurant", "image_url": "https://s3-media4.fl.yelpcdn.com/bphoto/vhCV0L7HwuaMBlBHlyFnJA/o.jpg", "is_closed": false, "url": "https://www.yelp.com/biz/cordes-restaurant-rosengarten?adjust_creative=hBJOknVQJ58S5goQyjmwRw&utm_campaign=yelp_api_v3&utm_medium=api_v3_business_search&utm_source=hBJOknVQJ58S5goQyjmwRw", "review_count": 9, "categories": [{"alias": "german", "title": "German"}], "rating": 2.5, "coordinates": {"latitude": 53.42367, "longitude": 9.89772}, "transactions": [], "location": {"address1": "Sottorfer Dorfstr. 2", "address2": "", "address3": null, "city": "Rosengarten", "zip_code": "21224", "country": "DE", "state": "NI", "display_address": ["Sottorfer Dorfstr. 2", "21224 Rosengarten", "Germany"]}, "phone": "+49410843440", "display_phone": "+49 4108 43440", "distance": 3542.7482785704697}]