[{"id": "EEKdJbl4YyUORyUArak_XQ", "alias": "fritz-peters-rosengarten", "name": "Fritz Peters", "image_url": "https://s3-media3.fl.yelpcdn.com/bphoto/UGE4CQJtibWq9ylzGsd2XQ/o.jpg", "is_closed": false, "url": "https://www.yelp.com/biz/fritz-peters-rosengarten?adjust_creative=hBJOknVQJ58S5goQyjmwRw&utm_campaign=yelp_api_v3&utm_medium=api_v3_business_search&utm_source=hBJOknVQJ58S5goQyjmwRw", "review_count": 2, "categories": [{"alias": "restaurants", "title": "Restaurants"}], "rating": 4.5, "coordinates": {"latitude": 53.4089, "longitude": 9.88543}, "transactions": [], "price": "\u20ac", "location": {"address1": "Quellenweg 2", "address2": null, "address3": null, "city": "Rosengarten", "zip_code": "21224", "country": "DE", "state": "NI", "display_address": ["Quellenweg 2", "21224 Rosengarten", "Germany"]}, "phone": "+4941083102", "display_phone": "+49 4108 3102", "distance": 2020.2123817801646}, {"id": "YLoGj1U0_jJy1Hf3nx-FaQ", "alias": "erhorns-das-restaurant-rosengarten", "name": "Erhorns das Restaurant", "image_url": "https://s3-media1.fl.yelpcdn.com/bphoto/fDSNQjFmfR13KJ3xNJAa8A/o.jpg", "is_closed": false, "url": "https://www.yelp.com/biz/erhorns-das-restaurant-rosengarten?adjust_creative=hBJOknVQJ58S5goQyjmwRw&utm_campaign=yelp_api_v3&utm_medium=api_v3_business_search&utm_source=hBJOknVQJ58S5goQyjmwRw", "review_count": 13, "categories": [{"alias": "german", "title": "German"}], "rating": 4.5, "coordinates": {"latitude": 53.4332467, "longitude": 9.907057}, "transactions": [], "price": "\u20ac", "location": {"address1": "Harburger Str. 18", "address2": "", "address3": null, "city": "Rosengarten", "zip_code": "21224", "country": "DE", "state": "NI", "display_address": ["Harburger Str. 18", "21224 Rosengarten", "Germany"]}, "phone": "+4941086236", "display_phone": "+49 4108 6236", "distance": 4286.792879293899}, {"id": "e-iWta6fZSAxxqOpPy0ZrQ", "alias": "paparazzi-klecken-rosengarten", "name": "Paparazzi Klecken", "image_url": "https://s3-media2.fl.yelpcdn.com/bphoto/QtlK21D8jvfe4BSgcMSoJw/o.jpg", "is_closed": false, "url": "https://www.yelp.com/biz/paparazzi-klecken-rosengarten?adjust_creative=hBJOknVQJ58S5goQyjmwRw&utm_campaign=yelp_api_v3&utm_medium=api_v3_business_search&utm_source=hBJOknVQJ58S5goQyjmwRw", "review_count": 10, "categories": [{"alias": "greek", "title": "Greek"}, {"alias": "hotdogs", "title": "Fast Food"}, {"alias": "pizza", "title": "Pizza"}], "rating": 3.5, "coordinates": {"latitude": 53.3661, "longitude": 9.92839}, "transactions": [], "price": "\u20ac", "location": {"address1": "Bahnhofstr. 36", "address2": null, "address3": null, "city": "Rosengarten", "zip_code": "21224", "country": "DE", "state": "NI", "display_address": ["Bahnhofstr. 36", "21224 Rosengarten", "Germany"]}, "phone": "+49410577138", "display_phone": "+49 4105 77138", "distance": 3555.805775024239}, {"id": "TI2orC_tUrfypZpFjXbLOg", "alias": "come-inn-rosengarten", "name": "Come inn", "image_url": "", "is_closed": false, "url": "https://www.yelp.com/biz/come-inn-rosengarten?adjust_creative=hBJOknVQJ58S5goQyjmwRw&utm_campaign=yelp_api_v3&utm_medium=api_v3_business_search&utm_source=hBJOknVQJ58S5goQyjmwRw", "review_count": 2, "categories": [{"alias": "hotdogs", "title": "Fast Food"}], "rating": 3.0, "coordinates": {"latitude": 53.4068, "longitude": 9.89273}, "transactions": [], "location": {"address1": "Hauptstr. 39", "address2": null, "address3": null, "city": "Rosengarten", "zip_code": "21224", "country": "DE", "state": "NI", "display_address": ["Hauptstr. 39", "21224 Rosengarten", "Germany"]}, "phone": "+494108413984", "display_phone": "+49 4108 413984", "distance": 1552.6762707071293}, {"id": "wpGydxJrBuTsmNYuSBD8Mw", "alias": "rosengarten-grillhaus-rosengarten", "name": "Rosengarten Grillhaus", "image_url": "", "is_closed": false, "url": "https://www.yelp.com/biz/rosengarten-grillhaus-rosengarten?adjust_creative=hBJOknVQJ58S5goQyjmwRw&utm_campaign=yelp_api_v3&utm_medium=api_v3_business_search&utm_source=hBJOknVQJ58S5goQyjmwRw", "review_count": 1, "categories": [{"alias": "kebab", "title": "Kebab"}, {"alias": "salad", "title": "Salad"}, {"alias": "currysausage", "title": "Curry Sausage"}], "rating": 5.0, "coordinates": {"latitude": 53.40707, "longitude": 9.89029}, "transactions": [], "location": {"address1": "Hauptstr. 39", "address2": "", "address3": null, "city": "Rosengarten", "zip_code": "21224", "country": "DE", "state": "NI", "display_address": ["Hauptstr. 39", "21224 Rosengarten", "Germany"]}, "phone": "+4941084899993", "display_phone": "+49 4108 4899993", "distance": 1661.4571775451561}, {"id": "oXxMdWPxtjqXdlHMM145lA", "alias": "china-restaurant-jade-rosengarten", "name": "China-Restaurant Jade", "image_url": "https://s3-media2.fl.yelpcdn.com/bphoto/P_Gy-fn06-gRqSxhq18PeQ/o.jpg", "is_closed": false, "url": "https://www.yelp.com/biz/china-restaurant-jade-rosengarten?adjust_creative=hBJOknVQJ58S5goQyjmwRw&utm_campaign=yelp_api_v3&utm_medium=api_v3_business_search&utm_source=hBJOknVQJ58S5goQyjmwRw", "review_count": 9, "categories": [{"alias": "chinese", "title": "Chinese"}], "rating": 3.5, "coordinates": {"latitude": 53.3788, "longitude": 9.89448}, "transactions": [], "price": "\u20ac", "location": {"address1": "Bremer Str. 59", "address2": null, "address3": null, "city": "Rosengarten", "zip_code": "21224", "country": "DE", "state": "NI", "display_address": ["Bremer Str. 59", "21224 Rosengarten", "Germany"]}, "phone": "+4941088647", "display_phone": "+49 4108 8647", "distance": 1891.1508304081685}, {"id": "VbfhaETEByAuRuq5Lr37Jg", "alias": "b\u00f6ttchers-gasthaus-rosengarten-2", "name": "B\u00f6ttchers Gasthaus", "image_url": "", "is_closed": false, "url": "https://www.yelp.com/biz/b%C3%B6ttchers-gasthaus-rosengarten-2?adjust_creative=hBJOknVQJ58S5goQyjmwRw&utm_campaign=yelp_api_v3&utm_medium=api_v3_business_search&utm_source=hBJOknVQJ58S5goQyjmwRw", "review_count": 4, "categories": [{"alias": "northerngerman", "title": "Northern German"}], "rating": 3.0, "coordinates": {"latitude": 53.3797799, "longitude": 9.89579}, "transactions": [], "location": {"address1": "Bremer Str. 44", "address2": "", "address3": "", "city": "Rosengarten", "zip_code": "21224", "country": "DE", "state": "NI", "display_address": ["Bremer Str. 44", "21224 Rosengarten", "Germany"]}, "phone": "+4941087147", "display_phone": "+49 4108 7147", "distance": 1731.4092772938423}, {"id": "QyjsnQNKCaswI-0sCobI6Q", "alias": "cordes-restaurant-rosengarten", "name": "Cordes Restaurant", "image_url": "https://s3-media4.fl.yelpcdn.com/bphoto/vhCV0L7HwuaMBlBHlyFnJA/o.jpg", "is_closed": false, "url": "https://www.yelp.com/biz/cordes-restaurant-rosengarten?adjust_creative=hBJOknVQJ58S5goQyjmwRw&utm_campaign=yelp_api_v3&utm_medium=api_v3_business_search&utm_source=hBJOknVQJ58S5goQyjmwRw", "review_count": 9, "categories": [{"alias": "german", "title": "German"}], "rating": 2.5, "coordinates": {"latitude": 53.42367, "longitude": 9.89772}, "transactions": [], "location": {"address1": "Sottorfer Dorfstr. 2", "address2": "", "address3": null, "city": "Rosengarten", "zip_code": "21224", "country": "DE", "state": "NI", "display_address": ["Sottorfer Dorfstr. 2", "21224 Rosengarten", "Germany"]}, "phone": "+49410843440", "display_phone": "+49 4108 43440", "distance": 3249.7866240550343}]