[{"id": "6VgfA1pTcDwlVbardrr5bA", "alias": "restaurant-athena-stelle", "name": "Restaurant Athena", "image_url": "https://s3-media3.fl.yelpcdn.com/bphoto/nxBuu8DKmqZr8CIWkgt8Zw/o.jpg", "is_closed": false, "url": "https://www.yelp.com/biz/restaurant-athena-stelle?adjust_creative=hBJOknVQJ58S5goQyjmwRw&utm_campaign=yelp_api_v3&utm_medium=api_v3_business_search&utm_source=hBJOknVQJ58S5goQyjmwRw", "review_count": 33, "categories": [{"alias": "greek", "title": "Greek"}], "rating": 4.0, "coordinates": {"latitude": 53.37937, "longitude": 10.12103}, "transactions": [], "price": "\u20ac\u20ac", "location": {"address1": "L\u00fcneburger Str. 45", "address2": null, "address3": null, "city": "Stelle", "zip_code": "21435", "country": "DE", "state": "NI", "display_address": ["L\u00fcneburger Str. 45", "21435 Stelle", "Germany"]}, "phone": "+4941743010", "display_phone": "+49 4174 3010", "distance": 2169.6427533096885}, {"id": "3eEB1Vmano1c96kZVeUsDA", "alias": "hofcafe-l\u00f6scher-gastronomie-winsen", "name": "Hofcafe L\u00f6scher Gastronomie", "image_url": "https://s3-media1.fl.yelpcdn.com/bphoto/kk85uxEvSmtuO9PejNsqNQ/o.jpg", "is_closed": false, "url": "https://www.yelp.com/biz/hofcafe-l%C3%B6scher-gastronomie-winsen?adjust_creative=hBJOknVQJ58S5goQyjmwRw&utm_campaign=yelp_api_v3&utm_medium=api_v3_business_search&utm_source=hBJOknVQJ58S5goQyjmwRw", "review_count": 11, "categories": [{"alias": "cafes", "title": "Cafes"}], "rating": 4.0, "coordinates": {"latitude": 53.40017, "longitude": 10.158323}, "transactions": [], "price": "\u20ac\u20ac", "location": {"address1": "Hoopter Elbdeich 77", "address2": null, "address3": null, "city": "Winsen", "zip_code": "21423", "country": "DE", "state": "NI", "display_address": ["Hoopter Elbdeich 77", "21423 Winsen", "Germany"]}, "phone": "+494171669268", "display_phone": "+49 4171 669268", "distance": 1212.660959295815}, {"id": "G5Ex8n1SADY3Amfc73gNXw", "alias": "treffpunkt-garbers-hamburg", "name": "Treffpunkt Garbers", "image_url": "https://s3-media2.fl.yelpcdn.com/bphoto/jD8WP41Er_stHjvlEUynyw/o.jpg", "is_closed": false, "url": "https://www.yelp.com/biz/treffpunkt-garbers-hamburg?adjust_creative=hBJOknVQJ58S5goQyjmwRw&utm_campaign=yelp_api_v3&utm_medium=api_v3_business_search&utm_source=hBJOknVQJ58S5goQyjmwRw", "review_count": 1, "categories": [{"alias": "danceclubs", "title": "Dance Clubs"}, {"alias": "german", "title": "German"}], "rating": 4.0, "coordinates": {"latitude": 53.4212, "longitude": 10.1493}, "transactions": [], "location": {"address1": "Kirchwerder Landweg 552", "address2": null, "address3": null, "city": "Hamburg", "zip_code": "21037", "country": "DE", "state": "HH", "display_address": ["Kirchwerder Landweg 552", "21037 Hamburg", "Germany"]}, "phone": "+49407230564", "display_phone": "+49 40 7230564", "distance": 3185.907163235489}, {"id": "SFTJ6Rx4vb4LntnpTY9TGg", "alias": "zur-l\u00fcttenburg-hamburg", "name": "Zur L\u00fcttenburg", "image_url": "https://s3-media2.fl.yelpcdn.com/bphoto/GJCG5UvssPGiAFdkpC1Ucg/o.jpg", "is_closed": false, "url": "https://www.yelp.com/biz/zur-l%C3%BCttenburg-hamburg?adjust_creative=hBJOknVQJ58S5goQyjmwRw&utm_campaign=yelp_api_v3&utm_medium=api_v3_business_search&utm_source=hBJOknVQJ58S5goQyjmwRw", "review_count": 16, "categories": [{"alias": "german", "title": "German"}, {"alias": "steak", "title": "Steakhouses"}], "rating": 3.0, "coordinates": {"latitude": 53.40138, "longitude": 10.168516}, "transactions": [], "price": "\u20ac\u20ac", "location": {"address1": "Kirchwerder Elbdeich 116", "address2": "", "address3": null, "city": "Hamburg", "zip_code": "21037", "country": "DE", "state": "HH", "display_address": ["Kirchwerder Elbdeich 116", "21037 Hamburg", "Germany"]}, "phone": "+494073504810", "display_phone": "+49 40 73504810", "distance": 1832.6388927945957}, {"id": "iCe90XaupBAUY0lCNsl5bw", "alias": "achilleon-2-hamburg", "name": "Achilleon 2", "image_url": "", "is_closed": false, "url": "https://www.yelp.com/biz/achilleon-2-hamburg?adjust_creative=hBJOknVQJ58S5goQyjmwRw&utm_campaign=yelp_api_v3&utm_medium=api_v3_business_search&utm_source=hBJOknVQJ58S5goQyjmwRw", "review_count": 2, "categories": [{"alias": "greek", "title": "Greek"}], "rating": 1.5, "coordinates": {"latitude": 53.4037463, "longitude": 10.1636574}, "transactions": [], "location": {"address1": "Kirchwerder Elbdeich 116", "address2": "", "address3": null, "city": "Hamburg", "zip_code": "21037", "country": "DE", "state": "NI", "display_address": ["Kirchwerder Elbdeich 116", "21037 Hamburg", "Germany"]}, "phone": "+494073503103", "display_phone": "+49 40 73503103", "distance": 1743.5057679919453}, {"id": "xt_Ga8o9W2rq2MnIp0iruQ", "alias": "zur-alten-vierl\u00e4nder-b\u00e4ckerei-hamburg", "name": "Zur alten Vierl\u00e4nder B\u00e4ckerei", "image_url": "https://s3-media3.fl.yelpcdn.com/bphoto/6YktxL-xhUYS43RZoe7IPw/o.jpg", "is_closed": false, "url": "https://www.yelp.com/biz/zur-alten-vierl%C3%A4nder-b%C3%A4ckerei-hamburg?adjust_creative=hBJOknVQJ58S5goQyjmwRw&utm_campaign=yelp_api_v3&utm_medium=api_v3_business_search&utm_source=hBJOknVQJ58S5goQyjmwRw", "review_count": 7, "categories": [{"alias": "cafes", "title": "Cafes"}, {"alias": "pensions", "title": "Pensions"}], "rating": 4.0, "coordinates": {"latitude": 53.40137, "longitude": 10.16789}, "transactions": [], "price": "\u20ac", "location": {"address1": "Kirchwerder Elbdeich  122", "address2": "", "address3": "", "city": "Hamburg", "zip_code": "21037", "country": "DE", "state": "HH", "display_address": ["Kirchwerder Elbdeich  122", "21037 Hamburg", "Germany"]}, "phone": "+494079319444", "display_phone": "+49 40 79319444", "distance": 1802.8855923831989}, {"id": "utPCO_B6b1_pUaxtdGuIgg", "alias": "restaurant-homanns-landhaus-winsen", "name": "Restaurant Homanns Landhaus", "image_url": "https://s3-media3.fl.yelpcdn.com/bphoto/IRzkvtVqjEqIG1dhSy9YNQ/o.jpg", "is_closed": false, "url": "https://www.yelp.com/biz/restaurant-homanns-landhaus-winsen?adjust_creative=hBJOknVQJ58S5goQyjmwRw&utm_campaign=yelp_api_v3&utm_medium=api_v3_business_search&utm_source=hBJOknVQJ58S5goQyjmwRw", "review_count": 1, "categories": [{"alias": "breakfast_brunch", "title": "Breakfast & Brunch"}], "rating": 4.0, "coordinates": {"latitude": 53.36751, "longitude": 10.16228}, "transactions": [], "price": "\u20ac\u20ac", "location": {"address1": "Gehrdener Deich 12", "address2": null, "address3": null, "city": "Winsen", "zip_code": "21423", "country": "DE", "state": "NI", "display_address": ["Gehrdener Deich 12", "21423 Winsen", "Germany"]}, "phone": "+4941715121", "display_phone": "+49 4171 5121", "distance": 3010.193504813046}]