[{"id": "Apz9UhdoIwKP4RGtjw7H6g", "alias": "de-krauler-kroog-hamburg-2", "name": "De Krauler Kroog", "image_url": "https://s3-media4.fl.yelpcdn.com/bphoto/4i5sxiZ6T41NoeGwBNDEqw/o.jpg", "is_closed": false, "url": "https://www.yelp.com/biz/de-krauler-kroog-hamburg-2?adjust_creative=hBJOknVQJ58S5goQyjmwRw&utm_campaign=yelp_api_v3&utm_medium=api_v3_business_search&utm_source=hBJOknVQJ58S5goQyjmwRw", "review_count": 6, "categories": [{"alias": "german", "title": "German"}], "rating": 5.0, "coordinates": {"latitude": 53.3996, "longitude": 10.2142}, "transactions": [], "price": "\u20ac\u20ac\u20ac", "location": {"address1": "Kraueler Hauptdeich 65", "address2": null, "address3": null, "city": "Hamburg", "zip_code": "21037", "country": "DE", "state": "HH", "display_address": ["Kraueler Hauptdeich 65", "21037 Hamburg", "Germany"]}, "phone": "+49407230368", "display_phone": "+49 40 7230368", "distance": 1821.4142143822876}, {"id": "LKzo9giIoKGVtMsuAvuIAg", "alias": "gasthof-zum-elbdeich-hamburg-2", "name": "Gasthof zum Elbdeich", "image_url": "", "is_closed": false, "url": "https://www.yelp.com/biz/gasthof-zum-elbdeich-hamburg-2?adjust_creative=hBJOknVQJ58S5goQyjmwRw&utm_campaign=yelp_api_v3&utm_medium=api_v3_business_search&utm_source=hBJOknVQJ58S5goQyjmwRw", "review_count": 3, "categories": [{"alias": "german", "title": "German"}], "rating": 4.5, "coordinates": {"latitude": 53.4423, "longitude": 10.2328}, "transactions": [], "location": {"address1": "Neuengammer Hausdeich 2", "address2": null, "address3": null, "city": "Hamburg", "zip_code": "21039", "country": "DE", "state": "HH", "display_address": ["Neuengammer Hausdeich 2", "21039 Hamburg", "Germany"]}, "phone": "+49407235481", "display_phone": "+49 40 7235481", "distance": 3626.5397201578635}, {"id": "NH8UdkeMrq2YFSQLMSEruQ", "alias": "hof-eggers-hamburg-3", "name": "Hof Eggers", "image_url": "https://s3-media4.fl.yelpcdn.com/bphoto/jfzfR1d-xTAeFe5dn9hlAg/o.jpg", "is_closed": false, "url": "https://www.yelp.com/biz/hof-eggers-hamburg-3?adjust_creative=hBJOknVQJ58S5goQyjmwRw&utm_campaign=yelp_api_v3&utm_medium=api_v3_business_search&utm_source=hBJOknVQJ58S5goQyjmwRw", "review_count": 5, "categories": [{"alias": "cafes", "title": "Cafes"}, {"alias": "attractionfarms", "title": "Attraction Farms"}], "rating": 5.0, "coordinates": {"latitude": 53.4106, "longitude": 10.21967}, "transactions": [], "price": "\u20ac", "location": {"address1": "Kirchwerder M\u00fchlendamm 5", "address2": null, "address3": null, "city": "Hamburg", "zip_code": "21037", "country": "DE", "state": "HH", "display_address": ["Kirchwerder M\u00fchlendamm 5", "21037 Hamburg", "Germany"]}, "phone": "+494072377385", "display_phone": "+49 40 72377385", "distance": 1072.5595705270423}, {"id": "p6NLrDG7PeH60IUcmTwPAA", "alias": "gastst\u00e4tte-zum-alten-bahnhof-hamburg", "name": "Gastst\u00e4tte Zum alten Bahnhof", "image_url": "https://s3-media4.fl.yelpcdn.com/bphoto/bq3mLtdVBdxpjpI6-ilBDg/o.jpg", "is_closed": false, "url": "https://www.yelp.com/biz/gastst%C3%A4tte-zum-alten-bahnhof-hamburg?adjust_creative=hBJOknVQJ58S5goQyjmwRw&utm_campaign=yelp_api_v3&utm_medium=api_v3_business_search&utm_source=hBJOknVQJ58S5goQyjmwRw", "review_count": 1, "categories": [{"alias": "german", "title": "German"}], "rating": 5.0, "coordinates": {"latitude": 53.4486, "longitude": 10.22153}, "transactions": [], "price": "\u20ac\u20ac", "location": {"address1": "Odemanns Heck 5", "address2": null, "address3": null, "city": "Hamburg", "zip_code": "21039", "country": "DE", "state": "HH", "display_address": ["Odemanns Heck 5", "21039 Hamburg", "Germany"]}, "phone": "+494072370570", "display_phone": "+49 40 72370570", "distance": 4423.676024521687}]