[{"id": "y0AMxH07q3UXg_E1NcCnZw", "alias": "harms-genusshandwerkerei-drage-2", "name": "Harms Genusshandwerkerei", "image_url": "https://s3-media3.fl.yelpcdn.com/bphoto/g-e27NsrbFZd5JZhi46v3w/o.jpg", "is_closed": false, "url": "https://www.yelp.com/biz/harms-genusshandwerkerei-drage-2?adjust_creative=hBJOknVQJ58S5goQyjmwRw&utm_campaign=yelp_api_v3&utm_medium=api_v3_business_search&utm_source=hBJOknVQJ58S5goQyjmwRw", "review_count": 6, "categories": [{"alias": "northerngerman", "title": "Northern German"}], "rating": 4.0, "coordinates": {"latitude": 53.4284, "longitude": 10.3175}, "transactions": [], "location": {"address1": "Schwinder Str. 3", "address2": null, "address3": null, "city": "Drage", "zip_code": "21423", "country": "DE", "state": "NI", "display_address": ["Schwinder Str. 3", "21423 Drage", "Germany"]}, "phone": "+494176229", "display_phone": "+49 4176 229", "distance": 2578.2505674695644}, {"id": "jIsBpmSeu-Ryp1uEQaGBAA", "alias": "norddeutsches-haus-hamburg", "name": "Norddeutsches Haus", "image_url": "https://s3-media1.fl.yelpcdn.com/bphoto/x0ilTs57gzucUrGmAB7y6w/o.jpg", "is_closed": false, "url": "https://www.yelp.com/biz/norddeutsches-haus-hamburg?adjust_creative=hBJOknVQJ58S5goQyjmwRw&utm_campaign=yelp_api_v3&utm_medium=api_v3_business_search&utm_source=hBJOknVQJ58S5goQyjmwRw", "review_count": 2, "categories": [{"alias": "german", "title": "German"}], "rating": 5.0, "coordinates": {"latitude": 53.4294, "longitude": 10.2917}, "transactions": [], "price": "\u20ac\u20ac", "location": {"address1": "Altengammer Elbdeich 42", "address2": null, "address3": null, "city": "Hamburg", "zip_code": "21039", "country": "DE", "state": "HH", "display_address": ["Altengammer Elbdeich 42", "21039 Hamburg", "Germany"]}, "phone": "+49407235248", "display_phone": "+49 40 7235248", "distance": 2275.1063878731225}, {"id": "C-T53fWPdrOQUxCIVD0glw", "alias": "stover-strand-drage", "name": "Stover Strand", "image_url": "https://s3-media2.fl.yelpcdn.com/bphoto/Xyso1XFRN4NvxNVcCFvdnw/o.jpg", "is_closed": false, "url": "https://www.yelp.com/biz/stover-strand-drage?adjust_creative=hBJOknVQJ58S5goQyjmwRw&utm_campaign=yelp_api_v3&utm_medium=api_v3_business_search&utm_source=hBJOknVQJ58S5goQyjmwRw", "review_count": 11, "categories": [{"alias": "german", "title": "German"}], "rating": 4.0, "coordinates": {"latitude": 53.4231, "longitude": 10.2967}, "transactions": [], "price": "\u20ac\u20ac", "location": {"address1": "Stover Strand 10", "address2": null, "address3": null, "city": "Drage", "zip_code": "21423", "country": "DE", "state": "NI", "display_address": ["Stover Strand 10", "21423 Drage", "Germany"]}, "phone": "+4941777116888", "display_phone": "+49 4177 7116888", "distance": 1557.9145449656517}, {"id": "2_b0ipYNKYppOxzHpbyY2w", "alias": "zur-elbaussicht-drage", "name": "Zur Elbaussicht", "image_url": "https://s3-media3.fl.yelpcdn.com/bphoto/9Hl243R9u7Q_lbP-mkna1Q/o.jpg", "is_closed": false, "url": "https://www.yelp.com/biz/zur-elbaussicht-drage?adjust_creative=hBJOknVQJ58S5goQyjmwRw&utm_campaign=yelp_api_v3&utm_medium=api_v3_business_search&utm_source=hBJOknVQJ58S5goQyjmwRw", "review_count": 1, "categories": [{"alias": "restaurants", "title": "Restaurants"}], "rating": 2.0, "coordinates": {"latitude": 53.4207, "longitude": 10.2875}, "transactions": [], "price": "\u20ac\u20ac", "location": {"address1": "Elbstorfer Str. 59", "address2": null, "address3": null, "city": "Drage", "zip_code": "21423", "country": "DE", "state": "NI", "display_address": ["Elbstorfer Str. 59", "21423 Drage", "Germany"]}, "phone": "+494177711200", "display_phone": "+49 4177 711200", "distance": 1406.4328619214039}, {"id": "1VCV8T5KQWhG8-2_5oPu2w", "alias": "hofcaf\u00e9-marschendeel-drage-2", "name": "Hofcaf\u00e9 Marschendeel", "image_url": "https://s3-media1.fl.yelpcdn.com/bphoto/5guQdq7cd-whtLmrV5c1gw/o.jpg", "is_closed": false, "url": "https://www.yelp.com/biz/hofcaf%C3%A9-marschendeel-drage-2?adjust_creative=hBJOknVQJ58S5goQyjmwRw&utm_campaign=yelp_api_v3&utm_medium=api_v3_business_search&utm_source=hBJOknVQJ58S5goQyjmwRw", "review_count": 5, "categories": [{"alias": "cafes", "title": "Cafes"}], "rating": 5.0, "coordinates": {"latitude": 53.3746, "longitude": 10.2892}, "transactions": [], "price": "\u20ac", "location": {"address1": "Hundener Str. 21", "address2": "", "address3": null, "city": "Drage", "zip_code": "21423", "country": "DE", "state": "NI", "display_address": ["Hundener Str. 21", "21423 Drage", "Germany"]}, "phone": "+4941797557839", "display_phone": "+49 4179 7557839", "distance": 3861.8300000907257}, {"id": "6xWAqTzNZwdDwwUWLVn4cA", "alias": "drage-grill-drage", "name": "Drage Grill", "image_url": "", "is_closed": false, "url": "https://www.yelp.com/biz/drage-grill-drage?adjust_creative=hBJOknVQJ58S5goQyjmwRw&utm_campaign=yelp_api_v3&utm_medium=api_v3_business_search&utm_source=hBJOknVQJ58S5goQyjmwRw", "review_count": 1, "categories": [{"alias": "kebab", "title": "Kebab"}], "rating": 3.0, "coordinates": {"latitude": 53.4251424741935, "longitude": 10.3205662965775}, "transactions": [], "price": "\u20ac\u20ac", "location": {"address1": "Schwinder Str. 31a", "address2": "", "address3": "", "city": "Drage", "zip_code": "21423", "country": "DE", "state": "NI", "display_address": ["Schwinder Str. 31a", "21423 Drage", "Germany"]}, "phone": "+4941769442492", "display_phone": "+49 4176 9442492", "distance": 2417.761230920175}]