[{"id": "Tl_AKFJyIG7z7wmPBZ2gHQ", "alias": "kutscherstuben-ii-seevetal", "name": "Kutscherstuben II", "image_url": "https://s3-media3.fl.yelpcdn.com/bphoto/_b6DzUnbXt7_ZhX5yIwGcw/o.jpg", "is_closed": false, "url": "https://www.yelp.com/biz/kutscherstuben-ii-seevetal?adjust_creative=hBJOknVQJ58S5goQyjmwRw&utm_campaign=yelp_api_v3&utm_medium=api_v3_business_search&utm_source=hBJOknVQJ58S5goQyjmwRw", "review_count": 2, "categories": [{"alias": "german", "title": "German"}], "rating": 4.5, "coordinates": {"latitude": 53.422039, "longitude": 9.9586802}, "transactions": [], "location": {"address1": "Beckedorfer Bogen 9a", "address2": "", "address3": "", "city": "Seevetal", "zip_code": "21218", "country": "DE", "state": "NI", "display_address": ["Beckedorfer Bogen 9a", "21218 Seevetal", "Germany"]}, "phone": "+4916099214595", "display_phone": "+49 160 99214595", "distance": 1269.9947843310074}, {"id": "BrGgp-LimE5DBPaMSG8CSQ", "alias": "max-tu-seevetal", "name": "Max Tu", "image_url": "https://s3-media2.fl.yelpcdn.com/bphoto/jukBfLf5J83giLkZBDLB2Q/o.jpg", "is_closed": false, "url": "https://www.yelp.com/biz/max-tu-seevetal?adjust_creative=hBJOknVQJ58S5goQyjmwRw&utm_campaign=yelp_api_v3&utm_medium=api_v3_business_search&utm_source=hBJOknVQJ58S5goQyjmwRw", "review_count": 27, "categories": [{"alias": "panasian", "title": "Pan Asian"}], "rating": 4.0, "coordinates": {"latitude": 53.385025, "longitude": 9.982373}, "transactions": [], "price": "\u20ac\u20ac", "location": {"address1": "Poststr. 4-10", "address2": "", "address3": "", "city": "Seevetal", "zip_code": "21218", "country": "DE", "state": "NI", "display_address": ["Poststr. 4-10", "21218 Seevetal", "Germany"]}, "phone": "+4941056646818", "display_phone": "+49 4105 6646818", "distance": 3235.8192692141715}, {"id": "E3TH-n5p92IcGCmA56FO_w", "alias": "hittfelder-hus-seevetal", "name": "Hittfelder Hus", "image_url": "https://s3-media3.fl.yelpcdn.com/bphoto/rm7R7i1rBneKtLi46cRa-g/o.jpg", "is_closed": false, "url": "https://www.yelp.com/biz/hittfelder-hus-seevetal?adjust_creative=hBJOknVQJ58S5goQyjmwRw&utm_campaign=yelp_api_v3&utm_medium=api_v3_business_search&utm_source=hBJOknVQJ58S5goQyjmwRw", "review_count": 4, "categories": [{"alias": "german", "title": "German"}], "rating": 4.0, "coordinates": {"latitude": 53.38585, "longitude": 9.97648}, "transactions": [], "price": "\u20ac\u20ac", "location": {"address1": "Harburger Str. 7", "address2": "", "address3": "", "city": "Seevetal", "zip_code": "21218", "country": "DE", "state": "NI", "display_address": ["Harburger Str. 7", "21218 Seevetal", "Germany"]}, "phone": "+4941055856006", "display_phone": "+49 4105 5856006", "distance": 3029.6521526821275}, {"id": "RdTUH49yyWvn0VfpeF6EFg", "alias": "scheune-zur-hittfelder-m\u00fchle-seevetal", "name": "Scheune Zur Hittfelder M\u00fchle", "image_url": "https://s3-media2.fl.yelpcdn.com/bphoto/07r7dny9KmJqLZuwYoZt-Q/o.jpg", "is_closed": false, "url": "https://www.yelp.com/biz/scheune-zur-hittfelder-m%C3%BChle-seevetal?adjust_creative=hBJOknVQJ58S5goQyjmwRw&utm_campaign=yelp_api_v3&utm_medium=api_v3_business_search&utm_source=hBJOknVQJ58S5goQyjmwRw", "review_count": 8, "categories": [{"alias": "greek", "title": "Greek"}], "rating": 4.5, "coordinates": {"latitude": 53.3817, "longitude": 9.98392}, "transactions": [], "price": "\u20ac\u20ac", "location": {"address1": "Weg Zur M\u00fchle 10", "address2": null, "address3": null, "city": "Seevetal", "zip_code": "21218", "country": "DE", "state": "NI", "display_address": ["Weg Zur M\u00fchle 10", "21218 Seevetal", "Germany"]}, "phone": "+494105x554547", "display_phone": "+49 4105 ext. 554547", "distance": 3618.058484208275}, {"id": "FYX0aKiLRAtvA66MndlPVw", "alias": "mediterran-hamburg", "name": "Mediterran", "image_url": "https://s3-media1.fl.yelpcdn.com/bphoto/6Cim9HgCub3Cj6oWP3MERA/o.jpg", "is_closed": false, "url": "https://www.yelp.com/biz/mediterran-hamburg?adjust_creative=hBJOknVQJ58S5goQyjmwRw&utm_campaign=yelp_api_v3&utm_medium=api_v3_business_search&utm_source=hBJOknVQJ58S5goQyjmwRw", "review_count": 14, "categories": [{"alias": "mediterranean", "title": "Mediterranean"}, {"alias": "steak", "title": "Steakhouses"}], "rating": 3.5, "coordinates": {"latitude": 53.43193, "longitude": 9.98307}, "transactions": [], "price": "\u20ac\u20ac", "location": {"address1": "Winsener Str. 152", "address2": null, "address3": null, "city": "Hamburg", "zip_code": "21077", "country": "DE", "state": "HH", "display_address": ["Winsener Str. 152", "21077 Hamburg", "Germany"]}, "phone": "+494070011450", "display_phone": "+49 40 70011450", "distance": 2495.1253031835868}, {"id": "BHNcHdohBm-CXaLPbm7xOg", "alias": "restaurant-burg-seevetal-seevetal", "name": "Restaurant Burg Seevetal", "image_url": "", "is_closed": false, "url": "https://www.yelp.com/biz/restaurant-burg-seevetal-seevetal?adjust_creative=hBJOknVQJ58S5goQyjmwRw&utm_campaign=yelp_api_v3&utm_medium=api_v3_business_search&utm_source=hBJOknVQJ58S5goQyjmwRw", "review_count": 1, "categories": [{"alias": "restaurants", "title": "Restaurants"}], "rating": 5.0, "coordinates": {"latitude": 53.3877, "longitude": 9.97886}, "transactions": [], "location": {"address1": "Am G\u00f6hlenbach 11", "address2": null, "address3": null, "city": "Seevetal", "zip_code": "21218", "country": "DE", "state": "NI", "display_address": ["Am G\u00f6hlenbach 11", "21218 Seevetal", "Germany"]}, "phone": "+494105555357", "display_phone": "+49 4105 555357", "distance": 2877.2317217662194}, {"id": "YFPL5w5keAybWu4vdyVvNg", "alias": "orangerie-seevetal", "name": "Orangerie", "image_url": "", "is_closed": false, "url": "https://www.yelp.com/biz/orangerie-seevetal?adjust_creative=hBJOknVQJ58S5goQyjmwRw&utm_campaign=yelp_api_v3&utm_medium=api_v3_business_search&utm_source=hBJOknVQJ58S5goQyjmwRw", "review_count": 3, "categories": [{"alias": "italian", "title": "Italian"}], "rating": 3.5, "coordinates": {"latitude": 53.4061149, "longitude": 9.953765}, "transactions": [], "price": "\u20ac\u20ac", "location": {"address1": "Poststr. 5", "address2": null, "address3": null, "city": "Seevetal", "zip_code": "21218", "country": "DE", "state": "NI", "display_address": ["Poststr. 5", "21218 Seevetal", "Germany"]}, "phone": "+494105636003", "display_phone": "+49 4105 636003", "distance": 1010.4861118727426}, {"id": "v4YTTPwAFACR5CSGiYGN0w", "alias": "mylos-seevetal", "name": "Mylos", "image_url": "https://s3-media4.fl.yelpcdn.com/bphoto/K9oJnvVBonIHFjeJKpYXjg/o.jpg", "is_closed": false, "url": "https://www.yelp.com/biz/mylos-seevetal?adjust_creative=hBJOknVQJ58S5goQyjmwRw&utm_campaign=yelp_api_v3&utm_medium=api_v3_business_search&utm_source=hBJOknVQJ58S5goQyjmwRw", "review_count": 7, "categories": [{"alias": "greek", "title": "Greek"}], "rating": 5.0, "coordinates": {"latitude": 53.3815498, "longitude": 9.9839497}, "transactions": [], "price": "\u20ac\u20ac", "location": {"address1": "Weg zur M\u00fchle 10 a", "address2": "Hittfeld", "address3": "", "city": "Seevetal", "zip_code": "21218", "country": "DE", "state": "NI", "display_address": ["Weg zur M\u00fchle 10 a", "Hittfeld", "21218 Seevetal", "Germany"]}, "phone": "+4941051399984", "display_phone": "+49 4105 1399984", "distance": 3627.326403403784}, {"id": "C38fRvXCYl8dUQEl3nAqnQ", "alias": "bruzzelh\u00fctte-hamburg", "name": "Bruzzelh\u00fctte", "image_url": "https://s3-media2.fl.yelpcdn.com/bphoto/l2CObMSf7WtplrxoKI_3ZQ/o.jpg", "is_closed": false, "url": "https://www.yelp.com/biz/bruzzelh%C3%BCtte-hamburg?adjust_creative=hBJOknVQJ58S5goQyjmwRw&utm_campaign=yelp_api_v3&utm_medium=api_v3_business_search&utm_source=hBJOknVQJ58S5goQyjmwRw", "review_count": 40, "categories": [{"alias": "hotdogs", "title": "Fast Food"}, {"alias": "german", "title": "German"}], "rating": 4.5, "coordinates": {"latitude": 53.446203, "longitude": 9.957467}, "transactions": [], "price": "\u20ac", "location": {"address1": "Bremer Str. 239", "address2": "", "address3": "", "city": "Hamburg", "zip_code": "21079", "country": "DE", "state": "HH", "display_address": ["Bremer Str. 239", "21079 Hamburg", "Germany"]}, "phone": "+49407607828", "display_phone": "+49 40 7607828", "distance": 3808.6938896521}, {"id": "fW460rrxThrFlHGThSx_Dg", "alias": "restaurant-rossini-seevetal", "name": "Restaurant Rossini", "image_url": "https://s3-media3.fl.yelpcdn.com/bphoto/czokTAcR3kw1iFOPc1x57Q/o.jpg", "is_closed": false, "url": "https://www.yelp.com/biz/restaurant-rossini-seevetal?adjust_creative=hBJOknVQJ58S5goQyjmwRw&utm_campaign=yelp_api_v3&utm_medium=api_v3_business_search&utm_source=hBJOknVQJ58S5goQyjmwRw", "review_count": 52, "categories": [{"alias": "italian", "title": "Italian"}], "rating": 3.0, "coordinates": {"latitude": 53.38624, "longitude": 9.98336}, "transactions": [], "price": "\u20ac\u20ac\u20ac", "location": {"address1": "Kirchstr. 28", "address2": null, "address3": null, "city": "Seevetal", "zip_code": "21218", "country": "DE", "state": "NI", "display_address": ["Kirchstr. 28", "21218 Seevetal", "Germany"]}, "phone": "+494105636770", "display_phone": "+49 4105 636770", "distance": 3134.6498345642044}, {"id": "a7H6qeYZwANboH-6prvHng", "alias": "meson-galicia-hamburg-2", "name": "Meson Galicia", "image_url": "https://s3-media4.fl.yelpcdn.com/bphoto/e_GwgldkKtliK-e2NMKbFA/o.jpg", "is_closed": false, "url": "https://www.yelp.com/biz/meson-galicia-hamburg-2?adjust_creative=hBJOknVQJ58S5goQyjmwRw&utm_campaign=yelp_api_v3&utm_medium=api_v3_business_search&utm_source=hBJOknVQJ58S5goQyjmwRw", "review_count": 64, "categories": [{"alias": "spanish", "title": "Spanish"}], "rating": 4.5, "coordinates": {"latitude": 53.45294, "longitude": 9.98227}, "transactions": [], "price": "\u20ac\u20ac", "location": {"address1": "Maretstr. 60", "address2": null, "address3": null, "city": "Hamburg", "zip_code": "21073", "country": "DE", "state": "HH", "display_address": ["Maretstr. 60", "21073 Hamburg", "Germany"]}, "phone": "+49407666315", "display_phone": "+49 40 7666315", "distance": 4669.065654044543}, {"id": "GHoTbTE7KLHhAa5uiWmYow", "alias": "barrica-seevetal", "name": "Barrica", "image_url": "https://s3-media4.fl.yelpcdn.com/bphoto/wSqdx6codCghDnoode9PJg/o.jpg", "is_closed": false, "url": "https://www.yelp.com/biz/barrica-seevetal?adjust_creative=hBJOknVQJ58S5goQyjmwRw&utm_campaign=yelp_api_v3&utm_medium=api_v3_business_search&utm_source=hBJOknVQJ58S5goQyjmwRw", "review_count": 19, "categories": [{"alias": "tapas", "title": "Tapas Bars"}], "rating": 4.5, "coordinates": {"latitude": 53.387143, "longitude": 9.982885}, "transactions": [], "price": "\u20ac\u20ac", "location": {"address1": "Schillerplatz 1", "address2": "", "address3": "", "city": "Seevetal", "zip_code": "21218", "country": "DE", "state": "NI", "display_address": ["Schillerplatz 1", "21218 Seevetal", "Germany"]}, "phone": "+4941057706651", "display_phone": "+49 4105 7706651", "distance": 3032.648694876475}, {"id": "T6ysCn_BgVcAVlIEcQhs4A", "alias": "sahlings-gasthaus-hamburg", "name": "Sahling's Gasthaus", "image_url": "https://s3-media3.fl.yelpcdn.com/bphoto/EdIsNoi-EThBNslj18EnKw/o.jpg", "is_closed": false, "url": "https://www.yelp.com/biz/sahlings-gasthaus-hamburg?adjust_creative=hBJOknVQJ58S5goQyjmwRw&utm_campaign=yelp_api_v3&utm_medium=api_v3_business_search&utm_source=hBJOknVQJ58S5goQyjmwRw", "review_count": 21, "categories": [{"alias": "greek", "title": "Greek"}, {"alias": "hotels", "title": "Hotels"}], "rating": 4.5, "coordinates": {"latitude": 53.4519, "longitude": 9.95489}, "transactions": [], "price": "\u20ac\u20ac", "location": {"address1": "Friedhofstr. 10", "address2": null, "address3": null, "city": "Hamburg", "zip_code": "21073", "country": "DE", "state": "HH", "display_address": ["Friedhofstr. 10", "21073 Hamburg", "Germany"]}, "phone": "+49407903505", "display_phone": "+49 40 7903505", "distance": 4462.168869962696}, {"id": "y4Qj23Rm3I3S6_Mumc_sgg", "alias": "entennest-bernd-heiland-hamburg", "name": "Entennest Bernd Heiland", "image_url": "https://s3-media2.fl.yelpcdn.com/bphoto/9cGd5oVBJs2YC-YbmPBw-A/o.jpg", "is_closed": false, "url": "https://www.yelp.com/biz/entennest-bernd-heiland-hamburg?adjust_creative=hBJOknVQJ58S5goQyjmwRw&utm_campaign=yelp_api_v3&utm_medium=api_v3_business_search&utm_source=hBJOknVQJ58S5goQyjmwRw", "review_count": 2, "categories": [{"alias": "restaurants", "title": "Restaurants"}], "rating": 3.0, "coordinates": {"latitude": 53.4491, "longitude": 9.98374}, "transactions": [], "price": "\u20ac\u20ac", "location": {"address1": "Vinzenzweg 20", "address2": null, "address3": null, "city": "Hamburg", "zip_code": "21077", "country": "DE", "state": "HH", "display_address": ["Vinzenzweg 20", "21077 Hamburg", "Germany"]}, "phone": "+494070388858", "display_phone": "+49 40 70388858", "distance": 4282.861022232132}, {"id": "afQhj6UkcZ3z49pd-tdKzg", "alias": "tamang-tempel-hamburg", "name": "Tamang Tempel", "image_url": "https://s3-media2.fl.yelpcdn.com/bphoto/1UD1l2Mw8oc7bIBMZN1sbw/o.jpg", "is_closed": false, "url": "https://www.yelp.com/biz/tamang-tempel-hamburg?adjust_creative=hBJOknVQJ58S5goQyjmwRw&utm_campaign=yelp_api_v3&utm_medium=api_v3_business_search&utm_source=hBJOknVQJ58S5goQyjmwRw", "review_count": 14, "categories": [{"alias": "chinese", "title": "Chinese"}, {"alias": "thai", "title": "Thai"}], "rating": 3.5, "coordinates": {"latitude": 53.4499799, "longitude": 9.98716}, "transactions": [], "price": "\u20ac\u20ac", "location": {"address1": "Winsenerstr. 16", "address2": "", "address3": "", "city": "Hamburg", "zip_code": "21073", "country": "DE", "state": "HH", "display_address": ["Winsenerstr. 16", "21073 Hamburg", "Germany"]}, "phone": "+494075360140", "display_phone": "+49 40 75360140", "distance": 4451.22834001264}, {"id": "hb3VLlzB9mVg-KSlkf7htQ", "alias": "leuchtturm-hamburg", "name": "Leuchtturm", "image_url": "https://s3-media1.fl.yelpcdn.com/bphoto/9GZB4j0l00fnq47N7tpNTg/o.jpg", "is_closed": false, "url": "https://www.yelp.com/biz/leuchtturm-hamburg?adjust_creative=hBJOknVQJ58S5goQyjmwRw&utm_campaign=yelp_api_v3&utm_medium=api_v3_business_search&utm_source=hBJOknVQJ58S5goQyjmwRw", "review_count": 55, "categories": [{"alias": "seafood", "title": "Seafood"}, {"alias": "mediterranean", "title": "Mediterranean"}], "rating": 4.0, "coordinates": {"latitude": 53.45078, "longitude": 9.98107}, "transactions": [], "price": "\u20ac\u20ac\u20ac", "location": {"address1": "Au\u00dfenm\u00fchlendamm 2", "address2": "", "address3": "", "city": "Hamburg", "zip_code": "21077", "country": "DE", "state": "HH", "display_address": ["Au\u00dfenm\u00fchlendamm 2", "21077 Hamburg", "Germany"]}, "phone": "+494070299777", "display_phone": "+49 40 70299777", "distance": 4424.048640294423}, {"id": "JYvmyWarOyFnifcMFK4ZXw", "alias": "hotel-zur-linde-seevetal", "name": "Hotel Zur Linde", "image_url": "https://s3-media1.fl.yelpcdn.com/bphoto/6S_EQykYiEkhHcTUYUXDzQ/o.jpg", "is_closed": false, "url": "https://www.yelp.com/biz/hotel-zur-linde-seevetal?adjust_creative=hBJOknVQJ58S5goQyjmwRw&utm_campaign=yelp_api_v3&utm_medium=api_v3_business_search&utm_source=hBJOknVQJ58S5goQyjmwRw", "review_count": 14, "categories": [{"alias": "hotels", "title": "Hotels"}, {"alias": "german", "title": "German"}], "rating": 4.0, "coordinates": {"latitude": 53.38321, "longitude": 9.98081}, "transactions": [], "price": "\u20ac\u20ac", "location": {"address1": "Lindhorster Str. 3", "address2": null, "address3": null, "city": "Seevetal", "zip_code": "21218", "country": "DE", "state": "NI", "display_address": ["Lindhorster Str. 3", "21218 Seevetal", "Germany"]}, "phone": "+4941052023", "display_phone": "+49 4105 2023", "distance": 3380.6037513788906}, {"id": "CqAsA5szZG0hPwNOEsocfw", "alias": "meldas-kebab-haus-seevetal", "name": "Melda's Kebab Haus", "image_url": "https://s3-media3.fl.yelpcdn.com/bphoto/v7mxuDCPIiQDJvpdM3o7iw/o.jpg", "is_closed": false, "url": "https://www.yelp.com/biz/meldas-kebab-haus-seevetal?adjust_creative=hBJOknVQJ58S5goQyjmwRw&utm_campaign=yelp_api_v3&utm_medium=api_v3_business_search&utm_source=hBJOknVQJ58S5goQyjmwRw", "review_count": 2, "categories": [{"alias": "kebab", "title": "Kebab"}, {"alias": "turkish", "title": "Turkish"}], "rating": 3.0, "coordinates": {"latitude": 53.38455, "longitude": 9.98152}, "transactions": [], "price": "\u20ac", "location": {"address1": "Friedhofstr. 1C", "address2": "", "address3": null, "city": "Seevetal", "zip_code": "21218", "country": "DE", "state": "NI", "display_address": ["Friedhofstr. 1C", "21218 Seevetal", "Germany"]}, "phone": "+4941055572481", "display_phone": "+49 4105 5572481", "distance": 3262.8341825235566}, {"id": "nMGEgMT3fOc2xt6APKt7Yg", "alias": "caf\u00e9-beerental-das-tortenparadies-hamburg", "name": "Caf\u00e9 Beerental \"Das Tortenparadies\"", "image_url": "https://s3-media4.fl.yelpcdn.com/bphoto/XqHA-i5rrsrxZ97WA9tC9w/o.jpg", "is_closed": false, "url": "https://www.yelp.com/biz/caf%C3%A9-beerental-das-tortenparadies-hamburg?adjust_creative=hBJOknVQJ58S5goQyjmwRw&utm_campaign=yelp_api_v3&utm_medium=api_v3_business_search&utm_source=hBJOknVQJ58S5goQyjmwRw", "review_count": 13, "categories": [{"alias": "cafes", "title": "Cafes"}], "rating": 4.5, "coordinates": {"latitude": 53.44908, "longitude": 9.95292}, "transactions": [], "price": "\u20ac\u20ac", "location": {"address1": "Beerentalweg 46", "address2": null, "address3": null, "city": "Hamburg", "zip_code": "21077", "country": "DE", "state": "HH", "display_address": ["Beerentalweg 46", "21077 Hamburg", "Germany"]}, "phone": "+49171x3817395", "display_phone": "+49 171 ext. 3817395", "distance": 4189.773183563596}, {"id": "SHKM2iuxD_4A81opu08ieg", "alias": "das-schl\u00f6sschen-seevetal", "name": "Das Schl\u00f6sschen", "image_url": "https://s3-media2.fl.yelpcdn.com/bphoto/JbLuz54_lTGlMEkhxw3aHw/o.jpg", "is_closed": false, "url": "https://www.yelp.com/biz/das-schl%C3%B6sschen-seevetal?adjust_creative=hBJOknVQJ58S5goQyjmwRw&utm_campaign=yelp_api_v3&utm_medium=api_v3_business_search&utm_source=hBJOknVQJ58S5goQyjmwRw", "review_count": 5, "categories": [{"alias": "restaurants", "title": "Restaurants"}], "rating": 4.5, "coordinates": {"latitude": 53.3738393, "longitude": 9.9798221}, "transactions": [], "price": "\u20ac\u20ac", "location": {"address1": "Pastorenwiesen 25", "address2": "Teil des Veranstaltungszentrums Burg Seevetal", "address3": null, "city": "Seevetal", "zip_code": "21218", "country": "DE", "state": "NI", "display_address": ["Pastorenwiesen 25", "Teil des Veranstaltungszentrums Burg Seevetal", "21218 Seevetal", "Germany"]}, "phone": "+494105555357", "display_phone": "+49 4105 555357", "distance": 4379.7990402006}, {"id": "OHXNXNW-Io_s9atVpWwyRg", "alias": "virginia-burger-hamburg", "name": "Virginia Burger", "image_url": "https://s3-media4.fl.yelpcdn.com/bphoto/AUOCEDxOmtVUsB0hjaUAuA/o.jpg", "is_closed": false, "url": "https://www.yelp.com/biz/virginia-burger-hamburg?adjust_creative=hBJOknVQJ58S5goQyjmwRw&utm_campaign=yelp_api_v3&utm_medium=api_v3_business_search&utm_source=hBJOknVQJ58S5goQyjmwRw", "review_count": 14, "categories": [{"alias": "burgers", "title": "Burgers"}], "rating": 3.0, "coordinates": {"latitude": 53.422266, "longitude": 9.981417}, "transactions": [], "location": {"address1": "Winsener Str. 229", "address2": "", "address3": "", "city": "Hamburg", "zip_code": "21077", "country": "DE", "state": "HH", "display_address": ["Winsener Str. 229", "21077 Hamburg", "Germany"]}, "phone": "+494076118831", "display_phone": "+49 40 76118831", "distance": 1601.4181386188204}, {"id": "MyFNVSZYDGoCpPWFyaxKXg", "alias": "taverna-oniro-hittfeld-seevetal", "name": "Taverna Oniro Hittfeld", "image_url": "", "is_closed": false, "url": "https://www.yelp.com/biz/taverna-oniro-hittfeld-seevetal?adjust_creative=hBJOknVQJ58S5goQyjmwRw&utm_campaign=yelp_api_v3&utm_medium=api_v3_business_search&utm_source=hBJOknVQJ58S5goQyjmwRw", "review_count": 1, "categories": [{"alias": "greek", "title": "Greek"}], "rating": 2.0, "coordinates": {"latitude": 53.394232, "longitude": 9.983092}, "transactions": [], "location": {"address1": "Bahnofstr. 42", "address2": "", "address3": null, "city": "Seevetal", "zip_code": "21218", "country": "DE", "state": "NI", "display_address": ["Bahnofstr. 42", "21218 Seevetal", "Germany"]}, "phone": "+4941055541641", "display_phone": "+49 4105 5541641", "distance": 2331.6050411029933}, {"id": "J8B4htIIMhFbWnzz1MynwA", "alias": "carlos-seevetal", "name": "Carlos", "image_url": "https://s3-media2.fl.yelpcdn.com/bphoto/TW6IiDdNDQZHq46nYJXUlg/o.jpg", "is_closed": false, "url": "https://www.yelp.com/biz/carlos-seevetal?adjust_creative=hBJOknVQJ58S5goQyjmwRw&utm_campaign=yelp_api_v3&utm_medium=api_v3_business_search&utm_source=hBJOknVQJ58S5goQyjmwRw", "review_count": 2, "categories": [{"alias": "wine_bars", "title": "Wine Bars"}, {"alias": "mediterranean", "title": "Mediterranean"}], "rating": 4.5, "coordinates": {"latitude": 53.38262, "longitude": 9.97783}, "transactions": [], "location": {"address1": "Am Radeland 2", "address2": "", "address3": null, "city": "Seevetal", "zip_code": "21218", "country": "DE", "state": "NI", "display_address": ["Am Radeland 2", "21218 Seevetal", "Germany"]}, "phone": "+4941058693505", "display_phone": "+49 4105 8693505", "distance": 3387.535281788353}, {"id": "HHo7REfDa2YRSQSHH_TqiQ", "alias": "mcdonalds-hamburg-32", "name": "McDonald's", "image_url": "https://s3-media1.fl.yelpcdn.com/bphoto/kLKRWBTG4cqdsmYf1spIzw/o.jpg", "is_closed": false, "url": "https://www.yelp.com/biz/mcdonalds-hamburg-32?adjust_creative=hBJOknVQJ58S5goQyjmwRw&utm_campaign=yelp_api_v3&utm_medium=api_v3_business_search&utm_source=hBJOknVQJ58S5goQyjmwRw", "review_count": 12, "categories": [{"alias": "hotdogs", "title": "Fast Food"}, {"alias": "burgers", "title": "Burgers"}], "rating": 3.0, "coordinates": {"latitude": 53.4214399, "longitude": 9.98166}, "transactions": [], "price": "\u20ac\u20ac\u20ac\u20ac", "location": {"address1": "Winsener Str. 231", "address2": null, "address3": null, "city": "Hamburg", "zip_code": "21077", "country": "DE", "state": "HH", "display_address": ["Winsener Str. 231", "21077 Hamburg", "Germany"]}, "phone": "+494070102827", "display_phone": "+49 40 70102827", "distance": 1514.2355741265294}, {"id": "yonxXSPPDv5w0KwdARHKoA", "alias": "zur-gr\u00fcnen-tanne-hamburg", "name": "Zur Gr\u00fcnen Tanne", "image_url": "https://s3-media2.fl.yelpcdn.com/bphoto/DXbLk4UhZ4TEoWKjYyUBSg/o.jpg", "is_closed": false, "url": "https://www.yelp.com/biz/zur-gr%C3%BCnen-tanne-hamburg?adjust_creative=hBJOknVQJ58S5goQyjmwRw&utm_campaign=yelp_api_v3&utm_medium=api_v3_business_search&utm_source=hBJOknVQJ58S5goQyjmwRw", "review_count": 3, "categories": [{"alias": "international", "title": "International"}, {"alias": "beergarden", "title": "Beer Garden"}], "rating": 3.5, "coordinates": {"latitude": 53.4400119, "longitude": 9.943916}, "transactions": [], "price": "\u20ac\u20ac", "location": {"address1": "Bremer Str. 307", "address2": null, "address3": null, "city": "Hamburg", "zip_code": "21077", "country": "DE", "state": "HH", "display_address": ["Bremer Str. 307", "21077 Hamburg", "Germany"]}, "phone": "+494076116092", "display_phone": "+49 40 76116092", "distance": 3391.6343678416415}, {"id": "YQBtXX3wwLm_nNjpF0Fu2A", "alias": "gasthaus-gambrinus-seevetal", "name": "Gasthaus Gambrinus", "image_url": "https://s3-media4.fl.yelpcdn.com/bphoto/ULe4DXNV51c63EqxnHkGWw/o.jpg", "is_closed": false, "url": "https://www.yelp.com/biz/gasthaus-gambrinus-seevetal?adjust_creative=hBJOknVQJ58S5goQyjmwRw&utm_campaign=yelp_api_v3&utm_medium=api_v3_business_search&utm_source=hBJOknVQJ58S5goQyjmwRw", "review_count": 9, "categories": [{"alias": "schnitzel", "title": "Schnitzel"}], "rating": 3.5, "coordinates": {"latitude": 53.3851, "longitude": 9.98449}, "transactions": [], "price": "\u20ac\u20ac", "location": {"address1": "M\u00fchlenstr. 4", "address2": null, "address3": null, "city": "Seevetal", "zip_code": "21218", "country": "DE", "state": "NI", "display_address": ["M\u00fchlenstr. 4", "21218 Seevetal", "Germany"]}, "phone": "+4941052416", "display_phone": "+49 4105 2416", "distance": 3280.6036795098657}, {"id": "XpcjjoBY2o47QXsa_KatYA", "alias": "bootshaus-aussenm\u00fchle-hamburg", "name": "Bootshaus Aussenm\u00fchle", "image_url": "https://s3-media1.fl.yelpcdn.com/bphoto/yYG7mTrE-p9elKjA9MflNw/o.jpg", "is_closed": false, "url": "https://www.yelp.com/biz/bootshaus-aussenm%C3%BChle-hamburg?adjust_creative=hBJOknVQJ58S5goQyjmwRw&utm_campaign=yelp_api_v3&utm_medium=api_v3_business_search&utm_source=hBJOknVQJ58S5goQyjmwRw", "review_count": 10, "categories": [{"alias": "cafes", "title": "Cafes"}, {"alias": "german", "title": "German"}, {"alias": "beergarden", "title": "Beer Garden"}], "rating": 3.5, "coordinates": {"latitude": 53.4481161, "longitude": 9.9813583}, "transactions": [], "price": "\u20ac\u20ac", "location": {"address1": "Gotthelfweg 2a", "address2": null, "address3": null, "city": "Hamburg", "zip_code": "21077", "country": "DE", "state": "HH", "display_address": ["Gotthelfweg 2a", "21077 Hamburg", "Germany"]}, "phone": "+49407642485", "display_phone": "+49 40 7642485", "distance": 4134.226436928811}, {"id": "sJordO9bdzZQtldyxgSIig", "alias": "knightbar-seevetal", "name": "Knightbar", "image_url": "https://s3-media1.fl.yelpcdn.com/bphoto/x3g8tBWRYugHHxmCpQOW3w/o.jpg", "is_closed": false, "url": "https://www.yelp.com/biz/knightbar-seevetal?adjust_creative=hBJOknVQJ58S5goQyjmwRw&utm_campaign=yelp_api_v3&utm_medium=api_v3_business_search&utm_source=hBJOknVQJ58S5goQyjmwRw", "review_count": 9, "categories": [{"alias": "cocktailbars", "title": "Cocktail Bars"}, {"alias": "international", "title": "International"}], "rating": 3.0, "coordinates": {"latitude": 53.3863999, "longitude": 9.9788742}, "transactions": [], "price": "\u20ac\u20ac", "location": {"address1": "Pastorenwiesen 25", "address2": null, "address3": null, "city": "Seevetal", "zip_code": "21218", "country": "DE", "state": "NI", "display_address": ["Pastorenwiesen 25", "21218 Seevetal", "Germany"]}, "phone": "+494105555357", "display_phone": "+49 4105 555357", "distance": 3014.9159521999736}, {"id": "n-CJZHJlOatDhZAvinMJeA", "alias": "restaurant-medousa-hamburg", "name": "Restaurant Medousa", "image_url": "https://s3-media4.fl.yelpcdn.com/bphoto/B4SDErtDvIQ8Ct0GpnQwXA/o.jpg", "is_closed": false, "url": "https://www.yelp.com/biz/restaurant-medousa-hamburg?adjust_creative=hBJOknVQJ58S5goQyjmwRw&utm_campaign=yelp_api_v3&utm_medium=api_v3_business_search&utm_source=hBJOknVQJ58S5goQyjmwRw", "review_count": 5, "categories": [{"alias": "greek", "title": "Greek"}], "rating": 4.0, "coordinates": {"latitude": 53.4459, "longitude": 9.95691}, "transactions": [], "price": "\u20ac\u20ac", "location": {"address1": "Bremer Str. 241", "address2": null, "address3": null, "city": "Hamburg", "zip_code": "21077", "country": "DE", "state": "HH", "display_address": ["Bremer Str. 241", "21077 Hamburg", "Germany"]}, "phone": "+494076111465", "display_phone": "+49 40 76111465", "distance": 3782.590026956127}, {"id": "0iI4ba-9QJiZFWenxmenzQ", "alias": "plaka-ii-seevetal", "name": "Plaka II", "image_url": "https://s3-media3.fl.yelpcdn.com/bphoto/c7HmzyqqWeyKSxGVIt8pPQ/o.jpg", "is_closed": false, "url": "https://www.yelp.com/biz/plaka-ii-seevetal?adjust_creative=hBJOknVQJ58S5goQyjmwRw&utm_campaign=yelp_api_v3&utm_medium=api_v3_business_search&utm_source=hBJOknVQJ58S5goQyjmwRw", "review_count": 5, "categories": [{"alias": "greek", "title": "Greek"}], "rating": 3.5, "coordinates": {"latitude": 53.38451, "longitude": 9.98158}, "transactions": [], "price": "\u20ac", "location": {"address1": "Friedhofstr. 1c", "address2": "", "address3": "", "city": "Seevetal", "zip_code": "21218", "country": "DE", "state": "NI", "display_address": ["Friedhofstr. 1c", "21218 Seevetal", "Germany"]}, "phone": "+494105556215", "display_phone": "+49 4105 556215", "distance": 3271.4253399350155}, {"id": "94Zk6MIaVfxFKUcaFvy-NQ", "alias": "sofia-pizza-hamburg", "name": "Sofia Pizza", "image_url": "https://s3-media2.fl.yelpcdn.com/bphoto/QGi_k4KjaT-k_myPkbISog/o.jpg", "is_closed": false, "url": "https://www.yelp.com/biz/sofia-pizza-hamburg?adjust_creative=hBJOknVQJ58S5goQyjmwRw&utm_campaign=yelp_api_v3&utm_medium=api_v3_business_search&utm_source=hBJOknVQJ58S5goQyjmwRw", "review_count": 9, "categories": [{"alias": "fooddeliveryservices", "title": "Food Delivery Services"}, {"alias": "italian", "title": "Italian"}], "rating": 4.0, "coordinates": {"latitude": 53.45045, "longitude": 9.98862}, "transactions": [], "price": "\u20ac\u20ac", "location": {"address1": "N\u00f6ldekestr. 2", "address2": "", "address3": null, "city": "Hamburg", "zip_code": "21079", "country": "DE", "state": "HH", "display_address": ["N\u00f6ldekestr. 2", "21079 Hamburg", "Germany"]}, "phone": "+49407642187", "display_phone": "+49 40 7642187", "distance": 4527.875021164683}, {"id": "wblfKYOU-lF0ijpsXQNFQA", "alias": "easy-pizza-hamburg", "name": "Easy Pizza", "image_url": "", "is_closed": false, "url": "https://www.yelp.com/biz/easy-pizza-hamburg?adjust_creative=hBJOknVQJ58S5goQyjmwRw&utm_campaign=yelp_api_v3&utm_medium=api_v3_business_search&utm_source=hBJOknVQJ58S5goQyjmwRw", "review_count": 2, "categories": [{"alias": "pizza", "title": "Pizza"}], "rating": 2.5, "coordinates": {"latitude": 53.45048, "longitude": 9.98851}, "transactions": [], "location": {"address1": "N\u00f6ldekerstr. 2", "address2": "", "address3": "", "city": "Hamburg", "zip_code": "21079", "country": "DE", "state": "HH", "display_address": ["N\u00f6ldekerstr. 2", "21079 Hamburg", "Germany"]}, "phone": "+494076429746", "display_phone": "+49 40 76429746", "distance": 4528.40698142424}, {"id": "1y2XtqilhsXVnr9C7RLYLw", "alias": "milkas-laden-hamburg", "name": "Milka's Laden", "image_url": "https://s3-media3.fl.yelpcdn.com/bphoto/EfF1EGYqFEn16Fc9Idw1xQ/o.jpg", "is_closed": false, "url": "https://www.yelp.com/biz/milkas-laden-hamburg?adjust_creative=hBJOknVQJ58S5goQyjmwRw&utm_campaign=yelp_api_v3&utm_medium=api_v3_business_search&utm_source=hBJOknVQJ58S5goQyjmwRw", "review_count": 2, "categories": [{"alias": "kiosk", "title": "Kiosk"}, {"alias": "beverage_stores", "title": "Beverage Store"}, {"alias": "cafes", "title": "Cafes"}], "rating": 3.0, "coordinates": {"latitude": 53.4549797455945, "longitude": 9.97639850078627}, "transactions": [], "location": {"address1": "", "address2": "", "address3": null, "city": "Hamburg", "zip_code": "", "country": "DE", "state": "HH", "display_address": ["Hamburg", "Germany"]}, "phone": "+4915779175885", "display_phone": "+49 1577 9175885", "distance": 4812.7820943468305}, {"id": "9_Z0Q-eN-FaiE-_krHSz8g", "alias": "taverna-olympia-seevetal", "name": "Taverna Olympia", "image_url": "https://s3-media2.fl.yelpcdn.com/bphoto/7nyUTj79E8OuNQEJNQk63w/o.jpg", "is_closed": false, "url": "https://www.yelp.com/biz/taverna-olympia-seevetal?adjust_creative=hBJOknVQJ58S5goQyjmwRw&utm_campaign=yelp_api_v3&utm_medium=api_v3_business_search&utm_source=hBJOknVQJ58S5goQyjmwRw", "review_count": 2, "categories": [{"alias": "restaurants", "title": "Restaurants"}], "rating": 4.0, "coordinates": {"latitude": 53.4112663, "longitude": 9.9885168}, "transactions": [], "price": "\u20ac\u20ac", "location": {"address1": "Marquardtsweg 3", "address2": null, "address3": null, "city": "Seevetal", "zip_code": "21217", "country": "DE", "state": "NI", "display_address": ["Marquardtsweg 3", "21217 Seevetal", "Germany"]}, "phone": "+494105585566", "display_phone": "+49 4105 585566", "distance": 1560.6002065997466}, {"id": "B1hR8uGN6_TuZbu0U7KicA", "alias": "eiscaf\u00e9-italia-seevetal-2", "name": "Eiscaf\u00e9 Italia", "image_url": "https://s3-media2.fl.yelpcdn.com/bphoto/wKAGbUT295lfhXJdXNW0zw/o.jpg", "is_closed": false, "url": "https://www.yelp.com/biz/eiscaf%C3%A9-italia-seevetal-2?adjust_creative=hBJOknVQJ58S5goQyjmwRw&utm_campaign=yelp_api_v3&utm_medium=api_v3_business_search&utm_source=hBJOknVQJ58S5goQyjmwRw", "review_count": 11, "categories": [{"alias": "icecream", "title": "Ice Cream & Frozen Yogurt"}, {"alias": "cafes", "title": "Cafes"}], "rating": 4.0, "coordinates": {"latitude": 53.386, "longitude": 9.98253}, "transactions": [], "price": "\u20ac\u20ac", "location": {"address1": "Kirchstr. 26", "address2": null, "address3": null, "city": "Seevetal", "zip_code": "21218", "country": "DE", "state": "NI", "display_address": ["Kirchstr. 26", "21218 Seevetal", "Germany"]}, "phone": "+494105770769", "display_phone": "+49 4105 770769", "distance": 3138.530302067086}, {"id": "_LxqJQqvVtbccu8u0A-28w", "alias": "asia-palast-hamburg", "name": "Asia Palast", "image_url": "https://s3-media3.fl.yelpcdn.com/bphoto/CuAWnIvluQjT62Uwa0cFDw/o.jpg", "is_closed": false, "url": "https://www.yelp.com/biz/asia-palast-hamburg?adjust_creative=hBJOknVQJ58S5goQyjmwRw&utm_campaign=yelp_api_v3&utm_medium=api_v3_business_search&utm_source=hBJOknVQJ58S5goQyjmwRw", "review_count": 1, "categories": [{"alias": "chinese", "title": "Chinese"}, {"alias": "panasian", "title": "Pan Asian"}], "rating": 3.0, "coordinates": {"latitude": 53.4398084, "longitude": 9.9839908}, "transactions": [], "location": {"address1": "Freudenthalweg 33", "address2": "", "address3": "", "city": "Hamburg", "zip_code": "21077", "country": "DE", "state": "HH", "display_address": ["Freudenthalweg 33", "21077 Hamburg", "Germany"]}, "phone": "+494022610499", "display_phone": "+49 40 22610499", "distance": 3313.671331004146}, {"id": "fWkMk9WO8ox-wwx5VUvkWg", "alias": "somis-grill-seevetal", "name": "Somi's Grill", "image_url": "https://s3-media2.fl.yelpcdn.com/bphoto/WrksPtOR0zkP8nn0YjrOww/o.jpg", "is_closed": false, "url": "https://www.yelp.com/biz/somis-grill-seevetal?adjust_creative=hBJOknVQJ58S5goQyjmwRw&utm_campaign=yelp_api_v3&utm_medium=api_v3_business_search&utm_source=hBJOknVQJ58S5goQyjmwRw", "review_count": 4, "categories": [{"alias": "german", "title": "German"}], "rating": 2.0, "coordinates": {"latitude": 53.3861, "longitude": 9.98563}, "transactions": [], "price": "\u20ac", "location": {"address1": "Sch\u00fctzenstr. 2", "address2": null, "address3": null, "city": "Seevetal", "zip_code": "21218", "country": "DE", "state": "NI", "display_address": ["Sch\u00fctzenstr. 2", "21218 Seevetal", "Germany"]}, "phone": "+494105636812", "display_phone": "+49 4105 636812", "distance": 3210.049792935596}]