[{"id": "uT9RGHTVWP8bfGQBb_iS-A", "alias": "da-bruno-e-daniele-seevetal", "name": "da Bruno e Daniele", "image_url": "https://s3-media1.fl.yelpcdn.com/bphoto/IIt_WG22rtVeQJWOFyYqMA/o.jpg", "is_closed": false, "url": "https://www.yelp.com/biz/da-bruno-e-daniele-seevetal?adjust_creative=hBJOknVQJ58S5goQyjmwRw&utm_campaign=yelp_api_v3&utm_medium=api_v3_business_search&utm_source=hBJOknVQJ58S5goQyjmwRw", "review_count": 10, "categories": [{"alias": "italian", "title": "Italian"}], "rating": 4.5, "coordinates": {"latitude": 53.4221, "longitude": 10.0215}, "transactions": [], "price": "\u20ac\u20ac", "location": {"address1": "An den H\u00f6fen  3", "address2": "", "address3": null, "city": "Seevetal", "zip_code": "21217", "country": "DE", "state": "NI", "display_address": ["An den H\u00f6fen  3", "21217 Seevetal", "Germany"]}, "phone": "+49407688005", "display_phone": "+49 40 7688005", "distance": 1179.2707147931112}, {"id": "wvRJ8mCla84xgmhUSDTCLQ", "alias": "taverne-antigone-seevetal", "name": "Taverne Antigone", "image_url": "https://s3-media3.fl.yelpcdn.com/bphoto/7Nw-_Wk2w57Qgt7olkpsqQ/o.jpg", "is_closed": false, "url": "https://www.yelp.com/biz/taverne-antigone-seevetal?adjust_creative=hBJOknVQJ58S5goQyjmwRw&utm_campaign=yelp_api_v3&utm_medium=api_v3_business_search&utm_source=hBJOknVQJ58S5goQyjmwRw", "review_count": 8, "categories": [{"alias": "greek", "title": "Greek"}], "rating": 5.0, "coordinates": {"latitude": 53.4221, "longitude": 10.0113}, "transactions": [], "price": "\u20ac\u20ac", "location": {"address1": "B\u00fcrgerm-Heitmann-Str. 85", "address2": null, "address3": null, "city": "Seevetal", "zip_code": "21217", "country": "DE", "state": "NI", "display_address": ["B\u00fcrgerm-Heitmann-Str. 85", "21217 Seevetal", "Germany"]}, "phone": "+49407685997", "display_phone": "+49 40 7685997", "distance": 1476.5374676933445}, {"id": "RpZVnL5yUtAT_ekn5Pl1Hw", "alias": "bier-apotheke-seevetal", "name": "Bier-Apotheke", "image_url": "https://s3-media2.fl.yelpcdn.com/bphoto/jAY7x26l4cQZSw4QKtqHjw/o.jpg", "is_closed": false, "url": "https://www.yelp.com/biz/bier-apotheke-seevetal?adjust_creative=hBJOknVQJ58S5goQyjmwRw&utm_campaign=yelp_api_v3&utm_medium=api_v3_business_search&utm_source=hBJOknVQJ58S5goQyjmwRw", "review_count": 3, "categories": [{"alias": "pubs", "title": "Pubs"}, {"alias": "sportsbars", "title": "Sports Bars"}, {"alias": "restaurants", "title": "Restaurants"}], "rating": 4.5, "coordinates": {"latitude": 53.4208, "longitude": 10.0249}, "transactions": [], "price": "\u20ac\u20ac", "location": {"address1": "Am Felde 18", "address2": null, "address3": null, "city": "Seevetal", "zip_code": "21217", "country": "DE", "state": "NI", "display_address": ["Am Felde 18", "21217 Seevetal", "Germany"]}, "phone": "+49407686776", "display_phone": "+49 40 7686776", "distance": 1008.9877812064238}, {"id": "b46QX6Nbw6Tqe1qMWGd7sg", "alias": "goldener-buddha-seevetal", "name": "Goldener Buddha", "image_url": "https://s3-media4.fl.yelpcdn.com/bphoto/JYZHI3sIY3JmZ1qHtWmeVA/o.jpg", "is_closed": false, "url": "https://www.yelp.com/biz/goldener-buddha-seevetal?adjust_creative=hBJOknVQJ58S5goQyjmwRw&utm_campaign=yelp_api_v3&utm_medium=api_v3_business_search&utm_source=hBJOknVQJ58S5goQyjmwRw", "review_count": 21, "categories": [{"alias": "chinese", "title": "Chinese"}], "rating": 3.5, "coordinates": {"latitude": 53.4168, "longitude": 10.0203}, "transactions": [], "price": "\u20ac\u20ac", "location": {"address1": "Gl\u00fcsinger Str. 54", "address2": null, "address3": null, "city": "Seevetal", "zip_code": "21217", "country": "DE", "state": "NI", "display_address": ["Gl\u00fcsinger Str. 54", "21217 Seevetal", "Germany"]}, "phone": "+49407681046", "display_phone": "+49 40 7681046", "distance": 651.2030667475332}, {"id": "v0MuvytyXWDq07H_FwFH3g", "alias": "poseidon-seevetal", "name": "Poseidon", "image_url": "https://s3-media3.fl.yelpcdn.com/bphoto/pxElETpWJd4rcopI6KQHoQ/o.jpg", "is_closed": false, "url": "https://www.yelp.com/biz/poseidon-seevetal?adjust_creative=hBJOknVQJ58S5goQyjmwRw&utm_campaign=yelp_api_v3&utm_medium=api_v3_business_search&utm_source=hBJOknVQJ58S5goQyjmwRw", "review_count": 3, "categories": [{"alias": "greek", "title": "Greek"}], "rating": 4.0, "coordinates": {"latitude": 53.42236, "longitude": 10.0153}, "transactions": [], "location": {"address1": "B\u00fcrgermeister-Heitmann-Str. 34 C", "address2": "", "address3": null, "city": "Seevetal", "zip_code": "21217", "country": "DE", "state": "NI", "display_address": ["B\u00fcrgermeister-Heitmann-Str. 34 C", "21217 Seevetal", "Germany"]}, "phone": "+494069601330", "display_phone": "+49 40 69601330", "distance": 1352.466178767308}, {"id": "JSPcrGVUT26N2bqIuvtAgA", "alias": "meyers-gasthaus-seevetal", "name": "Meyer's Gasthaus", "image_url": "https://s3-media1.fl.yelpcdn.com/bphoto/TSk1quYltPvXUqW3xXsfuw/o.jpg", "is_closed": false, "url": "https://www.yelp.com/biz/meyers-gasthaus-seevetal?adjust_creative=hBJOknVQJ58S5goQyjmwRw&utm_campaign=yelp_api_v3&utm_medium=api_v3_business_search&utm_source=hBJOknVQJ58S5goQyjmwRw", "review_count": 10, "categories": [{"alias": "hotels", "title": "Hotels"}, {"alias": "german", "title": "German"}], "rating": 4.0, "coordinates": {"latitude": 53.3985, "longitude": 10.0457}, "transactions": [], "price": "\u20ac\u20ac", "location": {"address1": "Alte Bahnhofstr. 19", "address2": null, "address3": null, "city": "Seevetal", "zip_code": "21220", "country": "DE", "state": "NI", "display_address": ["Alte Bahnhofstr. 19", "21220 Seevetal", "Germany"]}, "phone": "+49410582615", "display_phone": "+49 4105 82615", "distance": 2001.9976998514737}, {"id": "2U7By3s0y2xQhh-ruu1h2g", "alias": "a-l\u00e1-mama-seevetal", "name": "A L\u00e1 Mama", "image_url": "https://s3-media2.fl.yelpcdn.com/bphoto/SrcvtZYT99K_gwpYNlj_vg/o.jpg", "is_closed": false, "url": "https://www.yelp.com/biz/a-l%C3%A1-mama-seevetal?adjust_creative=hBJOknVQJ58S5goQyjmwRw&utm_campaign=yelp_api_v3&utm_medium=api_v3_business_search&utm_source=hBJOknVQJ58S5goQyjmwRw", "review_count": 1, "categories": [{"alias": "kebab", "title": "Kebab"}, {"alias": "hotdogs", "title": "Fast Food"}], "rating": 4.0, "coordinates": {"latitude": 53.393073, "longitude": 10.037065}, "transactions": [], "price": "\u20ac", "location": {"address1": "Schulstr. 10", "address2": "", "address3": null, "city": "Seevetal", "zip_code": "21220", "country": "DE", "state": "NI", "display_address": ["Schulstr. 10", "21220 Seevetal", "Germany"]}, "phone": "+4941056527667", "display_phone": "+49 4105 6527667", "distance": 2218.167496986638}, {"id": "RGUXwvfaYmRFORYMnjC7TA", "alias": "la-boca-seevetal", "name": "La Boca", "image_url": "https://s3-media4.fl.yelpcdn.com/bphoto/BQVIKjLqUDtfs9YkIHVLnw/o.jpg", "is_closed": false, "url": "https://www.yelp.com/biz/la-boca-seevetal?adjust_creative=hBJOknVQJ58S5goQyjmwRw&utm_campaign=yelp_api_v3&utm_medium=api_v3_business_search&utm_source=hBJOknVQJ58S5goQyjmwRw", "review_count": 4, "categories": [{"alias": "steak", "title": "Steakhouses"}], "rating": 4.0, "coordinates": {"latitude": 53.40826, "longitude": 10.016245}, "transactions": [], "price": "\u20ac\u20ac", "location": {"address1": "Gl\u00fcsinger Str. 123", "address2": "", "address3": "", "city": "Seevetal", "zip_code": "21217", "country": "DE", "state": "NI", "display_address": ["Gl\u00fcsinger Str. 123", "21217 Seevetal", "Germany"]}, "phone": "+494105152688", "display_phone": "+49 4105 152688", "distance": 701.2001973680194}, {"id": "lQIqGbPNK2jLB7Vq7NHdcQ", "alias": "asia-bistro-ha-my-seevetal-2", "name": "Asia-Bistro Ha-My", "image_url": "https://s3-media3.fl.yelpcdn.com/bphoto/MGhWmZMJBYQZRmsSmaY71Q/o.jpg", "is_closed": false, "url": "https://www.yelp.com/biz/asia-bistro-ha-my-seevetal-2?adjust_creative=hBJOknVQJ58S5goQyjmwRw&utm_campaign=yelp_api_v3&utm_medium=api_v3_business_search&utm_source=hBJOknVQJ58S5goQyjmwRw", "review_count": 2, "categories": [{"alias": "hotdogs", "title": "Fast Food"}, {"alias": "foodstands", "title": "Food Stands"}, {"alias": "panasian", "title": "Pan Asian"}], "rating": 3.5, "coordinates": {"latitude": 53.3973, "longitude": 10.0442}, "transactions": [], "price": "\u20ac\u20ac", "location": {"address1": "Alte Bahnhofstr. 6", "address2": null, "address3": null, "city": "Seevetal", "zip_code": "21220", "country": "DE", "state": "NI", "display_address": ["Alte Bahnhofstr. 6", "21220 Seevetal", "Germany"]}, "phone": "+49410581592", "display_phone": "+49 4105 81592", "distance": 2039.158749964958}, {"id": "VPnbRnsLFoVTLhjgMufPPg", "alias": "mysteaks-seevetal", "name": "MySteaks", "image_url": "https://s3-media2.fl.yelpcdn.com/bphoto/acyZK_x_e7Vkm01aBQg1EQ/o.jpg", "is_closed": false, "url": "https://www.yelp.com/biz/mysteaks-seevetal?adjust_creative=hBJOknVQJ58S5goQyjmwRw&utm_campaign=yelp_api_v3&utm_medium=api_v3_business_search&utm_source=hBJOknVQJ58S5goQyjmwRw", "review_count": 2, "categories": [{"alias": "steak", "title": "Steakhouses"}], "rating": 5.0, "coordinates": {"latitude": 53.39422, "longitude": 10.0372}, "transactions": [], "price": "\u20ac\u20ac", "location": {"address1": "Schulstr. 23", "address2": "", "address3": null, "city": "Seevetal", "zip_code": "21220", "country": "DE", "state": "NI", "display_address": ["Schulstr. 23", "21220 Seevetal", "Germany"]}, "phone": "+4941056927927", "display_phone": "+49 4105 6927927", "distance": 2102.746209353614}, {"id": "wGI7bc8xPGfRyipbLUpuJQ", "alias": "alte-schule-seevetal", "name": "Alte Schule", "image_url": "https://s3-media2.fl.yelpcdn.com/bphoto/qUEo_jQPTHkMzP-ywf4r-A/o.jpg", "is_closed": false, "url": "https://www.yelp.com/biz/alte-schule-seevetal?adjust_creative=hBJOknVQJ58S5goQyjmwRw&utm_campaign=yelp_api_v3&utm_medium=api_v3_business_search&utm_source=hBJOknVQJ58S5goQyjmwRw", "review_count": 2, "categories": [{"alias": "german", "title": "German"}], "rating": 3.5, "coordinates": {"latitude": 53.3942201909401, "longitude": 10.0371999666095}, "transactions": [], "location": {"address1": "Schulstr. 23", "address2": "", "address3": null, "city": "Seevetal", "zip_code": "21220", "country": "DE", "state": "NI", "display_address": ["Schulstr. 23", "21220 Seevetal", "Germany"]}, "phone": "+4941056927927", "display_phone": "+49 4105 6927927", "distance": 2102.725715327374}, {"id": "cN8AZ0WIpZPqf-Gp_ktrHA", "alias": "china-express-seevetal", "name": "China Express", "image_url": "https://s3-media4.fl.yelpcdn.com/bphoto/_5o-dKSR7EfbBaoPPJAg_A/o.jpg", "is_closed": false, "url": "https://www.yelp.com/biz/china-express-seevetal?adjust_creative=hBJOknVQJ58S5goQyjmwRw&utm_campaign=yelp_api_v3&utm_medium=api_v3_business_search&utm_source=hBJOknVQJ58S5goQyjmwRw", "review_count": 9, "categories": [{"alias": "chinese", "title": "Chinese"}], "rating": 4.0, "coordinates": {"latitude": 53.4200282, "longitude": 10.0209824}, "transactions": [], "price": "\u20ac\u20ac", "location": {"address1": "Gluesinger Str. 22", "address2": null, "address3": null, "city": "Seevetal", "zip_code": "21217", "country": "DE", "state": "NI", "display_address": ["Gluesinger Str. 22", "21217 Seevetal", "Germany"]}, "phone": "+494076759963", "display_phone": "+49 40 76759963", "distance": 964.5800877315311}, {"id": "ZvCXfKNbGRtyPno_XwkGgg", "alias": "restaurant-r\u00f6nneburger-park-hamburg", "name": "Restaurant R\u00f6nneburger Park", "image_url": "https://s3-media1.fl.yelpcdn.com/bphoto/xa5OacYVadeNgmgOjQLHdQ/o.jpg", "is_closed": false, "url": "https://www.yelp.com/biz/restaurant-r%C3%B6nneburger-park-hamburg?adjust_creative=hBJOknVQJ58S5goQyjmwRw&utm_campaign=yelp_api_v3&utm_medium=api_v3_business_search&utm_source=hBJOknVQJ58S5goQyjmwRw", "review_count": 12, "categories": [{"alias": "greek", "title": "Greek"}], "rating": 4.0, "coordinates": {"latitude": 53.4371, "longitude": 10.0043}, "transactions": [], "price": "\u20ac\u20ac", "location": {"address1": "K\u00fcstersweg 15", "address2": null, "address3": null, "city": "Hamburg", "zip_code": "21079", "country": "DE", "state": "HH", "display_address": ["K\u00fcstersweg 15", "21079 Hamburg", "Germany"]}, "phone": "+494070973551", "display_phone": "+49 40 70973551", "distance": 3143.1437426504153}, {"id": "yjEueSbnyjuK2-HAZQ086g", "alias": "batmans-dinner-seevetal", "name": "Batman's Dinner", "image_url": "https://s3-media3.fl.yelpcdn.com/bphoto/TPGzRLu73n_DTOtadiKWxw/o.jpg", "is_closed": false, "url": "https://www.yelp.com/biz/batmans-dinner-seevetal?adjust_creative=hBJOknVQJ58S5goQyjmwRw&utm_campaign=yelp_api_v3&utm_medium=api_v3_business_search&utm_source=hBJOknVQJ58S5goQyjmwRw", "review_count": 1, "categories": [{"alias": "hotdogs", "title": "Fast Food"}], "rating": 5.0, "coordinates": {"latitude": 53.39493, "longitude": 10.03995}, "transactions": [], "location": {"address1": "Schulstr. 28 a", "address2": "Maschen", "address3": null, "city": "Seevetal", "zip_code": "21220", "country": "DE", "state": "NI", "display_address": ["Schulstr. 28 a", "Maschen", "21220 Seevetal", "Germany"]}, "phone": "+494105599245", "display_phone": "+49 4105 599245", "distance": 2101.315254106156}, {"id": "CW8OV3BVxikixMJrqVS7YQ", "alias": "taverna-kreta-seevetal", "name": "Taverna Kreta", "image_url": "", "is_closed": false, "url": "https://www.yelp.com/biz/taverna-kreta-seevetal?adjust_creative=hBJOknVQJ58S5goQyjmwRw&utm_campaign=yelp_api_v3&utm_medium=api_v3_business_search&utm_source=hBJOknVQJ58S5goQyjmwRw", "review_count": 1, "categories": [{"alias": "greek", "title": "Greek"}], "rating": 4.0, "coordinates": {"latitude": 53.42275, "longitude": 10.0299099}, "transactions": [], "price": "\u20ac\u20ac", "location": {"address1": "Am Felde 51", "address2": null, "address3": null, "city": "Seevetal", "zip_code": "21217", "country": "DE", "state": "NI", "display_address": ["Am Felde 51", "21217 Seevetal", "Germany"]}, "phone": "+494076114011", "display_phone": "+49 40 76114011", "distance": 1264.5320722033475}, {"id": "UE-1d29OEoGaBKgyZfmsnQ", "alias": "schnurr-bart-seevetal", "name": "Schnurr-Bart", "image_url": "https://s3-media2.fl.yelpcdn.com/bphoto/2db7UH7qOD35M__0wZKt4w/o.jpg", "is_closed": false, "url": "https://www.yelp.com/biz/schnurr-bart-seevetal?adjust_creative=hBJOknVQJ58S5goQyjmwRw&utm_campaign=yelp_api_v3&utm_medium=api_v3_business_search&utm_source=hBJOknVQJ58S5goQyjmwRw", "review_count": 20, "categories": [{"alias": "bars", "title": "Bars"}, {"alias": "german", "title": "German"}, {"alias": "breakfast_brunch", "title": "Breakfast & Brunch"}], "rating": 3.5, "coordinates": {"latitude": 53.42342, "longitude": 10.02082}, "transactions": [], "price": "\u20ac\u20ac", "location": {"address1": "R\u00f6nneburger Str. 12", "address2": "", "address3": null, "city": "Seevetal", "zip_code": "21217", "country": "DE", "state": "NI", "display_address": ["R\u00f6nneburger Str. 12", "21217 Seevetal", "Germany"]}, "phone": "+49407688040", "display_phone": "+49 40 7688040", "distance": 1332.286178984053}, {"id": "1YPoKTBjDprApFZ7ve7AnA", "alias": "moon-food-seevetal", "name": "Moon Food", "image_url": "https://s3-media3.fl.yelpcdn.com/bphoto/vZtD78ifK70cOgbGR3rcHA/o.jpg", "is_closed": false, "url": "https://www.yelp.com/biz/moon-food-seevetal?adjust_creative=hBJOknVQJ58S5goQyjmwRw&utm_campaign=yelp_api_v3&utm_medium=api_v3_business_search&utm_source=hBJOknVQJ58S5goQyjmwRw", "review_count": 1, "categories": [{"alias": "kebab", "title": "Kebab"}, {"alias": "pizza", "title": "Pizza"}, {"alias": "sandwiches", "title": "Sandwiches"}], "rating": 4.0, "coordinates": {"latitude": 53.42226, "longitude": 10.02445}, "transactions": [], "price": "\u20ac", "location": {"address1": "An den H\u00f6fen 24", "address2": "", "address3": null, "city": "Seevetal", "zip_code": "21217", "country": "DE", "state": "NI", "display_address": ["An den H\u00f6fen 24", "21217 Seevetal", "Germany"]}, "phone": "+494018119280", "display_phone": "+49 40 18119280", "distance": 1169.9540009822013}, {"id": "3a0yvBPCr-6AA46liTbHrA", "alias": "nikos-gyros-palast-maschen-seevetal", "name": "Nikos Gyros Palast", "image_url": "https://s3-media1.fl.yelpcdn.com/bphoto/5H_q8lEAeXpMhBf7hKe2Lg/o.jpg", "is_closed": false, "url": "https://www.yelp.com/biz/nikos-gyros-palast-maschen-seevetal?adjust_creative=hBJOknVQJ58S5goQyjmwRw&utm_campaign=yelp_api_v3&utm_medium=api_v3_business_search&utm_source=hBJOknVQJ58S5goQyjmwRw", "review_count": 21, "categories": [{"alias": "greek", "title": "Greek"}], "rating": 4.0, "coordinates": {"latitude": 53.3772, "longitude": 10.0347}, "transactions": [], "price": "\u20ac\u20ac", "location": {"address1": "Horster Landstr. 121", "address2": "", "address3": null, "city": "Maschen - Seevetal", "zip_code": "21220", "country": "DE", "state": "NI", "display_address": ["Horster Landstr. 121", "21220 Maschen - Seevetal", "Germany"]}, "phone": "+494105668534", "display_phone": "+49 4105 668534", "distance": 3890.519871142375}, {"id": "k-yuRshvkiuH_YKsfCADqw", "alias": "zozo-seevetal", "name": "ZOZO", "image_url": "", "is_closed": false, "url": "https://www.yelp.com/biz/zozo-seevetal?adjust_creative=hBJOknVQJ58S5goQyjmwRw&utm_campaign=yelp_api_v3&utm_medium=api_v3_business_search&utm_source=hBJOknVQJ58S5goQyjmwRw", "review_count": 1, "categories": [{"alias": "german", "title": "German"}], "rating": 4.0, "coordinates": {"latitude": 53.38609, "longitude": 10.02984}, "transactions": [], "location": {"address1": "Unner de Bult 39", "address2": "", "address3": null, "city": "Seevetal", "zip_code": "21220", "country": "DE", "state": "NI", "display_address": ["Unner de Bult 39", "21220 Seevetal", "Germany"]}, "phone": "+4917623308480", "display_phone": "+49 176 23308480", "distance": 2883.826505409242}, {"id": "y6YdR41FdfoQpQ9F55ALVw", "alias": "soetebiers-dorfb\u00e4ckerei-seevetal-3", "name": "Soetebiers Dorfb\u00e4ckerei", "image_url": "https://s3-media3.fl.yelpcdn.com/bphoto/xgTP88gm5-u23IglDYKPAQ/o.jpg", "is_closed": false, "url": "https://www.yelp.com/biz/soetebiers-dorfb%C3%A4ckerei-seevetal-3?adjust_creative=hBJOknVQJ58S5goQyjmwRw&utm_campaign=yelp_api_v3&utm_medium=api_v3_business_search&utm_source=hBJOknVQJ58S5goQyjmwRw", "review_count": 3, "categories": [{"alias": "bakeries", "title": "Bakeries"}, {"alias": "cafes", "title": "Cafes"}, {"alias": "breakfast_brunch", "title": "Breakfast & Brunch"}], "rating": 4.5, "coordinates": {"latitude": 53.38327, "longitude": 10.03661}, "transactions": [], "price": "\u20ac", "location": {"address1": "Horster Landstr. 64", "address2": "", "address3": null, "city": "Seevetal", "zip_code": "21220", "country": "DE", "state": "NI", "display_address": ["Horster Landstr. 64", "21220 Seevetal", "Germany"]}, "phone": "+494105669444", "display_phone": "+49 4105 669444", "distance": 3253.3516586267892}, {"id": "mENn7IU3YB42_13jVDbJow", "alias": "maschener-eiscafe-seevetal", "name": "Maschener Eiscafe", "image_url": "https://s3-media1.fl.yelpcdn.com/bphoto/RIbXiBxSqEXkrImpME-nsQ/o.jpg", "is_closed": false, "url": "https://www.yelp.com/biz/maschener-eiscafe-seevetal?adjust_creative=hBJOknVQJ58S5goQyjmwRw&utm_campaign=yelp_api_v3&utm_medium=api_v3_business_search&utm_source=hBJOknVQJ58S5goQyjmwRw", "review_count": 17, "categories": [{"alias": "icecream", "title": "Ice Cream & Frozen Yogurt"}, {"alias": "cafes", "title": "Cafes"}], "rating": 4.5, "coordinates": {"latitude": 53.3775, "longitude": 10.03433}, "transactions": [], "price": "\u20ac", "location": {"address1": "Horster Landstr. 118", "address2": null, "address3": null, "city": "Seevetal", "zip_code": "21220", "country": "DE", "state": "NI", "display_address": ["Horster Landstr. 118", "21220 Seevetal", "Germany"]}, "phone": "+49410585467", "display_phone": "+49 4105 85467", "distance": 3845.815189736304}, {"id": "zZAiLx6p1vM4UkE40o3VIg", "alias": "cafe-rund-seevetal", "name": "Cafe Rund", "image_url": "", "is_closed": false, "url": "https://www.yelp.com/biz/cafe-rund-seevetal?adjust_creative=hBJOknVQJ58S5goQyjmwRw&utm_campaign=yelp_api_v3&utm_medium=api_v3_business_search&utm_source=hBJOknVQJ58S5goQyjmwRw", "review_count": 1, "categories": [{"alias": "cafes", "title": "Cafes"}, {"alias": "coffee", "title": "Coffee & Tea"}], "rating": 1.0, "coordinates": {"latitude": 53.4204, "longitude": 10.0226}, "transactions": [], "location": {"address1": "Am Felde 4", "address2": null, "address3": null, "city": "Seevetal", "zip_code": "21217", "country": "DE", "state": "NI", "display_address": ["Am Felde 4", "21217 Seevetal", "Germany"]}, "phone": "+494075116144", "display_phone": "+49 40 75116144", "distance": 979.7106165803152}, {"id": "2jzIbZsfzca5drJYk7JwbQ", "alias": "the-bao-bros-hamburg-2", "name": "The Bao Bros", "image_url": "https://s3-media1.fl.yelpcdn.com/bphoto/vUMA4Y35x3UwZk6fMJfZRw/o.jpg", "is_closed": false, "url": "https://www.yelp.com/biz/the-bao-bros-hamburg-2?adjust_creative=hBJOknVQJ58S5goQyjmwRw&utm_campaign=yelp_api_v3&utm_medium=api_v3_business_search&utm_source=hBJOknVQJ58S5goQyjmwRw", "review_count": 2, "categories": [{"alias": "foodtrucks", "title": "Food Trucks"}, {"alias": "burgers", "title": "Burgers"}], "rating": 4.0, "coordinates": {"latitude": 53.5533409118652, "longitude": 9.99246978759766}, "transactions": [], "price": "\u20ac", "location": {"address1": "", "address2": "", "address3": "", "city": "Hamburg", "zip_code": "", "country": "DE", "state": "HH", "display_address": ["Hamburg", "Germany"]}, "phone": "+4915140700076", "display_phone": "+49 1514 0700076", "distance": 15635.568854118703}, {"id": "VqKI2tR7tNUCzDPEZkDl6A", "alias": "schr\u00f6ders-imbiss-seevetal", "name": "Schr\u00f6der's Imbiss", "image_url": "https://s3-media3.fl.yelpcdn.com/bphoto/9Q7sQ1TGhp5mkCKHSKbL5g/o.jpg", "is_closed": false, "url": "https://www.yelp.com/biz/schr%C3%B6ders-imbiss-seevetal?adjust_creative=hBJOknVQJ58S5goQyjmwRw&utm_campaign=yelp_api_v3&utm_medium=api_v3_business_search&utm_source=hBJOknVQJ58S5goQyjmwRw", "review_count": 1, "categories": [{"alias": "hotdogs", "title": "Fast Food"}], "rating": 4.0, "coordinates": {"latitude": 53.39025, "longitude": 10.02689}, "transactions": [], "price": "\u20ac", "location": {"address1": "R\u00fcbenkamp 17", "address2": "", "address3": "", "city": "Seevetal", "zip_code": "21220", "country": "DE", "state": "NI", "display_address": ["R\u00fcbenkamp 17", "21220 Seevetal", "Germany"]}, "phone": "+494105556965", "display_phone": "+49 4105 556965", "distance": 2431.9457749056974}]