[{"id": "6njTD0ZBG9O-y1O2jm7Ddg", "alias": "restaurant-bei-kosta-rosengarten", "name": "Restaurant Bei Kosta", "image_url": "https://s3-media3.fl.yelpcdn.com/bphoto/g_jw2QwzOPdSPjS7IxQCiw/o.jpg", "is_closed": false, "url": "https://www.yelp.com/biz/restaurant-bei-kosta-rosengarten?adjust_creative=hBJOknVQJ58S5goQyjmwRw&utm_campaign=yelp_api_v3&utm_medium=api_v3_business_search&utm_source=hBJOknVQJ58S5goQyjmwRw", "review_count": 1, "categories": [{"alias": "greek", "title": "Greek"}], "rating": 5.0, "coordinates": {"latitude": 53.4024, "longitude": 9.87778}, "transactions": [], "location": {"address1": "Hauptstr. 4", "address2": "", "address3": "", "city": "Rosengarten", "zip_code": "21224", "country": "DE", "state": "NI", "display_address": ["Hauptstr. 4", "21224 Rosengarten", "Germany"]}, "phone": "+4941087128", "display_phone": "+49 4108 7128", "distance": 1176.943815976268}, {"id": "EEKdJbl4YyUORyUArak_XQ", "alias": "fritz-peters-rosengarten", "name": "Fritz Peters", "image_url": "https://s3-media3.fl.yelpcdn.com/bphoto/UGE4CQJtibWq9ylzGsd2XQ/o.jpg", "is_closed": false, "url": "https://www.yelp.com/biz/fritz-peters-rosengarten?adjust_creative=hBJOknVQJ58S5goQyjmwRw&utm_campaign=yelp_api_v3&utm_medium=api_v3_business_search&utm_source=hBJOknVQJ58S5goQyjmwRw", "review_count": 2, "categories": [{"alias": "restaurants", "title": "Restaurants"}], "rating": 4.5, "coordinates": {"latitude": 53.4089, "longitude": 9.88543}, "transactions": [], "price": "\u20ac", "location": {"address1": "Quellenweg 2", "address2": null, "address3": null, "city": "Rosengarten", "zip_code": "21224", "country": "DE", "state": "NI", "display_address": ["Quellenweg 2", "21224 Rosengarten", "Germany"]}, "phone": "+4941083102", "display_phone": "+49 4108 3102", "distance": 835.3825050371281}, {"id": "ELshs9ioj0Uzv9_AXAGdaw", "alias": "restaurant-waldsch\u00e4nke-rosengarten", "name": "Restaurant Waldsch\u00e4nke", "image_url": "https://s3-media2.fl.yelpcdn.com/bphoto/w_zxuXGGNDob86c2BfIcxA/o.jpg", "is_closed": false, "url": "https://www.yelp.com/biz/restaurant-waldsch%C3%A4nke-rosengarten?adjust_creative=hBJOknVQJ58S5goQyjmwRw&utm_campaign=yelp_api_v3&utm_medium=api_v3_business_search&utm_source=hBJOknVQJ58S5goQyjmwRw", "review_count": 4, "categories": [{"alias": "german", "title": "German"}], "rating": 4.5, "coordinates": {"latitude": 53.4071, "longitude": 9.85659}, "transactions": [], "location": {"address1": "Rosengartenstr. 2", "address2": null, "address3": null, "city": "Rosengarten", "zip_code": "21224", "country": "DE", "state": "NI", "display_address": ["Rosengartenstr. 2", "21224 Rosengarten", "Germany"]}, "phone": "+4941087316", "display_phone": "+49 4108 7316", "distance": 1369.0192860262623}, {"id": "wpGydxJrBuTsmNYuSBD8Mw", "alias": "rosengarten-grillhaus-rosengarten", "name": "Rosengarten Grillhaus", "image_url": "", "is_closed": false, "url": "https://www.yelp.com/biz/rosengarten-grillhaus-rosengarten?adjust_creative=hBJOknVQJ58S5goQyjmwRw&utm_campaign=yelp_api_v3&utm_medium=api_v3_business_search&utm_source=hBJOknVQJ58S5goQyjmwRw", "review_count": 1, "categories": [{"alias": "kebab", "title": "Kebab"}, {"alias": "salad", "title": "Salad"}, {"alias": "currysausage", "title": "Curry Sausage"}], "rating": 5.0, "coordinates": {"latitude": 53.40707, "longitude": 9.89029}, "transactions": [], "location": {"address1": "Hauptstr. 39", "address2": "", "address3": null, "city": "Rosengarten", "zip_code": "21224", "country": "DE", "state": "NI", "display_address": ["Hauptstr. 39", "21224 Rosengarten", "Germany"]}, "phone": "+4941084899993", "display_phone": "+49 4108 4899993", "distance": 1221.9468515190063}, {"id": "TI2orC_tUrfypZpFjXbLOg", "alias": "come-inn-rosengarten", "name": "Come inn", "image_url": "", "is_closed": false, "url": "https://www.yelp.com/biz/come-inn-rosengarten?adjust_creative=hBJOknVQJ58S5goQyjmwRw&utm_campaign=yelp_api_v3&utm_medium=api_v3_business_search&utm_source=hBJOknVQJ58S5goQyjmwRw", "review_count": 2, "categories": [{"alias": "hotdogs", "title": "Fast Food"}], "rating": 3.0, "coordinates": {"latitude": 53.4068, "longitude": 9.89273}, "transactions": [], "location": {"address1": "Hauptstr. 39", "address2": null, "address3": null, "city": "Rosengarten", "zip_code": "21224", "country": "DE", "state": "NI", "display_address": ["Hauptstr. 39", "21224 Rosengarten", "Germany"]}, "phone": "+494108413984", "display_phone": "+49 4108 413984", "distance": 1370.4659545184034}, {"id": "ykRtViJfcQxt1VKtK-ojcg", "alias": "wildpark-restaurant-rosengarten", "name": "Wildpark-Restaurant", "image_url": "https://s3-media3.fl.yelpcdn.com/bphoto/BPB2FUuYfd0v8KyznZ31YQ/o.jpg", "is_closed": false, "url": "https://www.yelp.com/biz/wildpark-restaurant-rosengarten?adjust_creative=hBJOknVQJ58S5goQyjmwRw&utm_campaign=yelp_api_v3&utm_medium=api_v3_business_search&utm_source=hBJOknVQJ58S5goQyjmwRw", "review_count": 6, "categories": [{"alias": "german", "title": "German"}], "rating": 3.5, "coordinates": {"latitude": 53.4415452, "longitude": 9.8886414}, "transactions": [], "price": "\u20ac\u20ac", "location": {"address1": "Am Wildpark 1", "address2": null, "address3": "", "city": "Rosengarten", "zip_code": "21224", "country": "DE", "state": "BW", "display_address": ["Am Wildpark 1", "21224 Rosengarten", "Germany"]}, "phone": "+4940819774740", "display_phone": "+49 40 819774740", "distance": 3339.8386629709826}, {"id": "sv5L_hgf5LseYmGlwvPDNA", "alias": "gasthaus-zum-kiekeberg-rosengarten-3", "name": "Gasthaus zum Kiekeberg", "image_url": "https://s3-media4.fl.yelpcdn.com/bphoto/HszIqYtBygj2IZ0nizab_g/o.jpg", "is_closed": false, "url": "https://www.yelp.com/biz/gasthaus-zum-kiekeberg-rosengarten-3?adjust_creative=hBJOknVQJ58S5goQyjmwRw&utm_campaign=yelp_api_v3&utm_medium=api_v3_business_search&utm_source=hBJOknVQJ58S5goQyjmwRw", "review_count": 17, "categories": [{"alias": "german", "title": "German"}, {"alias": "gastropubs", "title": "Gastropubs"}], "rating": 3.5, "coordinates": {"latitude": 53.4396, "longitude": 9.89928}, "transactions": [], "price": "\u20ac\u20ac", "location": {"address1": "Am Kiekeberg 5", "address2": null, "address3": null, "city": "Rosengarten", "zip_code": "21224", "country": "DE", "state": "NI", "display_address": ["Am Kiekeberg 5", "21224 Rosengarten", "Germany"]}, "phone": "+49407905021", "display_phone": "+49 40 7905021", "distance": 3381.0790329105016}, {"id": "0Sr4gLsxW7lthpSHSvQiLA", "alias": "waldsch\u00e4nke-hamburg", "name": "Waldsch\u00e4nke", "image_url": "", "is_closed": false, "url": "https://www.yelp.com/biz/waldsch%C3%A4nke-hamburg?adjust_creative=hBJOknVQJ58S5goQyjmwRw&utm_campaign=yelp_api_v3&utm_medium=api_v3_business_search&utm_source=hBJOknVQJ58S5goQyjmwRw", "review_count": 2, "categories": [{"alias": "german", "title": "German"}], "rating": 3.0, "coordinates": {"latitude": 53.45065, "longitude": 9.86819}, "transactions": [], "location": {"address1": "Falkenbergsweg 153", "address2": "", "address3": "", "city": "Hamburg", "zip_code": "21149", "country": "DE", "state": "HH", "display_address": ["Falkenbergsweg 153", "21149 Hamburg", "Germany"]}, "phone": "+49407015595", "display_phone": "+49 40 7015595", "distance": 4217.584271908706}, {"id": "oXxMdWPxtjqXdlHMM145lA", "alias": "china-restaurant-jade-rosengarten", "name": "China-Restaurant Jade", "image_url": "https://s3-media2.fl.yelpcdn.com/bphoto/P_Gy-fn06-gRqSxhq18PeQ/o.jpg", "is_closed": false, "url": "https://www.yelp.com/biz/china-restaurant-jade-rosengarten?adjust_creative=hBJOknVQJ58S5goQyjmwRw&utm_campaign=yelp_api_v3&utm_medium=api_v3_business_search&utm_source=hBJOknVQJ58S5goQyjmwRw", "review_count": 9, "categories": [{"alias": "chinese", "title": "Chinese"}], "rating": 3.5, "coordinates": {"latitude": 53.3788, "longitude": 9.89448}, "transactions": [], "price": "\u20ac", "location": {"address1": "Bremer Str. 59", "address2": null, "address3": null, "city": "Rosengarten", "zip_code": "21224", "country": "DE", "state": "NI", "display_address": ["Bremer Str. 59", "21224 Rosengarten", "Germany"]}, "phone": "+4941088647", "display_phone": "+49 4108 8647", "distance": 4012.8363688463596}, {"id": "QyjsnQNKCaswI-0sCobI6Q", "alias": "cordes-restaurant-rosengarten", "name": "Cordes Restaurant", "image_url": "https://s3-media4.fl.yelpcdn.com/bphoto/vhCV0L7HwuaMBlBHlyFnJA/o.jpg", "is_closed": false, "url": "https://www.yelp.com/biz/cordes-restaurant-rosengarten?adjust_creative=hBJOknVQJ58S5goQyjmwRw&utm_campaign=yelp_api_v3&utm_medium=api_v3_business_search&utm_source=hBJOknVQJ58S5goQyjmwRw", "review_count": 9, "categories": [{"alias": "german", "title": "German"}], "rating": 2.5, "coordinates": {"latitude": 53.42367, "longitude": 9.89772}, "transactions": [], "location": {"address1": "Sottorfer Dorfstr. 2", "address2": "", "address3": null, "city": "Rosengarten", "zip_code": "21224", "country": "DE", "state": "NI", "display_address": ["Sottorfer Dorfstr. 2", "21224 Rosengarten", "Germany"]}, "phone": "+49410843440", "display_phone": "+49 4108 43440", "distance": 1925.7364774417906}, {"id": "VbfhaETEByAuRuq5Lr37Jg", "alias": "b\u00f6ttchers-gasthaus-rosengarten-2", "name": "B\u00f6ttchers Gasthaus", "image_url": "", "is_closed": false, "url": "https://www.yelp.com/biz/b%C3%B6ttchers-gasthaus-rosengarten-2?adjust_creative=hBJOknVQJ58S5goQyjmwRw&utm_campaign=yelp_api_v3&utm_medium=api_v3_business_search&utm_source=hBJOknVQJ58S5goQyjmwRw", "review_count": 4, "categories": [{"alias": "northerngerman", "title": "Northern German"}], "rating": 3.0, "coordinates": {"latitude": 53.3797799, "longitude": 9.89579}, "transactions": [], "location": {"address1": "Bremer Str. 44", "address2": "", "address3": "", "city": "Rosengarten", "zip_code": "21224", "country": "DE", "state": "NI", "display_address": ["Bremer Str. 44", "21224 Rosengarten", "Germany"]}, "phone": "+4941087147", "display_phone": "+49 4108 7147", "distance": 3900.427990123623}]