[{"id": "YLoGj1U0_jJy1Hf3nx-FaQ", "alias": "erhorns-das-restaurant-rosengarten", "name": "Erhorns das Restaurant", "image_url": "https://s3-media1.fl.yelpcdn.com/bphoto/fDSNQjFmfR13KJ3xNJAa8A/o.jpg", "is_closed": false, "url": "https://www.yelp.com/biz/erhorns-das-restaurant-rosengarten?adjust_creative=hBJOknVQJ58S5goQyjmwRw&utm_campaign=yelp_api_v3&utm_medium=api_v3_business_search&utm_source=hBJOknVQJ58S5goQyjmwRw", "review_count": 13, "categories": [{"alias": "german", "title": "German"}], "rating": 4.5, "coordinates": {"latitude": 53.4332467, "longitude": 9.907057}, "transactions": [], "price": "\u20ac", "location": {"address1": "Harburger Str. 18", "address2": "", "address3": null, "city": "Rosengarten", "zip_code": "21224", "country": "DE", "state": "NI", "display_address": ["Harburger Str. 18", "21224 Rosengarten", "Germany"]}, "phone": "+4941086236", "display_phone": "+49 4108 6236", "distance": 2289.228590985851}, {"id": "EEKdJbl4YyUORyUArak_XQ", "alias": "fritz-peters-rosengarten", "name": "Fritz Peters", "image_url": "https://s3-media3.fl.yelpcdn.com/bphoto/UGE4CQJtibWq9ylzGsd2XQ/o.jpg", "is_closed": false, "url": "https://www.yelp.com/biz/fritz-peters-rosengarten?adjust_creative=hBJOknVQJ58S5goQyjmwRw&utm_campaign=yelp_api_v3&utm_medium=api_v3_business_search&utm_source=hBJOknVQJ58S5goQyjmwRw", "review_count": 2, "categories": [{"alias": "restaurants", "title": "Restaurants"}], "rating": 4.5, "coordinates": {"latitude": 53.4089, "longitude": 9.88543}, "transactions": [], "price": "\u20ac", "location": {"address1": "Quellenweg 2", "address2": null, "address3": null, "city": "Rosengarten", "zip_code": "21224", "country": "DE", "state": "NI", "display_address": ["Quellenweg 2", "21224 Rosengarten", "Germany"]}, "phone": "+4941083102", "display_phone": "+49 4108 3102", "distance": 1356.1986224532934}, {"id": "g8kBMmjQyqujHvDNxNENJA", "alias": "stoof-mudders-kroog-rosengarten", "name": "Stoof Mudders Kroog", "image_url": "https://s3-media1.fl.yelpcdn.com/bphoto/XNMP1fT28ji5lB8DFufzZw/o.jpg", "is_closed": false, "url": "https://www.yelp.com/biz/stoof-mudders-kroog-rosengarten?adjust_creative=hBJOknVQJ58S5goQyjmwRw&utm_campaign=yelp_api_v3&utm_medium=api_v3_business_search&utm_source=hBJOknVQJ58S5goQyjmwRw", "review_count": 14, "categories": [{"alias": "german", "title": "German"}, {"alias": "buffets", "title": "Buffets"}], "rating": 3.5, "coordinates": {"latitude": 53.4398, "longitude": 9.90385}, "transactions": [], "price": "\u20ac\u20ac", "location": {"address1": "Am Kiekeberg 1 a", "address2": "", "address3": "", "city": "Rosengarten", "zip_code": "21224", "country": "DE", "state": "NI", "display_address": ["Am Kiekeberg 1 a", "21224 Rosengarten", "Germany"]}, "phone": "+494079144498", "display_phone": "+49 40 79144498", "distance": 3009.7188013268}, {"id": "sv5L_hgf5LseYmGlwvPDNA", "alias": "gasthaus-zum-kiekeberg-rosengarten-3", "name": "Gasthaus zum Kiekeberg", "image_url": "https://s3-media4.fl.yelpcdn.com/bphoto/HszIqYtBygj2IZ0nizab_g/o.jpg", "is_closed": false, "url": "https://www.yelp.com/biz/gasthaus-zum-kiekeberg-rosengarten-3?adjust_creative=hBJOknVQJ58S5goQyjmwRw&utm_campaign=yelp_api_v3&utm_medium=api_v3_business_search&utm_source=hBJOknVQJ58S5goQyjmwRw", "review_count": 17, "categories": [{"alias": "german", "title": "German"}, {"alias": "gastropubs", "title": "Gastropubs"}], "rating": 3.5, "coordinates": {"latitude": 53.4396, "longitude": 9.89928}, "transactions": [], "price": "\u20ac\u20ac", "location": {"address1": "Am Kiekeberg 5", "address2": null, "address3": null, "city": "Rosengarten", "zip_code": "21224", "country": "DE", "state": "NI", "display_address": ["Am Kiekeberg 5", "21224 Rosengarten", "Germany"]}, "phone": "+49407905021", "display_phone": "+49 40 7905021", "distance": 3013.9708887364636}, {"id": "ykRtViJfcQxt1VKtK-ojcg", "alias": "wildpark-restaurant-rosengarten", "name": "Wildpark-Restaurant", "image_url": "https://s3-media3.fl.yelpcdn.com/bphoto/BPB2FUuYfd0v8KyznZ31YQ/o.jpg", "is_closed": false, "url": "https://www.yelp.com/biz/wildpark-restaurant-rosengarten?adjust_creative=hBJOknVQJ58S5goQyjmwRw&utm_campaign=yelp_api_v3&utm_medium=api_v3_business_search&utm_source=hBJOknVQJ58S5goQyjmwRw", "review_count": 6, "categories": [{"alias": "german", "title": "German"}], "rating": 3.5, "coordinates": {"latitude": 53.4415452, "longitude": 9.8886414}, "transactions": [], "price": "\u20ac\u20ac", "location": {"address1": "Am Wildpark 1", "address2": null, "address3": "", "city": "Rosengarten", "zip_code": "21224", "country": "DE", "state": "BW", "display_address": ["Am Wildpark 1", "21224 Rosengarten", "Germany"]}, "phone": "+4940819774740", "display_phone": "+49 40 819774740", "distance": 3525.962224621394}, {"id": "l2udFcs0_5l2JWJtUnTwRQ", "alias": "meyers-linde-rosengarten", "name": "Meyer's Linde", "image_url": "https://s3-media3.fl.yelpcdn.com/bphoto/1vWS6t0s9piDkVllXqsOVA/o.jpg", "is_closed": false, "url": "https://www.yelp.com/biz/meyers-linde-rosengarten?adjust_creative=hBJOknVQJ58S5goQyjmwRw&utm_campaign=yelp_api_v3&utm_medium=api_v3_business_search&utm_source=hBJOknVQJ58S5goQyjmwRw", "review_count": 4, "categories": [{"alias": "german", "title": "German"}], "rating": 3.5, "coordinates": {"latitude": 53.4441237, "longitude": 9.9050738}, "transactions": [], "location": {"address1": "Harburger Stadtweg 2", "address2": "", "address3": "", "city": "Rosengarten", "zip_code": "21224", "country": "DE", "state": "NI", "display_address": ["Harburger Stadtweg 2", "21224 Rosengarten", "Germany"]}, "phone": "+49407906236", "display_phone": "+49 40 7906236", "distance": 3494.1408337537214}, {"id": "TI2orC_tUrfypZpFjXbLOg", "alias": "come-inn-rosengarten", "name": "Come inn", "image_url": "", "is_closed": false, "url": "https://www.yelp.com/biz/come-inn-rosengarten?adjust_creative=hBJOknVQJ58S5goQyjmwRw&utm_campaign=yelp_api_v3&utm_medium=api_v3_business_search&utm_source=hBJOknVQJ58S5goQyjmwRw", "review_count": 2, "categories": [{"alias": "hotdogs", "title": "Fast Food"}], "rating": 3.0, "coordinates": {"latitude": 53.4068, "longitude": 9.89273}, "transactions": [], "location": {"address1": "Hauptstr. 39", "address2": null, "address3": null, "city": "Rosengarten", "zip_code": "21224", "country": "DE", "state": "NI", "display_address": ["Hauptstr. 39", "21224 Rosengarten", "Germany"]}, "phone": "+494108413984", "display_phone": "+49 4108 413984", "distance": 1038.384845654608}, {"id": "wpGydxJrBuTsmNYuSBD8Mw", "alias": "rosengarten-grillhaus-rosengarten", "name": "Rosengarten Grillhaus", "image_url": "", "is_closed": false, "url": "https://www.yelp.com/biz/rosengarten-grillhaus-rosengarten?adjust_creative=hBJOknVQJ58S5goQyjmwRw&utm_campaign=yelp_api_v3&utm_medium=api_v3_business_search&utm_source=hBJOknVQJ58S5goQyjmwRw", "review_count": 1, "categories": [{"alias": "kebab", "title": "Kebab"}, {"alias": "salad", "title": "Salad"}, {"alias": "currysausage", "title": "Curry Sausage"}], "rating": 5.0, "coordinates": {"latitude": 53.40707, "longitude": 9.89029}, "transactions": [], "location": {"address1": "Hauptstr. 39", "address2": "", "address3": null, "city": "Rosengarten", "zip_code": "21224", "country": "DE", "state": "NI", "display_address": ["Hauptstr. 39", "21224 Rosengarten", "Germany"]}, "phone": "+4941084899993", "display_phone": "+49 4108 4899993", "distance": 1144.784973543694}, {"id": "QyjsnQNKCaswI-0sCobI6Q", "alias": "cordes-restaurant-rosengarten", "name": "Cordes Restaurant", "image_url": "https://s3-media4.fl.yelpcdn.com/bphoto/vhCV0L7HwuaMBlBHlyFnJA/o.jpg", "is_closed": false, "url": "https://www.yelp.com/biz/cordes-restaurant-rosengarten?adjust_creative=hBJOknVQJ58S5goQyjmwRw&utm_campaign=yelp_api_v3&utm_medium=api_v3_business_search&utm_source=hBJOknVQJ58S5goQyjmwRw", "review_count": 9, "categories": [{"alias": "german", "title": "German"}], "rating": 2.5, "coordinates": {"latitude": 53.42367, "longitude": 9.89772}, "transactions": [], "location": {"address1": "Sottorfer Dorfstr. 2", "address2": "", "address3": null, "city": "Rosengarten", "zip_code": "21224", "country": "DE", "state": "NI", "display_address": ["Sottorfer Dorfstr. 2", "21224 Rosengarten", "Germany"]}, "phone": "+49410843440", "display_phone": "+49 4108 43440", "distance": 1310.7482031594418}, {"id": "u3ub5f0MS4qY67Q8XF9ZoA", "alias": "sodemanns-fisch-kutter-nr-1-hamburg", "name": "Sodemann's Fisch-Kutter Nr. 1", "image_url": "https://s3-media3.fl.yelpcdn.com/bphoto/BlysP6fVPaL0eEjKvEbByw/o.jpg", "is_closed": false, "url": "https://www.yelp.com/biz/sodemanns-fisch-kutter-nr-1-hamburg?adjust_creative=hBJOknVQJ58S5goQyjmwRw&utm_campaign=yelp_api_v3&utm_medium=api_v3_business_search&utm_source=hBJOknVQJ58S5goQyjmwRw", "review_count": 3, "categories": [{"alias": "foodtrucks", "title": "Food Trucks"}, {"alias": "fischbroetchen", "title": "Fischbroetchen"}], "rating": 5.0, "coordinates": {"latitude": 53.5537490844727, "longitude": 9.99182987213135}, "transactions": [], "price": "\u20ac\u20ac", "location": {"address1": "", "address2": null, "address3": "", "city": "Hamburg", "zip_code": "", "country": "DE", "state": "HH", "display_address": ["Hamburg", "Germany"]}, "phone": "+491773606663", "display_phone": "+49 177 3606663", "distance": 16471.52193759926}, {"id": "oXxMdWPxtjqXdlHMM145lA", "alias": "china-restaurant-jade-rosengarten", "name": "China-Restaurant Jade", "image_url": "https://s3-media2.fl.yelpcdn.com/bphoto/P_Gy-fn06-gRqSxhq18PeQ/o.jpg", "is_closed": false, "url": "https://www.yelp.com/biz/china-restaurant-jade-rosengarten?adjust_creative=hBJOknVQJ58S5goQyjmwRw&utm_campaign=yelp_api_v3&utm_medium=api_v3_business_search&utm_source=hBJOknVQJ58S5goQyjmwRw", "review_count": 9, "categories": [{"alias": "chinese", "title": "Chinese"}], "rating": 3.5, "coordinates": {"latitude": 53.3788, "longitude": 9.89448}, "transactions": [], "price": "\u20ac", "location": {"address1": "Bremer Str. 59", "address2": null, "address3": null, "city": "Rosengarten", "zip_code": "21224", "country": "DE", "state": "NI", "display_address": ["Bremer Str. 59", "21224 Rosengarten", "Germany"]}, "phone": "+4941088647", "display_phone": "+49 4108 8647", "distance": 3832.0073630775405}, {"id": "VbfhaETEByAuRuq5Lr37Jg", "alias": "b\u00f6ttchers-gasthaus-rosengarten-2", "name": "B\u00f6ttchers Gasthaus", "image_url": "", "is_closed": false, "url": "https://www.yelp.com/biz/b%C3%B6ttchers-gasthaus-rosengarten-2?adjust_creative=hBJOknVQJ58S5goQyjmwRw&utm_campaign=yelp_api_v3&utm_medium=api_v3_business_search&utm_source=hBJOknVQJ58S5goQyjmwRw", "review_count": 4, "categories": [{"alias": "northerngerman", "title": "Northern German"}], "rating": 3.0, "coordinates": {"latitude": 53.3797799, "longitude": 9.89579}, "transactions": [], "location": {"address1": "Bremer Str. 44", "address2": "", "address3": "", "city": "Rosengarten", "zip_code": "21224", "country": "DE", "state": "NI", "display_address": ["Bremer Str. 44", "21224 Rosengarten", "Germany"]}, "phone": "+4941087147", "display_phone": "+49 4108 7147", "distance": 3677.535200642076}, {"id": "Cf-sLIwvllFcN6QwXUH3MA", "alias": "hotel-majest\u00e4tische-aussicht-restaurant-pegasos-hamburg", "name": "Hotel Majest\u00e4tische Aussicht Restaurant Pegasos", "image_url": "https://s3-media3.fl.yelpcdn.com/bphoto/_JvVM76k2iNEhBJ4c85Vrg/o.jpg", "is_closed": false, "url": "https://www.yelp.com/biz/hotel-majest%C3%A4tische-aussicht-restaurant-pegasos-hamburg?adjust_creative=hBJOknVQJ58S5goQyjmwRw&utm_campaign=yelp_api_v3&utm_medium=api_v3_business_search&utm_source=hBJOknVQJ58S5goQyjmwRw", "review_count": 13, "categories": [{"alias": "hotels", "title": "Hotels"}, {"alias": "restaurants", "title": "Restaurants"}], "rating": 4.0, "coordinates": {"latitude": 53.4531, "longitude": 9.92459}, "transactions": [], "price": "\u20ac\u20ac\u20ac", "location": {"address1": "Ehestorfer Weg 215", "address2": null, "address3": null, "city": "Hamburg", "zip_code": "21075", "country": "DE", "state": "HH", "display_address": ["Ehestorfer Weg 215", "21075 Hamburg", "Germany"]}, "phone": "+49407906190", "display_phone": "+49 40 7906190", "distance": 4678.274303332533}, {"id": "2jzIbZsfzca5drJYk7JwbQ", "alias": "the-bao-bros-hamburg-2", "name": "The Bao Bros", "image_url": "https://s3-media1.fl.yelpcdn.com/bphoto/vUMA4Y35x3UwZk6fMJfZRw/o.jpg", "is_closed": false, "url": "https://www.yelp.com/biz/the-bao-bros-hamburg-2?adjust_creative=hBJOknVQJ58S5goQyjmwRw&utm_campaign=yelp_api_v3&utm_medium=api_v3_business_search&utm_source=hBJOknVQJ58S5goQyjmwRw", "review_count": 2, "categories": [{"alias": "foodtrucks", "title": "Food Trucks"}, {"alias": "burgers", "title": "Burgers"}], "rating": 4.0, "coordinates": {"latitude": 53.5533409118652, "longitude": 9.99246978759766}, "transactions": [], "price": "\u20ac", "location": {"address1": "", "address2": "", "address3": "", "city": "Hamburg", "zip_code": "", "country": "DE", "state": "HH", "display_address": ["Hamburg", "Germany"]}, "phone": "+4915140700076", "display_phone": "+49 1514 0700076", "distance": 16471.519576922947}]