[{"id": "GWc6M7-6bwt3Y3-QP6HpvA", "alias": "long-xuan-buxtehude", "name": "Long Xuan", "image_url": "https://s3-media2.fl.yelpcdn.com/bphoto/FMkLFTd8NePGvgqVtLV3rw/o.jpg", "is_closed": false, "url": "https://www.yelp.com/biz/long-xuan-buxtehude?adjust_creative=hBJOknVQJ58S5goQyjmwRw&utm_campaign=yelp_api_v3&utm_medium=api_v3_business_search&utm_source=hBJOknVQJ58S5goQyjmwRw", "review_count": 6, "categories": [{"alias": "mongolian", "title": "Mongolian"}, {"alias": "chinese", "title": "Chinese"}, {"alias": "sushi", "title": "Sushi Bars"}], "rating": 3.5, "coordinates": {"latitude": 53.45146, "longitude": 9.75572}, "transactions": [], "location": {"address1": "Hamburger Chaussee 125", "address2": "", "address3": "", "city": "Buxtehude", "zip_code": "21614", "country": "DE", "state": "NI", "display_address": ["Hamburger Chaussee 125", "21614 Buxtehude", "Germany"]}, "phone": "+4941615409381", "display_phone": "+49 4161 5409381", "distance": 4191.058394976492}, {"id": "z-3JuSa3vtl-WlVza2qtFw", "alias": "classicrestaurant-stampe-appel-2", "name": "Classicrestaurant Stampe", "image_url": "https://s3-media4.fl.yelpcdn.com/bphoto/nOvjdFL4knv9qioNZX4hKQ/o.jpg", "is_closed": false, "url": "https://www.yelp.com/biz/classicrestaurant-stampe-appel-2?adjust_creative=hBJOknVQJ58S5goQyjmwRw&utm_campaign=yelp_api_v3&utm_medium=api_v3_business_search&utm_source=hBJOknVQJ58S5goQyjmwRw", "review_count": 3, "categories": [{"alias": "international", "title": "International"}, {"alias": "german", "title": "German"}], "rating": 4.5, "coordinates": {"latitude": 53.40408, "longitude": 9.7659}, "transactions": [], "location": {"address1": "Karlsteinweg 17", "address2": null, "address3": null, "city": "Appel", "zip_code": "21279", "country": "DE", "state": "NI", "display_address": ["Karlsteinweg 17", "21279 Appel", "Germany"]}, "phone": "+49416597200", "display_phone": "+49 4165 97200", "distance": 1300.3469163560778}, {"id": "I0jSlCa6fDpjix2_KWypDQ", "alias": "deutsches-haus-appel-appel", "name": "Deutsches Haus Appel", "image_url": "", "is_closed": false, "url": "https://www.yelp.com/biz/deutsches-haus-appel-appel?adjust_creative=hBJOknVQJ58S5goQyjmwRw&utm_campaign=yelp_api_v3&utm_medium=api_v3_business_search&utm_source=hBJOknVQJ58S5goQyjmwRw", "review_count": 2, "categories": [{"alias": "german", "title": "German"}], "rating": 3.0, "coordinates": {"latitude": 53.3916822642029, "longitude": 9.74721725655941}, "transactions": [], "location": {"address1": "An der Kreisstr. 29", "address2": "", "address3": "", "city": "Appel", "zip_code": "21279", "country": "DE", "state": "NI", "display_address": ["An der Kreisstr. 29", "21279 Appel", "Germany"]}, "phone": "+4941658325", "display_phone": "+49 4165 8325", "distance": 2499.5985137758503}, {"id": "w7Jdq2PANZoe88TRECMBrg", "alias": "ferien-auf-der-heid-appel-2", "name": "Ferien auf der Heid", "image_url": "", "is_closed": false, "url": "https://www.yelp.com/biz/ferien-auf-der-heid-appel-2?adjust_creative=hBJOknVQJ58S5goQyjmwRw&utm_campaign=yelp_api_v3&utm_medium=api_v3_business_search&utm_source=hBJOknVQJ58S5goQyjmwRw", "review_count": 3, "categories": [{"alias": "german", "title": "German"}, {"alias": "serbocroatian", "title": "Serbo Croatian"}], "rating": 4.5, "coordinates": {"latitude": 53.4037, "longitude": 9.76575}, "transactions": [], "location": {"address1": "Karlsteinweg 45-47", "address2": null, "address3": null, "city": "Appel", "zip_code": "21279", "country": "DE", "state": "NI", "display_address": ["Karlsteinweg 45-47", "21279 Appel", "Germany"]}, "phone": "+49416597230", "display_phone": "+49 4165 97230", "distance": 1345.2421081773468}, {"id": "Woiw_v3oAYHPbQTj5YlRcA", "alias": "restaurant-ovelg\u00f6nner-hof-buxtehude", "name": "Restaurant Ovelg\u00f6nner Hof", "image_url": "", "is_closed": false, "url": "https://www.yelp.com/biz/restaurant-ovelg%C3%B6nner-hof-buxtehude?adjust_creative=hBJOknVQJ58S5goQyjmwRw&utm_campaign=yelp_api_v3&utm_medium=api_v3_business_search&utm_source=hBJOknVQJ58S5goQyjmwRw", "review_count": 2, "categories": [{"alias": "german", "title": "German"}], "rating": 2.5, "coordinates": {"latitude": 53.45131, "longitude": 9.74717}, "transactions": [], "location": {"address1": "Hamburger Chaussee 81", "address2": "", "address3": null, "city": "Buxtehude", "zip_code": "21614", "country": "DE", "state": "NI", "display_address": ["Hamburger Chaussee 81", "21614 Buxtehude", "Germany"]}, "phone": "+4941617180", "display_phone": "+49 4161 7180", "distance": 4221.769175143866}, {"id": "IVaGCcBmkiISHs_D6ip4hg", "alias": "melkhus-ardestorf-neu-wulmstorf", "name": "Melkhus", "image_url": "https://s3-media4.fl.yelpcdn.com/bphoto/BJKZspYnLuUnfqWt5oxIQg/o.jpg", "is_closed": false, "url": "https://www.yelp.com/biz/melkhus-ardestorf-neu-wulmstorf?adjust_creative=hBJOknVQJ58S5goQyjmwRw&utm_campaign=yelp_api_v3&utm_medium=api_v3_business_search&utm_source=hBJOknVQJ58S5goQyjmwRw", "review_count": 5, "categories": [{"alias": "cafes", "title": "Cafes"}, {"alias": "convenience", "title": "Convenience Stores"}], "rating": 5.0, "coordinates": {"latitude": 53.4298, "longitude": 9.76171}, "transactions": [], "price": "\u20ac", "location": {"address1": "Grauener Weg  3", "address2": null, "address3": null, "city": "Ardestorf - Neu Wulmstorf", "zip_code": "21629", "country": "DE", "state": "NI", "display_address": ["Grauener Weg  3", "21629 Ardestorf - Neu Wulmstorf", "Germany"]}, "phone": "+4941689198714", "display_phone": "+49 4168 9198714", "distance": 1849.0401489677647}, {"id": "2jzIbZsfzca5drJYk7JwbQ", "alias": "the-bao-bros-hamburg-2", "name": "The Bao Bros", "image_url": "https://s3-media1.fl.yelpcdn.com/bphoto/vUMA4Y35x3UwZk6fMJfZRw/o.jpg", "is_closed": false, "url": "https://www.yelp.com/biz/the-bao-bros-hamburg-2?adjust_creative=hBJOknVQJ58S5goQyjmwRw&utm_campaign=yelp_api_v3&utm_medium=api_v3_business_search&utm_source=hBJOknVQJ58S5goQyjmwRw", "review_count": 2, "categories": [{"alias": "foodtrucks", "title": "Food Trucks"}, {"alias": "burgers", "title": "Burgers"}], "rating": 4.0, "coordinates": {"latitude": 53.5533409118652, "longitude": 9.99246978759766}, "transactions": [], "price": "\u20ac", "location": {"address1": "", "address2": "", "address3": "", "city": "Hamburg", "zip_code": "", "country": "DE", "state": "HH", "display_address": ["Hamburg", "Germany"]}, "phone": "+4915140700076", "display_phone": "+49 1514 0700076", "distance": 21995.75036925463}]