[{"id": "wvRJ8mCla84xgmhUSDTCLQ", "alias": "taverne-antigone-seevetal", "name": "Taverne Antigone", "image_url": "https://s3-media3.fl.yelpcdn.com/bphoto/7Nw-_Wk2w57Qgt7olkpsqQ/o.jpg", "is_closed": false, "url": "https://www.yelp.com/biz/taverne-antigone-seevetal?adjust_creative=hBJOknVQJ58S5goQyjmwRw&utm_campaign=yelp_api_v3&utm_medium=api_v3_business_search&utm_source=hBJOknVQJ58S5goQyjmwRw", "review_count": 8, "categories": [{"alias": "greek", "title": "Greek"}], "rating": 5.0, "coordinates": {"latitude": 53.4221, "longitude": 10.0113}, "transactions": [], "price": "\u20ac\u20ac", "location": {"address1": "B\u00fcrgerm-Heitmann-Str. 85", "address2": null, "address3": null, "city": "Seevetal", "zip_code": "21217", "country": "DE", "state": "NI", "display_address": ["B\u00fcrgerm-Heitmann-Str. 85", "21217 Seevetal", "Germany"]}, "phone": "+49407685997", "display_phone": "+49 40 7685997", "distance": 1553.808986518295}, {"id": "7LnBhCOlK-XqTcpfOU6m2A", "alias": "restaurant-dubrovnik-fleestedt-seevetal", "name": "Restaurant Dubrovnik", "image_url": "https://s3-media2.fl.yelpcdn.com/bphoto/E4Gi9YQqFAbys6pv4ByRyA/o.jpg", "is_closed": false, "url": "https://www.yelp.com/biz/restaurant-dubrovnik-fleestedt-seevetal?adjust_creative=hBJOknVQJ58S5goQyjmwRw&utm_campaign=yelp_api_v3&utm_medium=api_v3_business_search&utm_source=hBJOknVQJ58S5goQyjmwRw", "review_count": 13, "categories": [{"alias": "serbocroatian", "title": "Serbo Croatian"}], "rating": 4.0, "coordinates": {"latitude": 53.4096622, "longitude": 9.9917531}, "transactions": [], "price": "\u20ac\u20ac", "location": {"address1": "Winsener Landstr. 42", "address2": "", "address3": null, "city": "Fleestedt - Seevetal", "zip_code": "21217", "country": "DE", "state": "NI", "display_address": ["Winsener Landstr. 42", "21217 Fleestedt - Seevetal", "Germany"]}, "phone": "+4941056763302", "display_phone": "+49 4105 6763302", "distance": 341.4507889514461}, {"id": "v0MuvytyXWDq07H_FwFH3g", "alias": "poseidon-seevetal", "name": "Poseidon", "image_url": "https://s3-media3.fl.yelpcdn.com/bphoto/pxElETpWJd4rcopI6KQHoQ/o.jpg", "is_closed": false, "url": "https://www.yelp.com/biz/poseidon-seevetal?adjust_creative=hBJOknVQJ58S5goQyjmwRw&utm_campaign=yelp_api_v3&utm_medium=api_v3_business_search&utm_source=hBJOknVQJ58S5goQyjmwRw", "review_count": 3, "categories": [{"alias": "greek", "title": "Greek"}], "rating": 4.0, "coordinates": {"latitude": 53.42236, "longitude": 10.0153}, "transactions": [], "location": {"address1": "B\u00fcrgermeister-Heitmann-Str. 34 C", "address2": "", "address3": null, "city": "Seevetal", "zip_code": "21217", "country": "DE", "state": "NI", "display_address": ["B\u00fcrgermeister-Heitmann-Str. 34 C", "21217 Seevetal", "Germany"]}, "phone": "+494069601330", "display_phone": "+49 40 69601330", "distance": 1765.9742084116133}, {"id": "ctYfzIX3CgxF0SyGmLSsDw", "alias": "caf\u00e9-am-park-hamburg", "name": "Caf\u00e9 am Park", "image_url": "https://s3-media2.fl.yelpcdn.com/bphoto/lkh8YnJ0cY_99D2Lm7XPSQ/o.jpg", "is_closed": false, "url": "https://www.yelp.com/biz/caf%C3%A9-am-park-hamburg?adjust_creative=hBJOknVQJ58S5goQyjmwRw&utm_campaign=yelp_api_v3&utm_medium=api_v3_business_search&utm_source=hBJOknVQJ58S5goQyjmwRw", "review_count": 2, "categories": [{"alias": "breakfast_brunch", "title": "Breakfast & Brunch"}, {"alias": "cafes", "title": "Cafes"}], "rating": 5.0, "coordinates": {"latitude": 53.44114, "longitude": 9.99351}, "transactions": [], "location": {"address1": "R\u00f6nneburger Str. 33", "address2": "", "address3": "", "city": "Hamburg", "zip_code": "21079", "country": "DE", "state": "HH", "display_address": ["R\u00f6nneburger Str. 33", "21079 Hamburg", "Germany"]}, "phone": "+494060433339", "display_phone": "+49 40 60433339", "distance": 3247.074242339668}, {"id": "BrGgp-LimE5DBPaMSG8CSQ", "alias": "max-tu-seevetal", "name": "Max Tu", "image_url": "https://s3-media2.fl.yelpcdn.com/bphoto/jukBfLf5J83giLkZBDLB2Q/o.jpg", "is_closed": false, "url": "https://www.yelp.com/biz/max-tu-seevetal?adjust_creative=hBJOknVQJ58S5goQyjmwRw&utm_campaign=yelp_api_v3&utm_medium=api_v3_business_search&utm_source=hBJOknVQJ58S5goQyjmwRw", "review_count": 27, "categories": [{"alias": "panasian", "title": "Pan Asian"}], "rating": 4.0, "coordinates": {"latitude": 53.385025, "longitude": 9.982373}, "transactions": [], "price": "\u20ac\u20ac", "location": {"address1": "Poststr. 4-10", "address2": "", "address3": "", "city": "Seevetal", "zip_code": "21218", "country": "DE", "state": "NI", "display_address": ["Poststr. 4-10", "21218 Seevetal", "Germany"]}, "phone": "+4941056646818", "display_phone": "+49 4105 6646818", "distance": 3114.514694365038}, {"id": "RGUXwvfaYmRFORYMnjC7TA", "alias": "la-boca-seevetal", "name": "La Boca", "image_url": "https://s3-media4.fl.yelpcdn.com/bphoto/BQVIKjLqUDtfs9YkIHVLnw/o.jpg", "is_closed": false, "url": "https://www.yelp.com/biz/la-boca-seevetal?adjust_creative=hBJOknVQJ58S5goQyjmwRw&utm_campaign=yelp_api_v3&utm_medium=api_v3_business_search&utm_source=hBJOknVQJ58S5goQyjmwRw", "review_count": 4, "categories": [{"alias": "steak", "title": "Steakhouses"}], "rating": 4.0, "coordinates": {"latitude": 53.40826, "longitude": 10.016245}, "transactions": [], "price": "\u20ac\u20ac", "location": {"address1": "Gl\u00fcsinger Str. 123", "address2": "", "address3": "", "city": "Seevetal", "zip_code": "21217", "country": "DE", "state": "NI", "display_address": ["Gl\u00fcsinger Str. 123", "21217 Seevetal", "Germany"]}, "phone": "+494105152688", "display_phone": "+49 4105 152688", "distance": 1461.3801744376574}, {"id": "RdTUH49yyWvn0VfpeF6EFg", "alias": "scheune-zur-hittfelder-m\u00fchle-seevetal", "name": "Scheune Zur Hittfelder M\u00fchle", "image_url": "https://s3-media2.fl.yelpcdn.com/bphoto/07r7dny9KmJqLZuwYoZt-Q/o.jpg", "is_closed": false, "url": "https://www.yelp.com/biz/scheune-zur-hittfelder-m%C3%BChle-seevetal?adjust_creative=hBJOknVQJ58S5goQyjmwRw&utm_campaign=yelp_api_v3&utm_medium=api_v3_business_search&utm_source=hBJOknVQJ58S5goQyjmwRw", "review_count": 8, "categories": [{"alias": "greek", "title": "Greek"}], "rating": 4.5, "coordinates": {"latitude": 53.3817, "longitude": 9.98392}, "transactions": [], "price": "\u20ac\u20ac", "location": {"address1": "Weg Zur M\u00fchle 10", "address2": null, "address3": null, "city": "Seevetal", "zip_code": "21218", "country": "DE", "state": "NI", "display_address": ["Weg Zur M\u00fchle 10", "21218 Seevetal", "Germany"]}, "phone": "+494105x554547", "display_phone": "+49 4105 ext. 554547", "distance": 3448.259386765932}, {"id": "E3TH-n5p92IcGCmA56FO_w", "alias": "hittfelder-hus-seevetal", "name": "Hittfelder Hus", "image_url": "https://s3-media3.fl.yelpcdn.com/bphoto/rm7R7i1rBneKtLi46cRa-g/o.jpg", "is_closed": false, "url": "https://www.yelp.com/biz/hittfelder-hus-seevetal?adjust_creative=hBJOknVQJ58S5goQyjmwRw&utm_campaign=yelp_api_v3&utm_medium=api_v3_business_search&utm_source=hBJOknVQJ58S5goQyjmwRw", "review_count": 4, "categories": [{"alias": "german", "title": "German"}], "rating": 4.0, "coordinates": {"latitude": 53.38585, "longitude": 9.97648}, "transactions": [], "price": "\u20ac\u20ac", "location": {"address1": "Harburger Str. 7", "address2": "", "address3": "", "city": "Seevetal", "zip_code": "21218", "country": "DE", "state": "NI", "display_address": ["Harburger Str. 7", "21218 Seevetal", "Germany"]}, "phone": "+4941055856006", "display_phone": "+49 4105 5856006", "distance": 3157.8572950491407}, {"id": "a7H6qeYZwANboH-6prvHng", "alias": "meson-galicia-hamburg-2", "name": "Meson Galicia", "image_url": "https://s3-media4.fl.yelpcdn.com/bphoto/e_GwgldkKtliK-e2NMKbFA/o.jpg", "is_closed": false, "url": "https://www.yelp.com/biz/meson-galicia-hamburg-2?adjust_creative=hBJOknVQJ58S5goQyjmwRw&utm_campaign=yelp_api_v3&utm_medium=api_v3_business_search&utm_source=hBJOknVQJ58S5goQyjmwRw", "review_count": 64, "categories": [{"alias": "spanish", "title": "Spanish"}], "rating": 4.5, "coordinates": {"latitude": 53.45294, "longitude": 9.98227}, "transactions": [], "price": "\u20ac\u20ac", "location": {"address1": "Maretstr. 60", "address2": null, "address3": null, "city": "Hamburg", "zip_code": "21073", "country": "DE", "state": "HH", "display_address": ["Maretstr. 60", "21073 Hamburg", "Germany"]}, "phone": "+49407666315", "display_phone": "+49 40 7666315", "distance": 4636.338731135495}, {"id": "FYX0aKiLRAtvA66MndlPVw", "alias": "mediterran-hamburg", "name": "Mediterran", "image_url": "https://s3-media1.fl.yelpcdn.com/bphoto/6Cim9HgCub3Cj6oWP3MERA/o.jpg", "is_closed": false, "url": "https://www.yelp.com/biz/mediterran-hamburg?adjust_creative=hBJOknVQJ58S5goQyjmwRw&utm_campaign=yelp_api_v3&utm_medium=api_v3_business_search&utm_source=hBJOknVQJ58S5goQyjmwRw", "review_count": 14, "categories": [{"alias": "mediterranean", "title": "Mediterranean"}, {"alias": "steak", "title": "Steakhouses"}], "rating": 3.5, "coordinates": {"latitude": 53.43193, "longitude": 9.98307}, "transactions": [], "price": "\u20ac\u20ac", "location": {"address1": "Winsener Str. 152", "address2": null, "address3": null, "city": "Hamburg", "zip_code": "21077", "country": "DE", "state": "HH", "display_address": ["Winsener Str. 152", "21077 Hamburg", "Germany"]}, "phone": "+494070011450", "display_phone": "+49 40 70011450", "distance": 2357.5924043114787}, {"id": "GHoTbTE7KLHhAa5uiWmYow", "alias": "barrica-seevetal", "name": "Barrica", "image_url": "https://s3-media4.fl.yelpcdn.com/bphoto/wSqdx6codCghDnoode9PJg/o.jpg", "is_closed": false, "url": "https://www.yelp.com/biz/barrica-seevetal?adjust_creative=hBJOknVQJ58S5goQyjmwRw&utm_campaign=yelp_api_v3&utm_medium=api_v3_business_search&utm_source=hBJOknVQJ58S5goQyjmwRw", "review_count": 19, "categories": [{"alias": "tapas", "title": "Tapas Bars"}], "rating": 4.5, "coordinates": {"latitude": 53.387143, "longitude": 9.982885}, "transactions": [], "price": "\u20ac\u20ac", "location": {"address1": "Schillerplatz 1", "address2": "", "address3": "", "city": "Seevetal", "zip_code": "21218", "country": "DE", "state": "NI", "display_address": ["Schillerplatz 1", "21218 Seevetal", "Germany"]}, "phone": "+4941057706651", "display_phone": "+49 4105 7706651", "distance": 2879.160248822167}, {"id": "J8B4htIIMhFbWnzz1MynwA", "alias": "carlos-seevetal", "name": "Carlos", "image_url": "https://s3-media2.fl.yelpcdn.com/bphoto/TW6IiDdNDQZHq46nYJXUlg/o.jpg", "is_closed": false, "url": "https://www.yelp.com/biz/carlos-seevetal?adjust_creative=hBJOknVQJ58S5goQyjmwRw&utm_campaign=yelp_api_v3&utm_medium=api_v3_business_search&utm_source=hBJOknVQJ58S5goQyjmwRw", "review_count": 2, "categories": [{"alias": "wine_bars", "title": "Wine Bars"}, {"alias": "mediterranean", "title": "Mediterranean"}], "rating": 4.5, "coordinates": {"latitude": 53.38262, "longitude": 9.97783}, "transactions": [], "location": {"address1": "Am Radeland 2", "address2": "", "address3": null, "city": "Seevetal", "zip_code": "21218", "country": "DE", "state": "NI", "display_address": ["Am Radeland 2", "21218 Seevetal", "Germany"]}, "phone": "+4941058693505", "display_phone": "+49 4105 8693505", "distance": 3447.04230355147}, {"id": "BHNcHdohBm-CXaLPbm7xOg", "alias": "restaurant-burg-seevetal-seevetal", "name": "Restaurant Burg Seevetal", "image_url": "", "is_closed": false, "url": "https://www.yelp.com/biz/restaurant-burg-seevetal-seevetal?adjust_creative=hBJOknVQJ58S5goQyjmwRw&utm_campaign=yelp_api_v3&utm_medium=api_v3_business_search&utm_source=hBJOknVQJ58S5goQyjmwRw", "review_count": 1, "categories": [{"alias": "restaurants", "title": "Restaurants"}], "rating": 5.0, "coordinates": {"latitude": 53.3877, "longitude": 9.97886}, "transactions": [], "location": {"address1": "Am G\u00f6hlenbach 11", "address2": null, "address3": null, "city": "Seevetal", "zip_code": "21218", "country": "DE", "state": "NI", "display_address": ["Am G\u00f6hlenbach 11", "21218 Seevetal", "Germany"]}, "phone": "+494105555357", "display_phone": "+49 4105 555357", "distance": 2907.501624987259}, {"id": "ZvCXfKNbGRtyPno_XwkGgg", "alias": "restaurant-r\u00f6nneburger-park-hamburg", "name": "Restaurant R\u00f6nneburger Park", "image_url": "https://s3-media1.fl.yelpcdn.com/bphoto/xa5OacYVadeNgmgOjQLHdQ/o.jpg", "is_closed": false, "url": "https://www.yelp.com/biz/restaurant-r%C3%B6nneburger-park-hamburg?adjust_creative=hBJOknVQJ58S5goQyjmwRw&utm_campaign=yelp_api_v3&utm_medium=api_v3_business_search&utm_source=hBJOknVQJ58S5goQyjmwRw", "review_count": 12, "categories": [{"alias": "greek", "title": "Greek"}], "rating": 4.0, "coordinates": {"latitude": 53.4371, "longitude": 10.0043}, "transactions": [], "price": "\u20ac\u20ac", "location": {"address1": "K\u00fcstersweg 15", "address2": null, "address3": null, "city": "Hamburg", "zip_code": "21079", "country": "DE", "state": "HH", "display_address": ["K\u00fcstersweg 15", "21079 Hamburg", "Germany"]}, "phone": "+494070973551", "display_phone": "+49 40 70973551", "distance": 2858.3101506225357}, {"id": "v4YTTPwAFACR5CSGiYGN0w", "alias": "mylos-seevetal", "name": "Mylos", "image_url": "https://s3-media4.fl.yelpcdn.com/bphoto/K9oJnvVBonIHFjeJKpYXjg/o.jpg", "is_closed": false, "url": "https://www.yelp.com/biz/mylos-seevetal?adjust_creative=hBJOknVQJ58S5goQyjmwRw&utm_campaign=yelp_api_v3&utm_medium=api_v3_business_search&utm_source=hBJOknVQJ58S5goQyjmwRw", "review_count": 7, "categories": [{"alias": "greek", "title": "Greek"}], "rating": 5.0, "coordinates": {"latitude": 53.3815498, "longitude": 9.9839497}, "transactions": [], "price": "\u20ac\u20ac", "location": {"address1": "Weg zur M\u00fchle 10 a", "address2": "Hittfeld", "address3": "", "city": "Seevetal", "zip_code": "21218", "country": "DE", "state": "NI", "display_address": ["Weg zur M\u00fchle 10 a", "Hittfeld", "21218 Seevetal", "Germany"]}, "phone": "+4941051399984", "display_phone": "+49 4105 1399984", "distance": 3462.81277153814}, {"id": "fW460rrxThrFlHGThSx_Dg", "alias": "restaurant-rossini-seevetal", "name": "Restaurant Rossini", "image_url": "https://s3-media3.fl.yelpcdn.com/bphoto/czokTAcR3kw1iFOPc1x57Q/o.jpg", "is_closed": false, "url": "https://www.yelp.com/biz/restaurant-rossini-seevetal?adjust_creative=hBJOknVQJ58S5goQyjmwRw&utm_campaign=yelp_api_v3&utm_medium=api_v3_business_search&utm_source=hBJOknVQJ58S5goQyjmwRw", "review_count": 52, "categories": [{"alias": "italian", "title": "Italian"}], "rating": 3.0, "coordinates": {"latitude": 53.38624, "longitude": 9.98336}, "transactions": [], "price": "\u20ac\u20ac\u20ac", "location": {"address1": "Kirchstr. 28", "address2": null, "address3": null, "city": "Seevetal", "zip_code": "21218", "country": "DE", "state": "NI", "display_address": ["Kirchstr. 28", "21218 Seevetal", "Germany"]}, "phone": "+494105636770", "display_phone": "+49 4105 636770", "distance": 2966.8345602148543}, {"id": "TNSx-9txYa456CBRaICskw", "alias": "naos-hamburg", "name": "Naos", "image_url": "https://s3-media1.fl.yelpcdn.com/bphoto/Gtf6jJ6pqQPKm8h03yB1cQ/o.jpg", "is_closed": false, "url": "https://www.yelp.com/biz/naos-hamburg?adjust_creative=hBJOknVQJ58S5goQyjmwRw&utm_campaign=yelp_api_v3&utm_medium=api_v3_business_search&utm_source=hBJOknVQJ58S5goQyjmwRw", "review_count": 16, "categories": [{"alias": "greek", "title": "Greek"}], "rating": 4.0, "coordinates": {"latitude": 53.44361, "longitude": 9.99541}, "transactions": [], "price": "\u20ac", "location": {"address1": "Roseggerstr. 41", "address2": null, "address3": null, "city": "Hamburg", "zip_code": "21079", "country": "DE", "state": "HH", "display_address": ["Roseggerstr. 41", "21079 Hamburg", "Germany"]}, "phone": "+49407637334", "display_phone": "+49 40 7637334", "distance": 3523.445135615577}, {"id": "SHKM2iuxD_4A81opu08ieg", "alias": "das-schl\u00f6sschen-seevetal", "name": "Das Schl\u00f6sschen", "image_url": "https://s3-media2.fl.yelpcdn.com/bphoto/JbLuz54_lTGlMEkhxw3aHw/o.jpg", "is_closed": false, "url": "https://www.yelp.com/biz/das-schl%C3%B6sschen-seevetal?adjust_creative=hBJOknVQJ58S5goQyjmwRw&utm_campaign=yelp_api_v3&utm_medium=api_v3_business_search&utm_source=hBJOknVQJ58S5goQyjmwRw", "review_count": 5, "categories": [{"alias": "restaurants", "title": "Restaurants"}], "rating": 4.5, "coordinates": {"latitude": 53.3738393, "longitude": 9.9798221}, "transactions": [], "price": "\u20ac\u20ac", "location": {"address1": "Pastorenwiesen 25", "address2": "Teil des Veranstaltungszentrums Burg Seevetal", "address3": null, "city": "Seevetal", "zip_code": "21218", "country": "DE", "state": "NI", "display_address": ["Pastorenwiesen 25", "Teil des Veranstaltungszentrums Burg Seevetal", "21218 Seevetal", "Germany"]}, "phone": "+494105555357", "display_phone": "+49 4105 555357", "distance": 4361.043076120008}, {"id": "b46QX6Nbw6Tqe1qMWGd7sg", "alias": "goldener-buddha-seevetal", "name": "Goldener Buddha", "image_url": "https://s3-media4.fl.yelpcdn.com/bphoto/JYZHI3sIY3JmZ1qHtWmeVA/o.jpg", "is_closed": false, "url": "https://www.yelp.com/biz/goldener-buddha-seevetal?adjust_creative=hBJOknVQJ58S5goQyjmwRw&utm_campaign=yelp_api_v3&utm_medium=api_v3_business_search&utm_source=hBJOknVQJ58S5goQyjmwRw", "review_count": 21, "categories": [{"alias": "chinese", "title": "Chinese"}], "rating": 3.5, "coordinates": {"latitude": 53.4168, "longitude": 10.0203}, "transactions": [], "price": "\u20ac\u20ac", "location": {"address1": "Gl\u00fcsinger Str. 54", "address2": null, "address3": null, "city": "Seevetal", "zip_code": "21217", "country": "DE", "state": "NI", "display_address": ["Gl\u00fcsinger Str. 54", "21217 Seevetal", "Germany"]}, "phone": "+49407681046", "display_phone": "+49 40 7681046", "distance": 1752.1778890294836}, {"id": "9_Z0Q-eN-FaiE-_krHSz8g", "alias": "taverna-olympia-seevetal", "name": "Taverna Olympia", "image_url": "https://s3-media2.fl.yelpcdn.com/bphoto/7nyUTj79E8OuNQEJNQk63w/o.jpg", "is_closed": false, "url": "https://www.yelp.com/biz/taverna-olympia-seevetal?adjust_creative=hBJOknVQJ58S5goQyjmwRw&utm_campaign=yelp_api_v3&utm_medium=api_v3_business_search&utm_source=hBJOknVQJ58S5goQyjmwRw", "review_count": 2, "categories": [{"alias": "restaurants", "title": "Restaurants"}], "rating": 4.0, "coordinates": {"latitude": 53.4112663, "longitude": 9.9885168}, "transactions": [], "price": "\u20ac\u20ac", "location": {"address1": "Marquardtsweg 3", "address2": null, "address3": null, "city": "Seevetal", "zip_code": "21217", "country": "DE", "state": "NI", "display_address": ["Marquardtsweg 3", "21217 Seevetal", "Germany"]}, "phone": "+494105585566", "display_phone": "+49 4105 585566", "distance": 442.30392257627227}, {"id": "0iI4ba-9QJiZFWenxmenzQ", "alias": "plaka-ii-seevetal", "name": "Plaka II", "image_url": "https://s3-media3.fl.yelpcdn.com/bphoto/c7HmzyqqWeyKSxGVIt8pPQ/o.jpg", "is_closed": false, "url": "https://www.yelp.com/biz/plaka-ii-seevetal?adjust_creative=hBJOknVQJ58S5goQyjmwRw&utm_campaign=yelp_api_v3&utm_medium=api_v3_business_search&utm_source=hBJOknVQJ58S5goQyjmwRw", "review_count": 5, "categories": [{"alias": "greek", "title": "Greek"}], "rating": 3.5, "coordinates": {"latitude": 53.38451, "longitude": 9.98158}, "transactions": [], "price": "\u20ac", "location": {"address1": "Friedhofstr. 1c", "address2": "", "address3": "", "city": "Seevetal", "zip_code": "21218", "country": "DE", "state": "NI", "display_address": ["Friedhofstr. 1c", "21218 Seevetal", "Germany"]}, "phone": "+494105556215", "display_phone": "+49 4105 556215", "distance": 3184.098291902867}, {"id": "hb3VLlzB9mVg-KSlkf7htQ", "alias": "leuchtturm-hamburg", "name": "Leuchtturm", "image_url": "https://s3-media1.fl.yelpcdn.com/bphoto/9GZB4j0l00fnq47N7tpNTg/o.jpg", "is_closed": false, "url": "https://www.yelp.com/biz/leuchtturm-hamburg?adjust_creative=hBJOknVQJ58S5goQyjmwRw&utm_campaign=yelp_api_v3&utm_medium=api_v3_business_search&utm_source=hBJOknVQJ58S5goQyjmwRw", "review_count": 55, "categories": [{"alias": "seafood", "title": "Seafood"}, {"alias": "mediterranean", "title": "Mediterranean"}], "rating": 4.0, "coordinates": {"latitude": 53.45078, "longitude": 9.98107}, "transactions": [], "price": "\u20ac\u20ac\u20ac", "location": {"address1": "Au\u00dfenm\u00fchlendamm 2", "address2": "", "address3": "", "city": "Hamburg", "zip_code": "21077", "country": "DE", "state": "HH", "display_address": ["Au\u00dfenm\u00fchlendamm 2", "21077 Hamburg", "Germany"]}, "phone": "+494070299777", "display_phone": "+49 40 70299777", "distance": 4420.806234219062}, {"id": "OHXNXNW-Io_s9atVpWwyRg", "alias": "virginia-burger-hamburg", "name": "Virginia Burger", "image_url": "https://s3-media4.fl.yelpcdn.com/bphoto/AUOCEDxOmtVUsB0hjaUAuA/o.jpg", "is_closed": false, "url": "https://www.yelp.com/biz/virginia-burger-hamburg?adjust_creative=hBJOknVQJ58S5goQyjmwRw&utm_campaign=yelp_api_v3&utm_medium=api_v3_business_search&utm_source=hBJOknVQJ58S5goQyjmwRw", "review_count": 14, "categories": [{"alias": "burgers", "title": "Burgers"}], "rating": 3.0, "coordinates": {"latitude": 53.422266, "longitude": 9.981417}, "transactions": [], "location": {"address1": "Winsener Str. 229", "address2": "", "address3": "", "city": "Hamburg", "zip_code": "21077", "country": "DE", "state": "HH", "display_address": ["Winsener Str. 229", "21077 Hamburg", "Germany"]}, "phone": "+494076118831", "display_phone": "+49 40 76118831", "distance": 1416.7951115717913}, {"id": "JYvmyWarOyFnifcMFK4ZXw", "alias": "hotel-zur-linde-seevetal", "name": "Hotel Zur Linde", "image_url": "https://s3-media1.fl.yelpcdn.com/bphoto/6S_EQykYiEkhHcTUYUXDzQ/o.jpg", "is_closed": false, "url": "https://www.yelp.com/biz/hotel-zur-linde-seevetal?adjust_creative=hBJOknVQJ58S5goQyjmwRw&utm_campaign=yelp_api_v3&utm_medium=api_v3_business_search&utm_source=hBJOknVQJ58S5goQyjmwRw", "review_count": 14, "categories": [{"alias": "hotels", "title": "Hotels"}, {"alias": "german", "title": "German"}], "rating": 4.0, "coordinates": {"latitude": 53.38321, "longitude": 9.98081}, "transactions": [], "price": "\u20ac\u20ac", "location": {"address1": "Lindhorster Str. 3", "address2": null, "address3": null, "city": "Seevetal", "zip_code": "21218", "country": "DE", "state": "NI", "display_address": ["Lindhorster Str. 3", "21218 Seevetal", "Germany"]}, "phone": "+4941052023", "display_phone": "+49 4105 2023", "distance": 3326.2111199251754}, {"id": "MyFNVSZYDGoCpPWFyaxKXg", "alias": "taverna-oniro-hittfeld-seevetal", "name": "Taverna Oniro Hittfeld", "image_url": "", "is_closed": false, "url": "https://www.yelp.com/biz/taverna-oniro-hittfeld-seevetal?adjust_creative=hBJOknVQJ58S5goQyjmwRw&utm_campaign=yelp_api_v3&utm_medium=api_v3_business_search&utm_source=hBJOknVQJ58S5goQyjmwRw", "review_count": 1, "categories": [{"alias": "greek", "title": "Greek"}], "rating": 2.0, "coordinates": {"latitude": 53.394232, "longitude": 9.983092}, "transactions": [], "location": {"address1": "Bahnofstr. 42", "address2": "", "address3": null, "city": "Seevetal", "zip_code": "21218", "country": "DE", "state": "NI", "display_address": ["Bahnofstr. 42", "21218 Seevetal", "Germany"]}, "phone": "+4941055541641", "display_phone": "+49 4105 5541641", "distance": 2128.916220221802}, {"id": "y4Qj23Rm3I3S6_Mumc_sgg", "alias": "entennest-bernd-heiland-hamburg", "name": "Entennest Bernd Heiland", "image_url": "https://s3-media2.fl.yelpcdn.com/bphoto/9cGd5oVBJs2YC-YbmPBw-A/o.jpg", "is_closed": false, "url": "https://www.yelp.com/biz/entennest-bernd-heiland-hamburg?adjust_creative=hBJOknVQJ58S5goQyjmwRw&utm_campaign=yelp_api_v3&utm_medium=api_v3_business_search&utm_source=hBJOknVQJ58S5goQyjmwRw", "review_count": 2, "categories": [{"alias": "restaurants", "title": "Restaurants"}], "rating": 3.0, "coordinates": {"latitude": 53.4491, "longitude": 9.98374}, "transactions": [], "price": "\u20ac\u20ac", "location": {"address1": "Vinzenzweg 20", "address2": null, "address3": null, "city": "Hamburg", "zip_code": "21077", "country": "DE", "state": "HH", "display_address": ["Vinzenzweg 20", "21077 Hamburg", "Germany"]}, "phone": "+494070388858", "display_phone": "+49 40 70388858", "distance": 4195.677484880294}, {"id": "CqAsA5szZG0hPwNOEsocfw", "alias": "meldas-kebab-haus-seevetal", "name": "Melda's Kebab Haus", "image_url": "https://s3-media3.fl.yelpcdn.com/bphoto/v7mxuDCPIiQDJvpdM3o7iw/o.jpg", "is_closed": false, "url": "https://www.yelp.com/biz/meldas-kebab-haus-seevetal?adjust_creative=hBJOknVQJ58S5goQyjmwRw&utm_campaign=yelp_api_v3&utm_medium=api_v3_business_search&utm_source=hBJOknVQJ58S5goQyjmwRw", "review_count": 2, "categories": [{"alias": "kebab", "title": "Kebab"}, {"alias": "turkish", "title": "Turkish"}], "rating": 3.0, "coordinates": {"latitude": 53.38455, "longitude": 9.98152}, "transactions": [], "price": "\u20ac", "location": {"address1": "Friedhofstr. 1C", "address2": "", "address3": null, "city": "Seevetal", "zip_code": "21218", "country": "DE", "state": "NI", "display_address": ["Friedhofstr. 1C", "21218 Seevetal", "Germany"]}, "phone": "+4941055572481", "display_phone": "+49 4105 5572481", "distance": 3177.205880516779}, {"id": "HHo7REfDa2YRSQSHH_TqiQ", "alias": "mcdonalds-hamburg-32", "name": "McDonald's", "image_url": "https://s3-media1.fl.yelpcdn.com/bphoto/kLKRWBTG4cqdsmYf1spIzw/o.jpg", "is_closed": false, "url": "https://www.yelp.com/biz/mcdonalds-hamburg-32?adjust_creative=hBJOknVQJ58S5goQyjmwRw&utm_campaign=yelp_api_v3&utm_medium=api_v3_business_search&utm_source=hBJOknVQJ58S5goQyjmwRw", "review_count": 12, "categories": [{"alias": "hotdogs", "title": "Fast Food"}, {"alias": "burgers", "title": "Burgers"}], "rating": 3.0, "coordinates": {"latitude": 53.4214399, "longitude": 9.98166}, "transactions": [], "price": "\u20ac\u20ac\u20ac\u20ac", "location": {"address1": "Winsener Str. 231", "address2": null, "address3": null, "city": "Hamburg", "zip_code": "21077", "country": "DE", "state": "HH", "display_address": ["Winsener Str. 231", "21077 Hamburg", "Germany"]}, "phone": "+494070102827", "display_phone": "+49 40 70102827", "distance": 1367.9321159754684}, {"id": "fn9G7u7Ok4u5aLwtY3Ok4Q", "alias": "pizza-max-hamburg-5", "name": "Pizza Max", "image_url": "https://s3-media3.fl.yelpcdn.com/bphoto/ii2_bSz4l0LdTtBjUjznrw/o.jpg", "is_closed": false, "url": "https://www.yelp.com/biz/pizza-max-hamburg-5?adjust_creative=hBJOknVQJ58S5goQyjmwRw&utm_campaign=yelp_api_v3&utm_medium=api_v3_business_search&utm_source=hBJOknVQJ58S5goQyjmwRw", "review_count": 5, "categories": [{"alias": "hotdogs", "title": "Fast Food"}, {"alias": "pizza", "title": "Pizza"}, {"alias": "burgers", "title": "Burgers"}], "rating": 4.5, "coordinates": {"latitude": 53.44405, "longitude": 9.99892}, "transactions": [], "price": "\u20ac", "location": {"address1": "Mensingstr. 3", "address2": "", "address3": "", "city": "Hamburg", "zip_code": "21079", "country": "DE", "state": "HH", "display_address": ["Mensingstr. 3", "21079 Hamburg", "Germany"]}, "phone": "+494030375150", "display_phone": "+49 40 30375150", "distance": 3574.4571161043186}, {"id": "XpcjjoBY2o47QXsa_KatYA", "alias": "bootshaus-aussenm\u00fchle-hamburg", "name": "Bootshaus Aussenm\u00fchle", "image_url": "https://s3-media1.fl.yelpcdn.com/bphoto/yYG7mTrE-p9elKjA9MflNw/o.jpg", "is_closed": false, "url": "https://www.yelp.com/biz/bootshaus-aussenm%C3%BChle-hamburg?adjust_creative=hBJOknVQJ58S5goQyjmwRw&utm_campaign=yelp_api_v3&utm_medium=api_v3_business_search&utm_source=hBJOknVQJ58S5goQyjmwRw", "review_count": 10, "categories": [{"alias": "cafes", "title": "Cafes"}, {"alias": "german", "title": "German"}, {"alias": "beergarden", "title": "Beer Garden"}], "rating": 3.5, "coordinates": {"latitude": 53.4481161, "longitude": 9.9813583}, "transactions": [], "price": "\u20ac\u20ac", "location": {"address1": "Gotthelfweg 2a", "address2": null, "address3": null, "city": "Hamburg", "zip_code": "21077", "country": "DE", "state": "HH", "display_address": ["Gotthelfweg 2a", "21077 Hamburg", "Germany"]}, "phone": "+49407642485", "display_phone": "+49 40 7642485", "distance": 4120.143878929079}, {"id": "afQhj6UkcZ3z49pd-tdKzg", "alias": "tamang-tempel-hamburg", "name": "Tamang Tempel", "image_url": "https://s3-media2.fl.yelpcdn.com/bphoto/1UD1l2Mw8oc7bIBMZN1sbw/o.jpg", "is_closed": false, "url": "https://www.yelp.com/biz/tamang-tempel-hamburg?adjust_creative=hBJOknVQJ58S5goQyjmwRw&utm_campaign=yelp_api_v3&utm_medium=api_v3_business_search&utm_source=hBJOknVQJ58S5goQyjmwRw", "review_count": 14, "categories": [{"alias": "chinese", "title": "Chinese"}, {"alias": "thai", "title": "Thai"}], "rating": 3.5, "coordinates": {"latitude": 53.4499799, "longitude": 9.98716}, "transactions": [], "price": "\u20ac\u20ac", "location": {"address1": "Winsenerstr. 16", "address2": "", "address3": "", "city": "Hamburg", "zip_code": "21073", "country": "DE", "state": "HH", "display_address": ["Winsenerstr. 16", "21073 Hamburg", "Germany"]}, "phone": "+494075360140", "display_phone": "+49 40 75360140", "distance": 4266.53702730414}, {"id": "B1hR8uGN6_TuZbu0U7KicA", "alias": "eiscaf\u00e9-italia-seevetal-2", "name": "Eiscaf\u00e9 Italia", "image_url": "https://s3-media2.fl.yelpcdn.com/bphoto/wKAGbUT295lfhXJdXNW0zw/o.jpg", "is_closed": false, "url": "https://www.yelp.com/biz/eiscaf%C3%A9-italia-seevetal-2?adjust_creative=hBJOknVQJ58S5goQyjmwRw&utm_campaign=yelp_api_v3&utm_medium=api_v3_business_search&utm_source=hBJOknVQJ58S5goQyjmwRw", "review_count": 11, "categories": [{"alias": "icecream", "title": "Ice Cream & Frozen Yogurt"}, {"alias": "cafes", "title": "Cafes"}], "rating": 4.0, "coordinates": {"latitude": 53.386, "longitude": 9.98253}, "transactions": [], "price": "\u20ac\u20ac", "location": {"address1": "Kirchstr. 26", "address2": null, "address3": null, "city": "Seevetal", "zip_code": "21218", "country": "DE", "state": "NI", "display_address": ["Kirchstr. 26", "21218 Seevetal", "Germany"]}, "phone": "+494105770769", "display_phone": "+49 4105 770769", "distance": 3007.406282371378}, {"id": "94Zk6MIaVfxFKUcaFvy-NQ", "alias": "sofia-pizza-hamburg", "name": "Sofia Pizza", "image_url": "https://s3-media2.fl.yelpcdn.com/bphoto/QGi_k4KjaT-k_myPkbISog/o.jpg", "is_closed": false, "url": "https://www.yelp.com/biz/sofia-pizza-hamburg?adjust_creative=hBJOknVQJ58S5goQyjmwRw&utm_campaign=yelp_api_v3&utm_medium=api_v3_business_search&utm_source=hBJOknVQJ58S5goQyjmwRw", "review_count": 9, "categories": [{"alias": "fooddeliveryservices", "title": "Food Delivery Services"}, {"alias": "italian", "title": "Italian"}], "rating": 4.0, "coordinates": {"latitude": 53.45045, "longitude": 9.98862}, "transactions": [], "price": "\u20ac\u20ac", "location": {"address1": "N\u00f6ldekestr. 2", "address2": "", "address3": null, "city": "Hamburg", "zip_code": "21079", "country": "DE", "state": "HH", "display_address": ["N\u00f6ldekestr. 2", "21079 Hamburg", "Germany"]}, "phone": "+49407642187", "display_phone": "+49 40 7642187", "distance": 4299.077062168959}, {"id": "wblfKYOU-lF0ijpsXQNFQA", "alias": "easy-pizza-hamburg", "name": "Easy Pizza", "image_url": "", "is_closed": false, "url": "https://www.yelp.com/biz/easy-pizza-hamburg?adjust_creative=hBJOknVQJ58S5goQyjmwRw&utm_campaign=yelp_api_v3&utm_medium=api_v3_business_search&utm_source=hBJOknVQJ58S5goQyjmwRw", "review_count": 2, "categories": [{"alias": "pizza", "title": "Pizza"}], "rating": 2.5, "coordinates": {"latitude": 53.45048, "longitude": 9.98851}, "transactions": [], "location": {"address1": "N\u00f6ldekerstr. 2", "address2": "", "address3": "", "city": "Hamburg", "zip_code": "21079", "country": "DE", "state": "HH", "display_address": ["N\u00f6ldekerstr. 2", "21079 Hamburg", "Germany"]}, "phone": "+494076429746", "display_phone": "+49 40 76429746", "distance": 4301.433875334246}, {"id": "YQBtXX3wwLm_nNjpF0Fu2A", "alias": "gasthaus-gambrinus-seevetal", "name": "Gasthaus Gambrinus", "image_url": "https://s3-media4.fl.yelpcdn.com/bphoto/ULe4DXNV51c63EqxnHkGWw/o.jpg", "is_closed": false, "url": "https://www.yelp.com/biz/gasthaus-gambrinus-seevetal?adjust_creative=hBJOknVQJ58S5goQyjmwRw&utm_campaign=yelp_api_v3&utm_medium=api_v3_business_search&utm_source=hBJOknVQJ58S5goQyjmwRw", "review_count": 9, "categories": [{"alias": "schnitzel", "title": "Schnitzel"}], "rating": 3.5, "coordinates": {"latitude": 53.3851, "longitude": 9.98449}, "transactions": [], "price": "\u20ac\u20ac", "location": {"address1": "M\u00fchlenstr. 4", "address2": null, "address3": null, "city": "Seevetal", "zip_code": "21218", "country": "DE", "state": "NI", "display_address": ["M\u00fchlenstr. 4", "21218 Seevetal", "Germany"]}, "phone": "+4941052416", "display_phone": "+49 4105 2416", "distance": 3071.252795009381}, {"id": "tSgLnQpFHxEmy4v_b7MOlA", "alias": "imbiss-stube-hamburg", "name": "Imbiss Stube", "image_url": "https://s3-media1.fl.yelpcdn.com/bphoto/tXRb6VZadgTWpUw7hR94pQ/o.jpg", "is_closed": false, "url": "https://www.yelp.com/biz/imbiss-stube-hamburg?adjust_creative=hBJOknVQJ58S5goQyjmwRw&utm_campaign=yelp_api_v3&utm_medium=api_v3_business_search&utm_source=hBJOknVQJ58S5goQyjmwRw", "review_count": 1, "categories": [{"alias": "divebars", "title": "Dive Bars"}, {"alias": "hotdogs", "title": "Fast Food"}], "rating": 3.0, "coordinates": {"latitude": 53.447, "longitude": 9.99155264562841}, "transactions": [], "price": "\u20ac\u20ac", "location": {"address1": "Tivoliweg 1", "address2": "", "address3": "", "city": "Hamburg", "zip_code": "21079", "country": "DE", "state": "HH", "display_address": ["Tivoliweg 1", "21079 Hamburg", "Germany"]}, "phone": "", "display_phone": "", "distance": 3900.979732445189}, {"id": "sJordO9bdzZQtldyxgSIig", "alias": "knightbar-seevetal", "name": "Knightbar", "image_url": "https://s3-media1.fl.yelpcdn.com/bphoto/x3g8tBWRYugHHxmCpQOW3w/o.jpg", "is_closed": false, "url": "https://www.yelp.com/biz/knightbar-seevetal?adjust_creative=hBJOknVQJ58S5goQyjmwRw&utm_campaign=yelp_api_v3&utm_medium=api_v3_business_search&utm_source=hBJOknVQJ58S5goQyjmwRw", "review_count": 9, "categories": [{"alias": "cocktailbars", "title": "Cocktail Bars"}, {"alias": "international", "title": "International"}], "rating": 3.0, "coordinates": {"latitude": 53.3863999, "longitude": 9.9788742}, "transactions": [], "price": "\u20ac\u20ac", "location": {"address1": "Pastorenwiesen 25", "address2": null, "address3": null, "city": "Seevetal", "zip_code": "21218", "country": "DE", "state": "NI", "display_address": ["Pastorenwiesen 25", "21218 Seevetal", "Germany"]}, "phone": "+494105555357", "display_phone": "+49 4105 555357", "distance": 3041.897088923139}, {"id": "_LxqJQqvVtbccu8u0A-28w", "alias": "asia-palast-hamburg", "name": "Asia Palast", "image_url": "https://s3-media3.fl.yelpcdn.com/bphoto/CuAWnIvluQjT62Uwa0cFDw/o.jpg", "is_closed": false, "url": "https://www.yelp.com/biz/asia-palast-hamburg?adjust_creative=hBJOknVQJ58S5goQyjmwRw&utm_campaign=yelp_api_v3&utm_medium=api_v3_business_search&utm_source=hBJOknVQJ58S5goQyjmwRw", "review_count": 1, "categories": [{"alias": "chinese", "title": "Chinese"}, {"alias": "panasian", "title": "Pan Asian"}], "rating": 3.0, "coordinates": {"latitude": 53.4398084, "longitude": 9.9839908}, "transactions": [], "location": {"address1": "Freudenthalweg 33", "address2": "", "address3": "", "city": "Hamburg", "zip_code": "21077", "country": "DE", "state": "HH", "display_address": ["Freudenthalweg 33", "21077 Hamburg", "Germany"]}, "phone": "+494022610499", "display_phone": "+49 40 22610499", "distance": 3180.8866489612233}, {"id": "fWkMk9WO8ox-wwx5VUvkWg", "alias": "somis-grill-seevetal", "name": "Somi's Grill", "image_url": "https://s3-media2.fl.yelpcdn.com/bphoto/WrksPtOR0zkP8nn0YjrOww/o.jpg", "is_closed": false, "url": "https://www.yelp.com/biz/somis-grill-seevetal?adjust_creative=hBJOknVQJ58S5goQyjmwRw&utm_campaign=yelp_api_v3&utm_medium=api_v3_business_search&utm_source=hBJOknVQJ58S5goQyjmwRw", "review_count": 4, "categories": [{"alias": "german", "title": "German"}], "rating": 2.0, "coordinates": {"latitude": 53.3861, "longitude": 9.98563}, "transactions": [], "price": "\u20ac", "location": {"address1": "Sch\u00fctzenstr. 2", "address2": null, "address3": null, "city": "Seevetal", "zip_code": "21218", "country": "DE", "state": "NI", "display_address": ["Sch\u00fctzenstr. 2", "21218 Seevetal", "Germany"]}, "phone": "+494105636812", "display_phone": "+49 4105 636812", "distance": 2946.0630585591593}]