[{"id": "MC0hhfCNSBo7BrJjDR8BNw", "alias": "la-granja-hamburg", "name": "La Granja", "image_url": "https://s3-media2.fl.yelpcdn.com/bphoto/uTcrOlZKL4nBP_xXGN-ggA/o.jpg", "is_closed": false, "url": "https://www.yelp.com/biz/la-granja-hamburg?adjust_creative=hBJOknVQJ58S5goQyjmwRw&utm_campaign=yelp_api_v3&utm_medium=api_v3_business_search&utm_source=hBJOknVQJ58S5goQyjmwRw", "review_count": 17, "categories": [{"alias": "german", "title": "German"}], "rating": 4.5, "coordinates": {"latitude": 53.4352, "longitude": 9.93557}, "transactions": [], "price": "\u20ac\u20ac", "location": {"address1": "Bremer Str. 343", "address2": null, "address3": null, "city": "Hamburg", "zip_code": "21077", "country": "DE", "state": "HH", "display_address": ["Bremer Str. 343", "21077 Hamburg", "Germany"]}, "phone": "+49408816155866", "display_phone": "+49 40 8816155866", "distance": 2527.9411332689137}, {"id": "Tl_AKFJyIG7z7wmPBZ2gHQ", "alias": "kutscherstuben-ii-seevetal", "name": "Kutscherstuben II", "image_url": "https://s3-media3.fl.yelpcdn.com/bphoto/_b6DzUnbXt7_ZhX5yIwGcw/o.jpg", "is_closed": false, "url": "https://www.yelp.com/biz/kutscherstuben-ii-seevetal?adjust_creative=hBJOknVQJ58S5goQyjmwRw&utm_campaign=yelp_api_v3&utm_medium=api_v3_business_search&utm_source=hBJOknVQJ58S5goQyjmwRw", "review_count": 2, "categories": [{"alias": "german", "title": "German"}], "rating": 4.5, "coordinates": {"latitude": 53.422039, "longitude": 9.9586802}, "transactions": [], "location": {"address1": "Beckedorfer Bogen 9a", "address2": "", "address3": "", "city": "Seevetal", "zip_code": "21218", "country": "DE", "state": "NI", "display_address": ["Beckedorfer Bogen 9a", "21218 Seevetal", "Germany"]}, "phone": "+4916099214595", "display_phone": "+49 160 99214595", "distance": 2016.6722452913289}, {"id": "GXPKNQKMxeSXcIkc1uGpBg", "alias": "dubrovnik-hamburg-4", "name": "Dubrovnik", "image_url": "https://s3-media2.fl.yelpcdn.com/bphoto/wNr19wNaj6nFEzI2vP9GZw/o.jpg", "is_closed": false, "url": "https://www.yelp.com/biz/dubrovnik-hamburg-4?adjust_creative=hBJOknVQJ58S5goQyjmwRw&utm_campaign=yelp_api_v3&utm_medium=api_v3_business_search&utm_source=hBJOknVQJ58S5goQyjmwRw", "review_count": 16, "categories": [{"alias": "serbocroatian", "title": "Serbo Croatian"}], "rating": 4.0, "coordinates": {"latitude": 53.4496867879809, "longitude": 9.93726177417375}, "transactions": [], "price": "\u20ac\u20ac", "location": {"address1": "Hainholzweg 69", "address2": "", "address3": "", "city": "Hamburg", "zip_code": "21077", "country": "DE", "state": "HH", "display_address": ["Hainholzweg 69", "21077 Hamburg", "Germany"]}, "phone": "+494079142842", "display_phone": "+49 40 79142842", "distance": 4141.2842712025695}, {"id": "YFPL5w5keAybWu4vdyVvNg", "alias": "orangerie-seevetal", "name": "Orangerie", "image_url": "", "is_closed": false, "url": "https://www.yelp.com/biz/orangerie-seevetal?adjust_creative=hBJOknVQJ58S5goQyjmwRw&utm_campaign=yelp_api_v3&utm_medium=api_v3_business_search&utm_source=hBJOknVQJ58S5goQyjmwRw", "review_count": 3, "categories": [{"alias": "italian", "title": "Italian"}], "rating": 3.5, "coordinates": {"latitude": 53.4061149, "longitude": 9.953765}, "transactions": [], "price": "\u20ac\u20ac", "location": {"address1": "Poststr. 5", "address2": null, "address3": null, "city": "Seevetal", "zip_code": "21218", "country": "DE", "state": "NI", "display_address": ["Poststr. 5", "21218 Seevetal", "Germany"]}, "phone": "+494105636003", "display_phone": "+49 4105 636003", "distance": 1432.8428365937282}, {"id": "C38fRvXCYl8dUQEl3nAqnQ", "alias": "bruzzelh\u00fctte-hamburg", "name": "Bruzzelh\u00fctte", "image_url": "https://s3-media2.fl.yelpcdn.com/bphoto/l2CObMSf7WtplrxoKI_3ZQ/o.jpg", "is_closed": false, "url": "https://www.yelp.com/biz/bruzzelh%C3%BCtte-hamburg?adjust_creative=hBJOknVQJ58S5goQyjmwRw&utm_campaign=yelp_api_v3&utm_medium=api_v3_business_search&utm_source=hBJOknVQJ58S5goQyjmwRw", "review_count": 40, "categories": [{"alias": "hotdogs", "title": "Fast Food"}, {"alias": "german", "title": "German"}], "rating": 4.5, "coordinates": {"latitude": 53.446203, "longitude": 9.957467}, "transactions": [], "price": "\u20ac", "location": {"address1": "Bremer Str. 239", "address2": "", "address3": "", "city": "Hamburg", "zip_code": "21079", "country": "DE", "state": "HH", "display_address": ["Bremer Str. 239", "21079 Hamburg", "Germany"]}, "phone": "+49407607828", "display_phone": "+49 40 7607828", "distance": 4035.544306255111}, {"id": "T6ysCn_BgVcAVlIEcQhs4A", "alias": "sahlings-gasthaus-hamburg", "name": "Sahling's Gasthaus", "image_url": "https://s3-media3.fl.yelpcdn.com/bphoto/EdIsNoi-EThBNslj18EnKw/o.jpg", "is_closed": false, "url": "https://www.yelp.com/biz/sahlings-gasthaus-hamburg?adjust_creative=hBJOknVQJ58S5goQyjmwRw&utm_campaign=yelp_api_v3&utm_medium=api_v3_business_search&utm_source=hBJOknVQJ58S5goQyjmwRw", "review_count": 21, "categories": [{"alias": "greek", "title": "Greek"}, {"alias": "hotels", "title": "Hotels"}], "rating": 4.5, "coordinates": {"latitude": 53.4519, "longitude": 9.95489}, "transactions": [], "price": "\u20ac\u20ac", "location": {"address1": "Friedhofstr. 10", "address2": null, "address3": null, "city": "Hamburg", "zip_code": "21073", "country": "DE", "state": "HH", "display_address": ["Friedhofstr. 10", "21073 Hamburg", "Germany"]}, "phone": "+49407903505", "display_phone": "+49 40 7903505", "distance": 4579.076239511427}, {"id": "u3ub5f0MS4qY67Q8XF9ZoA", "alias": "sodemanns-fisch-kutter-nr-1-hamburg", "name": "Sodemann's Fisch-Kutter Nr. 1", "image_url": "https://s3-media3.fl.yelpcdn.com/bphoto/BlysP6fVPaL0eEjKvEbByw/o.jpg", "is_closed": false, "url": "https://www.yelp.com/biz/sodemanns-fisch-kutter-nr-1-hamburg?adjust_creative=hBJOknVQJ58S5goQyjmwRw&utm_campaign=yelp_api_v3&utm_medium=api_v3_business_search&utm_source=hBJOknVQJ58S5goQyjmwRw", "review_count": 3, "categories": [{"alias": "foodtrucks", "title": "Food Trucks"}, {"alias": "fischbroetchen", "title": "Fischbroetchen"}], "rating": 5.0, "coordinates": {"latitude": 53.5537490844727, "longitude": 9.99182987213135}, "transactions": [], "price": "\u20ac\u20ac", "location": {"address1": "", "address2": null, "address3": "", "city": "Hamburg", "zip_code": "", "country": "DE", "state": "HH", "display_address": ["Hamburg", "Germany"]}, "phone": "+491773606663", "display_phone": "+49 177 3606663", "distance": 15895.630895702881}, {"id": "nMGEgMT3fOc2xt6APKt7Yg", "alias": "caf\u00e9-beerental-das-tortenparadies-hamburg", "name": "Caf\u00e9 Beerental \"Das Tortenparadies\"", "image_url": "https://s3-media4.fl.yelpcdn.com/bphoto/XqHA-i5rrsrxZ97WA9tC9w/o.jpg", "is_closed": false, "url": "https://www.yelp.com/biz/caf%C3%A9-beerental-das-tortenparadies-hamburg?adjust_creative=hBJOknVQJ58S5goQyjmwRw&utm_campaign=yelp_api_v3&utm_medium=api_v3_business_search&utm_source=hBJOknVQJ58S5goQyjmwRw", "review_count": 13, "categories": [{"alias": "cafes", "title": "Cafes"}], "rating": 4.5, "coordinates": {"latitude": 53.44908, "longitude": 9.95292}, "transactions": [], "price": "\u20ac\u20ac", "location": {"address1": "Beerentalweg 46", "address2": null, "address3": null, "city": "Hamburg", "zip_code": "21077", "country": "DE", "state": "HH", "display_address": ["Beerentalweg 46", "21077 Hamburg", "Germany"]}, "phone": "+49171x3817395", "display_phone": "+49 171 ext. 3817395", "distance": 4250.720401240422}, {"id": "yonxXSPPDv5w0KwdARHKoA", "alias": "zur-gr\u00fcnen-tanne-hamburg", "name": "Zur Gr\u00fcnen Tanne", "image_url": "https://s3-media2.fl.yelpcdn.com/bphoto/DXbLk4UhZ4TEoWKjYyUBSg/o.jpg", "is_closed": false, "url": "https://www.yelp.com/biz/zur-gr%C3%BCnen-tanne-hamburg?adjust_creative=hBJOknVQJ58S5goQyjmwRw&utm_campaign=yelp_api_v3&utm_medium=api_v3_business_search&utm_source=hBJOknVQJ58S5goQyjmwRw", "review_count": 3, "categories": [{"alias": "international", "title": "International"}, {"alias": "beergarden", "title": "Beer Garden"}], "rating": 3.5, "coordinates": {"latitude": 53.4400119, "longitude": 9.943916}, "transactions": [], "price": "\u20ac\u20ac", "location": {"address1": "Bremer Str. 307", "address2": null, "address3": null, "city": "Hamburg", "zip_code": "21077", "country": "DE", "state": "HH", "display_address": ["Bremer Str. 307", "21077 Hamburg", "Germany"]}, "phone": "+494076116092", "display_phone": "+49 40 76116092", "distance": 3119.6505486838123}, {"id": "n-CJZHJlOatDhZAvinMJeA", "alias": "restaurant-medousa-hamburg", "name": "Restaurant Medousa", "image_url": "https://s3-media4.fl.yelpcdn.com/bphoto/B4SDErtDvIQ8Ct0GpnQwXA/o.jpg", "is_closed": false, "url": "https://www.yelp.com/biz/restaurant-medousa-hamburg?adjust_creative=hBJOknVQJ58S5goQyjmwRw&utm_campaign=yelp_api_v3&utm_medium=api_v3_business_search&utm_source=hBJOknVQJ58S5goQyjmwRw", "review_count": 5, "categories": [{"alias": "greek", "title": "Greek"}], "rating": 4.0, "coordinates": {"latitude": 53.4459, "longitude": 9.95691}, "transactions": [], "price": "\u20ac\u20ac", "location": {"address1": "Bremer Str. 241", "address2": null, "address3": null, "city": "Hamburg", "zip_code": "21077", "country": "DE", "state": "HH", "display_address": ["Bremer Str. 241", "21077 Hamburg", "Germany"]}, "phone": "+494076111465", "display_phone": "+49 40 76111465", "distance": 3991.760990782544}, {"id": "2jzIbZsfzca5drJYk7JwbQ", "alias": "the-bao-bros-hamburg-2", "name": "The Bao Bros", "image_url": "https://s3-media1.fl.yelpcdn.com/bphoto/vUMA4Y35x3UwZk6fMJfZRw/o.jpg", "is_closed": false, "url": "https://www.yelp.com/biz/the-bao-bros-hamburg-2?adjust_creative=hBJOknVQJ58S5goQyjmwRw&utm_campaign=yelp_api_v3&utm_medium=api_v3_business_search&utm_source=hBJOknVQJ58S5goQyjmwRw", "review_count": 2, "categories": [{"alias": "foodtrucks", "title": "Food Trucks"}, {"alias": "burgers", "title": "Burgers"}], "rating": 4.0, "coordinates": {"latitude": 53.5533409118652, "longitude": 9.99246978759766}, "transactions": [], "price": "\u20ac", "location": {"address1": "", "address2": "", "address3": "", "city": "Hamburg", "zip_code": "", "country": "DE", "state": "HH", "display_address": ["Hamburg", "Germany"]}, "phone": "+4915140700076", "display_phone": "+49 1514 0700076", "distance": 15895.629278180162}, {"id": "Cf-sLIwvllFcN6QwXUH3MA", "alias": "hotel-majest\u00e4tische-aussicht-restaurant-pegasos-hamburg", "name": "Hotel Majest\u00e4tische Aussicht Restaurant Pegasos", "image_url": "https://s3-media3.fl.yelpcdn.com/bphoto/_JvVM76k2iNEhBJ4c85Vrg/o.jpg", "is_closed": false, "url": "https://www.yelp.com/biz/hotel-majest%C3%A4tische-aussicht-restaurant-pegasos-hamburg?adjust_creative=hBJOknVQJ58S5goQyjmwRw&utm_campaign=yelp_api_v3&utm_medium=api_v3_business_search&utm_source=hBJOknVQJ58S5goQyjmwRw", "review_count": 13, "categories": [{"alias": "hotels", "title": "Hotels"}, {"alias": "restaurants", "title": "Restaurants"}], "rating": 4.0, "coordinates": {"latitude": 53.4531, "longitude": 9.92459}, "transactions": [], "price": "\u20ac\u20ac\u20ac", "location": {"address1": "Ehestorfer Weg 215", "address2": null, "address3": null, "city": "Hamburg", "zip_code": "21075", "country": "DE", "state": "HH", "display_address": ["Ehestorfer Weg 215", "21075 Hamburg", "Germany"]}, "phone": "+49407906190", "display_phone": "+49 40 7906190", "distance": 4569.915671192444}, {"id": "-DqKJtRy-0yc1NmCCWSXtQ", "alias": "am-hainholz-hamburg", "name": "Am Hainholz", "image_url": "", "is_closed": false, "url": "https://www.yelp.com/biz/am-hainholz-hamburg?adjust_creative=hBJOknVQJ58S5goQyjmwRw&utm_campaign=yelp_api_v3&utm_medium=api_v3_business_search&utm_source=hBJOknVQJ58S5goQyjmwRw", "review_count": 1, "categories": [{"alias": "cafes", "title": "Cafes"}, {"alias": "coffee", "title": "Coffee & Tea"}], "rating": 5.0, "coordinates": {"latitude": 53.4499, "longitude": 9.93798}, "transactions": [], "location": {"address1": "Hainholzweg 65", "address2": null, "address3": null, "city": "Hamburg", "zip_code": "21077", "country": "DE", "state": "HH", "display_address": ["Hainholzweg 65", "21077 Hamburg", "Germany"]}, "phone": "+49407924672", "display_phone": "+49 40 7924672", "distance": 4166.990950031874}]