[{"id": "lUYcWHSk9tqO6a3Zy32Zpw", "alias": "romantica-karlsteinsch\u00e4nke-neu-wulmstorf", "name": "Romantica Karlsteinsch\u00e4nke", "image_url": "", "is_closed": false, "url": "https://www.yelp.com/biz/romantica-karlsteinsch%C3%A4nke-neu-wulmstorf?adjust_creative=hBJOknVQJ58S5goQyjmwRw&utm_campaign=yelp_api_v3&utm_medium=api_v3_business_search&utm_source=hBJOknVQJ58S5goQyjmwRw", "review_count": 1, "categories": [{"alias": "german", "title": "German"}, {"alias": "italian", "title": "Italian"}], "rating": 5.0, "coordinates": {"latitude": 53.4091, "longitude": 9.8105}, "transactions": [], "price": "\u20ac\u20ac", "location": {"address1": "Rosengartenstr. 100", "address2": null, "address3": null, "city": "Neu Wulmstorf", "zip_code": "21629", "country": "DE", "state": "NI", "display_address": ["Rosengartenstr. 100", "21629 Neu Wulmstorf", "Germany"]}, "phone": "+494168337", "display_phone": "+49 4168 337", "distance": 545.6248807568699}, {"id": "ycthMjyMZfUtBvbi_bidzw", "alias": "gastst\u00e4tte-zum-florian-elstorf-neu-wulmstorf", "name": "Gastst\u00e4tte Zum Florian", "image_url": "", "is_closed": false, "url": "https://www.yelp.com/biz/gastst%C3%A4tte-zum-florian-elstorf-neu-wulmstorf?adjust_creative=hBJOknVQJ58S5goQyjmwRw&utm_campaign=yelp_api_v3&utm_medium=api_v3_business_search&utm_source=hBJOknVQJ58S5goQyjmwRw", "review_count": 1, "categories": [{"alias": "postoffices", "title": "Post Offices"}, {"alias": "foodstands", "title": "Food Stands"}], "rating": 5.0, "coordinates": {"latitude": 53.4230228, "longitude": 9.7899846}, "transactions": [], "location": {"address1": "Lindenstr. 2", "address2": null, "address3": null, "city": "Elstorf - Neu Wulmstorf", "zip_code": "21629", "country": "DE", "state": "NI", "display_address": ["Lindenstr. 2", "21629 Elstorf - Neu Wulmstorf", "Germany"]}, "phone": "+491704042954", "display_phone": "+49 170 4042954", "distance": 1954.695303426184}, {"id": "vO9RL-i13lQ3NT_-FGt8JQ", "alias": "restaurant-akropolis-elstorf-neu-wulmstorf", "name": "Restaurant Akropolis", "image_url": "", "is_closed": false, "url": "https://www.yelp.com/biz/restaurant-akropolis-elstorf-neu-wulmstorf?adjust_creative=hBJOknVQJ58S5goQyjmwRw&utm_campaign=yelp_api_v3&utm_medium=api_v3_business_search&utm_source=hBJOknVQJ58S5goQyjmwRw", "review_count": 4, "categories": [{"alias": "greek", "title": "Greek"}], "rating": 3.0, "coordinates": {"latitude": 53.4246, "longitude": 9.78933}, "transactions": [], "location": {"address1": "Schwarzenberg 1", "address2": null, "address3": null, "city": "Elstorf - Neu Wulmstorf", "zip_code": "21629", "country": "DE", "state": "NI", "display_address": ["Schwarzenberg 1", "21629 Elstorf - Neu Wulmstorf", "Germany"]}, "phone": "+4941688366", "display_phone": "+49 4168 8366", "distance": 2090.9872885152868}, {"id": "nePhlx9hizp4YMQSRyXG2A", "alias": "restaurant-zum-eichenfrieden-rade-neu-wulmstorf", "name": "Restaurant Zum Eichenfrieden", "image_url": "", "is_closed": false, "url": "https://www.yelp.com/biz/restaurant-zum-eichenfrieden-rade-neu-wulmstorf?adjust_creative=hBJOknVQJ58S5goQyjmwRw&utm_campaign=yelp_api_v3&utm_medium=api_v3_business_search&utm_source=hBJOknVQJ58S5goQyjmwRw", "review_count": 1, "categories": [{"alias": "german", "title": "German"}], "rating": 4.0, "coordinates": {"latitude": 53.387239, "longitude": 9.796517}, "transactions": [], "location": {"address1": "Soltauer Str. 13", "address2": "", "address3": null, "city": "Rade - Neu Wulmstorf", "zip_code": "21629", "country": "DE", "state": "NI", "display_address": ["Soltauer Str. 13", "21629 Rade - Neu Wulmstorf", "Germany"]}, "phone": "+4941681261", "display_phone": "+49 4168 1261", "distance": 3145.2332701307814}, {"id": "gHSJt3ESDXJAqKYonmsFlQ", "alias": "restaurant-landhaus-mienenb\u00fcttel-mienenb\u00fcttel-neu-wulmstorf", "name": "Restaurant Landhaus Mienenb\u00fcttel", "image_url": "", "is_closed": false, "url": "https://www.yelp.com/biz/restaurant-landhaus-mienenb%C3%BCttel-mienenb%C3%BCttel-neu-wulmstorf?adjust_creative=hBJOknVQJ58S5goQyjmwRw&utm_campaign=yelp_api_v3&utm_medium=api_v3_business_search&utm_source=hBJOknVQJ58S5goQyjmwRw", "review_count": 1, "categories": [{"alias": "german", "title": "German"}], "rating": 4.0, "coordinates": {"latitude": 53.378968, "longitude": 9.802542}, "transactions": [], "location": {"address1": "Zum Tannenhof 2", "address2": "", "address3": null, "city": "Mienenb\u00fcttel - Neu Wulmstorf", "zip_code": "21629", "country": "DE", "state": "NI", "display_address": ["Zum Tannenhof 2", "21629 Mienenb\u00fcttel - Neu Wulmstorf", "Germany"]}, "phone": "+49416891230", "display_phone": "+49 4168 91230", "distance": 3908.127494031042}]