[{"id": "wk3uGPny6pidyVukxwQHNA", "alias": "strandhalle-over-seevetal", "name": "Strandhalle Over", "image_url": "https://s3-media2.fl.yelpcdn.com/bphoto/S_hB6tfILT3ZYOy_Fo8u_w/o.jpg", "is_closed": false, "url": "https://www.yelp.com/biz/strandhalle-over-seevetal?adjust_creative=hBJOknVQJ58S5goQyjmwRw&utm_campaign=yelp_api_v3&utm_medium=api_v3_business_search&utm_source=hBJOknVQJ58S5goQyjmwRw", "review_count": 9, "categories": [{"alias": "german", "title": "German"}], "rating": 3.5, "coordinates": {"latitude": 53.4431, "longitude": 10.091}, "transactions": [], "price": "\u20ac\u20ac", "location": {"address1": "Sandberg 7", "address2": null, "address3": null, "city": "Seevetal", "zip_code": "21217", "country": "DE", "state": "NI", "display_address": ["Sandberg 7", "21217 Seevetal", "Germany"]}, "phone": "+4917661956689", "display_phone": "+49 176 61956689", "distance": 3567.0399740291264}, {"id": "sT4XFrv0HOr0lKmkujunHg", "alias": "restaurant-cafe-essi-seevetal", "name": "Restaurant-Cafe Essi", "image_url": "", "is_closed": false, "url": "https://www.yelp.com/biz/restaurant-cafe-essi-seevetal?adjust_creative=hBJOknVQJ58S5goQyjmwRw&utm_campaign=yelp_api_v3&utm_medium=api_v3_business_search&utm_source=hBJOknVQJ58S5goQyjmwRw", "review_count": 4, "categories": [{"alias": "cafes", "title": "Cafes"}, {"alias": "international", "title": "International"}], "rating": 4.0, "coordinates": {"latitude": 53.44814, "longitude": 10.07638}, "transactions": [], "price": "\u20ac\u20ac", "location": {"address1": "L\u00fchrsweg 17", "address2": null, "address3": null, "city": "Seevetal", "zip_code": "21217", "country": "DE", "state": "NI", "display_address": ["L\u00fchrsweg 17", "21217 Seevetal", "Germany"]}, "phone": "+494085401129", "display_phone": "+49 40 85401129", "distance": 4150.998639320911}, {"id": "JDkH_lSN7mAUOeFJ7et6ow", "alias": "sushi-und-cocktail-delivery-seevetal", "name": "Sushi & Cocktail Delivery", "image_url": "https://s3-media2.fl.yelpcdn.com/bphoto/CS7rji9zorr_-4kqN9QdmQ/o.jpg", "is_closed": false, "url": "https://www.yelp.com/biz/sushi-und-cocktail-delivery-seevetal?adjust_creative=hBJOknVQJ58S5goQyjmwRw&utm_campaign=yelp_api_v3&utm_medium=api_v3_business_search&utm_source=hBJOknVQJ58S5goQyjmwRw", "review_count": 12, "categories": [{"alias": "sushi", "title": "Sushi Bars"}, {"alias": "cocktailbars", "title": "Cocktail Bars"}, {"alias": "buffets", "title": "Buffets"}], "rating": 4.0, "coordinates": {"latitude": 53.4323807, "longitude": 10.0615234}, "transactions": [], "price": "\u20ac\u20ac", "location": {"address1": "Fleestedter Ring 5", "address2": "", "address3": null, "city": "Seevetal", "zip_code": "21217", "country": "DE", "state": "NI", "display_address": ["Fleestedter Ring 5", "21217 Seevetal", "Germany"]}, "phone": "+494105652551", "display_phone": "+49 4105 652551", "distance": 2836.828401325138}, {"id": "kXREhFdeXd_aAUM3qG5tCg", "alias": "m\u00e4c-gyros-stelle-2", "name": "M\u00e4c Gyros", "image_url": "https://s3-media1.fl.yelpcdn.com/bphoto/GCKlswrmVvsYxfYPJc_0eg/o.jpg", "is_closed": false, "url": "https://www.yelp.com/biz/m%C3%A4c-gyros-stelle-2?adjust_creative=hBJOknVQJ58S5goQyjmwRw&utm_campaign=yelp_api_v3&utm_medium=api_v3_business_search&utm_source=hBJOknVQJ58S5goQyjmwRw", "review_count": 11, "categories": [{"alias": "hotdogs", "title": "Fast Food"}], "rating": 4.5, "coordinates": {"latitude": 53.3909, "longitude": 10.0986}, "transactions": [], "price": "\u20ac\u20ac", "location": {"address1": "Uhlenhorst 1", "address2": null, "address3": null, "city": "Stelle", "zip_code": "21435", "country": "DE", "state": "NI", "display_address": ["Uhlenhorst 1", "21435 Stelle", "Germany"]}, "phone": "+4941743838", "display_phone": "+49 4174 3838", "distance": 2421.062630634463}, {"id": "HVhu33lr5QK50I8F2s9Wlw", "alias": "surf-station-elke-vollstedt-hamburg", "name": "Surf-Station Elke Vollstedt", "image_url": "https://s3-media2.fl.yelpcdn.com/bphoto/ZGud6jsBYkleQU6yHmWvFQ/o.jpg", "is_closed": false, "url": "https://www.yelp.com/biz/surf-station-elke-vollstedt-hamburg?adjust_creative=hBJOknVQJ58S5goQyjmwRw&utm_campaign=yelp_api_v3&utm_medium=api_v3_business_search&utm_source=hBJOknVQJ58S5goQyjmwRw", "review_count": 2, "categories": [{"alias": "hotdogs", "title": "Fast Food"}], "rating": 4.5, "coordinates": {"latitude": 53.4401, "longitude": 10.1015}, "transactions": [], "location": {"address1": "Overwerder Hauptdeich 1", "address2": null, "address3": null, "city": "Hamburg", "zip_code": "21037", "country": "DE", "state": "HH", "display_address": ["Overwerder Hauptdeich 1", "21037 Hamburg", "Germany"]}, "phone": "+49407374397", "display_phone": "+49 40 7374397", "distance": 3386.8105289015193}, {"id": "UFgYw6g6sRPsT7CP9nsO0w", "alias": "meckelfelder-seevetal", "name": "Meckelfelder", "image_url": "https://s3-media1.fl.yelpcdn.com/bphoto/u_PiKBSlkjhXWLHTNMZ20Q/o.jpg", "is_closed": false, "url": "https://www.yelp.com/biz/meckelfelder-seevetal?adjust_creative=hBJOknVQJ58S5goQyjmwRw&utm_campaign=yelp_api_v3&utm_medium=api_v3_business_search&utm_source=hBJOknVQJ58S5goQyjmwRw", "review_count": 10, "categories": [{"alias": "greek", "title": "Greek"}], "rating": 3.5, "coordinates": {"latitude": 53.4323807, "longitude": 10.0615234}, "transactions": [], "price": "\u20ac", "location": {"address1": "B\u00fcrgermeister-Heitmann-Str. 34c", "address2": "im Helbach-Haus", "address3": null, "city": "Seevetal", "zip_code": "21217", "country": "DE", "state": "NI", "display_address": ["B\u00fcrgermeister-Heitmann-Str. 34c", "im Helbach-Haus", "21217 Seevetal", "Germany"]}, "phone": "+494023848934", "display_phone": "+49 40 23848934", "distance": 2836.828401325138}, {"id": "-x9wVOTLdet2XG9N-GqYwg", "alias": "city-d\u00f6ner-stelle-2", "name": "City D\u00f6ner", "image_url": "https://s3-media1.fl.yelpcdn.com/bphoto/RPm0bLn1mQoNhvYDUsgmVw/o.jpg", "is_closed": false, "url": "https://www.yelp.com/biz/city-d%C3%B6ner-stelle-2?adjust_creative=hBJOknVQJ58S5goQyjmwRw&utm_campaign=yelp_api_v3&utm_medium=api_v3_business_search&utm_source=hBJOknVQJ58S5goQyjmwRw", "review_count": 7, "categories": [{"alias": "kebab", "title": "Kebab"}], "rating": 4.5, "coordinates": {"latitude": 53.3857, "longitude": 10.103}, "transactions": [], "price": "\u20ac\u20ac\u20ac", "location": {"address1": "Harburger Str. 29", "address2": null, "address3": null, "city": "Stelle", "zip_code": "21435", "country": "DE", "state": "NI", "display_address": ["Harburger Str. 29", "21435 Stelle", "Germany"]}, "phone": "+494174659700", "display_phone": "+49 4174 659700", "distance": 3066.32387318396}, {"id": "u3ub5f0MS4qY67Q8XF9ZoA", "alias": "sodemanns-fisch-kutter-nr-1-hamburg", "name": "Sodemann's Fisch-Kutter Nr. 1", "image_url": "https://s3-media3.fl.yelpcdn.com/bphoto/BlysP6fVPaL0eEjKvEbByw/o.jpg", "is_closed": false, "url": "https://www.yelp.com/biz/sodemanns-fisch-kutter-nr-1-hamburg?adjust_creative=hBJOknVQJ58S5goQyjmwRw&utm_campaign=yelp_api_v3&utm_medium=api_v3_business_search&utm_source=hBJOknVQJ58S5goQyjmwRw", "review_count": 3, "categories": [{"alias": "foodtrucks", "title": "Food Trucks"}, {"alias": "fischbroetchen", "title": "Fischbroetchen"}], "rating": 5.0, "coordinates": {"latitude": 53.5537490844727, "longitude": 9.99182987213135}, "transactions": [], "price": "\u20ac\u20ac", "location": {"address1": "", "address2": null, "address3": "", "city": "Hamburg", "zip_code": "", "country": "DE", "state": "HH", "display_address": ["Hamburg", "Germany"]}, "phone": "+491773606663", "display_phone": "+49 177 3606663", "distance": 16696.405814528374}, {"id": "2jzIbZsfzca5drJYk7JwbQ", "alias": "the-bao-bros-hamburg-2", "name": "The Bao Bros", "image_url": "https://s3-media1.fl.yelpcdn.com/bphoto/vUMA4Y35x3UwZk6fMJfZRw/o.jpg", "is_closed": false, "url": "https://www.yelp.com/biz/the-bao-bros-hamburg-2?adjust_creative=hBJOknVQJ58S5goQyjmwRw&utm_campaign=yelp_api_v3&utm_medium=api_v3_business_search&utm_source=hBJOknVQJ58S5goQyjmwRw", "review_count": 2, "categories": [{"alias": "foodtrucks", "title": "Food Trucks"}, {"alias": "burgers", "title": "Burgers"}], "rating": 4.0, "coordinates": {"latitude": 53.5533409118652, "longitude": 9.99246978759766}, "transactions": [], "price": "\u20ac", "location": {"address1": "", "address2": "", "address3": "", "city": "Hamburg", "zip_code": "", "country": "DE", "state": "HH", "display_address": ["Hamburg", "Germany"]}, "phone": "+4915140700076", "display_phone": "+49 1514 0700076", "distance": 16696.408219223344}, {"id": "U4NQRAh7oTjsmkea1B8dCg", "alias": "la-stella-stelle", "name": "La Stella", "image_url": "https://s3-media1.fl.yelpcdn.com/bphoto/vq7M0a_z7I1SMWz6Ca3PXA/o.jpg", "is_closed": false, "url": "https://www.yelp.com/biz/la-stella-stelle?adjust_creative=hBJOknVQJ58S5goQyjmwRw&utm_campaign=yelp_api_v3&utm_medium=api_v3_business_search&utm_source=hBJOknVQJ58S5goQyjmwRw", "review_count": 1, "categories": [{"alias": "italian", "title": "Italian"}, {"alias": "pizza", "title": "Pizza"}], "rating": 3.0, "coordinates": {"latitude": 53.3850212, "longitude": 10.1073999}, "transactions": [], "location": {"address1": "Harburger Str. 16", "address2": "", "address3": "", "city": "Stelle", "zip_code": "21435", "country": "DE", "state": "NI", "display_address": ["Harburger Str. 16", "21435 Stelle", "Germany"]}, "phone": "+494174668696", "display_phone": "+49 4174 668696", "distance": 3260.274709787667}]