[{"id": "wk3uGPny6pidyVukxwQHNA", "alias": "strandhalle-over-seevetal", "name": "Strandhalle Over", "image_url": "https://s3-media2.fl.yelpcdn.com/bphoto/S_hB6tfILT3ZYOy_Fo8u_w/o.jpg", "is_closed": false, "url": "https://www.yelp.com/biz/strandhalle-over-seevetal?adjust_creative=hBJOknVQJ58S5goQyjmwRw&utm_campaign=yelp_api_v3&utm_medium=api_v3_business_search&utm_source=hBJOknVQJ58S5goQyjmwRw", "review_count": 9, "categories": [{"alias": "german", "title": "German"}], "rating": 3.5, "coordinates": {"latitude": 53.4431, "longitude": 10.091}, "transactions": [], "price": "\u20ac\u20ac", "location": {"address1": "Sandberg 7", "address2": null, "address3": null, "city": "Seevetal", "zip_code": "21217", "country": "DE", "state": "NI", "display_address": ["Sandberg 7", "21217 Seevetal", "Germany"]}, "phone": "+4917661956689", "display_phone": "+49 176 61956689", "distance": 1586.203415463495}, {"id": "sT4XFrv0HOr0lKmkujunHg", "alias": "restaurant-cafe-essi-seevetal", "name": "Restaurant-Cafe Essi", "image_url": "", "is_closed": false, "url": "https://www.yelp.com/biz/restaurant-cafe-essi-seevetal?adjust_creative=hBJOknVQJ58S5goQyjmwRw&utm_campaign=yelp_api_v3&utm_medium=api_v3_business_search&utm_source=hBJOknVQJ58S5goQyjmwRw", "review_count": 4, "categories": [{"alias": "cafes", "title": "Cafes"}, {"alias": "international", "title": "International"}], "rating": 4.0, "coordinates": {"latitude": 53.44814, "longitude": 10.07638}, "transactions": [], "price": "\u20ac\u20ac", "location": {"address1": "L\u00fchrsweg 17", "address2": null, "address3": null, "city": "Seevetal", "zip_code": "21217", "country": "DE", "state": "NI", "display_address": ["L\u00fchrsweg 17", "21217 Seevetal", "Germany"]}, "phone": "+494085401129", "display_phone": "+49 40 85401129", "distance": 2200.346875677133}, {"id": "JDkH_lSN7mAUOeFJ7et6ow", "alias": "sushi-und-cocktail-delivery-seevetal", "name": "Sushi & Cocktail Delivery", "image_url": "https://s3-media2.fl.yelpcdn.com/bphoto/CS7rji9zorr_-4kqN9QdmQ/o.jpg", "is_closed": false, "url": "https://www.yelp.com/biz/sushi-und-cocktail-delivery-seevetal?adjust_creative=hBJOknVQJ58S5goQyjmwRw&utm_campaign=yelp_api_v3&utm_medium=api_v3_business_search&utm_source=hBJOknVQJ58S5goQyjmwRw", "review_count": 12, "categories": [{"alias": "sushi", "title": "Sushi Bars"}, {"alias": "cocktailbars", "title": "Cocktail Bars"}, {"alias": "buffets", "title": "Buffets"}], "rating": 4.0, "coordinates": {"latitude": 53.4323807, "longitude": 10.0615234}, "transactions": [], "price": "\u20ac\u20ac", "location": {"address1": "Fleestedter Ring 5", "address2": "", "address3": null, "city": "Seevetal", "zip_code": "21217", "country": "DE", "state": "NI", "display_address": ["Fleestedter Ring 5", "21217 Seevetal", "Germany"]}, "phone": "+494105652551", "display_phone": "+49 4105 652551", "distance": 1649.8017497236126}, {"id": "HVhu33lr5QK50I8F2s9Wlw", "alias": "surf-station-elke-vollstedt-hamburg", "name": "Surf-Station Elke Vollstedt", "image_url": "https://s3-media2.fl.yelpcdn.com/bphoto/ZGud6jsBYkleQU6yHmWvFQ/o.jpg", "is_closed": false, "url": "https://www.yelp.com/biz/surf-station-elke-vollstedt-hamburg?adjust_creative=hBJOknVQJ58S5goQyjmwRw&utm_campaign=yelp_api_v3&utm_medium=api_v3_business_search&utm_source=hBJOknVQJ58S5goQyjmwRw", "review_count": 2, "categories": [{"alias": "hotdogs", "title": "Fast Food"}], "rating": 4.5, "coordinates": {"latitude": 53.4401, "longitude": 10.1015}, "transactions": [], "location": {"address1": "Overwerder Hauptdeich 1", "address2": null, "address3": null, "city": "Hamburg", "zip_code": "21037", "country": "DE", "state": "HH", "display_address": ["Overwerder Hauptdeich 1", "21037 Hamburg", "Germany"]}, "phone": "+49407374397", "display_phone": "+49 40 7374397", "distance": 1597.9907152432959}, {"id": "oSfMMhQCa84nYUsFIW9txg", "alias": "gastst\u00e4tte-bunthaus-hamburg", "name": "Gastst\u00e4tte Bunthaus", "image_url": "https://s3-media2.fl.yelpcdn.com/bphoto/PRPWKX1iWz3qiRyKS-NPMQ/o.jpg", "is_closed": false, "url": "https://www.yelp.com/biz/gastst%C3%A4tte-bunthaus-hamburg?adjust_creative=hBJOknVQJ58S5goQyjmwRw&utm_campaign=yelp_api_v3&utm_medium=api_v3_business_search&utm_source=hBJOknVQJ58S5goQyjmwRw", "review_count": 1, "categories": [{"alias": "german", "title": "German"}], "rating": 5.0, "coordinates": {"latitude": 53.4605354299647, "longitude": 10.0638100782702}, "transactions": [], "price": "\u20ac\u20ac", "location": {"address1": "Moorwerder Hauptdeich 33", "address2": "", "address3": null, "city": "Hamburg", "zip_code": "21109", "country": "DE", "state": "HH", "display_address": ["Moorwerder Hauptdeich 33", "21109 Hamburg", "Germany"]}, "phone": "+4915122949396", "display_phone": "+49 1512 2949396", "distance": 3780.399619007749}, {"id": "UFgYw6g6sRPsT7CP9nsO0w", "alias": "meckelfelder-seevetal", "name": "Meckelfelder", "image_url": "https://s3-media1.fl.yelpcdn.com/bphoto/u_PiKBSlkjhXWLHTNMZ20Q/o.jpg", "is_closed": false, "url": "https://www.yelp.com/biz/meckelfelder-seevetal?adjust_creative=hBJOknVQJ58S5goQyjmwRw&utm_campaign=yelp_api_v3&utm_medium=api_v3_business_search&utm_source=hBJOknVQJ58S5goQyjmwRw", "review_count": 10, "categories": [{"alias": "greek", "title": "Greek"}], "rating": 3.5, "coordinates": {"latitude": 53.4323807, "longitude": 10.0615234}, "transactions": [], "price": "\u20ac", "location": {"address1": "B\u00fcrgermeister-Heitmann-Str. 34c", "address2": "im Helbach-Haus", "address3": null, "city": "Seevetal", "zip_code": "21217", "country": "DE", "state": "NI", "display_address": ["B\u00fcrgermeister-Heitmann-Str. 34c", "im Helbach-Haus", "21217 Seevetal", "Germany"]}, "phone": "+494023848934", "display_phone": "+49 40 23848934", "distance": 1649.8017497236126}, {"id": "kXREhFdeXd_aAUM3qG5tCg", "alias": "m\u00e4c-gyros-stelle-2", "name": "M\u00e4c Gyros", "image_url": "https://s3-media1.fl.yelpcdn.com/bphoto/GCKlswrmVvsYxfYPJc_0eg/o.jpg", "is_closed": false, "url": "https://www.yelp.com/biz/m%C3%A4c-gyros-stelle-2?adjust_creative=hBJOknVQJ58S5goQyjmwRw&utm_campaign=yelp_api_v3&utm_medium=api_v3_business_search&utm_source=hBJOknVQJ58S5goQyjmwRw", "review_count": 11, "categories": [{"alias": "hotdogs", "title": "Fast Food"}], "rating": 4.5, "coordinates": {"latitude": 53.3909, "longitude": 10.0986}, "transactions": [], "price": "\u20ac\u20ac", "location": {"address1": "Uhlenhorst 1", "address2": null, "address3": null, "city": "Stelle", "zip_code": "21435", "country": "DE", "state": "NI", "display_address": ["Uhlenhorst 1", "21435 Stelle", "Germany"]}, "phone": "+4941743838", "display_phone": "+49 4174 3838", "distance": 4338.755996394425}]