[{"id": "wk3uGPny6pidyVukxwQHNA", "alias": "strandhalle-over-seevetal", "name": "Strandhalle Over", "image_url": "https://s3-media2.fl.yelpcdn.com/bphoto/S_hB6tfILT3ZYOy_Fo8u_w/o.jpg", "is_closed": false, "url": "https://www.yelp.com/biz/strandhalle-over-seevetal?adjust_creative=hBJOknVQJ58S5goQyjmwRw&utm_campaign=yelp_api_v3&utm_medium=api_v3_business_search&utm_source=hBJOknVQJ58S5goQyjmwRw", "review_count": 9, "categories": [{"alias": "german", "title": "German"}], "rating": 3.5, "coordinates": {"latitude": 53.4431, "longitude": 10.091}, "transactions": [], "price": "\u20ac\u20ac", "location": {"address1": "Sandberg 7", "address2": null, "address3": null, "city": "Seevetal", "zip_code": "21217", "country": "DE", "state": "NI", "display_address": ["Sandberg 7", "21217 Seevetal", "Germany"]}, "phone": "+4917661956689", "display_phone": "+49 176 61956689", "distance": 2285.3973190457077}, {"id": "HVhu33lr5QK50I8F2s9Wlw", "alias": "surf-station-elke-vollstedt-hamburg", "name": "Surf-Station Elke Vollstedt", "image_url": "https://s3-media2.fl.yelpcdn.com/bphoto/ZGud6jsBYkleQU6yHmWvFQ/o.jpg", "is_closed": false, "url": "https://www.yelp.com/biz/surf-station-elke-vollstedt-hamburg?adjust_creative=hBJOknVQJ58S5goQyjmwRw&utm_campaign=yelp_api_v3&utm_medium=api_v3_business_search&utm_source=hBJOknVQJ58S5goQyjmwRw", "review_count": 2, "categories": [{"alias": "hotdogs", "title": "Fast Food"}], "rating": 4.5, "coordinates": {"latitude": 53.4401, "longitude": 10.1015}, "transactions": [], "location": {"address1": "Overwerder Hauptdeich 1", "address2": null, "address3": null, "city": "Hamburg", "zip_code": "21037", "country": "DE", "state": "HH", "display_address": ["Overwerder Hauptdeich 1", "21037 Hamburg", "Germany"]}, "phone": "+49407374397", "display_phone": "+49 40 7374397", "distance": 1570.6200004517757}, {"id": "kXREhFdeXd_aAUM3qG5tCg", "alias": "m\u00e4c-gyros-stelle-2", "name": "M\u00e4c Gyros", "image_url": "https://s3-media1.fl.yelpcdn.com/bphoto/GCKlswrmVvsYxfYPJc_0eg/o.jpg", "is_closed": false, "url": "https://www.yelp.com/biz/m%C3%A4c-gyros-stelle-2?adjust_creative=hBJOknVQJ58S5goQyjmwRw&utm_campaign=yelp_api_v3&utm_medium=api_v3_business_search&utm_source=hBJOknVQJ58S5goQyjmwRw", "review_count": 11, "categories": [{"alias": "hotdogs", "title": "Fast Food"}], "rating": 4.5, "coordinates": {"latitude": 53.3909, "longitude": 10.0986}, "transactions": [], "price": "\u20ac\u20ac", "location": {"address1": "Uhlenhorst 1", "address2": null, "address3": null, "city": "Stelle", "zip_code": "21435", "country": "DE", "state": "NI", "display_address": ["Uhlenhorst 1", "21435 Stelle", "Germany"]}, "phone": "+4941743838", "display_phone": "+49 4174 3838", "distance": 4378.041480261527}]