[{"id": "6njTD0ZBG9O-y1O2jm7Ddg", "alias": "restaurant-bei-kosta-rosengarten", "name": "Restaurant Bei Kosta", "image_url": "https://s3-media3.fl.yelpcdn.com/bphoto/g_jw2QwzOPdSPjS7IxQCiw/o.jpg", "is_closed": false, "url": "https://www.yelp.com/biz/restaurant-bei-kosta-rosengarten?adjust_creative=hBJOknVQJ58S5goQyjmwRw&utm_campaign=yelp_api_v3&utm_medium=api_v3_business_search&utm_source=hBJOknVQJ58S5goQyjmwRw", "review_count": 1, "categories": [{"alias": "greek", "title": "Greek"}], "rating": 5.0, "coordinates": {"latitude": 53.4024, "longitude": 9.87778}, "transactions": [], "location": {"address1": "Hauptstr. 4", "address2": "", "address3": "", "city": "Rosengarten", "zip_code": "21224", "country": "DE", "state": "NI", "display_address": ["Hauptstr. 4", "21224 Rosengarten", "Germany"]}, "phone": "+4941087128", "display_phone": "+49 4108 7128", "distance": 3162.3002932338504}, {"id": "EEKdJbl4YyUORyUArak_XQ", "alias": "fritz-peters-rosengarten", "name": "Fritz Peters", "image_url": "https://s3-media3.fl.yelpcdn.com/bphoto/UGE4CQJtibWq9ylzGsd2XQ/o.jpg", "is_closed": false, "url": "https://www.yelp.com/biz/fritz-peters-rosengarten?adjust_creative=hBJOknVQJ58S5goQyjmwRw&utm_campaign=yelp_api_v3&utm_medium=api_v3_business_search&utm_source=hBJOknVQJ58S5goQyjmwRw", "review_count": 2, "categories": [{"alias": "restaurants", "title": "Restaurants"}], "rating": 4.5, "coordinates": {"latitude": 53.4089, "longitude": 9.88543}, "transactions": [], "price": "\u20ac", "location": {"address1": "Quellenweg 2", "address2": null, "address3": null, "city": "Rosengarten", "zip_code": "21224", "country": "DE", "state": "NI", "display_address": ["Quellenweg 2", "21224 Rosengarten", "Germany"]}, "phone": "+4941083102", "display_phone": "+49 4108 3102", "distance": 2539.2522457010277}, {"id": "SAOF8FII-H4PfIV5J9-p5A", "alias": "kaiser-pavillon-hamburg-4", "name": "Kaiser Pavillon", "image_url": "https://s3-media4.fl.yelpcdn.com/bphoto/HEo2jrbD5OR8PV3_q2QZ2g/o.jpg", "is_closed": false, "url": "https://www.yelp.com/biz/kaiser-pavillon-hamburg-4?adjust_creative=hBJOknVQJ58S5goQyjmwRw&utm_campaign=yelp_api_v3&utm_medium=api_v3_business_search&utm_source=hBJOknVQJ58S5goQyjmwRw", "review_count": 29, "categories": [{"alias": "chinese", "title": "Chinese"}], "rating": 4.0, "coordinates": {"latitude": 53.4724921726936, "longitude": 9.84974658664703}, "transactions": [], "price": "\u20ac\u20ac", "location": {"address1": "Cuxhavener Str. 355", "address2": "", "address3": "", "city": "Hamburg", "zip_code": "21149", "country": "DE", "state": "HH", "display_address": ["Cuxhavener Str. 355", "21149 Hamburg", "Germany"]}, "phone": "+494076960719", "display_phone": "+49 40 76960719", "distance": 4921.384470532246}, {"id": "ELshs9ioj0Uzv9_AXAGdaw", "alias": "restaurant-waldsch\u00e4nke-rosengarten", "name": "Restaurant Waldsch\u00e4nke", "image_url": "https://s3-media2.fl.yelpcdn.com/bphoto/w_zxuXGGNDob86c2BfIcxA/o.jpg", "is_closed": false, "url": "https://www.yelp.com/biz/restaurant-waldsch%C3%A4nke-rosengarten?adjust_creative=hBJOknVQJ58S5goQyjmwRw&utm_campaign=yelp_api_v3&utm_medium=api_v3_business_search&utm_source=hBJOknVQJ58S5goQyjmwRw", "review_count": 4, "categories": [{"alias": "german", "title": "German"}], "rating": 4.5, "coordinates": {"latitude": 53.4071, "longitude": 9.85659}, "transactions": [], "location": {"address1": "Rosengartenstr. 2", "address2": null, "address3": null, "city": "Rosengarten", "zip_code": "21224", "country": "DE", "state": "NI", "display_address": ["Rosengartenstr. 2", "21224 Rosengarten", "Germany"]}, "phone": "+4941087316", "display_phone": "+49 4108 7316", "distance": 2918.448575947817}, {"id": "DIVGBv1Wi_VHjH7QEY76NA", "alias": "neugrabener-grillhaus-hamburg", "name": "Neugrabener Grillhaus", "image_url": "https://s3-media2.fl.yelpcdn.com/bphoto/g3aBYw3Nu6LOrkU3MCnbKA/o.jpg", "is_closed": false, "url": "https://www.yelp.com/biz/neugrabener-grillhaus-hamburg?adjust_creative=hBJOknVQJ58S5goQyjmwRw&utm_campaign=yelp_api_v3&utm_medium=api_v3_business_search&utm_source=hBJOknVQJ58S5goQyjmwRw", "review_count": 4, "categories": [{"alias": "turkish", "title": "Turkish"}], "rating": 4.5, "coordinates": {"latitude": 53.4698361904983, "longitude": 9.85375790927886}, "transactions": [], "price": "\u20ac\u20ac", "location": {"address1": "Neugrabener Markt 2", "address2": "", "address3": "", "city": "Hamburg", "zip_code": "21149", "country": "DE", "state": "HH", "display_address": ["Neugrabener Markt 2", "21149 Hamburg", "Germany"]}, "phone": "+494039870741", "display_phone": "+49 40 39870741", "distance": 4555.47897000991}, {"id": "_7drLx2S3W9MRaSGq7I5og", "alias": "grando-sukredo-hamburg", "name": "Grando Sukredo", "image_url": "https://s3-media2.fl.yelpcdn.com/bphoto/3NfZ11_c5hbVZpK9SfdssQ/o.jpg", "is_closed": false, "url": "https://www.yelp.com/biz/grando-sukredo-hamburg?adjust_creative=hBJOknVQJ58S5goQyjmwRw&utm_campaign=yelp_api_v3&utm_medium=api_v3_business_search&utm_source=hBJOknVQJ58S5goQyjmwRw", "review_count": 17, "categories": [{"alias": "steak", "title": "Steakhouses"}], "rating": 4.5, "coordinates": {"latitude": 53.46093, "longitude": 9.89245}, "transactions": [], "price": "\u20ac\u20ac", "location": {"address1": "Ehestorfer Heuweg 89", "address2": null, "address3": null, "city": "Hamburg", "zip_code": "21149", "country": "DE", "state": "HH", "display_address": ["Ehestorfer Heuweg 89", "21149 Hamburg", "Germany"]}, "phone": "+494061193643", "display_phone": "+49 40 61193643", "distance": 3534.633799096076}, {"id": "ykRtViJfcQxt1VKtK-ojcg", "alias": "wildpark-restaurant-rosengarten", "name": "Wildpark-Restaurant", "image_url": "https://s3-media3.fl.yelpcdn.com/bphoto/BPB2FUuYfd0v8KyznZ31YQ/o.jpg", "is_closed": false, "url": "https://www.yelp.com/biz/wildpark-restaurant-rosengarten?adjust_creative=hBJOknVQJ58S5goQyjmwRw&utm_campaign=yelp_api_v3&utm_medium=api_v3_business_search&utm_source=hBJOknVQJ58S5goQyjmwRw", "review_count": 6, "categories": [{"alias": "german", "title": "German"}], "rating": 3.5, "coordinates": {"latitude": 53.4415452, "longitude": 9.8886414}, "transactions": [], "price": "\u20ac\u20ac", "location": {"address1": "Am Wildpark 1", "address2": null, "address3": "", "city": "Rosengarten", "zip_code": "21224", "country": "DE", "state": "BW", "display_address": ["Am Wildpark 1", "21224 Rosengarten", "Germany"]}, "phone": "+4940819774740", "display_phone": "+49 40 819774740", "distance": 1440.5249602747624}, {"id": "ytna7AExPNRhMVE0JWb2lg", "alias": "taverna-korfu-hamburg", "name": "Taverna Korfu", "image_url": "https://s3-media1.fl.yelpcdn.com/bphoto/OUytWpRMw2A41S3pl1P6uw/o.jpg", "is_closed": false, "url": "https://www.yelp.com/biz/taverna-korfu-hamburg?adjust_creative=hBJOknVQJ58S5goQyjmwRw&utm_campaign=yelp_api_v3&utm_medium=api_v3_business_search&utm_source=hBJOknVQJ58S5goQyjmwRw", "review_count": 19, "categories": [{"alias": "greek", "title": "Greek"}], "rating": 4.0, "coordinates": {"latitude": 53.4697097, "longitude": 9.8544475}, "transactions": [], "price": "\u20ac\u20ac", "location": {"address1": "Neugrabener Bahnhofstr. 27", "address2": null, "address3": null, "city": "Hamburg", "zip_code": "21149", "country": "DE", "state": "HH", "display_address": ["Neugrabener Bahnhofstr. 27", "21149 Hamburg", "Germany"]}, "phone": "+49407026588", "display_phone": "+49 40 7026588", "distance": 4528.076834075243}, {"id": "sv5L_hgf5LseYmGlwvPDNA", "alias": "gasthaus-zum-kiekeberg-rosengarten-3", "name": "Gasthaus zum Kiekeberg", "image_url": "https://s3-media4.fl.yelpcdn.com/bphoto/HszIqYtBygj2IZ0nizab_g/o.jpg", "is_closed": false, "url": "https://www.yelp.com/biz/gasthaus-zum-kiekeberg-rosengarten-3?adjust_creative=hBJOknVQJ58S5goQyjmwRw&utm_campaign=yelp_api_v3&utm_medium=api_v3_business_search&utm_source=hBJOknVQJ58S5goQyjmwRw", "review_count": 17, "categories": [{"alias": "german", "title": "German"}, {"alias": "gastropubs", "title": "Gastropubs"}], "rating": 3.5, "coordinates": {"latitude": 53.4396, "longitude": 9.89928}, "transactions": [], "price": "\u20ac\u20ac", "location": {"address1": "Am Kiekeberg 5", "address2": null, "address3": null, "city": "Rosengarten", "zip_code": "21224", "country": "DE", "state": "NI", "display_address": ["Am Kiekeberg 5", "21224 Rosengarten", "Germany"]}, "phone": "+49407905021", "display_phone": "+49 40 7905021", "distance": 1868.0209602513453}, {"id": "lsvCI5YWm-9xAJ2Mujc9oA", "alias": "merrano-hamburg", "name": "Merrano", "image_url": "https://s3-media3.fl.yelpcdn.com/bphoto/tMUgVq59MNJ06OtbpcwlAQ/o.jpg", "is_closed": false, "url": "https://www.yelp.com/biz/merrano-hamburg?adjust_creative=hBJOknVQJ58S5goQyjmwRw&utm_campaign=yelp_api_v3&utm_medium=api_v3_business_search&utm_source=hBJOknVQJ58S5goQyjmwRw", "review_count": 4, "categories": [{"alias": "mediterranean", "title": "Mediterranean"}, {"alias": "pizza", "title": "Pizza"}, {"alias": "steak", "title": "Steakhouses"}], "rating": 4.0, "coordinates": {"latitude": 53.4717, "longitude": 9.86313}, "transactions": [], "price": "\u20ac\u20ac", "location": {"address1": "Cuxhavener Str. 292", "address2": "", "address3": "", "city": "Hamburg", "zip_code": "21149", "country": "DE", "state": "HH", "display_address": ["Cuxhavener Str. 292", "21149 Hamburg", "Germany"]}, "phone": "+494070201001", "display_phone": "+49 40 70201001", "distance": 4611.294096508686}, {"id": "k9ItjxDeGs52UDh4EjcfRQ", "alias": "\u00f6z-urfa-hamburg-3", "name": "\u00d6z Urfa", "image_url": "https://s3-media4.fl.yelpcdn.com/bphoto/sW7GV-r2LoZNcZXHgf1EmQ/o.jpg", "is_closed": false, "url": "https://www.yelp.com/biz/%C3%B6z-urfa-hamburg-3?adjust_creative=hBJOknVQJ58S5goQyjmwRw&utm_campaign=yelp_api_v3&utm_medium=api_v3_business_search&utm_source=hBJOknVQJ58S5goQyjmwRw", "review_count": 18, "categories": [{"alias": "halal", "title": "Halal"}, {"alias": "turkish", "title": "Turkish"}, {"alias": "kebab", "title": "Kebab"}], "rating": 4.0, "coordinates": {"latitude": 53.47272, "longitude": 9.85331}, "transactions": [], "price": "\u20ac", "location": {"address1": "Cuxhavener Str. 342", "address2": "", "address3": "", "city": "Hamburg", "zip_code": "21149", "country": "DE", "state": "HH", "display_address": ["Cuxhavener Str. 342", "21149 Hamburg", "Germany"]}, "phone": "+494022646405", "display_phone": "+49 40 22646405", "distance": 4858.526069919891}, {"id": "0Sr4gLsxW7lthpSHSvQiLA", "alias": "waldsch\u00e4nke-hamburg", "name": "Waldsch\u00e4nke", "image_url": "", "is_closed": false, "url": "https://www.yelp.com/biz/waldsch%C3%A4nke-hamburg?adjust_creative=hBJOknVQJ58S5goQyjmwRw&utm_campaign=yelp_api_v3&utm_medium=api_v3_business_search&utm_source=hBJOknVQJ58S5goQyjmwRw", "review_count": 2, "categories": [{"alias": "german", "title": "German"}], "rating": 3.0, "coordinates": {"latitude": 53.45065, "longitude": 9.86819}, "transactions": [], "location": {"address1": "Falkenbergsweg 153", "address2": "", "address3": "", "city": "Hamburg", "zip_code": "21149", "country": "DE", "state": "HH", "display_address": ["Falkenbergsweg 153", "21149 Hamburg", "Germany"]}, "phone": "+49407015595", "display_phone": "+49 40 7015595", "distance": 2244.044592079514}, {"id": "wpGydxJrBuTsmNYuSBD8Mw", "alias": "rosengarten-grillhaus-rosengarten", "name": "Rosengarten Grillhaus", "image_url": "", "is_closed": false, "url": "https://www.yelp.com/biz/rosengarten-grillhaus-rosengarten?adjust_creative=hBJOknVQJ58S5goQyjmwRw&utm_campaign=yelp_api_v3&utm_medium=api_v3_business_search&utm_source=hBJOknVQJ58S5goQyjmwRw", "review_count": 1, "categories": [{"alias": "kebab", "title": "Kebab"}, {"alias": "salad", "title": "Salad"}, {"alias": "currysausage", "title": "Curry Sausage"}], "rating": 5.0, "coordinates": {"latitude": 53.40707, "longitude": 9.89029}, "transactions": [], "location": {"address1": "Hauptstr. 39", "address2": "", "address3": null, "city": "Rosengarten", "zip_code": "21224", "country": "DE", "state": "NI", "display_address": ["Hauptstr. 39", "21224 Rosengarten", "Germany"]}, "phone": "+4941084899993", "display_phone": "+49 4108 4899993", "distance": 2834.6362907576654}, {"id": "iJdyFvgYnEFInkfDkCjiQQ", "alias": "china-restaurant-lily-hamburg", "name": "China Restaurant Lily", "image_url": "https://s3-media2.fl.yelpcdn.com/bphoto/FJH_jfLCFr7lLbLdn0A3uA/o.jpg", "is_closed": false, "url": "https://www.yelp.com/biz/china-restaurant-lily-hamburg?adjust_creative=hBJOknVQJ58S5goQyjmwRw&utm_campaign=yelp_api_v3&utm_medium=api_v3_business_search&utm_source=hBJOknVQJ58S5goQyjmwRw", "review_count": 10, "categories": [{"alias": "chinese", "title": "Chinese"}], "rating": 4.0, "coordinates": {"latitude": 53.47236, "longitude": 9.85213}, "transactions": [], "price": "\u20ac\u20ac", "location": {"address1": "Cuxhavener Str. 335", "address2": null, "address3": null, "city": "Hamburg", "zip_code": "21149", "country": "DE", "state": "HH", "display_address": ["Cuxhavener Str. 335", "21149 Hamburg", "Germany"]}, "phone": "+49407025544", "display_phone": "+49 40 7025544", "distance": 4831.5664509527305}, {"id": "KaMlL3EyCdcSzkDAfVIt-g", "alias": "landhaus-j\u00e4gerhof-hamburg-2", "name": "Landhaus J\u00e4gerhof", "image_url": "https://s3-media2.fl.yelpcdn.com/bphoto/FqOyL1xyztMlYzIiFbxi7Q/o.jpg", "is_closed": false, "url": "https://www.yelp.com/biz/landhaus-j%C3%A4gerhof-hamburg-2?adjust_creative=hBJOknVQJ58S5goQyjmwRw&utm_campaign=yelp_api_v3&utm_medium=api_v3_business_search&utm_source=hBJOknVQJ58S5goQyjmwRw", "review_count": 3, "categories": [{"alias": "german", "title": "German"}, {"alias": "bowling", "title": "Bowling"}], "rating": 3.5, "coordinates": {"latitude": 53.47019, "longitude": 9.88699}, "transactions": [], "location": {"address1": "Ehestorfer Heuweg 12 - 14", "address2": null, "address3": null, "city": "Hamburg", "zip_code": "21149", "country": "DE", "state": "HH", "display_address": ["Ehestorfer Heuweg 12 - 14", "21149 Hamburg", "Germany"]}, "phone": "+49407962015", "display_phone": "+49 40 7962015", "distance": 4438.565233434153}, {"id": "ng4easez7Xfrmr0yqYzbJg", "alias": "pizzeria-atoll-hamburg", "name": "Pizzeria Atoll", "image_url": "https://s3-media4.fl.yelpcdn.com/bphoto/Xbv6y69vrIoNUrhCCY3Nsg/o.jpg", "is_closed": false, "url": "https://www.yelp.com/biz/pizzeria-atoll-hamburg?adjust_creative=hBJOknVQJ58S5goQyjmwRw&utm_campaign=yelp_api_v3&utm_medium=api_v3_business_search&utm_source=hBJOknVQJ58S5goQyjmwRw", "review_count": 1, "categories": [{"alias": "pizza", "title": "Pizza"}, {"alias": "italian", "title": "Italian"}], "rating": 4.0, "coordinates": {"latitude": 53.472675, "longitude": 9.854646}, "transactions": [], "location": {"address1": "Cuxhavener Str. 336", "address2": "", "address3": "", "city": "Hamburg", "zip_code": "21149", "country": "DE", "state": "HH", "display_address": ["Cuxhavener Str. 336", "21149 Hamburg", "Germany"]}, "phone": "+494047190192", "display_phone": "+49 40 47190192", "distance": 4836.476908720636}, {"id": "mf57nmVCUd0KL3CdqSIphQ", "alias": "restaurant-deutsches-haus-hamburg", "name": "Restaurant Deutsches Haus", "image_url": "https://s3-media3.fl.yelpcdn.com/bphoto/yG6UsqplWbk-kszw05fBpQ/o.jpg", "is_closed": false, "url": "https://www.yelp.com/biz/restaurant-deutsches-haus-hamburg?adjust_creative=hBJOknVQJ58S5goQyjmwRw&utm_campaign=yelp_api_v3&utm_medium=api_v3_business_search&utm_source=hBJOknVQJ58S5goQyjmwRw", "review_count": 3, "categories": [{"alias": "northerngerman", "title": "Northern German"}], "rating": 4.5, "coordinates": {"latitude": 53.4677, "longitude": 9.85407}, "transactions": [], "location": {"address1": "Bergheide 1", "address2": null, "address3": null, "city": "Hamburg", "zip_code": "21149", "country": "DE", "state": "HH", "display_address": ["Bergheide 1", "21149 Hamburg", "Germany"]}, "phone": "+49407010130", "display_phone": "+49 40 7010130", "distance": 4323.65204240091}, {"id": "TI2orC_tUrfypZpFjXbLOg", "alias": "come-inn-rosengarten", "name": "Come inn", "image_url": "", "is_closed": false, "url": "https://www.yelp.com/biz/come-inn-rosengarten?adjust_creative=hBJOknVQJ58S5goQyjmwRw&utm_campaign=yelp_api_v3&utm_medium=api_v3_business_search&utm_source=hBJOknVQJ58S5goQyjmwRw", "review_count": 2, "categories": [{"alias": "hotdogs", "title": "Fast Food"}], "rating": 3.0, "coordinates": {"latitude": 53.4068, "longitude": 9.89273}, "transactions": [], "location": {"address1": "Hauptstr. 39", "address2": null, "address3": null, "city": "Rosengarten", "zip_code": "21224", "country": "DE", "state": "NI", "display_address": ["Hauptstr. 39", "21224 Rosengarten", "Germany"]}, "phone": "+494108413984", "display_phone": "+49 4108 413984", "distance": 2921.905216328079}, {"id": "p154M1TKs2ILBPVdSX9CbA", "alias": "am-falkenberg-hamburg", "name": "Am Falkenberg", "image_url": "", "is_closed": false, "url": "https://www.yelp.com/biz/am-falkenberg-hamburg?adjust_creative=hBJOknVQJ58S5goQyjmwRw&utm_campaign=yelp_api_v3&utm_medium=api_v3_business_search&utm_source=hBJOknVQJ58S5goQyjmwRw", "review_count": 3, "categories": [{"alias": "german", "title": "German"}], "rating": 4.0, "coordinates": {"latitude": 53.46435, "longitude": 9.86563}, "transactions": [], "location": {"address1": "Falkenbergsweg 56", "address2": null, "address3": null, "city": "Hamburg", "zip_code": "21149", "country": "DE", "state": "HH", "display_address": ["Falkenbergsweg 56", "21149 Hamburg", "Germany"]}, "phone": "+49407018655", "display_phone": "+49 40 7018655", "distance": 3768.5570941635365}, {"id": "_BNYVKl7NdOIzbpEfeFD0Q", "alias": "mundfein-pizzawerkstatt-hamburg-2", "name": "Mundfein Pizzawerkstatt", "image_url": "https://s3-media2.fl.yelpcdn.com/bphoto/V6jQeQHP487aHvucKn_zzg/o.jpg", "is_closed": false, "url": "https://www.yelp.com/biz/mundfein-pizzawerkstatt-hamburg-2?adjust_creative=hBJOknVQJ58S5goQyjmwRw&utm_campaign=yelp_api_v3&utm_medium=api_v3_business_search&utm_source=hBJOknVQJ58S5goQyjmwRw", "review_count": 8, "categories": [{"alias": "pizza", "title": "Pizza"}], "rating": 4.0, "coordinates": {"latitude": 53.4721624, "longitude": 9.8875506}, "transactions": [], "price": "\u20ac\u20ac\u20ac", "location": {"address1": "Cuxhavener Str. 152", "address2": null, "address3": null, "city": "Hamburg", "zip_code": "21149", "country": "DE", "state": "HH", "display_address": ["Cuxhavener Str. 152", "21149 Hamburg", "Germany"]}, "phone": "+494079752777", "display_phone": "+49 40 79752777", "distance": 4660.991750791727}, {"id": "QyjsnQNKCaswI-0sCobI6Q", "alias": "cordes-restaurant-rosengarten", "name": "Cordes Restaurant", "image_url": "https://s3-media4.fl.yelpcdn.com/bphoto/vhCV0L7HwuaMBlBHlyFnJA/o.jpg", "is_closed": false, "url": "https://www.yelp.com/biz/cordes-restaurant-rosengarten?adjust_creative=hBJOknVQJ58S5goQyjmwRw&utm_campaign=yelp_api_v3&utm_medium=api_v3_business_search&utm_source=hBJOknVQJ58S5goQyjmwRw", "review_count": 9, "categories": [{"alias": "german", "title": "German"}], "rating": 2.5, "coordinates": {"latitude": 53.42367, "longitude": 9.89772}, "transactions": [], "location": {"address1": "Sottorfer Dorfstr. 2", "address2": "", "address3": null, "city": "Rosengarten", "zip_code": "21224", "country": "DE", "state": "NI", "display_address": ["Sottorfer Dorfstr. 2", "21224 Rosengarten", "Germany"]}, "phone": "+49410843440", "display_phone": "+49 4108 43440", "distance": 1690.3605222339936}, {"id": "kUPu-a5NGKnDVWa4gjoKmQ", "alias": "schweinske-hamburg-24", "name": "Schweinske", "image_url": "https://s3-media3.fl.yelpcdn.com/bphoto/RkExcGcGjdpmyrfr5JpJcA/o.jpg", "is_closed": false, "url": "https://www.yelp.com/biz/schweinske-hamburg-24?adjust_creative=hBJOknVQJ58S5goQyjmwRw&utm_campaign=yelp_api_v3&utm_medium=api_v3_business_search&utm_source=hBJOknVQJ58S5goQyjmwRw", "review_count": 22, "categories": [{"alias": "german", "title": "German"}, {"alias": "breakfast_brunch", "title": "Breakfast & Brunch"}], "rating": 3.0, "coordinates": {"latitude": 53.472818, "longitude": 9.853336}, "transactions": [], "price": "\u20ac\u20ac", "location": {"address1": "Cuxhavener Str. 342", "address2": null, "address3": null, "city": "Hamburg", "zip_code": "21149", "country": "DE", "state": "HH", "display_address": ["Cuxhavener Str. 342", "21149 Hamburg", "Germany"]}, "phone": "+494070381804", "display_phone": "+49 40 70381804", "distance": 4879.869462328577}]