[{"id": "I0jSlCa6fDpjix2_KWypDQ", "alias": "deutsches-haus-appel-appel", "name": "Deutsches Haus Appel", "image_url": "", "is_closed": false, "url": "https://www.yelp.com/biz/deutsches-haus-appel-appel?adjust_creative=hBJOknVQJ58S5goQyjmwRw&utm_campaign=yelp_api_v3&utm_medium=api_v3_business_search&utm_source=hBJOknVQJ58S5goQyjmwRw", "review_count": 2, "categories": [{"alias": "german", "title": "German"}], "rating": 3.0, "coordinates": {"latitude": 53.3916822642029, "longitude": 9.74721725655941}, "transactions": [], "location": {"address1": "An der Kreisstr. 29", "address2": "", "address3": "", "city": "Appel", "zip_code": "21279", "country": "DE", "state": "NI", "display_address": ["An der Kreisstr. 29", "21279 Appel", "Germany"]}, "phone": "+4941658325", "display_phone": "+49 4165 8325", "distance": 4716.165628298721}, {"id": "id08Do4Ptgy242hN7U_aDQ", "alias": "restaurant-stemmann-buxtehude", "name": "Restaurant Stemmann", "image_url": "https://s3-media4.fl.yelpcdn.com/bphoto/FCMPddHeVFhahr0aZGvmQQ/o.jpg", "is_closed": false, "url": "https://www.yelp.com/biz/restaurant-stemmann-buxtehude?adjust_creative=hBJOknVQJ58S5goQyjmwRw&utm_campaign=yelp_api_v3&utm_medium=api_v3_business_search&utm_source=hBJOknVQJ58S5goQyjmwRw", "review_count": 1, "categories": [{"alias": "german", "title": "German"}], "rating": 4.0, "coordinates": {"latitude": 53.468249, "longitude": 9.71961}, "transactions": [], "price": "\u20ac\u20ac", "location": {"address1": "Harburger Str. 110", "address2": null, "address3": null, "city": "Buxtehude", "zip_code": "21614", "country": "DE", "state": "NI", "display_address": ["Harburger Str. 110", "21614 Buxtehude", "Germany"]}, "phone": "+4941617260", "display_phone": "+49 4161 7260", "distance": 4054.750731268427}, {"id": "Woiw_v3oAYHPbQTj5YlRcA", "alias": "restaurant-ovelg\u00f6nner-hof-buxtehude", "name": "Restaurant Ovelg\u00f6nner Hof", "image_url": "", "is_closed": false, "url": "https://www.yelp.com/biz/restaurant-ovelg%C3%B6nner-hof-buxtehude?adjust_creative=hBJOknVQJ58S5goQyjmwRw&utm_campaign=yelp_api_v3&utm_medium=api_v3_business_search&utm_source=hBJOknVQJ58S5goQyjmwRw", "review_count": 2, "categories": [{"alias": "german", "title": "German"}], "rating": 2.5, "coordinates": {"latitude": 53.45131, "longitude": 9.74717}, "transactions": [], "location": {"address1": "Hamburger Chaussee 81", "address2": "", "address3": null, "city": "Buxtehude", "zip_code": "21614", "country": "DE", "state": "NI", "display_address": ["Hamburger Chaussee 81", "21614 Buxtehude", "Germany"]}, "phone": "+4941617180", "display_phone": "+49 4161 7180", "distance": 2642.3897314850706}, {"id": "EjXjO4cViVs9srn6F7HDzg", "alias": "curry-23-buxtehude", "name": "Curry 23", "image_url": "https://s3-media2.fl.yelpcdn.com/bphoto/FfvN8JlM6sj9c-x9ikGSrg/o.jpg", "is_closed": false, "url": "https://www.yelp.com/biz/curry-23-buxtehude?adjust_creative=hBJOknVQJ58S5goQyjmwRw&utm_campaign=yelp_api_v3&utm_medium=api_v3_business_search&utm_source=hBJOknVQJ58S5goQyjmwRw", "review_count": 1, "categories": [{"alias": "foodstands", "title": "Food Stands"}], "rating": 5.0, "coordinates": {"latitude": 53.4668153021172, "longitude": 9.72115159034729}, "transactions": [], "location": {"address1": "Ostmoorweg 4", "address2": "", "address3": null, "city": "Buxtehude", "zip_code": "21614", "country": "DE", "state": "NI", "display_address": ["Ostmoorweg 4", "21614 Buxtehude", "Germany"]}, "phone": "", "display_phone": "", "distance": 3888.4674414355654}, {"id": "2jzIbZsfzca5drJYk7JwbQ", "alias": "the-bao-bros-hamburg-2", "name": "The Bao Bros", "image_url": "https://s3-media1.fl.yelpcdn.com/bphoto/vUMA4Y35x3UwZk6fMJfZRw/o.jpg", "is_closed": false, "url": "https://www.yelp.com/biz/the-bao-bros-hamburg-2?adjust_creative=hBJOknVQJ58S5goQyjmwRw&utm_campaign=yelp_api_v3&utm_medium=api_v3_business_search&utm_source=hBJOknVQJ58S5goQyjmwRw", "review_count": 2, "categories": [{"alias": "foodtrucks", "title": "Food Trucks"}, {"alias": "burgers", "title": "Burgers"}], "rating": 4.0, "coordinates": {"latitude": 53.5533409118652, "longitude": 9.99246978759766}, "transactions": [], "price": "\u20ac", "location": {"address1": "", "address2": "", "address3": "", "city": "Hamburg", "zip_code": "", "country": "DE", "state": "HH", "display_address": ["Hamburg", "Germany"]}, "phone": "+4915140700076", "display_phone": "+49 1514 0700076", "distance": 22188.90781956085}]