[{"id": "YLoGj1U0_jJy1Hf3nx-FaQ", "alias": "erhorns-das-restaurant-rosengarten", "name": "Erhorns das Restaurant", "image_url": "https://s3-media1.fl.yelpcdn.com/bphoto/fDSNQjFmfR13KJ3xNJAa8A/o.jpg", "is_closed": false, "url": "https://www.yelp.com/biz/erhorns-das-restaurant-rosengarten?adjust_creative=hBJOknVQJ58S5goQyjmwRw&utm_campaign=yelp_api_v3&utm_medium=api_v3_business_search&utm_source=hBJOknVQJ58S5goQyjmwRw", "review_count": 13, "categories": [{"alias": "german", "title": "German"}], "rating": 4.5, "coordinates": {"latitude": 53.4332467, "longitude": 9.907057}, "transactions": [], "price": "\u20ac", "location": {"address1": "Harburger Str. 18", "address2": "", "address3": null, "city": "Rosengarten", "zip_code": "21224", "country": "DE", "state": "NI", "display_address": ["Harburger Str. 18", "21224 Rosengarten", "Germany"]}, "phone": "+4941086236", "display_phone": "+49 4108 6236", "distance": 309.81715027619833}, {"id": "EEKdJbl4YyUORyUArak_XQ", "alias": "fritz-peters-rosengarten", "name": "Fritz Peters", "image_url": "https://s3-media3.fl.yelpcdn.com/bphoto/UGE4CQJtibWq9ylzGsd2XQ/o.jpg", "is_closed": false, "url": "https://www.yelp.com/biz/fritz-peters-rosengarten?adjust_creative=hBJOknVQJ58S5goQyjmwRw&utm_campaign=yelp_api_v3&utm_medium=api_v3_business_search&utm_source=hBJOknVQJ58S5goQyjmwRw", "review_count": 2, "categories": [{"alias": "restaurants", "title": "Restaurants"}], "rating": 4.5, "coordinates": {"latitude": 53.4089, "longitude": 9.88543}, "transactions": [], "price": "\u20ac", "location": {"address1": "Quellenweg 2", "address2": null, "address3": null, "city": "Rosengarten", "zip_code": "21224", "country": "DE", "state": "NI", "display_address": ["Quellenweg 2", "21224 Rosengarten", "Germany"]}, "phone": "+4941083102", "display_phone": "+49 4108 3102", "distance": 2754.763068577898}, {"id": "_7drLx2S3W9MRaSGq7I5og", "alias": "grando-sukredo-hamburg", "name": "Grando Sukredo", "image_url": "https://s3-media2.fl.yelpcdn.com/bphoto/3NfZ11_c5hbVZpK9SfdssQ/o.jpg", "is_closed": false, "url": "https://www.yelp.com/biz/grando-sukredo-hamburg?adjust_creative=hBJOknVQJ58S5goQyjmwRw&utm_campaign=yelp_api_v3&utm_medium=api_v3_business_search&utm_source=hBJOknVQJ58S5goQyjmwRw", "review_count": 17, "categories": [{"alias": "steak", "title": "Steakhouses"}], "rating": 4.5, "coordinates": {"latitude": 53.46093, "longitude": 9.89245}, "transactions": [], "price": "\u20ac\u20ac", "location": {"address1": "Ehestorfer Heuweg 89", "address2": null, "address3": null, "city": "Hamburg", "zip_code": "21149", "country": "DE", "state": "HH", "display_address": ["Ehestorfer Heuweg 89", "21149 Hamburg", "Germany"]}, "phone": "+494061193643", "display_phone": "+49 40 61193643", "distance": 3467.86133393236}, {"id": "g8kBMmjQyqujHvDNxNENJA", "alias": "stoof-mudders-kroog-rosengarten", "name": "Stoof Mudders Kroog", "image_url": "https://s3-media1.fl.yelpcdn.com/bphoto/XNMP1fT28ji5lB8DFufzZw/o.jpg", "is_closed": false, "url": "https://www.yelp.com/biz/stoof-mudders-kroog-rosengarten?adjust_creative=hBJOknVQJ58S5goQyjmwRw&utm_campaign=yelp_api_v3&utm_medium=api_v3_business_search&utm_source=hBJOknVQJ58S5goQyjmwRw", "review_count": 14, "categories": [{"alias": "german", "title": "German"}, {"alias": "buffets", "title": "Buffets"}], "rating": 3.5, "coordinates": {"latitude": 53.4398, "longitude": 9.90385}, "transactions": [], "price": "\u20ac\u20ac", "location": {"address1": "Am Kiekeberg 1 a", "address2": "", "address3": "", "city": "Rosengarten", "zip_code": "21224", "country": "DE", "state": "NI", "display_address": ["Am Kiekeberg 1 a", "21224 Rosengarten", "Germany"]}, "phone": "+494079144498", "display_phone": "+49 40 79144498", "distance": 1014.6538972593027}, {"id": "sv5L_hgf5LseYmGlwvPDNA", "alias": "gasthaus-zum-kiekeberg-rosengarten-3", "name": "Gasthaus zum Kiekeberg", "image_url": "https://s3-media4.fl.yelpcdn.com/bphoto/HszIqYtBygj2IZ0nizab_g/o.jpg", "is_closed": false, "url": "https://www.yelp.com/biz/gasthaus-zum-kiekeberg-rosengarten-3?adjust_creative=hBJOknVQJ58S5goQyjmwRw&utm_campaign=yelp_api_v3&utm_medium=api_v3_business_search&utm_source=hBJOknVQJ58S5goQyjmwRw", "review_count": 17, "categories": [{"alias": "german", "title": "German"}, {"alias": "gastropubs", "title": "Gastropubs"}], "rating": 3.5, "coordinates": {"latitude": 53.4396, "longitude": 9.89928}, "transactions": [], "price": "\u20ac\u20ac", "location": {"address1": "Am Kiekeberg 5", "address2": null, "address3": null, "city": "Rosengarten", "zip_code": "21224", "country": "DE", "state": "NI", "display_address": ["Am Kiekeberg 5", "21224 Rosengarten", "Germany"]}, "phone": "+49407905021", "display_phone": "+49 40 7905021", "distance": 1068.3526512791116}, {"id": "ykRtViJfcQxt1VKtK-ojcg", "alias": "wildpark-restaurant-rosengarten", "name": "Wildpark-Restaurant", "image_url": "https://s3-media3.fl.yelpcdn.com/bphoto/BPB2FUuYfd0v8KyznZ31YQ/o.jpg", "is_closed": false, "url": "https://www.yelp.com/biz/wildpark-restaurant-rosengarten?adjust_creative=hBJOknVQJ58S5goQyjmwRw&utm_campaign=yelp_api_v3&utm_medium=api_v3_business_search&utm_source=hBJOknVQJ58S5goQyjmwRw", "review_count": 6, "categories": [{"alias": "german", "title": "German"}], "rating": 3.5, "coordinates": {"latitude": 53.4415452, "longitude": 9.8886414}, "transactions": [], "price": "\u20ac\u20ac", "location": {"address1": "Am Wildpark 1", "address2": null, "address3": "", "city": "Rosengarten", "zip_code": "21224", "country": "DE", "state": "BW", "display_address": ["Am Wildpark 1", "21224 Rosengarten", "Germany"]}, "phone": "+4940819774740", "display_phone": "+49 40 819774740", "distance": 1830.9967147504449}, {"id": "l2udFcs0_5l2JWJtUnTwRQ", "alias": "meyers-linde-rosengarten", "name": "Meyer's Linde", "image_url": "https://s3-media3.fl.yelpcdn.com/bphoto/1vWS6t0s9piDkVllXqsOVA/o.jpg", "is_closed": false, "url": "https://www.yelp.com/biz/meyers-linde-rosengarten?adjust_creative=hBJOknVQJ58S5goQyjmwRw&utm_campaign=yelp_api_v3&utm_medium=api_v3_business_search&utm_source=hBJOknVQJ58S5goQyjmwRw", "review_count": 4, "categories": [{"alias": "german", "title": "German"}], "rating": 3.5, "coordinates": {"latitude": 53.4441237, "longitude": 9.9050738}, "transactions": [], "location": {"address1": "Harburger Stadtweg 2", "address2": "", "address3": "", "city": "Rosengarten", "zip_code": "21224", "country": "DE", "state": "NI", "display_address": ["Harburger Stadtweg 2", "21224 Rosengarten", "Germany"]}, "phone": "+49407906236", "display_phone": "+49 40 7906236", "distance": 1495.3995635584329}, {"id": "VmKHDB9yn_W5vXAI13Ojkw", "alias": "k\u00e4rntner-h\u00fctte-hamburg", "name": "K\u00e4rntner H\u00fctte", "image_url": "https://s3-media3.fl.yelpcdn.com/bphoto/VDOi8qVRnDJjkBlhEDvxnQ/o.jpg", "is_closed": false, "url": "https://www.yelp.com/biz/k%C3%A4rntner-h%C3%BCtte-hamburg?adjust_creative=hBJOknVQJ58S5goQyjmwRw&utm_campaign=yelp_api_v3&utm_medium=api_v3_business_search&utm_source=hBJOknVQJ58S5goQyjmwRw", "review_count": 15, "categories": [{"alias": "german", "title": "German"}, {"alias": "austrian", "title": "Austrian"}], "rating": 3.5, "coordinates": {"latitude": 53.47016, "longitude": 9.90457052513125}, "transactions": [], "price": "\u20ac\u20ac", "location": {"address1": "Cuxhavener Str. 55 c", "address2": null, "address3": null, "city": "Hamburg", "zip_code": "21149", "country": "DE", "state": "HH", "display_address": ["Cuxhavener Str. 55 c", "21149 Hamburg", "Germany"]}, "phone": "+49407964622", "display_phone": "+49 40 7964622", "distance": 4390.686554602024}, {"id": "QyjsnQNKCaswI-0sCobI6Q", "alias": "cordes-restaurant-rosengarten", "name": "Cordes Restaurant", "image_url": "https://s3-media4.fl.yelpcdn.com/bphoto/vhCV0L7HwuaMBlBHlyFnJA/o.jpg", "is_closed": false, "url": "https://www.yelp.com/biz/cordes-restaurant-rosengarten?adjust_creative=hBJOknVQJ58S5goQyjmwRw&utm_campaign=yelp_api_v3&utm_medium=api_v3_business_search&utm_source=hBJOknVQJ58S5goQyjmwRw", "review_count": 9, "categories": [{"alias": "german", "title": "German"}], "rating": 2.5, "coordinates": {"latitude": 53.42367, "longitude": 9.89772}, "transactions": [], "location": {"address1": "Sottorfer Dorfstr. 2", "address2": "", "address3": null, "city": "Rosengarten", "zip_code": "21224", "country": "DE", "state": "NI", "display_address": ["Sottorfer Dorfstr. 2", "21224 Rosengarten", "Germany"]}, "phone": "+49410843440", "display_phone": "+49 4108 43440", "distance": 930.8316813714279}, {"id": "kfGyGne8Qn3mxvhXHzMIyQ", "alias": "burger-king-hamburg-3", "name": "Burger King", "image_url": "https://s3-media2.fl.yelpcdn.com/bphoto/vlyYJMsm8pyi6cVRGoOL9g/o.jpg", "is_closed": false, "url": "https://www.yelp.com/biz/burger-king-hamburg-3?adjust_creative=hBJOknVQJ58S5goQyjmwRw&utm_campaign=yelp_api_v3&utm_medium=api_v3_business_search&utm_source=hBJOknVQJ58S5goQyjmwRw", "review_count": 14, "categories": [{"alias": "hotdogs", "title": "Fast Food"}, {"alias": "burgers", "title": "Burgers"}], "rating": 3.0, "coordinates": {"latitude": 53.471143, "longitude": 9.922511}, "transactions": [], "price": "\u20ac\u20ac", "location": {"address1": "Stader Str. 302", "address2": "", "address3": null, "city": "Hamburg", "zip_code": "21075", "country": "DE", "state": "HH", "display_address": ["Stader Str. 302", "21075 Hamburg", "Germany"]}, "phone": "+494079143649", "display_phone": "+49 40 79143649", "distance": 4642.57698437729}, {"id": "TI2orC_tUrfypZpFjXbLOg", "alias": "come-inn-rosengarten", "name": "Come inn", "image_url": "", "is_closed": false, "url": "https://www.yelp.com/biz/come-inn-rosengarten?adjust_creative=hBJOknVQJ58S5goQyjmwRw&utm_campaign=yelp_api_v3&utm_medium=api_v3_business_search&utm_source=hBJOknVQJ58S5goQyjmwRw", "review_count": 2, "categories": [{"alias": "hotdogs", "title": "Fast Food"}], "rating": 3.0, "coordinates": {"latitude": 53.4068, "longitude": 9.89273}, "transactions": [], "location": {"address1": "Hauptstr. 39", "address2": null, "address3": null, "city": "Rosengarten", "zip_code": "21224", "country": "DE", "state": "NI", "display_address": ["Hauptstr. 39", "21224 Rosengarten", "Germany"]}, "phone": "+494108413984", "display_phone": "+49 4108 413984", "distance": 2781.5647308556745}, {"id": "u3ub5f0MS4qY67Q8XF9ZoA", "alias": "sodemanns-fisch-kutter-nr-1-hamburg", "name": "Sodemann's Fisch-Kutter Nr. 1", "image_url": "https://s3-media3.fl.yelpcdn.com/bphoto/BlysP6fVPaL0eEjKvEbByw/o.jpg", "is_closed": false, "url": "https://www.yelp.com/biz/sodemanns-fisch-kutter-nr-1-hamburg?adjust_creative=hBJOknVQJ58S5goQyjmwRw&utm_campaign=yelp_api_v3&utm_medium=api_v3_business_search&utm_source=hBJOknVQJ58S5goQyjmwRw", "review_count": 3, "categories": [{"alias": "foodtrucks", "title": "Food Trucks"}, {"alias": "fischbroetchen", "title": "Fischbroetchen"}], "rating": 5.0, "coordinates": {"latitude": 53.5537490844727, "longitude": 9.99182987213135}, "transactions": [], "price": "\u20ac\u20ac", "location": {"address1": "", "address2": null, "address3": "", "city": "Hamburg", "zip_code": "", "country": "DE", "state": "HH", "display_address": ["Hamburg", "Germany"]}, "phone": "+491773606663", "display_phone": "+49 177 3606663", "distance": 14611.056219408987}, {"id": "wpGydxJrBuTsmNYuSBD8Mw", "alias": "rosengarten-grillhaus-rosengarten", "name": "Rosengarten Grillhaus", "image_url": "", "is_closed": false, "url": "https://www.yelp.com/biz/rosengarten-grillhaus-rosengarten?adjust_creative=hBJOknVQJ58S5goQyjmwRw&utm_campaign=yelp_api_v3&utm_medium=api_v3_business_search&utm_source=hBJOknVQJ58S5goQyjmwRw", "review_count": 1, "categories": [{"alias": "kebab", "title": "Kebab"}, {"alias": "salad", "title": "Salad"}, {"alias": "currysausage", "title": "Curry Sausage"}], "rating": 5.0, "coordinates": {"latitude": 53.40707, "longitude": 9.89029}, "transactions": [], "location": {"address1": "Hauptstr. 39", "address2": "", "address3": null, "city": "Rosengarten", "zip_code": "21224", "country": "DE", "state": "NI", "display_address": ["Hauptstr. 39", "21224 Rosengarten", "Germany"]}, "phone": "+4941084899993", "display_phone": "+49 4108 4899993", "distance": 2802.150471587505}, {"id": "Cf-sLIwvllFcN6QwXUH3MA", "alias": "hotel-majest\u00e4tische-aussicht-restaurant-pegasos-hamburg", "name": "Hotel Majest\u00e4tische Aussicht Restaurant Pegasos", "image_url": "https://s3-media3.fl.yelpcdn.com/bphoto/_JvVM76k2iNEhBJ4c85Vrg/o.jpg", "is_closed": false, "url": "https://www.yelp.com/biz/hotel-majest%C3%A4tische-aussicht-restaurant-pegasos-hamburg?adjust_creative=hBJOknVQJ58S5goQyjmwRw&utm_campaign=yelp_api_v3&utm_medium=api_v3_business_search&utm_source=hBJOknVQJ58S5goQyjmwRw", "review_count": 13, "categories": [{"alias": "hotels", "title": "Hotels"}, {"alias": "restaurants", "title": "Restaurants"}], "rating": 4.0, "coordinates": {"latitude": 53.4531, "longitude": 9.92459}, "transactions": [], "price": "\u20ac\u20ac\u20ac", "location": {"address1": "Ehestorfer Weg 215", "address2": null, "address3": null, "city": "Hamburg", "zip_code": "21075", "country": "DE", "state": "HH", "display_address": ["Ehestorfer Weg 215", "21075 Hamburg", "Germany"]}, "phone": "+49407906190", "display_phone": "+49 40 7906190", "distance": 2803.098384888386}, {"id": "_BNYVKl7NdOIzbpEfeFD0Q", "alias": "mundfein-pizzawerkstatt-hamburg-2", "name": "Mundfein Pizzawerkstatt", "image_url": "https://s3-media2.fl.yelpcdn.com/bphoto/V6jQeQHP487aHvucKn_zzg/o.jpg", "is_closed": false, "url": "https://www.yelp.com/biz/mundfein-pizzawerkstatt-hamburg-2?adjust_creative=hBJOknVQJ58S5goQyjmwRw&utm_campaign=yelp_api_v3&utm_medium=api_v3_business_search&utm_source=hBJOknVQJ58S5goQyjmwRw", "review_count": 8, "categories": [{"alias": "pizza", "title": "Pizza"}], "rating": 4.0, "coordinates": {"latitude": 53.4721624, "longitude": 9.8875506}, "transactions": [], "price": "\u20ac\u20ac\u20ac", "location": {"address1": "Cuxhavener Str. 152", "address2": null, "address3": null, "city": "Hamburg", "zip_code": "21149", "country": "DE", "state": "HH", "display_address": ["Cuxhavener Str. 152", "21149 Hamburg", "Germany"]}, "phone": "+494079752777", "display_phone": "+49 40 79752777", "distance": 4759.736263548337}, {"id": "KaMlL3EyCdcSzkDAfVIt-g", "alias": "landhaus-j\u00e4gerhof-hamburg-2", "name": "Landhaus J\u00e4gerhof", "image_url": "https://s3-media2.fl.yelpcdn.com/bphoto/FqOyL1xyztMlYzIiFbxi7Q/o.jpg", "is_closed": false, "url": "https://www.yelp.com/biz/landhaus-j%C3%A4gerhof-hamburg-2?adjust_creative=hBJOknVQJ58S5goQyjmwRw&utm_campaign=yelp_api_v3&utm_medium=api_v3_business_search&utm_source=hBJOknVQJ58S5goQyjmwRw", "review_count": 3, "categories": [{"alias": "german", "title": "German"}, {"alias": "bowling", "title": "Bowling"}], "rating": 3.5, "coordinates": {"latitude": 53.47019, "longitude": 9.88699}, "transactions": [], "location": {"address1": "Ehestorfer Heuweg 12 - 14", "address2": null, "address3": null, "city": "Hamburg", "zip_code": "21149", "country": "DE", "state": "HH", "display_address": ["Ehestorfer Heuweg 12 - 14", "21149 Hamburg", "Germany"]}, "phone": "+49407962015", "display_phone": "+49 40 7962015", "distance": 4557.2109809049}, {"id": "RUvELTNuACC7Q89V3-0QbQ", "alias": "mcdonalds-hamburg-10", "name": "McDonald's", "image_url": "https://s3-media2.fl.yelpcdn.com/bphoto/fM32vOY4bl5EwLtw0hyMVw/o.jpg", "is_closed": false, "url": "https://www.yelp.com/biz/mcdonalds-hamburg-10?adjust_creative=hBJOknVQJ58S5goQyjmwRw&utm_campaign=yelp_api_v3&utm_medium=api_v3_business_search&utm_source=hBJOknVQJ58S5goQyjmwRw", "review_count": 7, "categories": [{"alias": "hotdogs", "title": "Fast Food"}, {"alias": "burgers", "title": "Burgers"}], "rating": 2.5, "coordinates": {"latitude": 53.4709864343674, "longitude": 9.92870281507347}, "transactions": [], "price": "\u20ac\u20ac", "location": {"address1": "Stader Str. 256", "address2": "", "address3": "", "city": "Hamburg", "zip_code": "21075", "country": "DE", "state": "HH", "display_address": ["Stader Str. 256", "21075 Hamburg", "Germany"]}, "phone": "+49407923009", "display_phone": "+49 40 7923009", "distance": 4743.656413196317}, {"id": "2jzIbZsfzca5drJYk7JwbQ", "alias": "the-bao-bros-hamburg-2", "name": "The Bao Bros", "image_url": "https://s3-media1.fl.yelpcdn.com/bphoto/vUMA4Y35x3UwZk6fMJfZRw/o.jpg", "is_closed": false, "url": "https://www.yelp.com/biz/the-bao-bros-hamburg-2?adjust_creative=hBJOknVQJ58S5goQyjmwRw&utm_campaign=yelp_api_v3&utm_medium=api_v3_business_search&utm_source=hBJOknVQJ58S5goQyjmwRw", "review_count": 2, "categories": [{"alias": "foodtrucks", "title": "Food Trucks"}, {"alias": "burgers", "title": "Burgers"}], "rating": 4.0, "coordinates": {"latitude": 53.5533409118652, "longitude": 9.99246978759766}, "transactions": [], "price": "\u20ac", "location": {"address1": "", "address2": "", "address3": "", "city": "Hamburg", "zip_code": "", "country": "DE", "state": "HH", "display_address": ["Hamburg", "Germany"]}, "phone": "+4915140700076", "display_phone": "+49 1514 0700076", "distance": 14611.053570701592}]