[{"id": "wk3uGPny6pidyVukxwQHNA", "alias": "strandhalle-over-seevetal", "name": "Strandhalle Over", "image_url": "https://s3-media2.fl.yelpcdn.com/bphoto/S_hB6tfILT3ZYOy_Fo8u_w/o.jpg", "is_closed": false, "url": "https://www.yelp.com/biz/strandhalle-over-seevetal?adjust_creative=hBJOknVQJ58S5goQyjmwRw&utm_campaign=yelp_api_v3&utm_medium=api_v3_business_search&utm_source=hBJOknVQJ58S5goQyjmwRw", "review_count": 9, "categories": [{"alias": "german", "title": "German"}], "rating": 3.5, "coordinates": {"latitude": 53.4431, "longitude": 10.091}, "transactions": [], "price": "\u20ac\u20ac", "location": {"address1": "Sandberg 7", "address2": null, "address3": null, "city": "Seevetal", "zip_code": "21217", "country": "DE", "state": "NI", "display_address": ["Sandberg 7", "21217 Seevetal", "Germany"]}, "phone": "+4917661956689", "display_phone": "+49 176 61956689", "distance": 1733.7241985723235}, {"id": "HVhu33lr5QK50I8F2s9Wlw", "alias": "surf-station-elke-vollstedt-hamburg", "name": "Surf-Station Elke Vollstedt", "image_url": "https://s3-media2.fl.yelpcdn.com/bphoto/ZGud6jsBYkleQU6yHmWvFQ/o.jpg", "is_closed": false, "url": "https://www.yelp.com/biz/surf-station-elke-vollstedt-hamburg?adjust_creative=hBJOknVQJ58S5goQyjmwRw&utm_campaign=yelp_api_v3&utm_medium=api_v3_business_search&utm_source=hBJOknVQJ58S5goQyjmwRw", "review_count": 2, "categories": [{"alias": "hotdogs", "title": "Fast Food"}], "rating": 4.5, "coordinates": {"latitude": 53.4401, "longitude": 10.1015}, "transactions": [], "location": {"address1": "Overwerder Hauptdeich 1", "address2": null, "address3": null, "city": "Hamburg", "zip_code": "21037", "country": "DE", "state": "HH", "display_address": ["Overwerder Hauptdeich 1", "21037 Hamburg", "Germany"]}, "phone": "+49407374397", "display_phone": "+49 40 7374397", "distance": 1241.1332977027237}, {"id": "dpRmaAsro244woCbG-KXsQ", "alias": "zum-eichbaum-hamburg", "name": "Zum Eichbaum", "image_url": "https://s3-media3.fl.yelpcdn.com/bphoto/7sVtbVfEtQKroT84_5DbYA/o.jpg", "is_closed": false, "url": "https://www.yelp.com/biz/zum-eichbaum-hamburg?adjust_creative=hBJOknVQJ58S5goQyjmwRw&utm_campaign=yelp_api_v3&utm_medium=api_v3_business_search&utm_source=hBJOknVQJ58S5goQyjmwRw", "review_count": 46, "categories": [{"alias": "german", "title": "German"}, {"alias": "hotels", "title": "Hotels"}], "rating": 4.0, "coordinates": {"latitude": 53.4881351625541, "longitude": 10.1045254522435}, "transactions": [], "price": "\u20ac\u20ac", "location": {"address1": "Moorfleeter Deich 477", "address2": "", "address3": "", "city": "Hamburg", "zip_code": "21037", "country": "DE", "state": "HH", "display_address": ["Moorfleeter Deich 477", "21037 Hamburg", "Germany"]}, "phone": "+49407372655", "display_phone": "+49 40 7372655", "distance": 4655.642183057568}, {"id": "HOF5OiBdvdlwq1KVzE9ZWw", "alias": "landhaus-voigt-hamburg", "name": "Landhaus Voigt", "image_url": "https://s3-media2.fl.yelpcdn.com/bphoto/iLXdjMtQuNu03XFhRfD6cQ/o.jpg", "is_closed": false, "url": "https://www.yelp.com/biz/landhaus-voigt-hamburg?adjust_creative=hBJOknVQJ58S5goQyjmwRw&utm_campaign=yelp_api_v3&utm_medium=api_v3_business_search&utm_source=hBJOknVQJ58S5goQyjmwRw", "review_count": 11, "categories": [{"alias": "german", "title": "German"}], "rating": 3.0, "coordinates": {"latitude": 53.4752032, "longitude": 10.1021493}, "transactions": [], "price": "\u20ac\u20ac", "location": {"address1": "Ochsenwerder Norderdeich  113", "address2": null, "address3": null, "city": "Hamburg", "zip_code": "21037", "country": "DE", "state": "HH", "display_address": ["Ochsenwerder Norderdeich  113", "21037 Hamburg", "Germany"]}, "phone": "+49407372440", "display_phone": "+49 40 7372440", "distance": 3289.0786506570607}]