[{"id": "yY91P0JuKq9Q6rISo-gbHQ", "alias": "porter-house-hamburg", "name": "Porter House", "image_url": "https://s3-media2.fl.yelpcdn.com/bphoto/FvG79MEEOgZROLC9IthiMA/o.jpg", "is_closed": false, "url": "https://www.yelp.com/biz/porter-house-hamburg?adjust_creative=hBJOknVQJ58S5goQyjmwRw&utm_campaign=yelp_api_v3&utm_medium=api_v3_business_search&utm_source=hBJOknVQJ58S5goQyjmwRw", "review_count": 6, "categories": [{"alias": "steak", "title": "Steakhouses"}, {"alias": "serbocroatian", "title": "Serbo Croatian"}], "rating": 4.5, "coordinates": {"latitude": 53.4651, "longitude": 10.2016}, "transactions": [], "price": "\u20ac\u20ac", "location": {"address1": "Curslacker Deich 375", "address2": null, "address3": null, "city": "Hamburg", "zip_code": "21039", "country": "DE", "state": "HH", "display_address": ["Curslacker Deich 375", "21039 Hamburg", "Germany"]}, "phone": "+49403609440", "display_phone": "+49 40 3609440", "distance": 2151.957224973294}, {"id": "p6NLrDG7PeH60IUcmTwPAA", "alias": "gastst\u00e4tte-zum-alten-bahnhof-hamburg", "name": "Gastst\u00e4tte Zum alten Bahnhof", "image_url": "https://s3-media4.fl.yelpcdn.com/bphoto/bq3mLtdVBdxpjpI6-ilBDg/o.jpg", "is_closed": false, "url": "https://www.yelp.com/biz/gastst%C3%A4tte-zum-alten-bahnhof-hamburg?adjust_creative=hBJOknVQJ58S5goQyjmwRw&utm_campaign=yelp_api_v3&utm_medium=api_v3_business_search&utm_source=hBJOknVQJ58S5goQyjmwRw", "review_count": 1, "categories": [{"alias": "german", "title": "German"}], "rating": 5.0, "coordinates": {"latitude": 53.4486, "longitude": 10.22153}, "transactions": [], "price": "\u20ac\u20ac", "location": {"address1": "Odemanns Heck 5", "address2": null, "address3": null, "city": "Hamburg", "zip_code": "21039", "country": "DE", "state": "HH", "display_address": ["Odemanns Heck 5", "21039 Hamburg", "Germany"]}, "phone": "+494072370570", "display_phone": "+49 40 72370570", "distance": 1022.594308300014}, {"id": "iDbFa_QS9dWsxaVWCZjy8Q", "alias": "santa-lucia-hamburg-2", "name": "Santa Lucia", "image_url": "https://s3-media1.fl.yelpcdn.com/bphoto/eSlgAEYc9SSgS5aL19TvgQ/o.jpg", "is_closed": false, "url": "https://www.yelp.com/biz/santa-lucia-hamburg-2?adjust_creative=hBJOknVQJ58S5goQyjmwRw&utm_campaign=yelp_api_v3&utm_medium=api_v3_business_search&utm_source=hBJOknVQJ58S5goQyjmwRw", "review_count": 6, "categories": [{"alias": "italian", "title": "Italian"}, {"alias": "pizza", "title": "Pizza"}], "rating": 4.0, "coordinates": {"latitude": 53.487704, "longitude": 10.214498}, "transactions": [], "price": "\u20ac\u20ac", "location": {"address1": "Bergedorfer Schlo\u00dfstr. 12", "address2": null, "address3": null, "city": "Hamburg", "zip_code": "21029", "country": "DE", "state": "HH", "display_address": ["Bergedorfer Schlo\u00dfstr. 12", "21029 Hamburg", "Germany"]}, "phone": "+494079419349", "display_phone": "+49 40 79419349", "distance": 4666.951954212384}, {"id": "G5DtYjTrKtMavUCTVOtIYA", "alias": "achtern-diek-hamburg", "name": "Achtern Diek", "image_url": "https://s3-media2.fl.yelpcdn.com/bphoto/Pf-a7VGwMVHvnRfx_wfNdA/o.jpg", "is_closed": false, "url": "https://www.yelp.com/biz/achtern-diek-hamburg?adjust_creative=hBJOknVQJ58S5goQyjmwRw&utm_campaign=yelp_api_v3&utm_medium=api_v3_business_search&utm_source=hBJOknVQJ58S5goQyjmwRw", "review_count": 2, "categories": [{"alias": "polish", "title": "Polish"}, {"alias": "german", "title": "German"}], "rating": 4.5, "coordinates": {"latitude": 53.40829, "longitude": 10.20832}, "transactions": [], "price": "\u20ac\u20ac", "location": {"address1": "Kirchwerder M\u00fchlendamm 75", "address2": null, "address3": null, "city": "Hamburg", "zip_code": "21037", "country": "DE", "state": "HH", "display_address": ["Kirchwerder M\u00fchlendamm 75", "21037 Hamburg", "Germany"]}, "phone": "+494079410600", "display_phone": "+49 40 79410600", "distance": 4193.262964862123}, {"id": "uwN7W2qQoeTgwR2RtbzE3Q", "alias": "kuhberg-hamburg-2", "name": "Kuhberg", "image_url": "https://s3-media1.fl.yelpcdn.com/bphoto/ocOTFIWwUY2xlqhKaeXctw/o.jpg", "is_closed": false, "url": "https://www.yelp.com/biz/kuhberg-hamburg-2?adjust_creative=hBJOknVQJ58S5goQyjmwRw&utm_campaign=yelp_api_v3&utm_medium=api_v3_business_search&utm_source=hBJOknVQJ58S5goQyjmwRw", "review_count": 7, "categories": [{"alias": "international", "title": "International"}], "rating": 5.0, "coordinates": {"latitude": 53.4879359, "longitude": 10.2114569}, "transactions": [], "price": "\u20ac\u20ac", "location": {"address1": "Wiebekingweg 2a", "address2": null, "address3": null, "city": "Hamburg", "zip_code": "21029", "country": "DE", "state": "HH", "display_address": ["Wiebekingweg 2a", "21029 Hamburg", "Germany"]}, "phone": "+494072698006", "display_phone": "+49 40 72698006", "distance": 4674.790809723181}, {"id": "Lz0Ub6tuzImPgQJZCLv8qA", "alias": "pamukkale-grill-und-backshop-hamburg", "name": "Pamukkale Grill & Backshop", "image_url": "https://s3-media3.fl.yelpcdn.com/bphoto/wosuymQ8MYSdQR0IoqmTfw/o.jpg", "is_closed": false, "url": "https://www.yelp.com/biz/pamukkale-grill-und-backshop-hamburg?adjust_creative=hBJOknVQJ58S5goQyjmwRw&utm_campaign=yelp_api_v3&utm_medium=api_v3_business_search&utm_source=hBJOknVQJ58S5goQyjmwRw", "review_count": 16, "categories": [{"alias": "kebab", "title": "Kebab"}, {"alias": "backshop", "title": "Backshop"}], "rating": 4.5, "coordinates": {"latitude": 53.48945, "longitude": 10.20707}, "transactions": [], "price": "\u20ac", "location": {"address1": "Weidenbaumsweg 14", "address2": "", "address3": "S-Bahnhof Bergedorf, Ausgang Johann-Meyer Stra\u00dfe", "city": "Hamburg", "zip_code": "21029", "country": "DE", "state": "HH", "display_address": ["Weidenbaumsweg 14", "S-Bahnhof Bergedorf, Ausgang Johann-Meyer Stra\u00dfe", "21029 Hamburg", "Germany"]}, "phone": "", "display_phone": "", "distance": 4775.57227456388}, {"id": "wEtVg37Ypxat_mW1ZrRuWg", "alias": "dubrovnik-hamburg-5", "name": "Dubrovnik", "image_url": "https://s3-media4.fl.yelpcdn.com/bphoto/a1XRjKIcmaR6a1lQ3_mrvw/o.jpg", "is_closed": false, "url": "https://www.yelp.com/biz/dubrovnik-hamburg-5?adjust_creative=hBJOknVQJ58S5goQyjmwRw&utm_campaign=yelp_api_v3&utm_medium=api_v3_business_search&utm_source=hBJOknVQJ58S5goQyjmwRw", "review_count": 18, "categories": [{"alias": "serbocroatian", "title": "Serbo Croatian"}], "rating": 4.0, "coordinates": {"latitude": 53.4733, "longitude": 10.2299}, "transactions": [], "price": "\u20ac\u20ac", "location": {"address1": "Achterschlag 2", "address2": null, "address3": null, "city": "Hamburg", "zip_code": "21039", "country": "DE", "state": "HH", "display_address": ["Achterschlag 2", "21039 Hamburg", "Germany"]}, "phone": "+494087604024", "display_phone": "+49 40 87604024", "distance": 3402.451591135246}, {"id": "ogs3ehIibnN3RCZJNNJzAQ", "alias": "der-m\u00fchlenladen-hamburg-2", "name": "Der M\u00fchlenladen", "image_url": "https://s3-media3.fl.yelpcdn.com/bphoto/HqgEPc4ik-TQcoUT0d5Dkw/o.jpg", "is_closed": false, "url": "https://www.yelp.com/biz/der-m%C3%BChlenladen-hamburg-2?adjust_creative=hBJOknVQJ58S5goQyjmwRw&utm_campaign=yelp_api_v3&utm_medium=api_v3_business_search&utm_source=hBJOknVQJ58S5goQyjmwRw", "review_count": 4, "categories": [{"alias": "cafes", "title": "Cafes"}, {"alias": "delicatessen", "title": "Delicatessen"}, {"alias": "german", "title": "German"}], "rating": 4.0, "coordinates": {"latitude": 53.40808, "longitude": 10.20809}, "transactions": [], "price": "\u20ac\u20ac", "location": {"address1": "Kirchwerder M\u00fchlendamm 75 A", "address2": null, "address3": null, "city": "Hamburg", "zip_code": "21037", "country": "DE", "state": "HH", "display_address": ["Kirchwerder M\u00fchlendamm 75 A", "21037 Hamburg", "Germany"]}, "phone": "+494073507395", "display_phone": "+49 40 73507395", "distance": 4216.251830744922}, {"id": "eB5ZgXwqX4OjH3PjvcVqqw", "alias": "trattoria-olivo-hamburg", "name": "Trattoria Olivo", "image_url": "https://s3-media3.fl.yelpcdn.com/bphoto/azb16-pwIH6-s5zGK2CfIg/o.jpg", "is_closed": false, "url": "https://www.yelp.com/biz/trattoria-olivo-hamburg?adjust_creative=hBJOknVQJ58S5goQyjmwRw&utm_campaign=yelp_api_v3&utm_medium=api_v3_business_search&utm_source=hBJOknVQJ58S5goQyjmwRw", "review_count": 12, "categories": [{"alias": "italian", "title": "Italian"}], "rating": 4.5, "coordinates": {"latitude": 53.48585, "longitude": 10.2173}, "transactions": [], "price": "\u20ac\u20ac", "location": {"address1": "Am Brink 10", "address2": "", "address3": "", "city": "Hamburg", "zip_code": "21029", "country": "DE", "state": "HH", "display_address": ["Am Brink 10", "21029 Hamburg", "Germany"]}, "phone": "+494072106745", "display_phone": "+49 40 72106745", "distance": 4488.969144517136}, {"id": "Zv1LeZIpUf-fgVDZnfsTyg", "alias": "vapiano-hamburg-11", "name": "Vapiano", "image_url": "https://s3-media2.fl.yelpcdn.com/bphoto/yjG-y_zly9_YaRjRwLAHOw/o.jpg", "is_closed": false, "url": "https://www.yelp.com/biz/vapiano-hamburg-11?adjust_creative=hBJOknVQJ58S5goQyjmwRw&utm_campaign=yelp_api_v3&utm_medium=api_v3_business_search&utm_source=hBJOknVQJ58S5goQyjmwRw", "review_count": 5, "categories": [{"alias": "italian", "title": "Italian"}], "rating": 3.0, "coordinates": {"latitude": 53.4865151843347, "longitude": 10.213736811045}, "transactions": [], "price": "\u20ac\u20ac", "location": {"address1": "Bergedorfer Str. 131 - 135", "address2": "", "address3": null, "city": "Hamburg", "zip_code": "21029", "country": "DE", "state": "HH", "display_address": ["Bergedorfer Str. 131 - 135", "21029 Hamburg", "Germany"]}, "phone": "+4940609436970", "display_phone": "+49 40 609436970", "distance": 4530.152008023522}, {"id": "GK_fTWOJbRbQO30X1t58-A", "alias": "mahal-express-hamburg", "name": "Mahal Express", "image_url": "https://s3-media1.fl.yelpcdn.com/bphoto/5UNNy-7w_EtgWaXytdiYBw/o.jpg", "is_closed": false, "url": "https://www.yelp.com/biz/mahal-express-hamburg?adjust_creative=hBJOknVQJ58S5goQyjmwRw&utm_campaign=yelp_api_v3&utm_medium=api_v3_business_search&utm_source=hBJOknVQJ58S5goQyjmwRw", "review_count": 3, "categories": [{"alias": "indpak", "title": "Indian"}], "rating": 4.0, "coordinates": {"latitude": 53.4881883959455, "longitude": 10.2086662854583}, "transactions": [], "location": {"address1": "Weidenbaumsweg 21", "address2": "", "address3": "", "city": "Hamburg", "zip_code": "21029", "country": "DE", "state": "HH", "display_address": ["Weidenbaumsweg 21", "21029 Hamburg", "Germany"]}, "phone": "", "display_phone": "", "distance": 4694.118360263612}, {"id": "8RTFCEVFVel7jHWdyzyS7g", "alias": "ha-dang-dung-hamburg", "name": "Ha Dang Dung", "image_url": "https://s3-media3.fl.yelpcdn.com/bphoto/Badnhs7BNcNC3eSVURl_2A/o.jpg", "is_closed": false, "url": "https://www.yelp.com/biz/ha-dang-dung-hamburg?adjust_creative=hBJOknVQJ58S5goQyjmwRw&utm_campaign=yelp_api_v3&utm_medium=api_v3_business_search&utm_source=hBJOknVQJ58S5goQyjmwRw", "review_count": 1, "categories": [{"alias": "vietnamese", "title": "Vietnamese"}], "rating": 4.0, "coordinates": {"latitude": 53.486007, "longitude": 10.214888}, "transactions": [], "location": {"address1": "Bergedorfer Str 152", "address2": "", "address3": null, "city": "Hamburg", "zip_code": "21029", "country": "DE", "state": "HH", "display_address": ["Bergedorfer Str 152", "21029 Hamburg", "Germany"]}, "phone": "+494072105999", "display_phone": "+49 40 72105999", "distance": 4482.493567168683}, {"id": "zSJs6UlQpjoeyYtP0KmIXw", "alias": "sushibar-bergedorf-hamburg", "name": "sushibar bergedorf", "image_url": "https://s3-media4.fl.yelpcdn.com/bphoto/C8iFPvFJzRKix6tiM3SnOg/o.jpg", "is_closed": false, "url": "https://www.yelp.com/biz/sushibar-bergedorf-hamburg?adjust_creative=hBJOknVQJ58S5goQyjmwRw&utm_campaign=yelp_api_v3&utm_medium=api_v3_business_search&utm_source=hBJOknVQJ58S5goQyjmwRw", "review_count": 53, "categories": [{"alias": "sushi", "title": "Sushi Bars"}], "rating": 4.0, "coordinates": {"latitude": 53.48635, "longitude": 10.21301}, "transactions": [], "price": "\u20ac\u20ac", "location": {"address1": "Bergedorfer Str. 138", "address2": null, "address3": null, "city": "Hamburg", "zip_code": "21029", "country": "DE", "state": "HH", "display_address": ["Bergedorfer Str. 138", "21029 Hamburg", "Germany"]}, "phone": "+494018073686", "display_phone": "+49 40 18073686", "distance": 4495.647059477193}, {"id": "Zz4ls--O20WxfSrE-Mardg", "alias": "sushi-und-asia-lounge-hamburg-2", "name": "Sushi & Asia Lounge", "image_url": "https://s3-media3.fl.yelpcdn.com/bphoto/8F0iJS0GH_Mm4E1G8XrRCA/o.jpg", "is_closed": false, "url": "https://www.yelp.com/biz/sushi-und-asia-lounge-hamburg-2?adjust_creative=hBJOknVQJ58S5goQyjmwRw&utm_campaign=yelp_api_v3&utm_medium=api_v3_business_search&utm_source=hBJOknVQJ58S5goQyjmwRw", "review_count": 14, "categories": [{"alias": "sushi", "title": "Sushi Bars"}, {"alias": "fooddeliveryservices", "title": "Food Delivery Services"}, {"alias": "panasian", "title": "Pan Asian"}], "rating": 4.0, "coordinates": {"latitude": 53.4859099, "longitude": 10.21034}, "transactions": [], "price": "\u20ac\u20ac", "location": {"address1": "Vierlandenstr. 31", "address2": "", "address3": "", "city": "Hamburg", "zip_code": "21029", "country": "DE", "state": "HH", "display_address": ["Vierlandenstr. 31", "21029 Hamburg", "Germany"]}, "phone": "+494032036711", "display_phone": "+49 40 32036711", "distance": 4445.636189504769}, {"id": "VYiOF0mjK_FuOVMWxSs-Ag", "alias": "fidelio-hamburg-2", "name": "Fidelio", "image_url": "https://s3-media2.fl.yelpcdn.com/bphoto/pKzIFFExzuRnpFGPCDJrUQ/o.jpg", "is_closed": false, "url": "https://www.yelp.com/biz/fidelio-hamburg-2?adjust_creative=hBJOknVQJ58S5goQyjmwRw&utm_campaign=yelp_api_v3&utm_medium=api_v3_business_search&utm_source=hBJOknVQJ58S5goQyjmwRw", "review_count": 29, "categories": [{"alias": "international", "title": "International"}], "rating": 3.5, "coordinates": {"latitude": 53.488404, "longitude": 10.2135165}, "transactions": [], "price": "\u20ac\u20ac", "location": {"address1": "Bergedorfer Schlo\u00dfstr. 15", "address2": "", "address3": "", "city": "Hamburg", "zip_code": "21029", "country": "DE", "state": "HH", "display_address": ["Bergedorfer Schlo\u00dfstr. 15", "21029 Hamburg", "Germany"]}, "phone": "+494072008855", "display_phone": "+49 40 72008855", "distance": 4737.714557395592}, {"id": "5F6SisQK8b14kzBENh1xaA", "alias": "spieker-croqueladen-hamburg-2", "name": "Spieker Croqueladen", "image_url": "https://s3-media4.fl.yelpcdn.com/bphoto/6kkPOnyHS4NJl0XMe-g8XQ/o.jpg", "is_closed": false, "url": "https://www.yelp.com/biz/spieker-croqueladen-hamburg-2?adjust_creative=hBJOknVQJ58S5goQyjmwRw&utm_campaign=yelp_api_v3&utm_medium=api_v3_business_search&utm_source=hBJOknVQJ58S5goQyjmwRw", "review_count": 5, "categories": [{"alias": "sandwiches", "title": "Sandwiches"}, {"alias": "french", "title": "French"}], "rating": 4.5, "coordinates": {"latitude": 53.404, "longitude": 10.1856}, "transactions": [], "price": "\u20ac", "location": {"address1": "Kirchenheerweg 168", "address2": null, "address3": null, "city": "Hamburg", "zip_code": "21037", "country": "DE", "state": "HH", "display_address": ["Kirchenheerweg 168", "21037 Hamburg", "Germany"]}, "phone": "+49407230371", "display_phone": "+49 40 7230371", "distance": 4874.227969322673}, {"id": "QvEg8ddyF1ZbpZ-q1YxnwA", "alias": "asia-center-hamburg", "name": "Asia Center", "image_url": "", "is_closed": false, "url": "https://www.yelp.com/biz/asia-center-hamburg?adjust_creative=hBJOknVQJ58S5goQyjmwRw&utm_campaign=yelp_api_v3&utm_medium=api_v3_business_search&utm_source=hBJOknVQJ58S5goQyjmwRw", "review_count": 1, "categories": [{"alias": "fooddeliveryservices", "title": "Food Delivery Services"}, {"alias": "panasian", "title": "Pan Asian"}], "rating": 5.0, "coordinates": {"latitude": 53.4803637665279, "longitude": 10.1983971129925}, "transactions": [], "location": {"address1": "Randersweide 2 a", "address2": "", "address3": "", "city": "Hamburg", "zip_code": "21035", "country": "DE", "state": "HH", "display_address": ["Randersweide 2 a", "21035 Hamburg", "Germany"]}, "phone": "+4949407397395", "display_phone": "+49 4940 7397395", "distance": 3861.8405686975316}, {"id": "NH8UdkeMrq2YFSQLMSEruQ", "alias": "hof-eggers-hamburg-3", "name": "Hof Eggers", "image_url": "https://s3-media4.fl.yelpcdn.com/bphoto/jfzfR1d-xTAeFe5dn9hlAg/o.jpg", "is_closed": false, "url": "https://www.yelp.com/biz/hof-eggers-hamburg-3?adjust_creative=hBJOknVQJ58S5goQyjmwRw&utm_campaign=yelp_api_v3&utm_medium=api_v3_business_search&utm_source=hBJOknVQJ58S5goQyjmwRw", "review_count": 5, "categories": [{"alias": "cafes", "title": "Cafes"}, {"alias": "attractionfarms", "title": "Attraction Farms"}], "rating": 5.0, "coordinates": {"latitude": 53.4106, "longitude": 10.21967}, "transactions": [], "price": "\u20ac", "location": {"address1": "Kirchwerder M\u00fchlendamm 5", "address2": null, "address3": null, "city": "Hamburg", "zip_code": "21037", "country": "DE", "state": "HH", "display_address": ["Kirchwerder M\u00fchlendamm 5", "21037 Hamburg", "Germany"]}, "phone": "+494072377385", "display_phone": "+49 40 72377385", "distance": 4027.462598204697}, {"id": "XguDzRJ2azu46Kze_kRgCA", "alias": "taverna-corfu-hamburg-2", "name": "Taverna Corfu", "image_url": "https://s3-media2.fl.yelpcdn.com/bphoto/YDAiBOH8-f7CBqW1LNpJ9w/o.jpg", "is_closed": false, "url": "https://www.yelp.com/biz/taverna-corfu-hamburg-2?adjust_creative=hBJOknVQJ58S5goQyjmwRw&utm_campaign=yelp_api_v3&utm_medium=api_v3_business_search&utm_source=hBJOknVQJ58S5goQyjmwRw", "review_count": 8, "categories": [{"alias": "greek", "title": "Greek"}], "rating": 4.0, "coordinates": {"latitude": 53.4857, "longitude": 10.2178}, "transactions": [], "price": "\u20ac\u20ac", "location": {"address1": "Am Brink 14", "address2": null, "address3": null, "city": "Hamburg", "zip_code": "21029", "country": "DE", "state": "HH", "display_address": ["Am Brink 14", "21029 Hamburg", "Germany"]}, "phone": "+49407214342", "display_phone": "+49 40 7214342", "distance": 4476.115424469506}, {"id": "f5g2ILmgueS9e83nQ4N77g", "alias": "hhanse-grill-hamburg", "name": "HHanse Grill", "image_url": "https://s3-media3.fl.yelpcdn.com/bphoto/vN7DJ9lHxchQ2eWtCtWHKQ/o.jpg", "is_closed": false, "url": "https://www.yelp.com/biz/hhanse-grill-hamburg?adjust_creative=hBJOknVQJ58S5goQyjmwRw&utm_campaign=yelp_api_v3&utm_medium=api_v3_business_search&utm_source=hBJOknVQJ58S5goQyjmwRw", "review_count": 18, "categories": [{"alias": "hotdogs", "title": "Fast Food"}], "rating": 4.0, "coordinates": {"latitude": 53.48883, "longitude": 10.20283}, "transactions": [], "price": "\u20ac", "location": {"address1": "Kurt-A.-K\u00f6rber-Chaussee 3", "address2": "", "address3": "", "city": "Hamburg", "zip_code": "21033", "country": "DE", "state": "HH", "display_address": ["Kurt-A.-K\u00f6rber-Chaussee 3", "21033 Hamburg", "Germany"]}, "phone": "+494060174990", "display_phone": "+49 40 60174990", "distance": 4765.2898824858285}, {"id": "-ihNFjY9pJ247MVW51LvEQ", "alias": "sushi-f\u00fcr-hamburg-hamburg", "name": "Sushi f\u00fcr Hamburg", "image_url": "https://s3-media2.fl.yelpcdn.com/bphoto/TIW2Y3kO9P52-2lQFrCqtA/o.jpg", "is_closed": false, "url": "https://www.yelp.com/biz/sushi-f%C3%BCr-hamburg-hamburg?adjust_creative=hBJOknVQJ58S5goQyjmwRw&utm_campaign=yelp_api_v3&utm_medium=api_v3_business_search&utm_source=hBJOknVQJ58S5goQyjmwRw", "review_count": 5, "categories": [{"alias": "sushi", "title": "Sushi Bars"}, {"alias": "buffets", "title": "Buffets"}], "rating": 4.5, "coordinates": {"latitude": 53.48534, "longitude": 10.19983}, "transactions": [], "price": "\u20ac\u20ac", "location": {"address1": "Am G\u00fcterbahnhof 8", "address2": "", "address3": "", "city": "Hamburg", "zip_code": "21035", "country": "DE", "state": "HH", "display_address": ["Am G\u00fcterbahnhof 8", "21035 Hamburg", "Germany"]}, "phone": "+494072545474", "display_phone": "+49 40 72545474", "distance": 4403.390114889068}, {"id": "5ofzRX3nd1gxx9e9z7MASw", "alias": "pizza-max-hamburg-9", "name": "Pizza Max", "image_url": "https://s3-media3.fl.yelpcdn.com/bphoto/5laqwogK0AddypFaUxxNOg/o.jpg", "is_closed": false, "url": "https://www.yelp.com/biz/pizza-max-hamburg-9?adjust_creative=hBJOknVQJ58S5goQyjmwRw&utm_campaign=yelp_api_v3&utm_medium=api_v3_business_search&utm_source=hBJOknVQJ58S5goQyjmwRw", "review_count": 5, "categories": [{"alias": "pizza", "title": "Pizza"}], "rating": 3.5, "coordinates": {"latitude": 53.4871, "longitude": 10.2123}, "transactions": [], "price": "\u20ac\u20ac", "location": {"address1": "Bergedorfer Str. 127", "address2": null, "address3": null, "city": "Hamburg", "zip_code": "21029", "country": "DE", "state": "HH", "display_address": ["Bergedorfer Str. 127", "21029 Hamburg", "Germany"]}, "phone": "+4940720044444", "display_phone": "+49 40 720044444", "distance": 4586.210279537898}, {"id": "HyAhvvMP0iVtRYjm6VWyGA", "alias": "schweinske-hamburg-27", "name": "Schweinske", "image_url": "https://s3-media2.fl.yelpcdn.com/bphoto/wWa5iaJObE_DxT8ohqNowA/o.jpg", "is_closed": false, "url": "https://www.yelp.com/biz/schweinske-hamburg-27?adjust_creative=hBJOknVQJ58S5goQyjmwRw&utm_campaign=yelp_api_v3&utm_medium=api_v3_business_search&utm_source=hBJOknVQJ58S5goQyjmwRw", "review_count": 42, "categories": [{"alias": "german", "title": "German"}], "rating": 3.0, "coordinates": {"latitude": 53.48747, "longitude": 10.2099499}, "transactions": [], "price": "\u20ac\u20ac", "location": {"address1": "Bergedorfer Str. 112", "address2": null, "address3": null, "city": "Hamburg", "zip_code": "21029", "country": "DE", "state": "HH", "display_address": ["Bergedorfer Str. 112", "21029 Hamburg", "Germany"]}, "phone": "+494079685768", "display_phone": "+49 40 79685768", "distance": 4615.267650447036}, {"id": "XUkBWdxfYvIQ9J3Dq5BtIw", "alias": "lavastein-hamburg", "name": "Lavastein", "image_url": "https://s3-media3.fl.yelpcdn.com/bphoto/3qT31aOkNq5JDpMbc96mng/o.jpg", "is_closed": false, "url": "https://www.yelp.com/biz/lavastein-hamburg?adjust_creative=hBJOknVQJ58S5goQyjmwRw&utm_campaign=yelp_api_v3&utm_medium=api_v3_business_search&utm_source=hBJOknVQJ58S5goQyjmwRw", "review_count": 42, "categories": [{"alias": "international", "title": "International"}, {"alias": "german", "title": "German"}], "rating": 3.0, "coordinates": {"latitude": 53.48894, "longitude": 10.20833}, "transactions": [], "price": "\u20ac\u20ac", "location": {"address1": "Serrahnstr. 3 - 5", "address2": null, "address3": null, "city": "Hamburg", "zip_code": "21029", "country": "DE", "state": "HH", "display_address": ["Serrahnstr. 3 - 5", "21029 Hamburg", "Germany"]}, "phone": "+49407212233", "display_phone": "+49 40 7212233", "distance": 4772.132508499786}, {"id": "ipf3737p-Jpij5seiTyztg", "alias": "november-hamburg", "name": "November", "image_url": "https://s3-media1.fl.yelpcdn.com/bphoto/Ea5h-2cr_6mpuwtUwtMqQg/o.jpg", "is_closed": false, "url": "https://www.yelp.com/biz/november-hamburg?adjust_creative=hBJOknVQJ58S5goQyjmwRw&utm_campaign=yelp_api_v3&utm_medium=api_v3_business_search&utm_source=hBJOknVQJ58S5goQyjmwRw", "review_count": 50, "categories": [{"alias": "german", "title": "German"}, {"alias": "cafes", "title": "Cafes"}, {"alias": "coffee", "title": "Coffee & Tea"}], "rating": 3.0, "coordinates": {"latitude": 53.48706, "longitude": 10.2119}, "transactions": [], "price": "\u20ac\u20ac", "location": {"address1": "Bergedorfer Str. 125", "address2": null, "address3": null, "city": "Hamburg", "zip_code": "21029", "country": "DE", "state": "HH", "display_address": ["Bergedorfer Str. 125", "21029 Hamburg", "Germany"]}, "phone": "+494073937937", "display_phone": "+49 40 73937937", "distance": 4579.64344249471}, {"id": "nuC2B4JHpAGoRMq5FUCeRw", "alias": "hikari-hamburg", "name": "Hikari", "image_url": "https://s3-media2.fl.yelpcdn.com/bphoto/LY2aW4wS7FBIID2ZTBa6ig/o.jpg", "is_closed": false, "url": "https://www.yelp.com/biz/hikari-hamburg?adjust_creative=hBJOknVQJ58S5goQyjmwRw&utm_campaign=yelp_api_v3&utm_medium=api_v3_business_search&utm_source=hBJOknVQJ58S5goQyjmwRw", "review_count": 1, "categories": [{"alias": "panasian", "title": "Pan Asian"}], "rating": 3.0, "coordinates": {"latitude": 53.48893, "longitude": 10.20687}, "transactions": [], "price": "\u20ac\u20ac", "location": {"address1": "Weidenbaumsweg 21", "address2": "", "address3": "", "city": "Hamburg", "zip_code": "21029", "country": "DE", "state": "HH", "display_address": ["Weidenbaumsweg 21", "21029 Hamburg", "Germany"]}, "phone": "", "display_phone": "", "distance": 4732.288809879886}, {"id": "DEm3YYWieo1IwwnNsCMWQw", "alias": "la-puglia-hamburg", "name": "La Puglia", "image_url": "https://s3-media1.fl.yelpcdn.com/bphoto/ivRSgTjT3Jw2OWOygwZdTQ/o.jpg", "is_closed": false, "url": "https://www.yelp.com/biz/la-puglia-hamburg?adjust_creative=hBJOknVQJ58S5goQyjmwRw&utm_campaign=yelp_api_v3&utm_medium=api_v3_business_search&utm_source=hBJOknVQJ58S5goQyjmwRw", "review_count": 17, "categories": [{"alias": "italian", "title": "Italian"}], "rating": 3.0, "coordinates": {"latitude": 53.4885, "longitude": 10.2115}, "transactions": [], "price": "\u20ac\u20ac\u20ac", "location": {"address1": "Sachsentor 6", "address2": null, "address3": null, "city": "Hamburg", "zip_code": "21029", "country": "DE", "state": "HH", "display_address": ["Sachsentor 6", "21029 Hamburg", "Germany"]}, "phone": "+49407216895", "display_phone": "+49 40 7216895", "distance": 4737.566028724923}, {"id": "1mSvHvNrgw8QDONThwxEMQ", "alias": "jim-block-hamburg-9", "name": "Jim Block", "image_url": "https://s3-media3.fl.yelpcdn.com/bphoto/ohfrPAjAgTxff6V9arv1MA/o.jpg", "is_closed": false, "url": "https://www.yelp.com/biz/jim-block-hamburg-9?adjust_creative=hBJOknVQJ58S5goQyjmwRw&utm_campaign=yelp_api_v3&utm_medium=api_v3_business_search&utm_source=hBJOknVQJ58S5goQyjmwRw", "review_count": 98, "categories": [{"alias": "hotdogs", "title": "Fast Food"}, {"alias": "burgers", "title": "Burgers"}], "rating": 4.5, "coordinates": {"latitude": 53.4885266, "longitude": 10.2113464}, "transactions": [], "price": "\u20ac\u20ac", "location": {"address1": "Sachsentor 2", "address2": "", "address3": "", "city": "Hamburg", "zip_code": "21029", "country": "DE", "state": "HH", "display_address": ["Sachsentor 2", "21029 Hamburg", "Germany"]}, "phone": "+49407212425", "display_phone": "+49 40 7212425", "distance": 4739.8500282207815}, {"id": "2owx8XU_Kh6NQYkWDCOHfA", "alias": "ristorante-mamma-mia-hamburg-5", "name": "Ristorante Mamma Mia", "image_url": "https://s3-media3.fl.yelpcdn.com/bphoto/64VOXDsDgkuWJbdgQROXFw/o.jpg", "is_closed": false, "url": "https://www.yelp.com/biz/ristorante-mamma-mia-hamburg-5?adjust_creative=hBJOknVQJ58S5goQyjmwRw&utm_campaign=yelp_api_v3&utm_medium=api_v3_business_search&utm_source=hBJOknVQJ58S5goQyjmwRw", "review_count": 2, "categories": [{"alias": "italian", "title": "Italian"}], "rating": 2.5, "coordinates": {"latitude": 53.4852198, "longitude": 10.1994549}, "transactions": [], "price": "\u20ac\u20ac\u20ac", "location": {"address1": "Am G\u00fcterbahnhof 17 e", "address2": "", "address3": "", "city": "Hamburg", "zip_code": "21035", "country": "DE", "state": "HH", "display_address": ["Am G\u00fcterbahnhof 17 e", "21035 Hamburg", "Germany"]}, "phone": "+494072697898", "display_phone": "+49 40 72697898", "distance": 4388.721437268001}, {"id": "UsN7oty__ct1qIZLJ2SSkQ", "alias": "caf\u00e9-la-petite-rue-hamburg", "name": "Caf\u00e9 La Petite Rue", "image_url": "https://s3-media1.fl.yelpcdn.com/bphoto/2r1JCwoBnwdnpjiKD-zpjQ/o.jpg", "is_closed": false, "url": "https://www.yelp.com/biz/caf%C3%A9-la-petite-rue-hamburg?adjust_creative=hBJOknVQJ58S5goQyjmwRw&utm_campaign=yelp_api_v3&utm_medium=api_v3_business_search&utm_source=hBJOknVQJ58S5goQyjmwRw", "review_count": 5, "categories": [{"alias": "cafes", "title": "Cafes"}], "rating": 4.0, "coordinates": {"latitude": 53.488, "longitude": 10.213}, "transactions": [], "price": "\u20ac\u20ac\u20ac", "location": {"address1": "Sachsentor 29", "address2": null, "address3": null, "city": "Hamburg", "zip_code": "21029", "country": "DE", "state": "HH", "display_address": ["Sachsentor 29", "21029 Hamburg", "Germany"]}, "phone": "+494098769802", "display_phone": "+49 40 98769802", "distance": 4689.84471968279}, {"id": "YvxXpdzIc8JEAs5LrzePDQ", "alias": "ma-maison-hamburg-2", "name": "Ma Maison", "image_url": "https://s3-media4.fl.yelpcdn.com/bphoto/Rcs6oRdiwbAxRI6REbTPvw/o.jpg", "is_closed": false, "url": "https://www.yelp.com/biz/ma-maison-hamburg-2?adjust_creative=hBJOknVQJ58S5goQyjmwRw&utm_campaign=yelp_api_v3&utm_medium=api_v3_business_search&utm_source=hBJOknVQJ58S5goQyjmwRw", "review_count": 8, "categories": [{"alias": "cafes", "title": "Cafes"}, {"alias": "tapas", "title": "Tapas Bars"}], "rating": 3.0, "coordinates": {"latitude": 53.4873, "longitude": 10.21339}, "transactions": [], "price": "\u20ac\u20ac", "location": {"address1": "Hintern Graben 21", "address2": "", "address3": "", "city": "Hamburg", "zip_code": "21029", "country": "DE", "state": "HH", "display_address": ["Hintern Graben 21", "21029 Hamburg", "Germany"]}, "phone": "+494036911990", "display_phone": "+49 40 36911990", "distance": 4617.67388459494}, {"id": "QOgAHBJ-mrD0tRC3rLOEvg", "alias": "mckumpir-hamburg", "name": "McKumpir", "image_url": "https://s3-media1.fl.yelpcdn.com/bphoto/SREBizanG3oyB-ieR9shXA/o.jpg", "is_closed": false, "url": "https://www.yelp.com/biz/mckumpir-hamburg?adjust_creative=hBJOknVQJ58S5goQyjmwRw&utm_campaign=yelp_api_v3&utm_medium=api_v3_business_search&utm_source=hBJOknVQJ58S5goQyjmwRw", "review_count": 1, "categories": [{"alias": "potatoes", "title": "Potatoes"}], "rating": 5.0, "coordinates": {"latitude": 53.4868849099982, "longitude": 10.2133054286242}, "transactions": [], "location": {"address1": "Bergedorfer Str. 133", "address2": "", "address3": "", "city": "Hamburg", "zip_code": "21029", "country": "DE", "state": "HH", "display_address": ["Bergedorfer Str. 133", "21029 Hamburg", "Germany"]}, "phone": "+494055898666", "display_phone": "+49 40 55898666", "distance": 4568.237353022738}, {"id": "po87ojNd_qixKGwCCQboLQ", "alias": "p\u00e2tisserie-andreas-hamburg", "name": "P\u00e2tisserie Andreas", "image_url": "https://s3-media4.fl.yelpcdn.com/bphoto/r3A4KFJ9nm1uGq4g7zu0gA/o.jpg", "is_closed": false, "url": "https://www.yelp.com/biz/p%C3%A2tisserie-andreas-hamburg?adjust_creative=hBJOknVQJ58S5goQyjmwRw&utm_campaign=yelp_api_v3&utm_medium=api_v3_business_search&utm_source=hBJOknVQJ58S5goQyjmwRw", "review_count": 2, "categories": [{"alias": "cafes", "title": "Cafes"}, {"alias": "cakeshop", "title": "Patisserie/Cake Shop"}, {"alias": "icecream", "title": "Ice Cream & Frozen Yogurt"}], "rating": 4.0, "coordinates": {"latitude": 53.488492, "longitude": 10.2103728794484}, "transactions": [], "price": "\u20ac\u20ac", "location": {"address1": "Kupferhof 1", "address2": "", "address3": null, "city": "Hamburg", "zip_code": "21029", "country": "DE", "state": "HH", "display_address": ["Kupferhof 1", "21029 Hamburg", "Germany"]}, "phone": "+494072378106", "display_phone": "+49 40 72378106", "distance": 4732.284445925791}, {"id": "nXrodL-98LfldQ-dJfmxdw", "alias": "block-house-hamburg-11", "name": "Block House", "image_url": "https://s3-media4.fl.yelpcdn.com/bphoto/qAJuODl1msQqhJSY8wya0g/o.jpg", "is_closed": false, "url": "https://www.yelp.com/biz/block-house-hamburg-11?adjust_creative=hBJOknVQJ58S5goQyjmwRw&utm_campaign=yelp_api_v3&utm_medium=api_v3_business_search&utm_source=hBJOknVQJ58S5goQyjmwRw", "review_count": 75, "categories": [{"alias": "steak", "title": "Steakhouses"}], "rating": 4.0, "coordinates": {"latitude": 53.4885243515164, "longitude": 10.2110642107037}, "transactions": [], "price": "\u20ac\u20ac", "location": {"address1": "Sachsentor 2", "address2": "", "address3": "", "city": "Hamburg", "zip_code": "21029", "country": "DE", "state": "HH", "display_address": ["Sachsentor 2", "21029 Hamburg", "Germany"]}, "phone": "+49407217171", "display_phone": "+49 40 7217171", "distance": 4738.43134068119}, {"id": "e7ddDbWUKeYiuy4cGDTUdw", "alias": "pane-und-vino-hamburg", "name": "Pane & Vino", "image_url": "https://s3-media3.fl.yelpcdn.com/bphoto/u2oz9FrAD1xCcJWmZIlAPA/o.jpg", "is_closed": false, "url": "https://www.yelp.com/biz/pane-und-vino-hamburg?adjust_creative=hBJOknVQJ58S5goQyjmwRw&utm_campaign=yelp_api_v3&utm_medium=api_v3_business_search&utm_source=hBJOknVQJ58S5goQyjmwRw", "review_count": 5, "categories": [{"alias": "divebars", "title": "Dive Bars"}, {"alias": "italian", "title": "Italian"}], "rating": 3.5, "coordinates": {"latitude": 53.4882539, "longitude": 10.2094553}, "transactions": [], "price": "\u20ac\u20ac", "location": {"address1": "Kupferhof 4", "address2": "", "address3": "EG", "city": "Hamburg", "zip_code": "21029", "country": "DE", "state": "HH", "display_address": ["Kupferhof 4", "EG", "21029 Hamburg", "Germany"]}, "phone": "+49407244138", "display_phone": "+49 40 7244138", "distance": 4703.117414706723}, {"id": "5ZD5tiAehHozj6CNAa_57g", "alias": "china-und-thai-lieferservice-hamburg", "name": "China & Thai Lieferservice", "image_url": "https://s3-media2.fl.yelpcdn.com/bphoto/gkXjoR3DDIyBKWvq2YJpOg/o.jpg", "is_closed": false, "url": "https://www.yelp.com/biz/china-und-thai-lieferservice-hamburg?adjust_creative=hBJOknVQJ58S5goQyjmwRw&utm_campaign=yelp_api_v3&utm_medium=api_v3_business_search&utm_source=hBJOknVQJ58S5goQyjmwRw", "review_count": 6, "categories": [{"alias": "panasian", "title": "Pan Asian"}], "rating": 3.5, "coordinates": {"latitude": 53.4881508, "longitude": 10.1970707}, "transactions": [], "price": "\u20ac\u20ac", "location": {"address1": "Kurt-A.-K\u00f6rber-Chaussee 39 d", "address2": null, "address3": null, "city": "Hamburg", "zip_code": "21033", "country": "DE", "state": "HH", "display_address": ["Kurt-A.-K\u00f6rber-Chaussee 39 d", "21033 Hamburg", "Germany"]}, "phone": "", "display_phone": "", "distance": 4731.519834416739}, {"id": "TttYOxgubZqsIApBXps3xw", "alias": "belami-hamburg", "name": "Belami", "image_url": "https://s3-media3.fl.yelpcdn.com/bphoto/8FOHa1w4wwLiUiW8QzdIdQ/o.jpg", "is_closed": false, "url": "https://www.yelp.com/biz/belami-hamburg?adjust_creative=hBJOknVQJ58S5goQyjmwRw&utm_campaign=yelp_api_v3&utm_medium=api_v3_business_search&utm_source=hBJOknVQJ58S5goQyjmwRw", "review_count": 15, "categories": [{"alias": "bars", "title": "Bars"}, {"alias": "beergarden", "title": "Beer Garden"}, {"alias": "german", "title": "German"}], "rating": 3.0, "coordinates": {"latitude": 53.4847, "longitude": 10.2187}, "transactions": [], "price": "\u20ac\u20ac", "location": {"address1": "Holtenklinker Str. 26", "address2": null, "address3": null, "city": "Hamburg", "zip_code": "21029", "country": "DE", "state": "HH", "display_address": ["Holtenklinker Str. 26", "21029 Hamburg", "Germany"]}, "phone": "+494072699173", "display_phone": "+49 40 72699173", "distance": 4376.859480811725}, {"id": "XF9HfsuWnwXbZhb73aoGXw", "alias": "nordsee-hamburg-13", "name": "Nordsee", "image_url": "https://s3-media3.fl.yelpcdn.com/bphoto/9sQl-z4MHyvvEYe8pf1q-g/o.jpg", "is_closed": false, "url": "https://www.yelp.com/biz/nordsee-hamburg-13?adjust_creative=hBJOknVQJ58S5goQyjmwRw&utm_campaign=yelp_api_v3&utm_medium=api_v3_business_search&utm_source=hBJOknVQJ58S5goQyjmwRw", "review_count": 4, "categories": [{"alias": "fischbroetchen", "title": "Fischbroetchen"}, {"alias": "seafood", "title": "Seafood"}], "rating": 3.0, "coordinates": {"latitude": 53.4885394888607, "longitude": 10.2072608079345}, "transactions": [], "price": "\u20ac\u20ac", "location": {"address1": "Weidenbaumsweg 21", "address2": "", "address3": null, "city": "Hamburg", "zip_code": "21029", "country": "DE", "state": "HH", "display_address": ["Weidenbaumsweg 21", "21029 Hamburg", "Germany"]}, "phone": "+494072004985", "display_phone": "+49 40 72004985", "distance": 4731.530376418854}, {"id": "9S37wxwpvOG8JMS2LNEH3A", "alias": "mcdonalds-hamburg-25", "name": "McDonald's", "image_url": "https://s3-media3.fl.yelpcdn.com/bphoto/L2POYkhCXoxfOOVpE-by7g/o.jpg", "is_closed": false, "url": "https://www.yelp.com/biz/mcdonalds-hamburg-25?adjust_creative=hBJOknVQJ58S5goQyjmwRw&utm_campaign=yelp_api_v3&utm_medium=api_v3_business_search&utm_source=hBJOknVQJ58S5goQyjmwRw", "review_count": 10, "categories": [{"alias": "hotdogs", "title": "Fast Food"}, {"alias": "burgers", "title": "Burgers"}], "rating": 2.5, "coordinates": {"latitude": 53.4806, "longitude": 10.2069}, "transactions": [], "price": "\u20ac\u20ac", "location": {"address1": "Lehfeld 2", "address2": null, "address3": null, "city": "Hamburg", "zip_code": "21029", "country": "DE", "state": "HH", "display_address": ["Lehfeld 2", "21029 Hamburg", "Germany"]}, "phone": "+49407217676", "display_phone": "+49 40 7217676", "distance": 3848.5846460969165}, {"id": "tGQv0AasqyralxGUsJIZqQ", "alias": "restaurant-ramada-hamburg", "name": "Restaurant Ramada", "image_url": "https://s3-media4.fl.yelpcdn.com/bphoto/-O_1gtKPX_JM93I6Y30oAA/o.jpg", "is_closed": false, "url": "https://www.yelp.com/biz/restaurant-ramada-hamburg?adjust_creative=hBJOknVQJ58S5goQyjmwRw&utm_campaign=yelp_api_v3&utm_medium=api_v3_business_search&utm_source=hBJOknVQJ58S5goQyjmwRw", "review_count": 2, "categories": [{"alias": "international", "title": "International"}, {"alias": "german", "title": "German"}], "rating": 3.0, "coordinates": {"latitude": 53.4865, "longitude": 10.2093}, "transactions": [], "location": {"address1": "Holzhude 2", "address2": null, "address3": null, "city": "Hamburg", "zip_code": "21029", "country": "DE", "state": "HH", "display_address": ["Holzhude 2", "21029 Hamburg", "Germany"]}, "phone": "+4940725950", "display_phone": "+49 40 725950", "distance": 4507.8428181988365}, {"id": "MjvA08ZvJZu0J29TPqUS-Q", "alias": "caf\u00e9-flop-hamburg-2", "name": "Caf\u00e9 Flop", "image_url": "", "is_closed": false, "url": "https://www.yelp.com/biz/caf%C3%A9-flop-hamburg-2?adjust_creative=hBJOknVQJ58S5goQyjmwRw&utm_campaign=yelp_api_v3&utm_medium=api_v3_business_search&utm_source=hBJOknVQJ58S5goQyjmwRw", "review_count": 2, "categories": [{"alias": "cafes", "title": "Cafes"}, {"alias": "vegan", "title": "Vegan"}], "rating": 3.5, "coordinates": {"latitude": 53.4872, "longitude": 10.2192}, "transactions": [], "price": "\u20ac", "location": {"address1": "Wentorfer Str. 26", "address2": null, "address3": null, "city": "Hamburg", "zip_code": "21029", "country": "DE", "state": "HH", "display_address": ["Wentorfer Str. 26", "21029 Hamburg", "Germany"]}, "phone": "", "display_phone": "", "distance": 4656.273102976111}, {"id": "Rrh0HV26K299ffOtiycYKw", "alias": "caf\u00e9-greco-hamburg-2", "name": "Caf\u00e9 Greco", "image_url": "https://s3-media2.fl.yelpcdn.com/bphoto/MQ6PZ8bsIdb3kDh4K578mQ/o.jpg", "is_closed": false, "url": "https://www.yelp.com/biz/caf%C3%A9-greco-hamburg-2?adjust_creative=hBJOknVQJ58S5goQyjmwRw&utm_campaign=yelp_api_v3&utm_medium=api_v3_business_search&utm_source=hBJOknVQJ58S5goQyjmwRw", "review_count": 26, "categories": [{"alias": "cafes", "title": "Cafes"}, {"alias": "coffee", "title": "Coffee & Tea"}], "rating": 3.0, "coordinates": {"latitude": 53.4888543, "longitude": 10.2115911}, "transactions": [], "price": "\u20ac\u20ac", "location": {"address1": "Bergedorfer Schlo\u00dfstr. 5", "address2": null, "address3": null, "city": "Hamburg", "zip_code": "21029", "country": "DE", "state": "HH", "display_address": ["Bergedorfer Schlo\u00dfstr. 5", "21029 Hamburg", "Germany"]}, "phone": "+49407247730", "display_phone": "+49 40 7247730", "distance": 4777.278040252104}, {"id": "DzijpgyXpN0nj83FU0wc_g", "alias": "schlemmershop-preuhs-hamburg", "name": "Schlemmershop Preuhs", "image_url": "", "is_closed": false, "url": "https://www.yelp.com/biz/schlemmershop-preuhs-hamburg?adjust_creative=hBJOknVQJ58S5goQyjmwRw&utm_campaign=yelp_api_v3&utm_medium=api_v3_business_search&utm_source=hBJOknVQJ58S5goQyjmwRw", "review_count": 1, "categories": [{"alias": "food", "title": "Food"}, {"alias": "delis", "title": "Delis"}], "rating": 5.0, "coordinates": {"latitude": 53.48803, "longitude": 10.20917}, "transactions": [], "location": {"address1": "Bergedorfer Str. 105", "address2": null, "address3": null, "city": "Hamburg", "zip_code": "21029", "country": "DE", "state": "HH", "display_address": ["Bergedorfer Str. 105", "21029 Hamburg", "Germany"]}, "phone": "+49407246603", "display_phone": "+49 40 7246603", "distance": 4751.824690542295}, {"id": "edje85kZBoKiccEv6Wo4mQ", "alias": "grill-shop-hamburg-2", "name": "Grill Shop", "image_url": "https://s3-media4.fl.yelpcdn.com/bphoto/ODHOBZBuD4fTiVATuCUGAA/o.jpg", "is_closed": false, "url": "https://www.yelp.com/biz/grill-shop-hamburg-2?adjust_creative=hBJOknVQJ58S5goQyjmwRw&utm_campaign=yelp_api_v3&utm_medium=api_v3_business_search&utm_source=hBJOknVQJ58S5goQyjmwRw", "review_count": 6, "categories": [{"alias": "currysausage", "title": "Curry Sausage"}, {"alias": "german", "title": "German"}], "rating": 4.5, "coordinates": {"latitude": 53.48713, "longitude": 10.21846}, "transactions": [], "price": "\u20ac\u20ac", "location": {"address1": "Wentorfer Str. 20", "address2": null, "address3": null, "city": "Hamburg", "zip_code": "21029", "country": "DE", "state": "HH", "display_address": ["Wentorfer Str. 20", "21029 Hamburg", "Germany"]}, "phone": "+49407247337", "display_phone": "+49 40 7247337", "distance": 4640.161617299519}, {"id": "HzyLYlgBFOHtKIWnc6QkfA", "alias": "frascati-grill-hamburg", "name": "Frascati Grill", "image_url": "https://s3-media4.fl.yelpcdn.com/bphoto/cZ5BVRDntqr5uho2d-bABw/o.jpg", "is_closed": false, "url": "https://www.yelp.com/biz/frascati-grill-hamburg?adjust_creative=hBJOknVQJ58S5goQyjmwRw&utm_campaign=yelp_api_v3&utm_medium=api_v3_business_search&utm_source=hBJOknVQJ58S5goQyjmwRw", "review_count": 3, "categories": [{"alias": "hotdogs", "title": "Fast Food"}], "rating": 3.5, "coordinates": {"latitude": 53.48198, "longitude": 10.20929}, "transactions": [], "price": "\u20ac\u20ac\u20ac", "location": {"address1": "Curslacker Neuer Deich 31", "address2": null, "address3": null, "city": "Hamburg", "zip_code": "21029", "country": "DE", "state": "HH", "display_address": ["Curslacker Neuer Deich 31", "21029 Hamburg", "Germany"]}, "phone": "+49407218324", "display_phone": "+49 40 7218324", "distance": 4005.61942468361}, {"id": "JayE4rK3kl3b6_gNXpqqQw", "alias": "bla-bla-gastst\u00e4tte-hamburg-2", "name": "Bla bla Gastst\u00e4tte", "image_url": "https://s3-media4.fl.yelpcdn.com/bphoto/ZAPXKJ0xunxGQhSXkkFZAw/o.jpg", "is_closed": false, "url": "https://www.yelp.com/biz/bla-bla-gastst%C3%A4tte-hamburg-2?adjust_creative=hBJOknVQJ58S5goQyjmwRw&utm_campaign=yelp_api_v3&utm_medium=api_v3_business_search&utm_source=hBJOknVQJ58S5goQyjmwRw", "review_count": 1, "categories": [{"alias": "german", "title": "German"}], "rating": 4.0, "coordinates": {"latitude": 53.48488, "longitude": 10.2184414}, "transactions": [], "price": "\u20ac", "location": {"address1": "Holtenklinker Str.22", "address2": "", "address3": "", "city": "Hamburg", "zip_code": "21029", "country": "DE", "state": "HH", "display_address": ["Holtenklinker Str.22", "21029 Hamburg", "Germany"]}, "phone": "+49407243714", "display_phone": "+49 40 7243714", "distance": 4393.490310890369}, {"id": "uFh86dusfDcIqUPZlAPWjA", "alias": "panos-grill-spezialit\u00e4ten-hamburg", "name": "Panos Grill Spezialit\u00e4ten", "image_url": "https://s3-media4.fl.yelpcdn.com/bphoto/R0pc3flO-9MYTnple4DP0Q/o.jpg", "is_closed": false, "url": "https://www.yelp.com/biz/panos-grill-spezialit%C3%A4ten-hamburg?adjust_creative=hBJOknVQJ58S5goQyjmwRw&utm_campaign=yelp_api_v3&utm_medium=api_v3_business_search&utm_source=hBJOknVQJ58S5goQyjmwRw", "review_count": 3, "categories": [{"alias": "hotdogs", "title": "Fast Food"}, {"alias": "greek", "title": "Greek"}], "rating": 2.5, "coordinates": {"latitude": 53.4887605, "longitude": 10.1948387}, "transactions": [], "price": "\u20ac\u20ac", "location": {"address1": "Kurt-A.-K\u00f6rber-Chaussee 53", "address2": null, "address3": null, "city": "Hamburg", "zip_code": "21033", "country": "DE", "state": "HH", "display_address": ["Kurt-A.-K\u00f6rber-Chaussee 53", "21033 Hamburg", "Germany"]}, "phone": "+494072541187", "display_phone": "+49 40 72541187", "distance": 4820.598876697877}, {"id": "-FGEmzXxd6vzetcdQNksdg", "alias": "taverna-dimi-hamburg", "name": "Taverna Dimi", "image_url": "https://s3-media2.fl.yelpcdn.com/bphoto/T6j4KRaz6NhKa49FCqLpmA/o.jpg", "is_closed": false, "url": "https://www.yelp.com/biz/taverna-dimi-hamburg?adjust_creative=hBJOknVQJ58S5goQyjmwRw&utm_campaign=yelp_api_v3&utm_medium=api_v3_business_search&utm_source=hBJOknVQJ58S5goQyjmwRw", "review_count": 1, "categories": [{"alias": "greek", "title": "Greek"}], "rating": 1.0, "coordinates": {"latitude": 53.48597, "longitude": 10.2134}, "transactions": [], "location": {"address1": "Neuer Weg 19", "address2": null, "address3": null, "city": "Hamburg", "zip_code": "21029", "country": "DE", "state": "HH", "display_address": ["Neuer Weg 19", "21029 Hamburg", "Germany"]}, "phone": "", "display_phone": "", "distance": 4481.832345862864}]