[{"id": "jIsBpmSeu-Ryp1uEQaGBAA", "alias": "norddeutsches-haus-hamburg", "name": "Norddeutsches Haus", "image_url": "https://s3-media1.fl.yelpcdn.com/bphoto/x0ilTs57gzucUrGmAB7y6w/o.jpg", "is_closed": false, "url": "https://www.yelp.com/biz/norddeutsches-haus-hamburg?adjust_creative=hBJOknVQJ58S5goQyjmwRw&utm_campaign=yelp_api_v3&utm_medium=api_v3_business_search&utm_source=hBJOknVQJ58S5goQyjmwRw", "review_count": 2, "categories": [{"alias": "german", "title": "German"}], "rating": 5.0, "coordinates": {"latitude": 53.4294, "longitude": 10.2917}, "transactions": [], "price": "\u20ac\u20ac", "location": {"address1": "Altengammer Elbdeich 42", "address2": null, "address3": null, "city": "Hamburg", "zip_code": "21039", "country": "DE", "state": "HH", "display_address": ["Altengammer Elbdeich 42", "21039 Hamburg", "Germany"]}, "phone": "+49407235248", "display_phone": "+49 40 7235248", "distance": 2417.1346692544375}, {"id": "oSS5B6u4qsV56NW_fXM8oA", "alias": "najis-mittelmeer-bahnhof-b\u00f6rnsen", "name": "Naji's Mittelmeer Bahnhof", "image_url": "https://s3-media4.fl.yelpcdn.com/bphoto/0g8ty0MCZOy8QBss3LMIrw/o.jpg", "is_closed": false, "url": "https://www.yelp.com/biz/najis-mittelmeer-bahnhof-b%C3%B6rnsen?adjust_creative=hBJOknVQJ58S5goQyjmwRw&utm_campaign=yelp_api_v3&utm_medium=api_v3_business_search&utm_source=hBJOknVQJ58S5goQyjmwRw", "review_count": 18, "categories": [{"alias": "mideastern", "title": "Middle Eastern"}, {"alias": "syrian", "title": "Syrian"}, {"alias": "oriental", "title": "Oriental"}], "rating": 4.5, "coordinates": {"latitude": 53.46908, "longitude": 10.27777}, "transactions": [], "price": "\u20ac\u20ac", "location": {"address1": "Lauenburger Landstr. 18a", "address2": null, "address3": null, "city": "B\u00f6rnsen", "zip_code": "21039", "country": "DE", "state": "SH", "display_address": ["Lauenburger Landstr. 18a", "21039 B\u00f6rnsen", "Germany"]}, "phone": "+49407204740", "display_phone": "+49 40 7204740", "distance": 2729.383847824662}, {"id": "dzb7aCiy9JldM3zR2LzaJg", "alias": "das-elbcaf\u00e9-drennhausen-drage", "name": "Das Elbcaf\u00e9", "image_url": "https://s3-media4.fl.yelpcdn.com/bphoto/e84ura7IQ2x-acwgZZ0LiQ/o.jpg", "is_closed": false, "url": "https://www.yelp.com/biz/das-elbcaf%C3%A9-drennhausen-drage?adjust_creative=hBJOknVQJ58S5goQyjmwRw&utm_campaign=yelp_api_v3&utm_medium=api_v3_business_search&utm_source=hBJOknVQJ58S5goQyjmwRw", "review_count": 2, "categories": [{"alias": "cafes", "title": "Cafes"}, {"alias": "coffee", "title": "Coffee & Tea"}], "rating": 4.5, "coordinates": {"latitude": 53.4157, "longitude": 10.262}, "transactions": [], "price": "\u20ac\u20ac", "location": {"address1": "Elbdeich 19", "address2": "", "address3": null, "city": "Drennhausen - Drage", "zip_code": "21423", "country": "DE", "state": "NI", "display_address": ["Elbdeich 19", "21423 Drennhausen - Drage", "Germany"]}, "phone": "+494177229", "display_phone": "+49 4177 229", "distance": 3314.8170482492487}, {"id": "2_b0ipYNKYppOxzHpbyY2w", "alias": "zur-elbaussicht-drage", "name": "Zur Elbaussicht", "image_url": "https://s3-media3.fl.yelpcdn.com/bphoto/9Hl243R9u7Q_lbP-mkna1Q/o.jpg", "is_closed": false, "url": "https://www.yelp.com/biz/zur-elbaussicht-drage?adjust_creative=hBJOknVQJ58S5goQyjmwRw&utm_campaign=yelp_api_v3&utm_medium=api_v3_business_search&utm_source=hBJOknVQJ58S5goQyjmwRw", "review_count": 1, "categories": [{"alias": "restaurants", "title": "Restaurants"}], "rating": 2.0, "coordinates": {"latitude": 53.4207, "longitude": 10.2875}, "transactions": [], "price": "\u20ac\u20ac", "location": {"address1": "Elbstorfer Str. 59", "address2": null, "address3": null, "city": "Drage", "zip_code": "21423", "country": "DE", "state": "NI", "display_address": ["Elbstorfer Str. 59", "21423 Drage", "Germany"]}, "phone": "+494177711200", "display_phone": "+49 4177 711200", "distance": 3062.392002731889}, {"id": "zyNzT7I7tYdCjmDSiILDBA", "alias": "thai-asia-wok-wentorf-bei-hamburg", "name": "Thai Asia Wok", "image_url": "https://s3-media4.fl.yelpcdn.com/bphoto/eHVf5_O6xDN6kEx1zMB77Q/o.jpg", "is_closed": false, "url": "https://www.yelp.com/biz/thai-asia-wok-wentorf-bei-hamburg?adjust_creative=hBJOknVQJ58S5goQyjmwRw&utm_campaign=yelp_api_v3&utm_medium=api_v3_business_search&utm_source=hBJOknVQJ58S5goQyjmwRw", "review_count": 2, "categories": [{"alias": "thai", "title": "Thai"}], "rating": 4.5, "coordinates": {"latitude": 53.487743, "longitude": 10.26275}, "transactions": [], "location": {"address1": "S\u00fcdring 46", "address2": "", "address3": "", "city": "Wentorf bei Hamburg", "zip_code": "21465", "country": "DE", "state": "SH", "display_address": ["S\u00fcdring 46", "21465 Wentorf bei Hamburg", "Germany"]}, "phone": "+494071189181", "display_phone": "+49 40 71189181", "distance": 4717.139808102116}, {"id": "u3ub5f0MS4qY67Q8XF9ZoA", "alias": "sodemanns-fisch-kutter-nr-1-hamburg", "name": "Sodemann's Fisch-Kutter Nr. 1", "image_url": "https://s3-media3.fl.yelpcdn.com/bphoto/BlysP6fVPaL0eEjKvEbByw/o.jpg", "is_closed": false, "url": "https://www.yelp.com/biz/sodemanns-fisch-kutter-nr-1-hamburg?adjust_creative=hBJOknVQJ58S5goQyjmwRw&utm_campaign=yelp_api_v3&utm_medium=api_v3_business_search&utm_source=hBJOknVQJ58S5goQyjmwRw", "review_count": 3, "categories": [{"alias": "foodtrucks", "title": "Food Trucks"}, {"alias": "fischbroetchen", "title": "Fischbroetchen"}], "rating": 5.0, "coordinates": {"latitude": 53.5537490844727, "longitude": 9.99182987213135}, "transactions": [], "price": "\u20ac\u20ac", "location": {"address1": "", "address2": null, "address3": "", "city": "Hamburg", "zip_code": "", "country": "DE", "state": "HH", "display_address": ["Hamburg", "Germany"]}, "phone": "+491773606663", "display_phone": "+49 177 3606663", "distance": 21560.613686620534}, {"id": "vnrTvNw0oatmQ46Bu7XMZA", "alias": "cafe-raum-und-zeit-hamburg", "name": "Cafe Raum & Zeit", "image_url": "https://s3-media4.fl.yelpcdn.com/bphoto/5Xm4YiD6IsG0zZVNIrS2aQ/o.jpg", "is_closed": false, "url": "https://www.yelp.com/biz/cafe-raum-und-zeit-hamburg?adjust_creative=hBJOknVQJ58S5goQyjmwRw&utm_campaign=yelp_api_v3&utm_medium=api_v3_business_search&utm_source=hBJOknVQJ58S5goQyjmwRw", "review_count": 10, "categories": [{"alias": "cafes", "title": "Cafes"}], "rating": 4.0, "coordinates": {"latitude": 53.4809, "longitude": 10.2417}, "transactions": [], "price": "\u20ac\u20ac", "location": {"address1": "August-Bebel-Str. 196", "address2": "", "address3": null, "city": "Hamburg", "zip_code": "21029", "country": "DE", "state": "HH", "display_address": ["August-Bebel-Str. 196", "21029 Hamburg", "Germany"]}, "phone": "+494022649959", "display_phone": "+49 40 22649959", "distance": 4289.875646323606}, {"id": "g9ylvGdAVIch-Y52TLGCww", "alias": "zur-sternwarte-wentorf-bei-hamburg", "name": "Zur Sternwarte", "image_url": "", "is_closed": false, "url": "https://www.yelp.com/biz/zur-sternwarte-wentorf-bei-hamburg?adjust_creative=hBJOknVQJ58S5goQyjmwRw&utm_campaign=yelp_api_v3&utm_medium=api_v3_business_search&utm_source=hBJOknVQJ58S5goQyjmwRw", "review_count": 6, "categories": [{"alias": "international", "title": "International"}, {"alias": "italian", "title": "Italian"}, {"alias": "cakeshop", "title": "Patisserie/Cake Shop"}], "rating": 3.0, "coordinates": {"latitude": 53.481107, "longitude": 10.2438929}, "transactions": [], "price": "\u20ac\u20ac", "location": {"address1": "August-Bebel-Str. 201", "address2": null, "address3": null, "city": "Wentorf bei Hamburg", "zip_code": "21029", "country": "DE", "state": "HH", "display_address": ["August-Bebel-Str. 201", "21029 Wentorf bei Hamburg", "Germany"]}, "phone": "+49407205669", "display_phone": "+49 40 7205669", "distance": 4256.936304157961}]