[{"id": "ZnMn7l4omxFSPvl81-FOUQ", "alias": "asien-perle-neu-wulmstorf", "name": "Asien Perle", "image_url": "https://s3-media2.fl.yelpcdn.com/bphoto/JvgUlVoeIuPJf1UQFYE49w/o.jpg", "is_closed": false, "url": "https://www.yelp.com/biz/asien-perle-neu-wulmstorf?adjust_creative=hBJOknVQJ58S5goQyjmwRw&utm_campaign=yelp_api_v3&utm_medium=api_v3_business_search&utm_source=hBJOknVQJ58S5goQyjmwRw", "review_count": 20, "categories": [{"alias": "mongolian", "title": "Mongolian"}, {"alias": "chinese", "title": "Chinese"}], "rating": 4.0, "coordinates": {"latitude": 53.4638689360349, "longitude": 9.8001394837836}, "transactions": [], "price": "\u20ac\u20ac", "location": {"address1": "Hauptstr. 33 - 37", "address2": "", "address3": "", "city": "Neu Wulmstorf", "zip_code": "21629", "country": "DE", "state": "NI", "display_address": ["Hauptstr. 33 - 37", "21629 Neu Wulmstorf", "Germany"]}, "phone": "+494076116588", "display_phone": "+49 40 76116588", "distance": 1879.1892642840844}, {"id": "QVDVdmM_wjuaBKrF3H6SOg", "alias": "imbiss-zum-kleinen-grafen-neu-wulmstorf", "name": "Imbiss Zum kleinen Grafen", "image_url": "https://s3-media3.fl.yelpcdn.com/bphoto/3YU9-rrqU1fU_mrbGwFMOA/o.jpg", "is_closed": false, "url": "https://www.yelp.com/biz/imbiss-zum-kleinen-grafen-neu-wulmstorf?adjust_creative=hBJOknVQJ58S5goQyjmwRw&utm_campaign=yelp_api_v3&utm_medium=api_v3_business_search&utm_source=hBJOknVQJ58S5goQyjmwRw", "review_count": 1, "categories": [{"alias": "hotdogs", "title": "Fast Food"}, {"alias": "foodstands", "title": "Food Stands"}], "rating": 5.0, "coordinates": {"latitude": 53.4596, "longitude": 9.78043}, "transactions": [], "location": {"address1": "Graf-Luckner-Weg 1", "address2": null, "address3": null, "city": "Neu Wulmstorf", "zip_code": "21629", "country": "DE", "state": "NI", "display_address": ["Graf-Luckner-Weg 1", "21629 Neu Wulmstorf", "Germany"]}, "phone": "+4917655073432", "display_phone": "+49 176 55073432", "distance": 1166.096693513208}, {"id": "vAiTH_rv_MxcY_bCxZBh7g", "alias": "zum-dorfkrug-neu-wulmstorf", "name": "Zum Dorfkrug", "image_url": "https://s3-media2.fl.yelpcdn.com/bphoto/pf4Yk0Rz0UhydwXaSncdRA/o.jpg", "is_closed": false, "url": "https://www.yelp.com/biz/zum-dorfkrug-neu-wulmstorf?adjust_creative=hBJOknVQJ58S5goQyjmwRw&utm_campaign=yelp_api_v3&utm_medium=api_v3_business_search&utm_source=hBJOknVQJ58S5goQyjmwRw", "review_count": 39, "categories": [{"alias": "german", "title": "German"}], "rating": 4.5, "coordinates": {"latitude": 53.46897, "longitude": 9.79826}, "transactions": [], "price": "\u20ac\u20ac\u20ac", "location": {"address1": "Grenzweg 1", "address2": null, "address3": null, "city": "Neu Wulmstorf", "zip_code": "21629", "country": "DE", "state": "NI", "display_address": ["Grenzweg 1", "21629 Neu Wulmstorf", "Germany"]}, "phone": "+49407006247", "display_phone": "+49 40 7006247", "distance": 2324.7079000535346}, {"id": "lUYcWHSk9tqO6a3Zy32Zpw", "alias": "romantica-karlsteinsch\u00e4nke-neu-wulmstorf", "name": "Romantica Karlsteinsch\u00e4nke", "image_url": "", "is_closed": false, "url": "https://www.yelp.com/biz/romantica-karlsteinsch%C3%A4nke-neu-wulmstorf?adjust_creative=hBJOknVQJ58S5goQyjmwRw&utm_campaign=yelp_api_v3&utm_medium=api_v3_business_search&utm_source=hBJOknVQJ58S5goQyjmwRw", "review_count": 1, "categories": [{"alias": "german", "title": "German"}, {"alias": "italian", "title": "Italian"}], "rating": 5.0, "coordinates": {"latitude": 53.4091, "longitude": 9.8105}, "transactions": [], "price": "\u20ac\u20ac", "location": {"address1": "Rosengartenstr. 100", "address2": null, "address3": null, "city": "Neu Wulmstorf", "zip_code": "21629", "country": "DE", "state": "NI", "display_address": ["Rosengartenstr. 100", "21629 Neu Wulmstorf", "Germany"]}, "phone": "+494168337", "display_phone": "+49 4168 337", "distance": 4795.3693398805835}, {"id": "d_yLXRsiZdR-mR6bwNY4pw", "alias": "thanh-thanh-neu-wulmstorf", "name": "Thanh Thanh", "image_url": "https://s3-media1.fl.yelpcdn.com/bphoto/VTIlcFU-vWRcmWpUdo24cQ/o.jpg", "is_closed": false, "url": "https://www.yelp.com/biz/thanh-thanh-neu-wulmstorf?adjust_creative=hBJOknVQJ58S5goQyjmwRw&utm_campaign=yelp_api_v3&utm_medium=api_v3_business_search&utm_source=hBJOknVQJ58S5goQyjmwRw", "review_count": 13, "categories": [{"alias": "thai", "title": "Thai"}], "rating": 3.5, "coordinates": {"latitude": 53.465, "longitude": 9.79347}, "transactions": [], "price": "\u20ac\u20ac", "location": {"address1": "Bahnhofstr. 17", "address2": "", "address3": null, "city": "Neu Wulmstorf", "zip_code": "21629", "country": "DE", "state": "NI", "display_address": ["Bahnhofstr. 17", "21629 Neu Wulmstorf", "Germany"]}, "phone": "+494070970033", "display_phone": "+49 40 70970033", "distance": 1808.2597504975936}, {"id": "XUnMTJOcHPwzwfxbRemd0g", "alias": "delphi-neu-wulmstorf", "name": "Delphi", "image_url": "https://s3-media3.fl.yelpcdn.com/bphoto/vNSzmqO9Qs2l5Y87NjKmJQ/o.jpg", "is_closed": false, "url": "https://www.yelp.com/biz/delphi-neu-wulmstorf?adjust_creative=hBJOknVQJ58S5goQyjmwRw&utm_campaign=yelp_api_v3&utm_medium=api_v3_business_search&utm_source=hBJOknVQJ58S5goQyjmwRw", "review_count": 14, "categories": [{"alias": "greek", "title": "Greek"}], "rating": 3.5, "coordinates": {"latitude": 53.4616, "longitude": 9.79241}, "transactions": [], "price": "\u20ac\u20ac", "location": {"address1": "Hauptstr. 69", "address2": null, "address3": null, "city": "Neu Wulmstorf", "zip_code": "21629", "country": "DE", "state": "NI", "display_address": ["Hauptstr. 69", "21629 Neu Wulmstorf", "Germany"]}, "phone": "+49407003630", "display_phone": "+49 40 7003630", "distance": 1427.5189680191215}, {"id": "FVVX2Oe7oSom6zCKH2xj3Q", "alias": "kartoffelhaus-papas-im-ratskeller-neu-wulmstorf-2", "name": "Kartoffelhaus \"papas\" im Ratskeller", "image_url": "https://s3-media2.fl.yelpcdn.com/bphoto/8hoMn8fxAqFXvwiXLRUshg/o.jpg", "is_closed": false, "url": "https://www.yelp.com/biz/kartoffelhaus-papas-im-ratskeller-neu-wulmstorf-2?adjust_creative=hBJOknVQJ58S5goQyjmwRw&utm_campaign=yelp_api_v3&utm_medium=api_v3_business_search&utm_source=hBJOknVQJ58S5goQyjmwRw", "review_count": 11, "categories": [{"alias": "german", "title": "German"}, {"alias": "beergarden", "title": "Beer Garden"}], "rating": 4.5, "coordinates": {"latitude": 53.46853, "longitude": 9.79145}, "transactions": [], "price": "\u20ac\u20ac", "location": {"address1": "Bahnhofstr. 39", "address2": "", "address3": "", "city": "Neu Wulmstorf", "zip_code": "21629", "country": "DE", "state": "NI", "display_address": ["Bahnhofstr. 39", "21629 Neu Wulmstorf", "Germany"]}, "phone": "+49407000666", "display_phone": "+49 40 7000666", "distance": 2155.8861578287265}, {"id": "4oZNJok1BHE1VoWiTC5HBg", "alias": "restaurant-helena-neu-wulmstorf", "name": "Restaurant Helena", "image_url": "https://s3-media1.fl.yelpcdn.com/bphoto/XiUMHQM7vQ8oG7YBn3l80Q/o.jpg", "is_closed": false, "url": "https://www.yelp.com/biz/restaurant-helena-neu-wulmstorf?adjust_creative=hBJOknVQJ58S5goQyjmwRw&utm_campaign=yelp_api_v3&utm_medium=api_v3_business_search&utm_source=hBJOknVQJ58S5goQyjmwRw", "review_count": 13, "categories": [{"alias": "mediterranean", "title": "Mediterranean"}, {"alias": "breakfast_brunch", "title": "Breakfast & Brunch"}], "rating": 3.0, "coordinates": {"latitude": 53.4619, "longitude": 9.79226}, "transactions": [], "price": "\u20ac\u20ac", "location": {"address1": "Hauptstr. 34", "address2": null, "address3": null, "city": "Neu Wulmstorf", "zip_code": "21629", "country": "DE", "state": "NI", "display_address": ["Hauptstr. 34", "21629 Neu Wulmstorf", "Germany"]}, "phone": "+49407000221", "display_phone": "+49 40 7000221", "distance": 1455.7695190923296}, {"id": "ycthMjyMZfUtBvbi_bidzw", "alias": "gastst\u00e4tte-zum-florian-elstorf-neu-wulmstorf", "name": "Gastst\u00e4tte Zum Florian", "image_url": "", "is_closed": false, "url": "https://www.yelp.com/biz/gastst%C3%A4tte-zum-florian-elstorf-neu-wulmstorf?adjust_creative=hBJOknVQJ58S5goQyjmwRw&utm_campaign=yelp_api_v3&utm_medium=api_v3_business_search&utm_source=hBJOknVQJ58S5goQyjmwRw", "review_count": 1, "categories": [{"alias": "postoffices", "title": "Post Offices"}, {"alias": "foodstands", "title": "Food Stands"}], "rating": 5.0, "coordinates": {"latitude": 53.4230228, "longitude": 9.7899846}, "transactions": [], "location": {"address1": "Lindenstr. 2", "address2": null, "address3": null, "city": "Elstorf - Neu Wulmstorf", "zip_code": "21629", "country": "DE", "state": "NI", "display_address": ["Lindenstr. 2", "21629 Elstorf - Neu Wulmstorf", "Germany"]}, "phone": "+491704042954", "display_phone": "+49 170 4042954", "distance": 2961.5728464153945}, {"id": "d2ISxz_CO2mzTj7dcQszRw", "alias": "mangia-bene-neu-wulmstorf", "name": "Mangia bene", "image_url": "https://s3-media3.fl.yelpcdn.com/bphoto/lLdfdbiZxHNJPQOS51_MQw/o.jpg", "is_closed": false, "url": "https://www.yelp.com/biz/mangia-bene-neu-wulmstorf?adjust_creative=hBJOknVQJ58S5goQyjmwRw&utm_campaign=yelp_api_v3&utm_medium=api_v3_business_search&utm_source=hBJOknVQJ58S5goQyjmwRw", "review_count": 7, "categories": [{"alias": "pizza", "title": "Pizza"}], "rating": 4.5, "coordinates": {"latitude": 53.4619, "longitude": 9.79331}, "transactions": [], "price": "\u20ac\u20ac", "location": {"address1": "Hauptstr. 75", "address2": null, "address3": null, "city": "Neu Wulmstorf", "zip_code": "21629", "country": "DE", "state": "NI", "display_address": ["Hauptstr. 75", "21629 Neu Wulmstorf", "Germany"]}, "phone": "+494070385685", "display_phone": "+49 40 70385685", "distance": 1479.5900430499648}, {"id": "IVaGCcBmkiISHs_D6ip4hg", "alias": "melkhus-ardestorf-neu-wulmstorf", "name": "Melkhus", "image_url": "https://s3-media4.fl.yelpcdn.com/bphoto/BJKZspYnLuUnfqWt5oxIQg/o.jpg", "is_closed": false, "url": "https://www.yelp.com/biz/melkhus-ardestorf-neu-wulmstorf?adjust_creative=hBJOknVQJ58S5goQyjmwRw&utm_campaign=yelp_api_v3&utm_medium=api_v3_business_search&utm_source=hBJOknVQJ58S5goQyjmwRw", "review_count": 5, "categories": [{"alias": "cafes", "title": "Cafes"}, {"alias": "convenience", "title": "Convenience Stores"}], "rating": 5.0, "coordinates": {"latitude": 53.4298, "longitude": 9.76171}, "transactions": [], "price": "\u20ac", "location": {"address1": "Grauener Weg  3", "address2": null, "address3": null, "city": "Ardestorf - Neu Wulmstorf", "zip_code": "21629", "country": "DE", "state": "NI", "display_address": ["Grauener Weg  3", "21629 Ardestorf - Neu Wulmstorf", "Germany"]}, "phone": "+4941689198714", "display_phone": "+49 4168 9198714", "distance": 2686.757516987138}, {"id": "vO9RL-i13lQ3NT_-FGt8JQ", "alias": "restaurant-akropolis-elstorf-neu-wulmstorf", "name": "Restaurant Akropolis", "image_url": "", "is_closed": false, "url": "https://www.yelp.com/biz/restaurant-akropolis-elstorf-neu-wulmstorf?adjust_creative=hBJOknVQJ58S5goQyjmwRw&utm_campaign=yelp_api_v3&utm_medium=api_v3_business_search&utm_source=hBJOknVQJ58S5goQyjmwRw", "review_count": 4, "categories": [{"alias": "greek", "title": "Greek"}], "rating": 3.0, "coordinates": {"latitude": 53.4246, "longitude": 9.78933}, "transactions": [], "location": {"address1": "Schwarzenberg 1", "address2": null, "address3": null, "city": "Elstorf - Neu Wulmstorf", "zip_code": "21629", "country": "DE", "state": "NI", "display_address": ["Schwarzenberg 1", "21629 Elstorf - Neu Wulmstorf", "Germany"]}, "phone": "+4941688366", "display_phone": "+49 4168 8366", "distance": 2782.6632295455674}, {"id": "u3ub5f0MS4qY67Q8XF9ZoA", "alias": "sodemanns-fisch-kutter-nr-1-hamburg", "name": "Sodemann's Fisch-Kutter Nr. 1", "image_url": "https://s3-media3.fl.yelpcdn.com/bphoto/BlysP6fVPaL0eEjKvEbByw/o.jpg", "is_closed": false, "url": "https://www.yelp.com/biz/sodemanns-fisch-kutter-nr-1-hamburg?adjust_creative=hBJOknVQJ58S5goQyjmwRw&utm_campaign=yelp_api_v3&utm_medium=api_v3_business_search&utm_source=hBJOknVQJ58S5goQyjmwRw", "review_count": 3, "categories": [{"alias": "foodtrucks", "title": "Food Trucks"}, {"alias": "fischbroetchen", "title": "Fischbroetchen"}], "rating": 5.0, "coordinates": {"latitude": 53.5537490844727, "longitude": 9.99182987213135}, "transactions": [], "price": "\u20ac\u20ac", "location": {"address1": "", "address2": null, "address3": "", "city": "Hamburg", "zip_code": "", "country": "DE", "state": "HH", "display_address": ["Hamburg", "Germany"]}, "phone": "+491773606663", "display_phone": "+49 177 3606663", "distance": 17825.346456196552}, {"id": "5DVDP-5Wp1QIqWsD_gM1zw", "alias": "urfa-king-neu-wulmstorf", "name": "Urfa King", "image_url": "https://s3-media3.fl.yelpcdn.com/bphoto/sJlZrmcQJENS0TSmCYvlJQ/o.jpg", "is_closed": false, "url": "https://www.yelp.com/biz/urfa-king-neu-wulmstorf?adjust_creative=hBJOknVQJ58S5goQyjmwRw&utm_campaign=yelp_api_v3&utm_medium=api_v3_business_search&utm_source=hBJOknVQJ58S5goQyjmwRw", "review_count": 2, "categories": [{"alias": "kebab", "title": "Kebab"}, {"alias": "halal", "title": "Halal"}, {"alias": "turkish", "title": "Turkish"}], "rating": 3.0, "coordinates": {"latitude": 53.4651235192537, "longitude": 9.79389893090728}, "transactions": [], "location": {"address1": "Bahnhofstr. 17", "address2": "", "address3": "", "city": "Neu Wulmstorf", "zip_code": "21629", "country": "DE", "state": "NI", "display_address": ["Bahnhofstr. 17", "21629 Neu Wulmstorf", "Germany"]}, "phone": "+494079416795", "display_phone": "+49 40 79416795", "distance": 1830.1007464364536}, {"id": "-1w7WxKQmGY7HTknewjv-Q", "alias": "bistro-schowittchen-neu-wulmstorf", "name": "Bistro Schowittchen", "image_url": "", "is_closed": false, "url": "https://www.yelp.com/biz/bistro-schowittchen-neu-wulmstorf?adjust_creative=hBJOknVQJ58S5goQyjmwRw&utm_campaign=yelp_api_v3&utm_medium=api_v3_business_search&utm_source=hBJOknVQJ58S5goQyjmwRw", "review_count": 6, "categories": [{"alias": "pizza", "title": "Pizza"}, {"alias": "foodstands", "title": "Food Stands"}, {"alias": "sandwiches", "title": "Sandwiches"}], "rating": 3.5, "coordinates": {"latitude": 53.46976, "longitude": 9.79135}, "transactions": [], "price": "\u20ac", "location": {"address1": "Bahnhofstr. 62", "address2": "", "address3": "", "city": "Neu Wulmstorf", "zip_code": "21629", "country": "DE", "state": "NI", "display_address": ["Bahnhofstr. 62", "21629 Neu Wulmstorf", "Germany"]}, "phone": "+49407000033", "display_phone": "+49 40 7000033", "distance": 2289.0656147756554}, {"id": "n_Yio-a9VzssOtDbgezpRA", "alias": "subu-sushi-burrito-hamburg-3", "name": "Subu Sushi Burrito", "image_url": "https://s3-media3.fl.yelpcdn.com/bphoto/x2oh5mzvkzvrXjswE_MjXQ/o.jpg", "is_closed": false, "url": "https://www.yelp.com/biz/subu-sushi-burrito-hamburg-3?adjust_creative=hBJOknVQJ58S5goQyjmwRw&utm_campaign=yelp_api_v3&utm_medium=api_v3_business_search&utm_source=hBJOknVQJ58S5goQyjmwRw", "review_count": 3, "categories": [{"alias": "foodtrucks", "title": "Food Trucks"}, {"alias": "sushi", "title": "Sushi Bars"}], "rating": 5.0, "coordinates": {"latitude": 53.5526819869811, "longitude": 10.0010880455375}, "transactions": [], "price": "\u20ac", "location": {"address1": "", "address2": "", "address3": "", "city": "Hamburg", "zip_code": "", "country": "DE", "state": "HH", "display_address": ["Hamburg", "Germany"]}, "phone": "+4917670834316", "display_phone": "+49 176 70834316", "distance": 18317.454769583124}, {"id": "2jzIbZsfzca5drJYk7JwbQ", "alias": "the-bao-bros-hamburg-2", "name": "The Bao Bros", "image_url": "https://s3-media1.fl.yelpcdn.com/bphoto/vUMA4Y35x3UwZk6fMJfZRw/o.jpg", "is_closed": false, "url": "https://www.yelp.com/biz/the-bao-bros-hamburg-2?adjust_creative=hBJOknVQJ58S5goQyjmwRw&utm_campaign=yelp_api_v3&utm_medium=api_v3_business_search&utm_source=hBJOknVQJ58S5goQyjmwRw", "review_count": 2, "categories": [{"alias": "foodtrucks", "title": "Food Trucks"}, {"alias": "burgers", "title": "Burgers"}], "rating": 4.0, "coordinates": {"latitude": 53.5533409118652, "longitude": 9.99246978759766}, "transactions": [], "price": "\u20ac", "location": {"address1": "", "address2": "", "address3": "", "city": "Hamburg", "zip_code": "", "country": "DE", "state": "HH", "display_address": ["Hamburg", "Germany"]}, "phone": "+4915140700076", "display_phone": "+49 1514 0700076", "distance": 17825.341339513703}, {"id": "APvIA_7ssxgC0atmQEFMcg", "alias": "burgerkultour-food-truck-hamburg-2", "name": "BurgerKultour Food Truck", "image_url": "https://s3-media4.fl.yelpcdn.com/bphoto/KoAuwalMnlAO8139MmdYBQ/o.jpg", "is_closed": false, "url": "https://www.yelp.com/biz/burgerkultour-food-truck-hamburg-2?adjust_creative=hBJOknVQJ58S5goQyjmwRw&utm_campaign=yelp_api_v3&utm_medium=api_v3_business_search&utm_source=hBJOknVQJ58S5goQyjmwRw", "review_count": 3, "categories": [{"alias": "foodtrucks", "title": "Food Trucks"}, {"alias": "burgers", "title": "Burgers"}], "rating": 4.5, "coordinates": {"latitude": 53.57154, "longitude": 9.95575}, "transactions": [], "price": "\u20ac\u20ac", "location": {"address1": "", "address2": "", "address3": "", "city": "Hamburg", "zip_code": "20259", "country": "DE", "state": "HH", "display_address": ["20259 Hamburg", "Germany"]}, "phone": "+4917626055122", "display_phone": "+49 176 26055122", "distance": 17621.500377486493}, {"id": "SeodQIjOcsrznD7rwIB-Jw", "alias": "the-big-balmy-hamburg-2", "name": "The Big Balmy", "image_url": "https://s3-media2.fl.yelpcdn.com/bphoto/KWUCQvGDONs_iDxlKXzgvQ/o.jpg", "is_closed": false, "url": "https://www.yelp.com/biz/the-big-balmy-hamburg-2?adjust_creative=hBJOknVQJ58S5goQyjmwRw&utm_campaign=yelp_api_v3&utm_medium=api_v3_business_search&utm_source=hBJOknVQJ58S5goQyjmwRw", "review_count": 27, "categories": [{"alias": "burgers", "title": "Burgers"}, {"alias": "foodtrucks", "title": "Food Trucks"}], "rating": 3.5, "coordinates": {"latitude": 53.537786, "longitude": 10.028218}, "transactions": [], "price": "\u20ac\u20ac", "location": {"address1": "", "address2": null, "address3": null, "city": "Hamburg", "zip_code": "", "country": "DE", "state": "HH", "display_address": ["Hamburg", "Germany"]}, "phone": "+494069278630", "display_phone": "+49 40 69278630", "distance": 18836.70372870964}, {"id": "cGIKCcR0wZszz8VldC2-7g", "alias": "currywerk-hamburg", "name": "curryWERK", "image_url": "https://s3-media4.fl.yelpcdn.com/bphoto/j_ZPQAB6JrAru84VDuLiRA/o.jpg", "is_closed": false, "url": "https://www.yelp.com/biz/currywerk-hamburg?adjust_creative=hBJOknVQJ58S5goQyjmwRw&utm_campaign=yelp_api_v3&utm_medium=api_v3_business_search&utm_source=hBJOknVQJ58S5goQyjmwRw", "review_count": 1, "categories": [{"alias": "foodtrucks", "title": "Food Trucks"}, {"alias": "currysausage", "title": "Curry Sausage"}], "rating": 4.0, "coordinates": {"latitude": 53.5498886108398, "longitude": 9.94732189178467}, "transactions": [], "price": "\u20ac\u20ac", "location": {"address1": "", "address2": "", "address3": "", "city": "Hamburg", "zip_code": "22767", "country": "DE", "state": "HH", "display_address": ["22767 Hamburg", "Germany"]}, "phone": "+4917632443433", "display_phone": "+49 176 32443433", "distance": 15183.426119398948}]