[{"id": "G5Ex8n1SADY3Amfc73gNXw", "alias": "treffpunkt-garbers-hamburg", "name": "Treffpunkt Garbers", "image_url": "https://s3-media2.fl.yelpcdn.com/bphoto/jD8WP41Er_stHjvlEUynyw/o.jpg", "is_closed": false, "url": "https://www.yelp.com/biz/treffpunkt-garbers-hamburg?adjust_creative=hBJOknVQJ58S5goQyjmwRw&utm_campaign=yelp_api_v3&utm_medium=api_v3_business_search&utm_source=hBJOknVQJ58S5goQyjmwRw", "review_count": 1, "categories": [{"alias": "danceclubs", "title": "Dance Clubs"}, {"alias": "german", "title": "German"}], "rating": 4.0, "coordinates": {"latitude": 53.4212, "longitude": 10.1493}, "transactions": [], "location": {"address1": "Kirchwerder Landweg 552", "address2": null, "address3": null, "city": "Hamburg", "zip_code": "21037", "country": "DE", "state": "HH", "display_address": ["Kirchwerder Landweg 552", "21037 Hamburg", "Germany"]}, "phone": "+49407230564", "display_phone": "+49 40 7230564", "distance": 2828.395853994666}, {"id": "iCe90XaupBAUY0lCNsl5bw", "alias": "achilleon-2-hamburg", "name": "Achilleon 2", "image_url": "", "is_closed": false, "url": "https://www.yelp.com/biz/achilleon-2-hamburg?adjust_creative=hBJOknVQJ58S5goQyjmwRw&utm_campaign=yelp_api_v3&utm_medium=api_v3_business_search&utm_source=hBJOknVQJ58S5goQyjmwRw", "review_count": 2, "categories": [{"alias": "greek", "title": "Greek"}], "rating": 1.5, "coordinates": {"latitude": 53.4037463, "longitude": 10.1636574}, "transactions": [], "location": {"address1": "Kirchwerder Elbdeich 116", "address2": "", "address3": null, "city": "Hamburg", "zip_code": "21037", "country": "DE", "state": "NI", "display_address": ["Kirchwerder Elbdeich 116", "21037 Hamburg", "Germany"]}, "phone": "+494073503103", "display_phone": "+49 40 73503103", "distance": 4896.736157206363}]