[{"id": "GWc6M7-6bwt3Y3-QP6HpvA", "alias": "long-xuan-buxtehude", "name": "Long Xuan", "image_url": "https://s3-media2.fl.yelpcdn.com/bphoto/FMkLFTd8NePGvgqVtLV3rw/o.jpg", "is_closed": false, "url": "https://www.yelp.com/biz/long-xuan-buxtehude?adjust_creative=hBJOknVQJ58S5goQyjmwRw&utm_campaign=yelp_api_v3&utm_medium=api_v3_business_search&utm_source=hBJOknVQJ58S5goQyjmwRw", "review_count": 6, "categories": [{"alias": "mongolian", "title": "Mongolian"}, {"alias": "chinese", "title": "Chinese"}, {"alias": "sushi", "title": "Sushi Bars"}], "rating": 3.5, "coordinates": {"latitude": 53.45146, "longitude": 9.75572}, "transactions": [], "location": {"address1": "Hamburger Chaussee 125", "address2": "", "address3": "", "city": "Buxtehude", "zip_code": "21614", "country": "DE", "state": "NI", "display_address": ["Hamburger Chaussee 125", "21614 Buxtehude", "Germany"]}, "phone": "+4941615409381", "display_phone": "+49 4161 5409381", "distance": 195.98243990921242}, {"id": "QVDVdmM_wjuaBKrF3H6SOg", "alias": "imbiss-zum-kleinen-grafen-neu-wulmstorf", "name": "Imbiss Zum kleinen Grafen", "image_url": "https://s3-media3.fl.yelpcdn.com/bphoto/3YU9-rrqU1fU_mrbGwFMOA/o.jpg", "is_closed": false, "url": "https://www.yelp.com/biz/imbiss-zum-kleinen-grafen-neu-wulmstorf?adjust_creative=hBJOknVQJ58S5goQyjmwRw&utm_campaign=yelp_api_v3&utm_medium=api_v3_business_search&utm_source=hBJOknVQJ58S5goQyjmwRw", "review_count": 1, "categories": [{"alias": "hotdogs", "title": "Fast Food"}, {"alias": "foodstands", "title": "Food Stands"}], "rating": 5.0, "coordinates": {"latitude": 53.4596, "longitude": 9.78043}, "transactions": [], "location": {"address1": "Graf-Luckner-Weg 1", "address2": null, "address3": null, "city": "Neu Wulmstorf", "zip_code": "21629", "country": "DE", "state": "NI", "display_address": ["Graf-Luckner-Weg 1", "21629 Neu Wulmstorf", "Germany"]}, "phone": "+4917655073432", "display_phone": "+49 176 55073432", "distance": 2007.5825211100835}, {"id": "Woiw_v3oAYHPbQTj5YlRcA", "alias": "restaurant-ovelg\u00f6nner-hof-buxtehude", "name": "Restaurant Ovelg\u00f6nner Hof", "image_url": "", "is_closed": false, "url": "https://www.yelp.com/biz/restaurant-ovelg%C3%B6nner-hof-buxtehude?adjust_creative=hBJOknVQJ58S5goQyjmwRw&utm_campaign=yelp_api_v3&utm_medium=api_v3_business_search&utm_source=hBJOknVQJ58S5goQyjmwRw", "review_count": 2, "categories": [{"alias": "german", "title": "German"}], "rating": 2.5, "coordinates": {"latitude": 53.45131, "longitude": 9.74717}, "transactions": [], "location": {"address1": "Hamburger Chaussee 81", "address2": "", "address3": null, "city": "Buxtehude", "zip_code": "21614", "country": "DE", "state": "NI", "display_address": ["Hamburger Chaussee 81", "21614 Buxtehude", "Germany"]}, "phone": "+4941617180", "display_phone": "+49 4161 7180", "distance": 551.5544918897914}, {"id": "IVaGCcBmkiISHs_D6ip4hg", "alias": "melkhus-ardestorf-neu-wulmstorf", "name": "Melkhus", "image_url": "https://s3-media4.fl.yelpcdn.com/bphoto/BJKZspYnLuUnfqWt5oxIQg/o.jpg", "is_closed": false, "url": "https://www.yelp.com/biz/melkhus-ardestorf-neu-wulmstorf?adjust_creative=hBJOknVQJ58S5goQyjmwRw&utm_campaign=yelp_api_v3&utm_medium=api_v3_business_search&utm_source=hBJOknVQJ58S5goQyjmwRw", "review_count": 5, "categories": [{"alias": "cafes", "title": "Cafes"}, {"alias": "convenience", "title": "Convenience Stores"}], "rating": 5.0, "coordinates": {"latitude": 53.4298, "longitude": 9.76171}, "transactions": [], "price": "\u20ac", "location": {"address1": "Grauener Weg  3", "address2": null, "address3": null, "city": "Ardestorf - Neu Wulmstorf", "zip_code": "21629", "country": "DE", "state": "NI", "display_address": ["Grauener Weg  3", "21629 Ardestorf - Neu Wulmstorf", "Germany"]}, "phone": "+4941689198714", "display_phone": "+49 4168 9198714", "distance": 2255.6850911032443}]