[{"id": "LKzo9giIoKGVtMsuAvuIAg", "alias": "gasthof-zum-elbdeich-hamburg-2", "name": "Gasthof zum Elbdeich", "image_url": "", "is_closed": false, "url": "https://www.yelp.com/biz/gasthof-zum-elbdeich-hamburg-2?adjust_creative=hBJOknVQJ58S5goQyjmwRw&utm_campaign=yelp_api_v3&utm_medium=api_v3_business_search&utm_source=hBJOknVQJ58S5goQyjmwRw", "review_count": 3, "categories": [{"alias": "german", "title": "German"}], "rating": 4.5, "coordinates": {"latitude": 53.4423, "longitude": 10.2328}, "transactions": [], "location": {"address1": "Neuengammer Hausdeich 2", "address2": null, "address3": null, "city": "Hamburg", "zip_code": "21039", "country": "DE", "state": "HH", "display_address": ["Neuengammer Hausdeich 2", "21039 Hamburg", "Germany"]}, "phone": "+49407235481", "display_phone": "+49 40 7235481", "distance": 461.05304858285734}, {"id": "p6NLrDG7PeH60IUcmTwPAA", "alias": "gastst\u00e4tte-zum-alten-bahnhof-hamburg", "name": "Gastst\u00e4tte Zum alten Bahnhof", "image_url": "https://s3-media4.fl.yelpcdn.com/bphoto/bq3mLtdVBdxpjpI6-ilBDg/o.jpg", "is_closed": false, "url": "https://www.yelp.com/biz/gastst%C3%A4tte-zum-alten-bahnhof-hamburg?adjust_creative=hBJOknVQJ58S5goQyjmwRw&utm_campaign=yelp_api_v3&utm_medium=api_v3_business_search&utm_source=hBJOknVQJ58S5goQyjmwRw", "review_count": 1, "categories": [{"alias": "german", "title": "German"}], "rating": 5.0, "coordinates": {"latitude": 53.4486, "longitude": 10.22153}, "transactions": [], "price": "\u20ac\u20ac", "location": {"address1": "Odemanns Heck 5", "address2": null, "address3": null, "city": "Hamburg", "zip_code": "21039", "country": "DE", "state": "HH", "display_address": ["Odemanns Heck 5", "21039 Hamburg", "Germany"]}, "phone": "+494072370570", "display_phone": "+49 40 72370570", "distance": 1063.9240923633613}, {"id": "3egK5RDiKkrS11o-krMX3g", "alias": "restaurant-mediterran-hamburg", "name": "Restaurant Mediterran", "image_url": "https://s3-media4.fl.yelpcdn.com/bphoto/V76lnZxFDtYdEvqXAUtsUQ/o.jpg", "is_closed": false, "url": "https://www.yelp.com/biz/restaurant-mediterran-hamburg?adjust_creative=hBJOknVQJ58S5goQyjmwRw&utm_campaign=yelp_api_v3&utm_medium=api_v3_business_search&utm_source=hBJOknVQJ58S5goQyjmwRw", "review_count": 16, "categories": [{"alias": "italian", "title": "Italian"}], "rating": 4.5, "coordinates": {"latitude": 53.477673, "longitude": 10.240457}, "transactions": [], "price": "\u20ac\u20ac", "location": {"address1": "Rothenhauschaussee 32", "address2": null, "address3": null, "city": "Hamburg", "zip_code": "21029", "country": "DE", "state": "HH", "display_address": ["Rothenhauschaussee 32", "21029 Hamburg", "Germany"]}, "phone": "+49407202081", "display_phone": "+49 40 7202081", "distance": 3565.4343497846407}, {"id": "iDbFa_QS9dWsxaVWCZjy8Q", "alias": "santa-lucia-hamburg-2", "name": "Santa Lucia", "image_url": "https://s3-media1.fl.yelpcdn.com/bphoto/eSlgAEYc9SSgS5aL19TvgQ/o.jpg", "is_closed": false, "url": "https://www.yelp.com/biz/santa-lucia-hamburg-2?adjust_creative=hBJOknVQJ58S5goQyjmwRw&utm_campaign=yelp_api_v3&utm_medium=api_v3_business_search&utm_source=hBJOknVQJ58S5goQyjmwRw", "review_count": 6, "categories": [{"alias": "italian", "title": "Italian"}, {"alias": "pizza", "title": "Pizza"}], "rating": 4.0, "coordinates": {"latitude": 53.487704, "longitude": 10.214498}, "transactions": [], "price": "\u20ac\u20ac", "location": {"address1": "Bergedorfer Schlo\u00dfstr. 12", "address2": null, "address3": null, "city": "Hamburg", "zip_code": "21029", "country": "DE", "state": "HH", "display_address": ["Bergedorfer Schlo\u00dfstr. 12", "21029 Hamburg", "Germany"]}, "phone": "+494079419349", "display_phone": "+49 40 79419349", "distance": 4900.97433096753}, {"id": "uwN7W2qQoeTgwR2RtbzE3Q", "alias": "kuhberg-hamburg-2", "name": "Kuhberg", "image_url": "https://s3-media1.fl.yelpcdn.com/bphoto/ocOTFIWwUY2xlqhKaeXctw/o.jpg", "is_closed": false, "url": "https://www.yelp.com/biz/kuhberg-hamburg-2?adjust_creative=hBJOknVQJ58S5goQyjmwRw&utm_campaign=yelp_api_v3&utm_medium=api_v3_business_search&utm_source=hBJOknVQJ58S5goQyjmwRw", "review_count": 7, "categories": [{"alias": "international", "title": "International"}], "rating": 5.0, "coordinates": {"latitude": 53.4879359, "longitude": 10.2114569}, "transactions": [], "price": "\u20ac\u20ac", "location": {"address1": "Wiebekingweg 2a", "address2": null, "address3": null, "city": "Hamburg", "zip_code": "21029", "country": "DE", "state": "HH", "display_address": ["Wiebekingweg 2a", "21029 Hamburg", "Germany"]}, "phone": "+494072698006", "display_phone": "+49 40 72698006", "distance": 4989.672409284905}, {"id": "wEtVg37Ypxat_mW1ZrRuWg", "alias": "dubrovnik-hamburg-5", "name": "Dubrovnik", "image_url": "https://s3-media4.fl.yelpcdn.com/bphoto/a1XRjKIcmaR6a1lQ3_mrvw/o.jpg", "is_closed": false, "url": "https://www.yelp.com/biz/dubrovnik-hamburg-5?adjust_creative=hBJOknVQJ58S5goQyjmwRw&utm_campaign=yelp_api_v3&utm_medium=api_v3_business_search&utm_source=hBJOknVQJ58S5goQyjmwRw", "review_count": 18, "categories": [{"alias": "serbocroatian", "title": "Serbo Croatian"}], "rating": 4.0, "coordinates": {"latitude": 53.4733, "longitude": 10.2299}, "transactions": [], "price": "\u20ac\u20ac", "location": {"address1": "Achterschlag 2", "address2": null, "address3": null, "city": "Hamburg", "zip_code": "21039", "country": "DE", "state": "HH", "display_address": ["Achterschlag 2", "21039 Hamburg", "Germany"]}, "phone": "+494087604024", "display_phone": "+49 40 87604024", "distance": 3105.1631812800124}, {"id": "eB5ZgXwqX4OjH3PjvcVqqw", "alias": "trattoria-olivo-hamburg", "name": "Trattoria Olivo", "image_url": "https://s3-media3.fl.yelpcdn.com/bphoto/azb16-pwIH6-s5zGK2CfIg/o.jpg", "is_closed": false, "url": "https://www.yelp.com/biz/trattoria-olivo-hamburg?adjust_creative=hBJOknVQJ58S5goQyjmwRw&utm_campaign=yelp_api_v3&utm_medium=api_v3_business_search&utm_source=hBJOknVQJ58S5goQyjmwRw", "review_count": 12, "categories": [{"alias": "italian", "title": "Italian"}], "rating": 4.5, "coordinates": {"latitude": 53.48585, "longitude": 10.2173}, "transactions": [], "price": "\u20ac\u20ac", "location": {"address1": "Am Brink 10", "address2": "", "address3": "", "city": "Hamburg", "zip_code": "21029", "country": "DE", "state": "HH", "display_address": ["Am Brink 10", "21029 Hamburg", "Germany"]}, "phone": "+494072106745", "display_phone": "+49 40 72106745", "distance": 4652.956953364854}, {"id": "Zv1LeZIpUf-fgVDZnfsTyg", "alias": "vapiano-hamburg-11", "name": "Vapiano", "image_url": "https://s3-media2.fl.yelpcdn.com/bphoto/yjG-y_zly9_YaRjRwLAHOw/o.jpg", "is_closed": false, "url": "https://www.yelp.com/biz/vapiano-hamburg-11?adjust_creative=hBJOknVQJ58S5goQyjmwRw&utm_campaign=yelp_api_v3&utm_medium=api_v3_business_search&utm_source=hBJOknVQJ58S5goQyjmwRw", "review_count": 5, "categories": [{"alias": "italian", "title": "Italian"}], "rating": 3.0, "coordinates": {"latitude": 53.4865151843347, "longitude": 10.213736811045}, "transactions": [], "price": "\u20ac\u20ac", "location": {"address1": "Bergedorfer Str. 131 - 135", "address2": "", "address3": null, "city": "Hamburg", "zip_code": "21029", "country": "DE", "state": "HH", "display_address": ["Bergedorfer Str. 131 - 135", "21029 Hamburg", "Germany"]}, "phone": "+4940609436970", "display_phone": "+49 40 609436970", "distance": 4790.950828431284}, {"id": "8RTFCEVFVel7jHWdyzyS7g", "alias": "ha-dang-dung-hamburg", "name": "Ha Dang Dung", "image_url": "https://s3-media3.fl.yelpcdn.com/bphoto/Badnhs7BNcNC3eSVURl_2A/o.jpg", "is_closed": false, "url": "https://www.yelp.com/biz/ha-dang-dung-hamburg?adjust_creative=hBJOknVQJ58S5goQyjmwRw&utm_campaign=yelp_api_v3&utm_medium=api_v3_business_search&utm_source=hBJOknVQJ58S5goQyjmwRw", "review_count": 1, "categories": [{"alias": "vietnamese", "title": "Vietnamese"}], "rating": 4.0, "coordinates": {"latitude": 53.486007, "longitude": 10.214888}, "transactions": [], "location": {"address1": "Bergedorfer Str 152", "address2": "", "address3": null, "city": "Hamburg", "zip_code": "21029", "country": "DE", "state": "HH", "display_address": ["Bergedorfer Str 152", "21029 Hamburg", "Germany"]}, "phone": "+494072105999", "display_phone": "+49 40 72105999", "distance": 4713.397794011103}, {"id": "zSJs6UlQpjoeyYtP0KmIXw", "alias": "sushibar-bergedorf-hamburg", "name": "sushibar bergedorf", "image_url": "https://s3-media4.fl.yelpcdn.com/bphoto/C8iFPvFJzRKix6tiM3SnOg/o.jpg", "is_closed": false, "url": "https://www.yelp.com/biz/sushibar-bergedorf-hamburg?adjust_creative=hBJOknVQJ58S5goQyjmwRw&utm_campaign=yelp_api_v3&utm_medium=api_v3_business_search&utm_source=hBJOknVQJ58S5goQyjmwRw", "review_count": 53, "categories": [{"alias": "sushi", "title": "Sushi Bars"}], "rating": 4.0, "coordinates": {"latitude": 53.48635, "longitude": 10.21301}, "transactions": [], "price": "\u20ac\u20ac", "location": {"address1": "Bergedorfer Str. 138", "address2": null, "address3": null, "city": "Hamburg", "zip_code": "21029", "country": "DE", "state": "HH", "display_address": ["Bergedorfer Str. 138", "21029 Hamburg", "Germany"]}, "phone": "+494018073686", "display_phone": "+49 40 18073686", "distance": 4773.212262678399}, {"id": "VYiOF0mjK_FuOVMWxSs-Ag", "alias": "fidelio-hamburg-2", "name": "Fidelio", "image_url": "https://s3-media2.fl.yelpcdn.com/bphoto/pKzIFFExzuRnpFGPCDJrUQ/o.jpg", "is_closed": false, "url": "https://www.yelp.com/biz/fidelio-hamburg-2?adjust_creative=hBJOknVQJ58S5goQyjmwRw&utm_campaign=yelp_api_v3&utm_medium=api_v3_business_search&utm_source=hBJOknVQJ58S5goQyjmwRw", "review_count": 29, "categories": [{"alias": "international", "title": "International"}], "rating": 3.5, "coordinates": {"latitude": 53.488404, "longitude": 10.2135165}, "transactions": [], "price": "\u20ac\u20ac", "location": {"address1": "Bergedorfer Schlo\u00dfstr. 15", "address2": "", "address3": "", "city": "Hamburg", "zip_code": "21029", "country": "DE", "state": "HH", "display_address": ["Bergedorfer Schlo\u00dfstr. 15", "21029 Hamburg", "Germany"]}, "phone": "+494072008855", "display_phone": "+49 40 72008855", "distance": 4994.925539822111}, {"id": "NH8UdkeMrq2YFSQLMSEruQ", "alias": "hof-eggers-hamburg-3", "name": "Hof Eggers", "image_url": "https://s3-media4.fl.yelpcdn.com/bphoto/jfzfR1d-xTAeFe5dn9hlAg/o.jpg", "is_closed": false, "url": "https://www.yelp.com/biz/hof-eggers-hamburg-3?adjust_creative=hBJOknVQJ58S5goQyjmwRw&utm_campaign=yelp_api_v3&utm_medium=api_v3_business_search&utm_source=hBJOknVQJ58S5goQyjmwRw", "review_count": 5, "categories": [{"alias": "cafes", "title": "Cafes"}, {"alias": "attractionfarms", "title": "Attraction Farms"}], "rating": 5.0, "coordinates": {"latitude": 53.4106, "longitude": 10.21967}, "transactions": [], "price": "\u20ac", "location": {"address1": "Kirchwerder M\u00fchlendamm 5", "address2": null, "address3": null, "city": "Hamburg", "zip_code": "21037", "country": "DE", "state": "HH", "display_address": ["Kirchwerder M\u00fchlendamm 5", "21037 Hamburg", "Germany"]}, "phone": "+494072377385", "display_phone": "+49 40 72377385", "distance": 4063.126143677686}, {"id": "XguDzRJ2azu46Kze_kRgCA", "alias": "taverna-corfu-hamburg-2", "name": "Taverna Corfu", "image_url": "https://s3-media2.fl.yelpcdn.com/bphoto/YDAiBOH8-f7CBqW1LNpJ9w/o.jpg", "is_closed": false, "url": "https://www.yelp.com/biz/taverna-corfu-hamburg-2?adjust_creative=hBJOknVQJ58S5goQyjmwRw&utm_campaign=yelp_api_v3&utm_medium=api_v3_business_search&utm_source=hBJOknVQJ58S5goQyjmwRw", "review_count": 8, "categories": [{"alias": "greek", "title": "Greek"}], "rating": 4.0, "coordinates": {"latitude": 53.4857, "longitude": 10.2178}, "transactions": [], "price": "\u20ac\u20ac", "location": {"address1": "Am Brink 14", "address2": null, "address3": null, "city": "Hamburg", "zip_code": "21029", "country": "DE", "state": "HH", "display_address": ["Am Brink 14", "21029 Hamburg", "Germany"]}, "phone": "+49407214342", "display_phone": "+49 40 7214342", "distance": 4624.756918634837}, {"id": "dzb7aCiy9JldM3zR2LzaJg", "alias": "das-elbcaf\u00e9-drennhausen-drage", "name": "Das Elbcaf\u00e9", "image_url": "https://s3-media4.fl.yelpcdn.com/bphoto/e84ura7IQ2x-acwgZZ0LiQ/o.jpg", "is_closed": false, "url": "https://www.yelp.com/biz/das-elbcaf%C3%A9-drennhausen-drage?adjust_creative=hBJOknVQJ58S5goQyjmwRw&utm_campaign=yelp_api_v3&utm_medium=api_v3_business_search&utm_source=hBJOknVQJ58S5goQyjmwRw", "review_count": 2, "categories": [{"alias": "cafes", "title": "Cafes"}, {"alias": "coffee", "title": "Coffee & Tea"}], "rating": 4.5, "coordinates": {"latitude": 53.4157, "longitude": 10.262}, "transactions": [], "price": "\u20ac\u20ac", "location": {"address1": "Elbdeich 19", "address2": "", "address3": null, "city": "Drennhausen - Drage", "zip_code": "21423", "country": "DE", "state": "NI", "display_address": ["Elbdeich 19", "21423 Drennhausen - Drage", "Germany"]}, "phone": "+494177229", "display_phone": "+49 4177 229", "distance": 3727.5175270460422}, {"id": "vnrTvNw0oatmQ46Bu7XMZA", "alias": "cafe-raum-und-zeit-hamburg", "name": "Cafe Raum & Zeit", "image_url": "https://s3-media4.fl.yelpcdn.com/bphoto/5Xm4YiD6IsG0zZVNIrS2aQ/o.jpg", "is_closed": false, "url": "https://www.yelp.com/biz/cafe-raum-und-zeit-hamburg?adjust_creative=hBJOknVQJ58S5goQyjmwRw&utm_campaign=yelp_api_v3&utm_medium=api_v3_business_search&utm_source=hBJOknVQJ58S5goQyjmwRw", "review_count": 10, "categories": [{"alias": "cafes", "title": "Cafes"}], "rating": 4.0, "coordinates": {"latitude": 53.4809, "longitude": 10.2417}, "transactions": [], "price": "\u20ac\u20ac", "location": {"address1": "August-Bebel-Str. 196", "address2": "", "address3": null, "city": "Hamburg", "zip_code": "21029", "country": "DE", "state": "HH", "display_address": ["August-Bebel-Str. 196", "21029 Hamburg", "Germany"]}, "phone": "+494022649959", "display_phone": "+49 40 22649959", "distance": 3929.4133308526784}, {"id": "5ofzRX3nd1gxx9e9z7MASw", "alias": "pizza-max-hamburg-9", "name": "Pizza Max", "image_url": "https://s3-media3.fl.yelpcdn.com/bphoto/5laqwogK0AddypFaUxxNOg/o.jpg", "is_closed": false, "url": "https://www.yelp.com/biz/pizza-max-hamburg-9?adjust_creative=hBJOknVQJ58S5goQyjmwRw&utm_campaign=yelp_api_v3&utm_medium=api_v3_business_search&utm_source=hBJOknVQJ58S5goQyjmwRw", "review_count": 5, "categories": [{"alias": "pizza", "title": "Pizza"}], "rating": 3.5, "coordinates": {"latitude": 53.4871, "longitude": 10.2123}, "transactions": [], "price": "\u20ac\u20ac", "location": {"address1": "Bergedorfer Str. 127", "address2": null, "address3": null, "city": "Hamburg", "zip_code": "21029", "country": "DE", "state": "HH", "display_address": ["Bergedorfer Str. 127", "21029 Hamburg", "Germany"]}, "phone": "+4940720044444", "display_phone": "+49 40 720044444", "distance": 4883.4153543536995}, {"id": "ipf3737p-Jpij5seiTyztg", "alias": "november-hamburg", "name": "November", "image_url": "https://s3-media1.fl.yelpcdn.com/bphoto/Ea5h-2cr_6mpuwtUwtMqQg/o.jpg", "is_closed": false, "url": "https://www.yelp.com/biz/november-hamburg?adjust_creative=hBJOknVQJ58S5goQyjmwRw&utm_campaign=yelp_api_v3&utm_medium=api_v3_business_search&utm_source=hBJOknVQJ58S5goQyjmwRw", "review_count": 50, "categories": [{"alias": "german", "title": "German"}, {"alias": "cafes", "title": "Cafes"}, {"alias": "coffee", "title": "Coffee & Tea"}], "rating": 3.0, "coordinates": {"latitude": 53.48706, "longitude": 10.2119}, "transactions": [], "price": "\u20ac\u20ac", "location": {"address1": "Bergedorfer Str. 125", "address2": null, "address3": null, "city": "Hamburg", "zip_code": "21029", "country": "DE", "state": "HH", "display_address": ["Bergedorfer Str. 125", "21029 Hamburg", "Germany"]}, "phone": "+494073937937", "display_phone": "+49 40 73937937", "distance": 4885.796741720816}, {"id": "DEm3YYWieo1IwwnNsCMWQw", "alias": "la-puglia-hamburg", "name": "La Puglia", "image_url": "https://s3-media1.fl.yelpcdn.com/bphoto/ivRSgTjT3Jw2OWOygwZdTQ/o.jpg", "is_closed": false, "url": "https://www.yelp.com/biz/la-puglia-hamburg?adjust_creative=hBJOknVQJ58S5goQyjmwRw&utm_campaign=yelp_api_v3&utm_medium=api_v3_business_search&utm_source=hBJOknVQJ58S5goQyjmwRw", "review_count": 17, "categories": [{"alias": "italian", "title": "Italian"}], "rating": 3.0, "coordinates": {"latitude": 53.4885, "longitude": 10.2115}, "transactions": [], "price": "\u20ac\u20ac\u20ac", "location": {"address1": "Sachsentor 6", "address2": null, "address3": null, "city": "Hamburg", "zip_code": "21029", "country": "DE", "state": "HH", "display_address": ["Sachsentor 6", "21029 Hamburg", "Germany"]}, "phone": "+49407216895", "display_phone": "+49 40 7216895", "distance": 5047.829455865868}, {"id": "UsN7oty__ct1qIZLJ2SSkQ", "alias": "caf\u00e9-la-petite-rue-hamburg", "name": "Caf\u00e9 La Petite Rue", "image_url": "https://s3-media1.fl.yelpcdn.com/bphoto/2r1JCwoBnwdnpjiKD-zpjQ/o.jpg", "is_closed": false, "url": "https://www.yelp.com/biz/caf%C3%A9-la-petite-rue-hamburg?adjust_creative=hBJOknVQJ58S5goQyjmwRw&utm_campaign=yelp_api_v3&utm_medium=api_v3_business_search&utm_source=hBJOknVQJ58S5goQyjmwRw", "review_count": 5, "categories": [{"alias": "cafes", "title": "Cafes"}], "rating": 4.0, "coordinates": {"latitude": 53.488, "longitude": 10.213}, "transactions": [], "price": "\u20ac\u20ac\u20ac", "location": {"address1": "Sachsentor 29", "address2": null, "address3": null, "city": "Hamburg", "zip_code": "21029", "country": "DE", "state": "HH", "display_address": ["Sachsentor 29", "21029 Hamburg", "Germany"]}, "phone": "+494098769802", "display_phone": "+49 40 98769802", "distance": 4962.982148158394}, {"id": "YvxXpdzIc8JEAs5LrzePDQ", "alias": "ma-maison-hamburg-2", "name": "Ma Maison", "image_url": "https://s3-media4.fl.yelpcdn.com/bphoto/Rcs6oRdiwbAxRI6REbTPvw/o.jpg", "is_closed": false, "url": "https://www.yelp.com/biz/ma-maison-hamburg-2?adjust_creative=hBJOknVQJ58S5goQyjmwRw&utm_campaign=yelp_api_v3&utm_medium=api_v3_business_search&utm_source=hBJOknVQJ58S5goQyjmwRw", "review_count": 8, "categories": [{"alias": "cafes", "title": "Cafes"}, {"alias": "tapas", "title": "Tapas Bars"}], "rating": 3.0, "coordinates": {"latitude": 53.4873, "longitude": 10.21339}, "transactions": [], "price": "\u20ac\u20ac", "location": {"address1": "Hintern Graben 21", "address2": "", "address3": "", "city": "Hamburg", "zip_code": "21029", "country": "DE", "state": "HH", "display_address": ["Hintern Graben 21", "21029 Hamburg", "Germany"]}, "phone": "+494036911990", "display_phone": "+49 40 36911990", "distance": 4884.073637584876}, {"id": "QOgAHBJ-mrD0tRC3rLOEvg", "alias": "mckumpir-hamburg", "name": "McKumpir", "image_url": "https://s3-media1.fl.yelpcdn.com/bphoto/SREBizanG3oyB-ieR9shXA/o.jpg", "is_closed": false, "url": "https://www.yelp.com/biz/mckumpir-hamburg?adjust_creative=hBJOknVQJ58S5goQyjmwRw&utm_campaign=yelp_api_v3&utm_medium=api_v3_business_search&utm_source=hBJOknVQJ58S5goQyjmwRw", "review_count": 1, "categories": [{"alias": "potatoes", "title": "Potatoes"}], "rating": 5.0, "coordinates": {"latitude": 53.4868849099982, "longitude": 10.2133054286242}, "transactions": [], "location": {"address1": "Bergedorfer Str. 133", "address2": "", "address3": "", "city": "Hamburg", "zip_code": "21029", "country": "DE", "state": "HH", "display_address": ["Bergedorfer Str. 133", "21029 Hamburg", "Germany"]}, "phone": "+494055898666", "display_phone": "+49 40 55898666", "distance": 4839.042389701336}, {"id": "TttYOxgubZqsIApBXps3xw", "alias": "belami-hamburg", "name": "Belami", "image_url": "https://s3-media3.fl.yelpcdn.com/bphoto/8FOHa1w4wwLiUiW8QzdIdQ/o.jpg", "is_closed": false, "url": "https://www.yelp.com/biz/belami-hamburg?adjust_creative=hBJOknVQJ58S5goQyjmwRw&utm_campaign=yelp_api_v3&utm_medium=api_v3_business_search&utm_source=hBJOknVQJ58S5goQyjmwRw", "review_count": 15, "categories": [{"alias": "bars", "title": "Bars"}, {"alias": "beergarden", "title": "Beer Garden"}, {"alias": "german", "title": "German"}], "rating": 3.0, "coordinates": {"latitude": 53.4847, "longitude": 10.2187}, "transactions": [], "price": "\u20ac\u20ac", "location": {"address1": "Holtenklinker Str. 26", "address2": null, "address3": null, "city": "Hamburg", "zip_code": "21029", "country": "DE", "state": "HH", "display_address": ["Holtenklinker Str. 26", "21029 Hamburg", "Germany"]}, "phone": "+494072699173", "display_phone": "+49 40 72699173", "distance": 4501.624402606225}, {"id": "MjvA08ZvJZu0J29TPqUS-Q", "alias": "caf\u00e9-flop-hamburg-2", "name": "Caf\u00e9 Flop", "image_url": "", "is_closed": false, "url": "https://www.yelp.com/biz/caf%C3%A9-flop-hamburg-2?adjust_creative=hBJOknVQJ58S5goQyjmwRw&utm_campaign=yelp_api_v3&utm_medium=api_v3_business_search&utm_source=hBJOknVQJ58S5goQyjmwRw", "review_count": 2, "categories": [{"alias": "cafes", "title": "Cafes"}, {"alias": "vegan", "title": "Vegan"}], "rating": 3.5, "coordinates": {"latitude": 53.4872, "longitude": 10.2192}, "transactions": [], "price": "\u20ac", "location": {"address1": "Wentorfer Str. 26", "address2": null, "address3": null, "city": "Hamburg", "zip_code": "21029", "country": "DE", "state": "HH", "display_address": ["Wentorfer Str. 26", "21029 Hamburg", "Germany"]}, "phone": "", "display_phone": "", "distance": 4761.898749114863}, {"id": "edje85kZBoKiccEv6Wo4mQ", "alias": "grill-shop-hamburg-2", "name": "Grill Shop", "image_url": "https://s3-media4.fl.yelpcdn.com/bphoto/ODHOBZBuD4fTiVATuCUGAA/o.jpg", "is_closed": false, "url": "https://www.yelp.com/biz/grill-shop-hamburg-2?adjust_creative=hBJOknVQJ58S5goQyjmwRw&utm_campaign=yelp_api_v3&utm_medium=api_v3_business_search&utm_source=hBJOknVQJ58S5goQyjmwRw", "review_count": 6, "categories": [{"alias": "currysausage", "title": "Curry Sausage"}, {"alias": "german", "title": "German"}], "rating": 4.5, "coordinates": {"latitude": 53.48713, "longitude": 10.21846}, "transactions": [], "price": "\u20ac\u20ac", "location": {"address1": "Wentorfer Str. 20", "address2": null, "address3": null, "city": "Hamburg", "zip_code": "21029", "country": "DE", "state": "HH", "display_address": ["Wentorfer Str. 20", "21029 Hamburg", "Germany"]}, "phone": "+49407247337", "display_phone": "+49 40 7247337", "distance": 4766.6127726594505}, {"id": "g9ylvGdAVIch-Y52TLGCww", "alias": "zur-sternwarte-wentorf-bei-hamburg", "name": "Zur Sternwarte", "image_url": "", "is_closed": false, "url": "https://www.yelp.com/biz/zur-sternwarte-wentorf-bei-hamburg?adjust_creative=hBJOknVQJ58S5goQyjmwRw&utm_campaign=yelp_api_v3&utm_medium=api_v3_business_search&utm_source=hBJOknVQJ58S5goQyjmwRw", "review_count": 6, "categories": [{"alias": "international", "title": "International"}, {"alias": "italian", "title": "Italian"}, {"alias": "cakeshop", "title": "Patisserie/Cake Shop"}], "rating": 3.0, "coordinates": {"latitude": 53.481107, "longitude": 10.2438929}, "transactions": [], "price": "\u20ac\u20ac", "location": {"address1": "August-Bebel-Str. 201", "address2": null, "address3": null, "city": "Wentorf bei Hamburg", "zip_code": "21029", "country": "DE", "state": "HH", "display_address": ["August-Bebel-Str. 201", "21029 Wentorf bei Hamburg", "Germany"]}, "phone": "+49407205669", "display_phone": "+49 40 7205669", "distance": 3966.834302807682}, {"id": "JayE4rK3kl3b6_gNXpqqQw", "alias": "bla-bla-gastst\u00e4tte-hamburg-2", "name": "Bla bla Gastst\u00e4tte", "image_url": "https://s3-media4.fl.yelpcdn.com/bphoto/ZAPXKJ0xunxGQhSXkkFZAw/o.jpg", "is_closed": false, "url": "https://www.yelp.com/biz/bla-bla-gastst%C3%A4tte-hamburg-2?adjust_creative=hBJOknVQJ58S5goQyjmwRw&utm_campaign=yelp_api_v3&utm_medium=api_v3_business_search&utm_source=hBJOknVQJ58S5goQyjmwRw", "review_count": 1, "categories": [{"alias": "german", "title": "German"}], "rating": 4.0, "coordinates": {"latitude": 53.48488, "longitude": 10.2184414}, "transactions": [], "price": "\u20ac", "location": {"address1": "Holtenklinker Str.22", "address2": "", "address3": "", "city": "Hamburg", "zip_code": "21029", "country": "DE", "state": "HH", "display_address": ["Holtenklinker Str.22", "21029 Hamburg", "Germany"]}, "phone": "+49407243714", "display_phone": "+49 40 7243714", "distance": 4525.4917771896935}, {"id": "-FGEmzXxd6vzetcdQNksdg", "alias": "taverna-dimi-hamburg", "name": "Taverna Dimi", "image_url": "https://s3-media2.fl.yelpcdn.com/bphoto/T6j4KRaz6NhKa49FCqLpmA/o.jpg", "is_closed": false, "url": "https://www.yelp.com/biz/taverna-dimi-hamburg?adjust_creative=hBJOknVQJ58S5goQyjmwRw&utm_campaign=yelp_api_v3&utm_medium=api_v3_business_search&utm_source=hBJOknVQJ58S5goQyjmwRw", "review_count": 1, "categories": [{"alias": "greek", "title": "Greek"}], "rating": 1.0, "coordinates": {"latitude": 53.48597, "longitude": 10.2134}, "transactions": [], "location": {"address1": "Neuer Weg 19", "address2": null, "address3": null, "city": "Hamburg", "zip_code": "21029", "country": "DE", "state": "HH", "display_address": ["Neuer Weg 19", "21029 Hamburg", "Germany"]}, "phone": "", "display_phone": "", "distance": 4754.554607398052}]