[{"id": "TXclbOdYrVsNM2uik_m2oA", "alias": "hanseloft-buxtehude-3", "name": "HanseLoft", "image_url": "https://s3-media1.fl.yelpcdn.com/bphoto/74lClCV4LCwG8fWbKUT0sw/o.jpg", "is_closed": false, "url": "https://www.yelp.com/biz/hanseloft-buxtehude-3?adjust_creative=hBJOknVQJ58S5goQyjmwRw&utm_campaign=yelp_api_v3&utm_medium=api_v3_business_search&utm_source=hBJOknVQJ58S5goQyjmwRw", "review_count": 3, "categories": [{"alias": "italian", "title": "Italian"}, {"alias": "mediterranean", "title": "Mediterranean"}], "rating": 5.0, "coordinates": {"latitude": 53.4791, "longitude": 9.70094}, "transactions": [], "price": "\u20ac\u20ac\u20ac", "location": {"address1": "Estebr\u00fcgger Str. 2", "address2": null, "address3": null, "city": "Buxtehude", "zip_code": "21614", "country": "DE", "state": "NI", "display_address": ["Estebr\u00fcgger Str. 2", "21614 Buxtehude", "Germany"]}, "phone": "+4941615563113", "display_phone": "+49 4161 5563113", "distance": 3617.038898792701}, {"id": "oom8mBCXiSpuBi9-kGY9Dw", "alias": "amadeus-buxtehude-2", "name": "Amadeus", "image_url": "https://s3-media4.fl.yelpcdn.com/bphoto/Pp6JBkHr__tXV8K_8TL2fQ/o.jpg", "is_closed": false, "url": "https://www.yelp.com/biz/amadeus-buxtehude-2?adjust_creative=hBJOknVQJ58S5goQyjmwRw&utm_campaign=yelp_api_v3&utm_medium=api_v3_business_search&utm_source=hBJOknVQJ58S5goQyjmwRw", "review_count": 53, "categories": [{"alias": "german", "title": "German"}, {"alias": "pizza", "title": "Pizza"}, {"alias": "italian", "title": "Italian"}], "rating": 4.0, "coordinates": {"latitude": 53.4761, "longitude": 9.70005}, "transactions": [], "price": "\u20ac\u20ac", "location": {"address1": "Lange Str. 25", "address2": "", "address3": null, "city": "Buxtehude", "zip_code": "21614", "country": "DE", "state": "NI", "display_address": ["Lange Str. 25", "21614 Buxtehude", "Germany"]}, "phone": "+49416154961", "display_phone": "+49 4161 54961", "distance": 3349.310759102869}, {"id": "r8UoBfthkmPIltjH6pnbew", "alias": "seabreeze-restaurant-buxtehude-2", "name": "Seabreeze Restaurant", "image_url": "https://s3-media2.fl.yelpcdn.com/bphoto/yAWCiAJmlyqNyo9WhxyrXw/o.jpg", "is_closed": false, "url": "https://www.yelp.com/biz/seabreeze-restaurant-buxtehude-2?adjust_creative=hBJOknVQJ58S5goQyjmwRw&utm_campaign=yelp_api_v3&utm_medium=api_v3_business_search&utm_source=hBJOknVQJ58S5goQyjmwRw", "review_count": 11, "categories": [{"alias": "german", "title": "German"}], "rating": 4.5, "coordinates": {"latitude": 53.4775, "longitude": 9.70395}, "transactions": [], "price": "\u20ac\u20ac\u20ac", "location": {"address1": "Harburger Str. 4", "address2": "", "address3": null, "city": "Buxtehude", "zip_code": "21614", "country": "DE", "state": "NI", "display_address": ["Harburger Str. 4", "21614 Buxtehude", "Germany"]}, "phone": "+49416174900", "display_phone": "+49 4161 74900", "distance": 3371.1570376765058}, {"id": "EjXjO4cViVs9srn6F7HDzg", "alias": "curry-23-buxtehude", "name": "Curry 23", "image_url": "https://s3-media2.fl.yelpcdn.com/bphoto/FfvN8JlM6sj9c-x9ikGSrg/o.jpg", "is_closed": false, "url": "https://www.yelp.com/biz/curry-23-buxtehude?adjust_creative=hBJOknVQJ58S5goQyjmwRw&utm_campaign=yelp_api_v3&utm_medium=api_v3_business_search&utm_source=hBJOknVQJ58S5goQyjmwRw", "review_count": 1, "categories": [{"alias": "foodstands", "title": "Food Stands"}], "rating": 5.0, "coordinates": {"latitude": 53.4668153021172, "longitude": 9.72115159034729}, "transactions": [], "location": {"address1": "Ostmoorweg 4", "address2": "", "address3": null, "city": "Buxtehude", "zip_code": "21614", "country": "DE", "state": "NI", "display_address": ["Ostmoorweg 4", "21614 Buxtehude", "Germany"]}, "phone": "", "display_phone": "", "distance": 1899.5256137181489}, {"id": "K-c1L2ANYPM90Le7fmIAYg", "alias": "haus-fischerstra\u00dfe-3-buxtehude", "name": "Haus Fischerstra\u00dfe 3", "image_url": "https://s3-media4.fl.yelpcdn.com/bphoto/wnXiq2ywjO-T3JyAoSXVYg/o.jpg", "is_closed": false, "url": "https://www.yelp.com/biz/haus-fischerstra%C3%9Fe-3-buxtehude?adjust_creative=hBJOknVQJ58S5goQyjmwRw&utm_campaign=yelp_api_v3&utm_medium=api_v3_business_search&utm_source=hBJOknVQJ58S5goQyjmwRw", "review_count": 5, "categories": [{"alias": "german", "title": "German"}], "rating": 3.0, "coordinates": {"latitude": 53.477652, "longitude": 9.700343}, "transactions": [], "location": {"address1": "Fischerstr. 3", "address2": "", "address3": "", "city": "Buxtehude", "zip_code": "21614", "country": "DE", "state": "NI", "display_address": ["Fischerstr. 3", "21614 Buxtehude", "Germany"]}, "phone": "+4941615971442", "display_phone": "+49 4161 5971442", "distance": 3491.5499145374897}, {"id": "L0PE8l2za6T5iFmnifX3Vw", "alias": "rasa-sayang-buxtehude", "name": "Rasa Sayang", "image_url": "https://s3-media2.fl.yelpcdn.com/bphoto/4EY2OV05To7TjcYNdQxcLQ/o.jpg", "is_closed": false, "url": "https://www.yelp.com/biz/rasa-sayang-buxtehude?adjust_creative=hBJOknVQJ58S5goQyjmwRw&utm_campaign=yelp_api_v3&utm_medium=api_v3_business_search&utm_source=hBJOknVQJ58S5goQyjmwRw", "review_count": 27, "categories": [{"alias": "malaysian", "title": "Malaysian"}], "rating": 3.5, "coordinates": {"latitude": 53.4792, "longitude": 9.70002}, "transactions": [], "price": "\u20ac\u20ac", "location": {"address1": "Sch\u00fctzenhofweg 2", "address2": null, "address3": null, "city": "Buxtehude", "zip_code": "21614", "country": "DE", "state": "NI", "display_address": ["Sch\u00fctzenhofweg 2", "21614 Buxtehude", "Germany"]}, "phone": "+494161512608", "display_phone": "+49 4161 512608", "distance": 3654.1409040193676}, {"id": "CfKNEwv5DBnLcnBHYcu5-g", "alias": "restaurant-jogi-buxtehude", "name": "Restaurant Jogi", "image_url": "https://s3-media3.fl.yelpcdn.com/bphoto/O4rQNbdNCd4UpkcYIAdD3Q/o.jpg", "is_closed": false, "url": "https://www.yelp.com/biz/restaurant-jogi-buxtehude?adjust_creative=hBJOknVQJ58S5goQyjmwRw&utm_campaign=yelp_api_v3&utm_medium=api_v3_business_search&utm_source=hBJOknVQJ58S5goQyjmwRw", "review_count": 22, "categories": [{"alias": "indpak", "title": "Indian"}], "rating": 3.5, "coordinates": {"latitude": 53.47761, "longitude": 9.70044}, "transactions": [], "price": "\u20ac\u20ac", "location": {"address1": "Fischerstr. 1", "address2": "", "address3": null, "city": "Buxtehude", "zip_code": "21614", "country": "DE", "state": "NI", "display_address": ["Fischerstr. 1", "21614 Buxtehude", "Germany"]}, "phone": "+4941613347", "display_phone": "+49 4161 3347", "distance": 3484.30743210778}, {"id": "ah62ICfGdGvCYSQISOj4Vg", "alias": "der-primus-buxtehude", "name": "Der Primus", "image_url": "https://s3-media2.fl.yelpcdn.com/bphoto/vmawCp2TjCXeghNsRgZbYQ/o.jpg", "is_closed": false, "url": "https://www.yelp.com/biz/der-primus-buxtehude?adjust_creative=hBJOknVQJ58S5goQyjmwRw&utm_campaign=yelp_api_v3&utm_medium=api_v3_business_search&utm_source=hBJOknVQJ58S5goQyjmwRw", "review_count": 14, "categories": [{"alias": "german", "title": "German"}], "rating": 4.5, "coordinates": {"latitude": 53.4774513, "longitude": 9.70123}, "transactions": [], "price": "\u20ac\u20ac", "location": {"address1": "Abtstr. 8", "address2": "", "address3": "", "city": "Buxtehude", "zip_code": "21614", "country": "DE", "state": "NI", "display_address": ["Abtstr. 8", "21614 Buxtehude", "Germany"]}, "phone": "+494161558281", "display_phone": "+49 4161 558281", "distance": 3441.6699684186083}, {"id": "WAqkN36-uj_n7w8koAT-Sg", "alias": "ratskeller-buxtehude", "name": "Ratskeller", "image_url": "https://s3-media3.fl.yelpcdn.com/bphoto/xrftAow0S1-0NQocLYPH7A/o.jpg", "is_closed": false, "url": "https://www.yelp.com/biz/ratskeller-buxtehude?adjust_creative=hBJOknVQJ58S5goQyjmwRw&utm_campaign=yelp_api_v3&utm_medium=api_v3_business_search&utm_source=hBJOknVQJ58S5goQyjmwRw", "review_count": 8, "categories": [{"alias": "german", "title": "German"}], "rating": 2.5, "coordinates": {"latitude": 53.4765299, "longitude": 9.70025}, "transactions": [], "price": "\u20ac\u20ac", "location": {"address1": "Breite Str. 2", "address2": null, "address3": null, "city": "Buxtehude", "zip_code": "21614", "country": "DE", "state": "NI", "display_address": ["Breite Str. 2", "21614 Buxtehude", "Germany"]}, "phone": "+4941617529967", "display_phone": "+49 4161 7529967", "distance": 3384.574094145874}, {"id": "id08Do4Ptgy242hN7U_aDQ", "alias": "restaurant-stemmann-buxtehude", "name": "Restaurant Stemmann", "image_url": "https://s3-media4.fl.yelpcdn.com/bphoto/FCMPddHeVFhahr0aZGvmQQ/o.jpg", "is_closed": false, "url": "https://www.yelp.com/biz/restaurant-stemmann-buxtehude?adjust_creative=hBJOknVQJ58S5goQyjmwRw&utm_campaign=yelp_api_v3&utm_medium=api_v3_business_search&utm_source=hBJOknVQJ58S5goQyjmwRw", "review_count": 1, "categories": [{"alias": "german", "title": "German"}], "rating": 4.0, "coordinates": {"latitude": 53.468249, "longitude": 9.71961}, "transactions": [], "price": "\u20ac\u20ac", "location": {"address1": "Harburger Str. 110", "address2": null, "address3": null, "city": "Buxtehude", "zip_code": "21614", "country": "DE", "state": "NI", "display_address": ["Harburger Str. 110", "21614 Buxtehude", "Germany"]}, "phone": "+4941617260", "display_phone": "+49 4161 7260", "distance": 2072.636071330876}, {"id": "Woiw_v3oAYHPbQTj5YlRcA", "alias": "restaurant-ovelg\u00f6nner-hof-buxtehude", "name": "Restaurant Ovelg\u00f6nner Hof", "image_url": "", "is_closed": false, "url": "https://www.yelp.com/biz/restaurant-ovelg%C3%B6nner-hof-buxtehude?adjust_creative=hBJOknVQJ58S5goQyjmwRw&utm_campaign=yelp_api_v3&utm_medium=api_v3_business_search&utm_source=hBJOknVQJ58S5goQyjmwRw", "review_count": 2, "categories": [{"alias": "german", "title": "German"}], "rating": 2.5, "coordinates": {"latitude": 53.45131, "longitude": 9.74717}, "transactions": [], "location": {"address1": "Hamburger Chaussee 81", "address2": "", "address3": null, "city": "Buxtehude", "zip_code": "21614", "country": "DE", "state": "NI", "display_address": ["Hamburger Chaussee 81", "21614 Buxtehude", "Germany"]}, "phone": "+4941617180", "display_phone": "+49 4161 7180", "distance": 1489.581255473259}, {"id": "gkLi3qhDNfrIi8qVHEpKnQ", "alias": "pfeffert\u00f6rtchen-buxtehude", "name": "PfefferT\u00f6rtchen", "image_url": "https://s3-media2.fl.yelpcdn.com/bphoto/1Xy4XLhJeI6-5zwEws5cWw/o.jpg", "is_closed": false, "url": "https://www.yelp.com/biz/pfeffert%C3%B6rtchen-buxtehude?adjust_creative=hBJOknVQJ58S5goQyjmwRw&utm_campaign=yelp_api_v3&utm_medium=api_v3_business_search&utm_source=hBJOknVQJ58S5goQyjmwRw", "review_count": 6, "categories": [{"alias": "cafes", "title": "Cafes"}, {"alias": "bistros", "title": "Bistros"}], "rating": 3.5, "coordinates": {"latitude": 53.4771525, "longitude": 9.7017553}, "transactions": [], "location": {"address1": "St.-Petri-Platz 1 - 3", "address2": null, "address3": null, "city": "Buxtehude", "zip_code": "21614", "country": "DE", "state": "NI", "display_address": ["St.-Petri-Platz 1 - 3", "21614 Buxtehude", "Germany"]}, "phone": "+494161500888", "display_phone": "+49 4161 500888", "distance": 3399.1490869956015}, {"id": "RMKsui6Sl0-HgyPRMc1D9A", "alias": "schrader-buxtehude", "name": "Schrader", "image_url": "https://s3-media3.fl.yelpcdn.com/bphoto/TE3_i-tCWmFi5cL77CB0jg/o.jpg", "is_closed": false, "url": "https://www.yelp.com/biz/schrader-buxtehude?adjust_creative=hBJOknVQJ58S5goQyjmwRw&utm_campaign=yelp_api_v3&utm_medium=api_v3_business_search&utm_source=hBJOknVQJ58S5goQyjmwRw", "review_count": 2, "categories": [{"alias": "cafes", "title": "Cafes"}, {"alias": "bakeries", "title": "Bakeries"}], "rating": 2.5, "coordinates": {"latitude": 53.476234, "longitude": 9.6998}, "transactions": [], "price": "\u20ac\u20ac", "location": {"address1": "Lange Str. 16", "address2": "", "address3": "", "city": "Buxtehude", "zip_code": "21614", "country": "DE", "state": "NI", "display_address": ["Lange Str. 16", "21614 Buxtehude", "Germany"]}, "phone": "+4941619945651", "display_phone": "+49 4161 9945651", "distance": 3379.9147671162837}, {"id": "7qdI-lUIZvIrz3zf2xmS4g", "alias": "dionysos-buxtehude", "name": "Dionysos", "image_url": "https://s3-media3.fl.yelpcdn.com/bphoto/U00AXZMRCWApOHIMRYCTsQ/o.jpg", "is_closed": false, "url": "https://www.yelp.com/biz/dionysos-buxtehude?adjust_creative=hBJOknVQJ58S5goQyjmwRw&utm_campaign=yelp_api_v3&utm_medium=api_v3_business_search&utm_source=hBJOknVQJ58S5goQyjmwRw", "review_count": 17, "categories": [{"alias": "greek", "title": "Greek"}], "rating": 4.0, "coordinates": {"latitude": 53.477332, "longitude": 9.701388}, "transactions": [], "price": "\u20ac\u20ac", "location": {"address1": "Abtstr. 4", "address2": "", "address3": null, "city": "Buxtehude", "zip_code": "21641", "country": "DE", "state": "NI", "display_address": ["Abtstr. 4", "21641 Buxtehude", "Germany"]}, "phone": "+494161747666", "display_phone": "+49 4161 747666", "distance": 3427.96519252371}]