[{"id": "EgKKnh3rXM6vvU8ChA_Cag", "alias": "tortuga-beach-hamburg", "name": "Tortuga Beach", "image_url": "https://s3-media1.fl.yelpcdn.com/bphoto/BwMra9jGdoe_Q7uTRITDug/o.jpg", "is_closed": false, "url": "https://www.yelp.com/biz/tortuga-beach-hamburg?adjust_creative=hBJOknVQJ58S5goQyjmwRw&utm_campaign=yelp_api_v3&utm_medium=api_v3_business_search&utm_source=hBJOknVQJ58S5goQyjmwRw", "review_count": 5, "categories": [{"alias": "bars", "title": "Bars"}, {"alias": "italian", "title": "Italian"}, {"alias": "burgers", "title": "Burgers"}], "rating": 4.5, "coordinates": {"latitude": 53.4590968, "longitude": 10.0138964}, "transactions": [], "price": "\u20ac\u20ac", "location": {"address1": "Am Neul\u00e4nder Baggerteich 3", "address2": "", "address3": "", "city": "Hamburg", "zip_code": "21079", "country": "DE", "state": "HH", "display_address": ["Am Neul\u00e4nder Baggerteich 3", "21079 Hamburg", "Germany"]}, "phone": "+494915231713404", "display_phone": "+49 491 5231713404", "distance": 1504.2986778184556}, {"id": "uT9RGHTVWP8bfGQBb_iS-A", "alias": "da-bruno-e-daniele-seevetal", "name": "da Bruno e Daniele", "image_url": "https://s3-media1.fl.yelpcdn.com/bphoto/IIt_WG22rtVeQJWOFyYqMA/o.jpg", "is_closed": false, "url": "https://www.yelp.com/biz/da-bruno-e-daniele-seevetal?adjust_creative=hBJOknVQJ58S5goQyjmwRw&utm_campaign=yelp_api_v3&utm_medium=api_v3_business_search&utm_source=hBJOknVQJ58S5goQyjmwRw", "review_count": 10, "categories": [{"alias": "italian", "title": "Italian"}], "rating": 4.5, "coordinates": {"latitude": 53.4221, "longitude": 10.0215}, "transactions": [], "price": "\u20ac\u20ac", "location": {"address1": "An den H\u00f6fen  3", "address2": "", "address3": null, "city": "Seevetal", "zip_code": "21217", "country": "DE", "state": "NI", "display_address": ["An den H\u00f6fen  3", "21217 Seevetal", "Germany"]}, "phone": "+49407688005", "display_phone": "+49 40 7688005", "distance": 2860.1692476469634}, {"id": "ZvCXfKNbGRtyPno_XwkGgg", "alias": "restaurant-r\u00f6nneburger-park-hamburg", "name": "Restaurant R\u00f6nneburger Park", "image_url": "https://s3-media1.fl.yelpcdn.com/bphoto/xa5OacYVadeNgmgOjQLHdQ/o.jpg", "is_closed": false, "url": "https://www.yelp.com/biz/restaurant-r%C3%B6nneburger-park-hamburg?adjust_creative=hBJOknVQJ58S5goQyjmwRw&utm_campaign=yelp_api_v3&utm_medium=api_v3_business_search&utm_source=hBJOknVQJ58S5goQyjmwRw", "review_count": 12, "categories": [{"alias": "greek", "title": "Greek"}], "rating": 4.0, "coordinates": {"latitude": 53.4371, "longitude": 10.0043}, "transactions": [], "price": "\u20ac\u20ac", "location": {"address1": "K\u00fcstersweg 15", "address2": null, "address3": null, "city": "Hamburg", "zip_code": "21079", "country": "DE", "state": "HH", "display_address": ["K\u00fcstersweg 15", "21079 Hamburg", "Germany"]}, "phone": "+494070973551", "display_phone": "+49 40 70973551", "distance": 1861.0794410309882}, {"id": "RpZVnL5yUtAT_ekn5Pl1Hw", "alias": "bier-apotheke-seevetal", "name": "Bier-Apotheke", "image_url": "https://s3-media2.fl.yelpcdn.com/bphoto/jAY7x26l4cQZSw4QKtqHjw/o.jpg", "is_closed": false, "url": "https://www.yelp.com/biz/bier-apotheke-seevetal?adjust_creative=hBJOknVQJ58S5goQyjmwRw&utm_campaign=yelp_api_v3&utm_medium=api_v3_business_search&utm_source=hBJOknVQJ58S5goQyjmwRw", "review_count": 3, "categories": [{"alias": "pubs", "title": "Pubs"}, {"alias": "sportsbars", "title": "Sports Bars"}, {"alias": "restaurants", "title": "Restaurants"}], "rating": 4.5, "coordinates": {"latitude": 53.4208, "longitude": 10.0249}, "transactions": [], "price": "\u20ac\u20ac", "location": {"address1": "Am Felde 18", "address2": null, "address3": null, "city": "Seevetal", "zip_code": "21217", "country": "DE", "state": "NI", "display_address": ["Am Felde 18", "21217 Seevetal", "Germany"]}, "phone": "+49407686776", "display_phone": "+49 40 7686776", "distance": 2989.6220329953735}, {"id": "v0MuvytyXWDq07H_FwFH3g", "alias": "poseidon-seevetal", "name": "Poseidon", "image_url": "https://s3-media3.fl.yelpcdn.com/bphoto/pxElETpWJd4rcopI6KQHoQ/o.jpg", "is_closed": false, "url": "https://www.yelp.com/biz/poseidon-seevetal?adjust_creative=hBJOknVQJ58S5goQyjmwRw&utm_campaign=yelp_api_v3&utm_medium=api_v3_business_search&utm_source=hBJOknVQJ58S5goQyjmwRw", "review_count": 3, "categories": [{"alias": "greek", "title": "Greek"}], "rating": 4.0, "coordinates": {"latitude": 53.42236, "longitude": 10.0153}, "transactions": [], "location": {"address1": "B\u00fcrgermeister-Heitmann-Str. 34 C", "address2": "", "address3": null, "city": "Seevetal", "zip_code": "21217", "country": "DE", "state": "NI", "display_address": ["B\u00fcrgermeister-Heitmann-Str. 34 C", "21217 Seevetal", "Germany"]}, "phone": "+494069601330", "display_phone": "+49 40 69601330", "distance": 2904.2551365144022}, {"id": "wvRJ8mCla84xgmhUSDTCLQ", "alias": "taverne-antigone-seevetal", "name": "Taverne Antigone", "image_url": "https://s3-media3.fl.yelpcdn.com/bphoto/7Nw-_Wk2w57Qgt7olkpsqQ/o.jpg", "is_closed": false, "url": "https://www.yelp.com/biz/taverne-antigone-seevetal?adjust_creative=hBJOknVQJ58S5goQyjmwRw&utm_campaign=yelp_api_v3&utm_medium=api_v3_business_search&utm_source=hBJOknVQJ58S5goQyjmwRw", "review_count": 8, "categories": [{"alias": "greek", "title": "Greek"}], "rating": 5.0, "coordinates": {"latitude": 53.4221, "longitude": 10.0113}, "transactions": [], "price": "\u20ac\u20ac", "location": {"address1": "B\u00fcrgerm-Heitmann-Str. 85", "address2": null, "address3": null, "city": "Seevetal", "zip_code": "21217", "country": "DE", "state": "NI", "display_address": ["B\u00fcrgerm-Heitmann-Str. 85", "21217 Seevetal", "Germany"]}, "phone": "+49407685997", "display_phone": "+49 40 7685997", "distance": 3007.799615261166}, {"id": "svMvWfP_oj_T5ol1u3gH0A", "alias": "gasthof-sohre-hamburg", "name": "Gasthof Sohre", "image_url": "https://s3-media2.fl.yelpcdn.com/bphoto/JLMLC6GhAnw8WCg0KW-btw/o.jpg", "is_closed": false, "url": "https://www.yelp.com/biz/gasthof-sohre-hamburg?adjust_creative=hBJOknVQJ58S5goQyjmwRw&utm_campaign=yelp_api_v3&utm_medium=api_v3_business_search&utm_source=hBJOknVQJ58S5goQyjmwRw", "review_count": 20, "categories": [{"alias": "hotels", "title": "Hotels"}, {"alias": "german", "title": "German"}], "rating": 3.5, "coordinates": {"latitude": 53.4869, "longitude": 10.0163}, "transactions": [], "price": "\u20ac\u20ac", "location": {"address1": "Kirchdorfer Str. 169", "address2": null, "address3": null, "city": "Hamburg", "zip_code": "21109", "country": "DE", "state": "HH", "display_address": ["Kirchdorfer Str. 169", "21109 Hamburg", "Germany"]}, "phone": "+494031976742", "display_phone": "+49 40 31976742", "distance": 4409.128474608976}, {"id": "r86H2RdbCSvuBXG4NPe-9Q", "alias": "imbi\u00df-kutscherstube-hamburg", "name": "Imbi\u00df Kutscherstube", "image_url": "https://s3-media2.fl.yelpcdn.com/bphoto/cEabUhISIkK9plp6NE4cYw/o.jpg", "is_closed": false, "url": "https://www.yelp.com/biz/imbi%C3%9F-kutscherstube-hamburg?adjust_creative=hBJOknVQJ58S5goQyjmwRw&utm_campaign=yelp_api_v3&utm_medium=api_v3_business_search&utm_source=hBJOknVQJ58S5goQyjmwRw", "review_count": 3, "categories": [{"alias": "hotdogs", "title": "Fast Food"}], "rating": 4.5, "coordinates": {"latitude": 53.45736, "longitude": 10.01091}, "transactions": [], "price": "\u20ac", "location": {"address1": "Grossmoorbogen 11 a", "address2": "", "address3": "", "city": "Hamburg", "zip_code": "21079", "country": "DE", "state": "HH", "display_address": ["Grossmoorbogen 11 a", "21079 Hamburg", "Germany"]}, "phone": "+494033319762", "display_phone": "+49 40 33319762", "distance": 1461.4571285045106}, {"id": "RGUXwvfaYmRFORYMnjC7TA", "alias": "la-boca-seevetal", "name": "La Boca", "image_url": "https://s3-media4.fl.yelpcdn.com/bphoto/BQVIKjLqUDtfs9YkIHVLnw/o.jpg", "is_closed": false, "url": "https://www.yelp.com/biz/la-boca-seevetal?adjust_creative=hBJOknVQJ58S5goQyjmwRw&utm_campaign=yelp_api_v3&utm_medium=api_v3_business_search&utm_source=hBJOknVQJ58S5goQyjmwRw", "review_count": 4, "categories": [{"alias": "steak", "title": "Steakhouses"}], "rating": 4.0, "coordinates": {"latitude": 53.40826, "longitude": 10.016245}, "transactions": [], "price": "\u20ac\u20ac", "location": {"address1": "Gl\u00fcsinger Str. 123", "address2": "", "address3": "", "city": "Seevetal", "zip_code": "21217", "country": "DE", "state": "NI", "display_address": ["Gl\u00fcsinger Str. 123", "21217 Seevetal", "Germany"]}, "phone": "+494105152688", "display_phone": "+49 4105 152688", "distance": 4423.388065881955}, {"id": "b46QX6Nbw6Tqe1qMWGd7sg", "alias": "goldener-buddha-seevetal", "name": "Goldener Buddha", "image_url": "https://s3-media4.fl.yelpcdn.com/bphoto/JYZHI3sIY3JmZ1qHtWmeVA/o.jpg", "is_closed": false, "url": "https://www.yelp.com/biz/goldener-buddha-seevetal?adjust_creative=hBJOknVQJ58S5goQyjmwRw&utm_campaign=yelp_api_v3&utm_medium=api_v3_business_search&utm_source=hBJOknVQJ58S5goQyjmwRw", "review_count": 21, "categories": [{"alias": "chinese", "title": "Chinese"}], "rating": 3.5, "coordinates": {"latitude": 53.4168, "longitude": 10.0203}, "transactions": [], "price": "\u20ac\u20ac", "location": {"address1": "Gl\u00fcsinger Str. 54", "address2": null, "address3": null, "city": "Seevetal", "zip_code": "21217", "country": "DE", "state": "NI", "display_address": ["Gl\u00fcsinger Str. 54", "21217 Seevetal", "Germany"]}, "phone": "+49407681046", "display_phone": "+49 40 7681046", "distance": 3454.6501471786387}, {"id": "CW8OV3BVxikixMJrqVS7YQ", "alias": "taverna-kreta-seevetal", "name": "Taverna Kreta", "image_url": "", "is_closed": false, "url": "https://www.yelp.com/biz/taverna-kreta-seevetal?adjust_creative=hBJOknVQJ58S5goQyjmwRw&utm_campaign=yelp_api_v3&utm_medium=api_v3_business_search&utm_source=hBJOknVQJ58S5goQyjmwRw", "review_count": 1, "categories": [{"alias": "greek", "title": "Greek"}], "rating": 4.0, "coordinates": {"latitude": 53.42275, "longitude": 10.0299099}, "transactions": [], "price": "\u20ac\u20ac", "location": {"address1": "Am Felde 51", "address2": null, "address3": null, "city": "Seevetal", "zip_code": "21217", "country": "DE", "state": "NI", "display_address": ["Am Felde 51", "21217 Seevetal", "Germany"]}, "phone": "+494076114011", "display_phone": "+49 40 76114011", "distance": 2783.3770594456764}, {"id": "1YPoKTBjDprApFZ7ve7AnA", "alias": "moon-food-seevetal", "name": "Moon Food", "image_url": "https://s3-media3.fl.yelpcdn.com/bphoto/vZtD78ifK70cOgbGR3rcHA/o.jpg", "is_closed": false, "url": "https://www.yelp.com/biz/moon-food-seevetal?adjust_creative=hBJOknVQJ58S5goQyjmwRw&utm_campaign=yelp_api_v3&utm_medium=api_v3_business_search&utm_source=hBJOknVQJ58S5goQyjmwRw", "review_count": 1, "categories": [{"alias": "kebab", "title": "Kebab"}, {"alias": "pizza", "title": "Pizza"}, {"alias": "sandwiches", "title": "Sandwiches"}], "rating": 4.0, "coordinates": {"latitude": 53.42226, "longitude": 10.02445}, "transactions": [], "price": "\u20ac", "location": {"address1": "An den H\u00f6fen 24", "address2": "", "address3": null, "city": "Seevetal", "zip_code": "21217", "country": "DE", "state": "NI", "display_address": ["An den H\u00f6fen 24", "21217 Seevetal", "Germany"]}, "phone": "+494018119280", "display_phone": "+49 40 18119280", "distance": 2830.3610680602374}, {"id": "cN8AZ0WIpZPqf-Gp_ktrHA", "alias": "china-express-seevetal", "name": "China Express", "image_url": "https://s3-media4.fl.yelpcdn.com/bphoto/_5o-dKSR7EfbBaoPPJAg_A/o.jpg", "is_closed": false, "url": "https://www.yelp.com/biz/china-express-seevetal?adjust_creative=hBJOknVQJ58S5goQyjmwRw&utm_campaign=yelp_api_v3&utm_medium=api_v3_business_search&utm_source=hBJOknVQJ58S5goQyjmwRw", "review_count": 9, "categories": [{"alias": "chinese", "title": "Chinese"}], "rating": 4.0, "coordinates": {"latitude": 53.4200282, "longitude": 10.0209824}, "transactions": [], "price": "\u20ac\u20ac", "location": {"address1": "Gluesinger Str. 22", "address2": null, "address3": null, "city": "Seevetal", "zip_code": "21217", "country": "DE", "state": "NI", "display_address": ["Gluesinger Str. 22", "21217 Seevetal", "Germany"]}, "phone": "+494076759963", "display_phone": "+49 40 76759963", "distance": 3092.895344991718}, {"id": "UE-1d29OEoGaBKgyZfmsnQ", "alias": "schnurr-bart-seevetal", "name": "Schnurr-Bart", "image_url": "https://s3-media2.fl.yelpcdn.com/bphoto/2db7UH7qOD35M__0wZKt4w/o.jpg", "is_closed": false, "url": "https://www.yelp.com/biz/schnurr-bart-seevetal?adjust_creative=hBJOknVQJ58S5goQyjmwRw&utm_campaign=yelp_api_v3&utm_medium=api_v3_business_search&utm_source=hBJOknVQJ58S5goQyjmwRw", "review_count": 20, "categories": [{"alias": "bars", "title": "Bars"}, {"alias": "german", "title": "German"}, {"alias": "breakfast_brunch", "title": "Breakfast & Brunch"}], "rating": 3.5, "coordinates": {"latitude": 53.42342, "longitude": 10.02082}, "transactions": [], "price": "\u20ac\u20ac", "location": {"address1": "R\u00f6nneburger Str. 12", "address2": "", "address3": null, "city": "Seevetal", "zip_code": "21217", "country": "DE", "state": "NI", "display_address": ["R\u00f6nneburger Str. 12", "21217 Seevetal", "Germany"]}, "phone": "+49407688040", "display_phone": "+49 40 7688040", "distance": 2719.663646250717}, {"id": "Knjq3e0foO65SAwwNtr4mg", "alias": "kantine-stadtreinigung-hamburg", "name": "Kantine Stadtreinigung", "image_url": "", "is_closed": false, "url": "https://www.yelp.com/biz/kantine-stadtreinigung-hamburg?adjust_creative=hBJOknVQJ58S5goQyjmwRw&utm_campaign=yelp_api_v3&utm_medium=api_v3_business_search&utm_source=hBJOknVQJ58S5goQyjmwRw", "review_count": 4, "categories": [{"alias": "canteen", "title": "Canteen"}], "rating": 3.5, "coordinates": {"latitude": 53.4602, "longitude": 10.0021}, "transactions": [], "price": "\u20ac\u20ac", "location": {"address1": "Neul\u00e4nder Kamp 6", "address2": "", "address3": null, "city": "Hamburg", "zip_code": "21079", "country": "DE", "state": "HH", "display_address": ["Neul\u00e4nder Kamp 6", "21079 Hamburg", "Germany"]}, "phone": "", "display_phone": "", "distance": 2111.750982812722}, {"id": "ceta9UkTZYUYM_fBq7G_hQ", "alias": "le-meridien-hamburg-stillhorn-hamburg", "name": "Le Meridien Hamburg-Stillhorn****", "image_url": "", "is_closed": false, "url": "https://www.yelp.com/biz/le-meridien-hamburg-stillhorn-hamburg?adjust_creative=hBJOknVQJ58S5goQyjmwRw&utm_campaign=yelp_api_v3&utm_medium=api_v3_business_search&utm_source=hBJOknVQJ58S5goQyjmwRw", "review_count": 1, "categories": [{"alias": "international", "title": "International"}, {"alias": "german", "title": "German"}], "rating": 1.0, "coordinates": {"latitude": 53.48, "longitude": 10.0248}, "transactions": [], "location": {"address1": "Stillhorner Weg 40", "address2": null, "address3": null, "city": "Hamburg", "zip_code": "21109", "country": "DE", "state": "HH", "display_address": ["Stillhorner Weg 40", "21109 Hamburg", "Germany"]}, "phone": "+4940750150", "display_phone": "+49 40 750150", "distance": 3595.1223747555696}, {"id": "_jg-uq_jg1L9ASCZNd54Tg", "alias": "smileys-hamburg-19", "name": "Smileys", "image_url": "", "is_closed": false, "url": "https://www.yelp.com/biz/smileys-hamburg-19?adjust_creative=hBJOknVQJ58S5goQyjmwRw&utm_campaign=yelp_api_v3&utm_medium=api_v3_business_search&utm_source=hBJOknVQJ58S5goQyjmwRw", "review_count": 1, "categories": [{"alias": "pizza", "title": "Pizza"}], "rating": 4.0, "coordinates": {"latitude": 53.48524, "longitude": 10.01903}, "transactions": [], "price": "\u20ac\u20ac\u20ac", "location": {"address1": "Kirchdorfer Damm 3", "address2": "", "address3": "", "city": "Hamburg", "zip_code": "21109", "country": "DE", "state": "HH", "display_address": ["Kirchdorfer Damm 3", "21109 Hamburg", "Germany"]}, "phone": "+494075062232", "display_phone": "+49 40 75062232", "distance": 4214.5622184963995}, {"id": "zZAiLx6p1vM4UkE40o3VIg", "alias": "cafe-rund-seevetal", "name": "Cafe Rund", "image_url": "", "is_closed": false, "url": "https://www.yelp.com/biz/cafe-rund-seevetal?adjust_creative=hBJOknVQJ58S5goQyjmwRw&utm_campaign=yelp_api_v3&utm_medium=api_v3_business_search&utm_source=hBJOknVQJ58S5goQyjmwRw", "review_count": 1, "categories": [{"alias": "cafes", "title": "Cafes"}, {"alias": "coffee", "title": "Coffee & Tea"}], "rating": 1.0, "coordinates": {"latitude": 53.4204, "longitude": 10.0226}, "transactions": [], "location": {"address1": "Am Felde 4", "address2": null, "address3": null, "city": "Seevetal", "zip_code": "21217", "country": "DE", "state": "NI", "display_address": ["Am Felde 4", "21217 Seevetal", "Germany"]}, "phone": "+494075116144", "display_phone": "+49 40 75116144", "distance": 3041.817268392702}]