[{"id": "y19OFck2j0sD_cLTGHwciQ", "alias": "zur-alten-16-wentorf", "name": "Zur Alten 16", "image_url": "", "is_closed": false, "url": "https://www.yelp.com/biz/zur-alten-16-wentorf?adjust_creative=hBJOknVQJ58S5goQyjmwRw&utm_campaign=yelp_api_v3&utm_medium=api_v3_business_search&utm_source=hBJOknVQJ58S5goQyjmwRw", "review_count": 2, "categories": [{"alias": "german", "title": "German"}], "rating": 4.5, "coordinates": {"latitude": 53.489, "longitude": 10.2473}, "transactions": [], "price": "\u20ac\u20ac", "location": {"address1": "Hamburger Landstr. 28b", "address2": null, "address3": null, "city": "Wentorf", "zip_code": "21465", "country": "DE", "state": "SH", "display_address": ["Hamburger Landstr. 28b", "21465 Wentorf", "Germany"]}, "phone": "+49407204316", "display_phone": "+49 40 7204316", "distance": 3150.1968662141207}, {"id": "oSS5B6u4qsV56NW_fXM8oA", "alias": "najis-mittelmeer-bahnhof-b\u00f6rnsen", "name": "Naji's Mittelmeer Bahnhof", "image_url": "https://s3-media4.fl.yelpcdn.com/bphoto/0g8ty0MCZOy8QBss3LMIrw/o.jpg", "is_closed": false, "url": "https://www.yelp.com/biz/najis-mittelmeer-bahnhof-b%C3%B6rnsen?adjust_creative=hBJOknVQJ58S5goQyjmwRw&utm_campaign=yelp_api_v3&utm_medium=api_v3_business_search&utm_source=hBJOknVQJ58S5goQyjmwRw", "review_count": 18, "categories": [{"alias": "mideastern", "title": "Middle Eastern"}, {"alias": "syrian", "title": "Syrian"}, {"alias": "oriental", "title": "Oriental"}], "rating": 4.5, "coordinates": {"latitude": 53.46908, "longitude": 10.27777}, "transactions": [], "price": "\u20ac\u20ac", "location": {"address1": "Lauenburger Landstr. 18a", "address2": null, "address3": null, "city": "B\u00f6rnsen", "zip_code": "21039", "country": "DE", "state": "SH", "display_address": ["Lauenburger Landstr. 18a", "21039 B\u00f6rnsen", "Germany"]}, "phone": "+49407204740", "display_phone": "+49 40 7204740", "distance": 928.1389945258766}, {"id": "jIsBpmSeu-Ryp1uEQaGBAA", "alias": "norddeutsches-haus-hamburg", "name": "Norddeutsches Haus", "image_url": "https://s3-media1.fl.yelpcdn.com/bphoto/x0ilTs57gzucUrGmAB7y6w/o.jpg", "is_closed": false, "url": "https://www.yelp.com/biz/norddeutsches-haus-hamburg?adjust_creative=hBJOknVQJ58S5goQyjmwRw&utm_campaign=yelp_api_v3&utm_medium=api_v3_business_search&utm_source=hBJOknVQJ58S5goQyjmwRw", "review_count": 2, "categories": [{"alias": "german", "title": "German"}], "rating": 5.0, "coordinates": {"latitude": 53.4294, "longitude": 10.2917}, "transactions": [], "price": "\u20ac\u20ac", "location": {"address1": "Altengammer Elbdeich 42", "address2": null, "address3": null, "city": "Hamburg", "zip_code": "21039", "country": "DE", "state": "HH", "display_address": ["Altengammer Elbdeich 42", "21039 Hamburg", "Germany"]}, "phone": "+49407235248", "display_phone": "+49 40 7235248", "distance": 4100.772260816169}, {"id": "GEcvvuBMISOIxHyec8Xs7Q", "alias": "athena-grill-wentorf", "name": "Athena Grill", "image_url": "https://s3-media1.fl.yelpcdn.com/bphoto/SxIR5JAz7TVlLHVPkfpJ4w/o.jpg", "is_closed": false, "url": "https://www.yelp.com/biz/athena-grill-wentorf?adjust_creative=hBJOknVQJ58S5goQyjmwRw&utm_campaign=yelp_api_v3&utm_medium=api_v3_business_search&utm_source=hBJOknVQJ58S5goQyjmwRw", "review_count": 5, "categories": [{"alias": "greek", "title": "Greek"}], "rating": 4.0, "coordinates": {"latitude": 53.4913, "longitude": 10.2572}, "transactions": [], "price": "\u20ac\u20ac", "location": {"address1": "Am Grotensahl 6 - 10", "address2": null, "address3": null, "city": "Wentorf", "zip_code": "21465", "country": "DE", "state": "SH", "display_address": ["Am Grotensahl 6 - 10", "21465 Wentorf", "Germany"]}, "phone": "+494023959787", "display_phone": "+49 40 23959787", "distance": 3182.5775064782747}, {"id": "zyNzT7I7tYdCjmDSiILDBA", "alias": "thai-asia-wok-wentorf-bei-hamburg", "name": "Thai Asia Wok", "image_url": "https://s3-media4.fl.yelpcdn.com/bphoto/eHVf5_O6xDN6kEx1zMB77Q/o.jpg", "is_closed": false, "url": "https://www.yelp.com/biz/thai-asia-wok-wentorf-bei-hamburg?adjust_creative=hBJOknVQJ58S5goQyjmwRw&utm_campaign=yelp_api_v3&utm_medium=api_v3_business_search&utm_source=hBJOknVQJ58S5goQyjmwRw", "review_count": 2, "categories": [{"alias": "thai", "title": "Thai"}], "rating": 4.5, "coordinates": {"latitude": 53.487743, "longitude": 10.26275}, "transactions": [], "location": {"address1": "S\u00fcdring 46", "address2": "", "address3": "", "city": "Wentorf bei Hamburg", "zip_code": "21465", "country": "DE", "state": "SH", "display_address": ["S\u00fcdring 46", "21465 Wentorf bei Hamburg", "Germany"]}, "phone": "+494071189181", "display_phone": "+49 40 71189181", "distance": 2728.9143557411353}, {"id": "XkWCRoKT9xo3WGnYi7Fceg", "alias": "mongolei-wentorf-bei-hamburg", "name": "Mongolei", "image_url": "https://s3-media2.fl.yelpcdn.com/bphoto/v_o-gDSFYB1fz4apBLXm5Q/o.jpg", "is_closed": false, "url": "https://www.yelp.com/biz/mongolei-wentorf-bei-hamburg?adjust_creative=hBJOknVQJ58S5goQyjmwRw&utm_campaign=yelp_api_v3&utm_medium=api_v3_business_search&utm_source=hBJOknVQJ58S5goQyjmwRw", "review_count": 42, "categories": [{"alias": "mongolian", "title": "Mongolian"}, {"alias": "buffets", "title": "Buffets"}], "rating": 3.0, "coordinates": {"latitude": 53.4909, "longitude": 10.25127}, "transactions": [], "price": "\u20ac\u20ac", "location": {"address1": "Hamburger Landstr. 41", "address2": "", "address3": "", "city": "Wentorf bei Hamburg", "zip_code": "21465", "country": "DE", "state": "SH", "display_address": ["Hamburger Landstr. 41", "21465 Wentorf bei Hamburg", "Germany"]}, "phone": "+494063678388", "display_phone": "+49 40 63678388", "distance": 3253.956198243051}, {"id": "JF4a1Vg18qepoYsWyhEaJQ", "alias": "ristorante-pizzeria-luce-wentorf", "name": "Ristorante Pizzeria Luce", "image_url": "", "is_closed": false, "url": "https://www.yelp.com/biz/ristorante-pizzeria-luce-wentorf?adjust_creative=hBJOknVQJ58S5goQyjmwRw&utm_campaign=yelp_api_v3&utm_medium=api_v3_business_search&utm_source=hBJOknVQJ58S5goQyjmwRw", "review_count": 11, "categories": [{"alias": "italian", "title": "Italian"}, {"alias": "pizza", "title": "Pizza"}], "rating": 4.5, "coordinates": {"latitude": 53.4941, "longitude": 10.2557}, "transactions": [], "price": "\u20ac\u20ac\u20ac", "location": {"address1": "Hauptstr. 18", "address2": null, "address3": null, "city": "Wentorf", "zip_code": "21465", "country": "DE", "state": "SH", "display_address": ["Hauptstr. 18", "21465 Wentorf", "Germany"]}, "phone": "+49407247569", "display_phone": "+49 40 7247569", "distance": 3508.0657466245666}, {"id": "afWOLrr2PZLyeDsXZeojKg", "alias": "mundfein-pizzawerkstatt-wentorf-bei-hamburg", "name": "Mundfein Pizzawerkstatt", "image_url": "", "is_closed": false, "url": "https://www.yelp.com/biz/mundfein-pizzawerkstatt-wentorf-bei-hamburg?adjust_creative=hBJOknVQJ58S5goQyjmwRw&utm_campaign=yelp_api_v3&utm_medium=api_v3_business_search&utm_source=hBJOknVQJ58S5goQyjmwRw", "review_count": 3, "categories": [{"alias": "pizza", "title": "Pizza"}], "rating": 4.5, "coordinates": {"latitude": 53.49121, "longitude": 10.25412}, "transactions": [], "price": "\u20ac\u20ac", "location": {"address1": "Berliner Landstr. 9 a", "address2": "", "address3": "", "city": "Wentorf bei Hamburg", "zip_code": "21465", "country": "DE", "state": "SH", "display_address": ["Berliner Landstr. 9 a", "21465 Wentorf bei Hamburg", "Germany"]}, "phone": "+494076500807", "display_phone": "+49 40 76500807", "distance": 3225.6660709720727}, {"id": "u3ub5f0MS4qY67Q8XF9ZoA", "alias": "sodemanns-fisch-kutter-nr-1-hamburg", "name": "Sodemann's Fisch-Kutter Nr. 1", "image_url": "https://s3-media3.fl.yelpcdn.com/bphoto/BlysP6fVPaL0eEjKvEbByw/o.jpg", "is_closed": false, "url": "https://www.yelp.com/biz/sodemanns-fisch-kutter-nr-1-hamburg?adjust_creative=hBJOknVQJ58S5goQyjmwRw&utm_campaign=yelp_api_v3&utm_medium=api_v3_business_search&utm_source=hBJOknVQJ58S5goQyjmwRw", "review_count": 3, "categories": [{"alias": "foodtrucks", "title": "Food Trucks"}, {"alias": "fischbroetchen", "title": "Fischbroetchen"}], "rating": 5.0, "coordinates": {"latitude": 53.5537490844727, "longitude": 9.99182987213135}, "transactions": [], "price": "\u20ac\u20ac", "location": {"address1": "", "address2": null, "address3": "", "city": "Hamburg", "zip_code": "", "country": "DE", "state": "HH", "display_address": ["Hamburg", "Germany"]}, "phone": "+491773606663", "display_phone": "+49 177 3606663", "distance": 20567.190044569288}, {"id": "DVKffPJvyr_9UHWSfp5hDg", "alias": "china-restaurant-lotos-wentorf", "name": "China Restaurant Lotos", "image_url": "https://s3-media4.fl.yelpcdn.com/bphoto/yEfMH5OUPFMPgsRGQyhpxw/o.jpg", "is_closed": false, "url": "https://www.yelp.com/biz/china-restaurant-lotos-wentorf?adjust_creative=hBJOknVQJ58S5goQyjmwRw&utm_campaign=yelp_api_v3&utm_medium=api_v3_business_search&utm_source=hBJOknVQJ58S5goQyjmwRw", "review_count": 8, "categories": [{"alias": "chinese", "title": "Chinese"}], "rating": 3.5, "coordinates": {"latitude": 53.4908, "longitude": 10.2515}, "transactions": [], "price": "\u20ac\u20ac", "location": {"address1": "Hamburger Landstr. 38", "address2": null, "address3": null, "city": "Wentorf", "zip_code": "21465", "country": "DE", "state": "SH", "display_address": ["Hamburger Landstr. 38", "21465 Wentorf", "Germany"]}, "phone": "+49407203782", "display_phone": "+49 40 7203782", "distance": 3231.2848829634154}, {"id": "2_b0ipYNKYppOxzHpbyY2w", "alias": "zur-elbaussicht-drage", "name": "Zur Elbaussicht", "image_url": "https://s3-media3.fl.yelpcdn.com/bphoto/9Hl243R9u7Q_lbP-mkna1Q/o.jpg", "is_closed": false, "url": "https://www.yelp.com/biz/zur-elbaussicht-drage?adjust_creative=hBJOknVQJ58S5goQyjmwRw&utm_campaign=yelp_api_v3&utm_medium=api_v3_business_search&utm_source=hBJOknVQJ58S5goQyjmwRw", "review_count": 1, "categories": [{"alias": "restaurants", "title": "Restaurants"}], "rating": 2.0, "coordinates": {"latitude": 53.4207, "longitude": 10.2875}, "transactions": [], "price": "\u20ac\u20ac", "location": {"address1": "Elbstorfer Str. 59", "address2": null, "address3": null, "city": "Drage", "zip_code": "21423", "country": "DE", "state": "NI", "display_address": ["Elbstorfer Str. 59", "21423 Drage", "Germany"]}, "phone": "+494177711200", "display_phone": "+49 4177 711200", "distance": 4923.290363256031}, {"id": "g9ylvGdAVIch-Y52TLGCww", "alias": "zur-sternwarte-wentorf-bei-hamburg", "name": "Zur Sternwarte", "image_url": "", "is_closed": false, "url": "https://www.yelp.com/biz/zur-sternwarte-wentorf-bei-hamburg?adjust_creative=hBJOknVQJ58S5goQyjmwRw&utm_campaign=yelp_api_v3&utm_medium=api_v3_business_search&utm_source=hBJOknVQJ58S5goQyjmwRw", "review_count": 6, "categories": [{"alias": "international", "title": "International"}, {"alias": "italian", "title": "Italian"}, {"alias": "cakeshop", "title": "Patisserie/Cake Shop"}], "rating": 3.0, "coordinates": {"latitude": 53.481107, "longitude": 10.2438929}, "transactions": [], "price": "\u20ac\u20ac", "location": {"address1": "August-Bebel-Str. 201", "address2": null, "address3": null, "city": "Wentorf bei Hamburg", "zip_code": "21029", "country": "DE", "state": "HH", "display_address": ["August-Bebel-Str. 201", "21029 Wentorf bei Hamburg", "Germany"]}, "phone": "+49407205669", "display_phone": "+49 40 7205669", "distance": 2517.6601801788283}, {"id": "faKURxONbe2INqK5BXHdag", "alias": "imbiss-oase-wentorf-bei-hamburg", "name": "Imbiss Oase", "image_url": "https://s3-media3.fl.yelpcdn.com/bphoto/END3LKvUozXKb3ONNRhsyA/o.jpg", "is_closed": false, "url": "https://www.yelp.com/biz/imbiss-oase-wentorf-bei-hamburg?adjust_creative=hBJOknVQJ58S5goQyjmwRw&utm_campaign=yelp_api_v3&utm_medium=api_v3_business_search&utm_source=hBJOknVQJ58S5goQyjmwRw", "review_count": 10, "categories": [{"alias": "currysausage", "title": "Curry Sausage"}, {"alias": "hotdogs", "title": "Fast Food"}], "rating": 5.0, "coordinates": {"latitude": 53.4909899, "longitude": 10.25225}, "transactions": [], "price": "\u20ac", "location": {"address1": "Berliner Landstr. 2", "address2": "", "address3": "", "city": "Wentorf bei Hamburg", "zip_code": "21465", "country": "DE", "state": "SH", "display_address": ["Berliner Landstr. 2", "21465 Wentorf bei Hamburg", "Germany"]}, "phone": "+49407208687", "display_phone": "+49 40 7208687", "distance": 3234.2379912181045}, {"id": "Aqg4ecEucY40Icgg_yfHZw", "alias": "mcdonalds-wentorf", "name": "McDonald's", "image_url": "https://s3-media1.fl.yelpcdn.com/bphoto/liJFsyjPkIKGS7Q9L1E82A/o.jpg", "is_closed": false, "url": "https://www.yelp.com/biz/mcdonalds-wentorf?adjust_creative=hBJOknVQJ58S5goQyjmwRw&utm_campaign=yelp_api_v3&utm_medium=api_v3_business_search&utm_source=hBJOknVQJ58S5goQyjmwRw", "review_count": 7, "categories": [{"alias": "hotdogs", "title": "Fast Food"}, {"alias": "burgers", "title": "Burgers"}], "rating": 2.5, "coordinates": {"latitude": 53.4888791803109, "longitude": 10.2711432427168}, "transactions": [], "price": "\u20ac", "location": {"address1": "Immenberg 2", "address2": null, "address3": null, "city": "Wentorf", "zip_code": "21465", "country": "DE", "state": "SH", "display_address": ["Immenberg 2", "21465 Wentorf", "Germany"]}, "phone": "+494072919856", "display_phone": "+49 40 72919856", "distance": 2850.361012456995}]