[{"id": "Xj9G0gSsZLrLBp4Pu3Pt7A", "alias": "restaurant-wein-und-friesenstube-hamburg-2", "name": "Restaurant Wein- und Friesenstube", "image_url": "https://s3-media1.fl.yelpcdn.com/bphoto/D8hpInr1FNhrb_q6lsew3g/o.jpg", "is_closed": false, "url": "https://www.yelp.com/biz/restaurant-wein-und-friesenstube-hamburg-2?adjust_creative=hBJOknVQJ58S5goQyjmwRw&utm_campaign=yelp_api_v3&utm_medium=api_v3_business_search&utm_source=hBJOknVQJ58S5goQyjmwRw", "review_count": 22, "categories": [{"alias": "german", "title": "German"}], "rating": 4.0, "coordinates": {"latitude": 53.4757044, "longitude": 10.0830571}, "transactions": [], "price": "\u20ac\u20ac", "location": {"address1": "Ochsenwerder Kirchendeich 10", "address2": null, "address3": null, "city": "Hamburg", "zip_code": "21037", "country": "DE", "state": "HH", "display_address": ["Ochsenwerder Kirchendeich 10", "21037 Hamburg", "Germany"]}, "phone": "+49407374198", "display_phone": "+49 40 7374198", "distance": 1202.1978765135586}, {"id": "UFrxnnO3z2TUk_h395E1hw", "alias": "f\u00e4hrhaus-tatenberg-hamburg", "name": "F\u00e4hrhaus Tatenberg", "image_url": "https://s3-media1.fl.yelpcdn.com/bphoto/WRENH5HT6cZu8sc8dEFdhg/o.jpg", "is_closed": false, "url": "https://www.yelp.com/biz/f%C3%A4hrhaus-tatenberg-hamburg?adjust_creative=hBJOknVQJ58S5goQyjmwRw&utm_campaign=yelp_api_v3&utm_medium=api_v3_business_search&utm_source=hBJOknVQJ58S5goQyjmwRw", "review_count": 18, "categories": [{"alias": "german", "title": "German"}, {"alias": "pensions", "title": "Pensions"}], "rating": 3.5, "coordinates": {"latitude": 53.495194, "longitude": 10.0837288}, "transactions": [], "price": "\u20ac\u20ac", "location": {"address1": "Tatenberger Deich 162", "address2": "", "address3": "", "city": "Hamburg", "zip_code": "21037", "country": "DE", "state": "HH", "display_address": ["Tatenberger Deich 162", "21037 Hamburg", "Germany"]}, "phone": "+49407372227", "display_phone": "+49 40 7372227", "distance": 3350.1644337130015}, {"id": "wk3uGPny6pidyVukxwQHNA", "alias": "strandhalle-over-seevetal", "name": "Strandhalle Over", "image_url": "https://s3-media2.fl.yelpcdn.com/bphoto/S_hB6tfILT3ZYOy_Fo8u_w/o.jpg", "is_closed": false, "url": "https://www.yelp.com/biz/strandhalle-over-seevetal?adjust_creative=hBJOknVQJ58S5goQyjmwRw&utm_campaign=yelp_api_v3&utm_medium=api_v3_business_search&utm_source=hBJOknVQJ58S5goQyjmwRw", "review_count": 9, "categories": [{"alias": "german", "title": "German"}], "rating": 3.5, "coordinates": {"latitude": 53.4431, "longitude": 10.091}, "transactions": [], "price": "\u20ac\u20ac", "location": {"address1": "Sandberg 7", "address2": null, "address3": null, "city": "Seevetal", "zip_code": "21217", "country": "DE", "state": "NI", "display_address": ["Sandberg 7", "21217 Seevetal", "Germany"]}, "phone": "+4917661956689", "display_phone": "+49 176 61956689", "distance": 2464.492967402136}, {"id": "lb_5Il0RiWf-WYoleqq4SA", "alias": "zur-elbbr\u00fccke-hamburg", "name": "Zur Elbbr\u00fccke", "image_url": "https://s3-media3.fl.yelpcdn.com/bphoto/TRXDcKjduwNa11wWBF1rtA/o.jpg", "is_closed": false, "url": "https://www.yelp.com/biz/zur-elbbr%C3%BCcke-hamburg?adjust_creative=hBJOknVQJ58S5goQyjmwRw&utm_campaign=yelp_api_v3&utm_medium=api_v3_business_search&utm_source=hBJOknVQJ58S5goQyjmwRw", "review_count": 6, "categories": [{"alias": "german", "title": "German"}], "rating": 4.0, "coordinates": {"latitude": 53.501809, "longitude": 10.079916}, "transactions": [], "price": "\u20ac\u20ac", "location": {"address1": "Moorfleeter Deich 259", "address2": "", "address3": "", "city": "Hamburg", "zip_code": "22113", "country": "DE", "state": "HH", "display_address": ["Moorfleeter Deich 259", "22113 Hamburg", "Germany"]}, "phone": "+49407372304", "display_phone": "+49 40 7372304", "distance": 4115.980384342105}, {"id": "sT4XFrv0HOr0lKmkujunHg", "alias": "restaurant-cafe-essi-seevetal", "name": "Restaurant-Cafe Essi", "image_url": "", "is_closed": false, "url": "https://www.yelp.com/biz/restaurant-cafe-essi-seevetal?adjust_creative=hBJOknVQJ58S5goQyjmwRw&utm_campaign=yelp_api_v3&utm_medium=api_v3_business_search&utm_source=hBJOknVQJ58S5goQyjmwRw", "review_count": 4, "categories": [{"alias": "cafes", "title": "Cafes"}, {"alias": "international", "title": "International"}], "rating": 4.0, "coordinates": {"latitude": 53.44814, "longitude": 10.07638}, "transactions": [], "price": "\u20ac\u20ac", "location": {"address1": "L\u00fchrsweg 17", "address2": null, "address3": null, "city": "Seevetal", "zip_code": "21217", "country": "DE", "state": "NI", "display_address": ["L\u00fchrsweg 17", "21217 Seevetal", "Germany"]}, "phone": "+494085401129", "display_phone": "+49 40 85401129", "distance": 2009.0323915961292}, {"id": "oSfMMhQCa84nYUsFIW9txg", "alias": "gastst\u00e4tte-bunthaus-hamburg", "name": "Gastst\u00e4tte Bunthaus", "image_url": "https://s3-media2.fl.yelpcdn.com/bphoto/PRPWKX1iWz3qiRyKS-NPMQ/o.jpg", "is_closed": false, "url": "https://www.yelp.com/biz/gastst%C3%A4tte-bunthaus-hamburg?adjust_creative=hBJOknVQJ58S5goQyjmwRw&utm_campaign=yelp_api_v3&utm_medium=api_v3_business_search&utm_source=hBJOknVQJ58S5goQyjmwRw", "review_count": 1, "categories": [{"alias": "german", "title": "German"}], "rating": 5.0, "coordinates": {"latitude": 53.4605354299647, "longitude": 10.0638100782702}, "transactions": [], "price": "\u20ac\u20ac", "location": {"address1": "Moorwerder Hauptdeich 33", "address2": "", "address3": null, "city": "Hamburg", "zip_code": "21109", "country": "DE", "state": "HH", "display_address": ["Moorwerder Hauptdeich 33", "21109 Hamburg", "Germany"]}, "phone": "+4915122949396", "display_phone": "+49 1512 2949396", "distance": 1602.0846289911647}, {"id": "45K9V6Od-olAsZzNnCq1Ew", "alias": "marschl\u00e4nder-elblounge-hamburg", "name": "Marschl\u00e4nder Elblounge", "image_url": "https://s3-media4.fl.yelpcdn.com/bphoto/VlmCBhqXZ0ySgPD7nGTxWg/o.jpg", "is_closed": false, "url": "https://www.yelp.com/biz/marschl%C3%A4nder-elblounge-hamburg?adjust_creative=hBJOknVQJ58S5goQyjmwRw&utm_campaign=yelp_api_v3&utm_medium=api_v3_business_search&utm_source=hBJOknVQJ58S5goQyjmwRw", "review_count": 1, "categories": [{"alias": "cafes", "title": "Cafes"}], "rating": 5.0, "coordinates": {"latitude": 53.478363, "longitude": 10.062896}, "transactions": [], "location": {"address1": "Spadenl\u00e4nder Elbdeich 40", "address2": "", "address3": null, "city": "Hamburg", "zip_code": "21037", "country": "DE", "state": "HH", "display_address": ["Spadenl\u00e4nder Elbdeich 40", "21037 Hamburg", "Germany"]}, "phone": "+494089723000", "display_phone": "+49 40 89723000", "distance": 2159.1812021791998}, {"id": "dpRmaAsro244woCbG-KXsQ", "alias": "zum-eichbaum-hamburg", "name": "Zum Eichbaum", "image_url": "https://s3-media3.fl.yelpcdn.com/bphoto/7sVtbVfEtQKroT84_5DbYA/o.jpg", "is_closed": false, "url": "https://www.yelp.com/biz/zum-eichbaum-hamburg?adjust_creative=hBJOknVQJ58S5goQyjmwRw&utm_campaign=yelp_api_v3&utm_medium=api_v3_business_search&utm_source=hBJOknVQJ58S5goQyjmwRw", "review_count": 46, "categories": [{"alias": "german", "title": "German"}, {"alias": "hotels", "title": "Hotels"}], "rating": 4.0, "coordinates": {"latitude": 53.4881351625541, "longitude": 10.1045254522435}, "transactions": [], "price": "\u20ac\u20ac", "location": {"address1": "Moorfleeter Deich 477", "address2": "", "address3": "", "city": "Hamburg", "zip_code": "21037", "country": "DE", "state": "HH", "display_address": ["Moorfleeter Deich 477", "21037 Hamburg", "Germany"]}, "phone": "+49407372655", "display_phone": "+49 40 7372655", "distance": 2816.570555678549}, {"id": "HOF5OiBdvdlwq1KVzE9ZWw", "alias": "landhaus-voigt-hamburg", "name": "Landhaus Voigt", "image_url": "https://s3-media2.fl.yelpcdn.com/bphoto/iLXdjMtQuNu03XFhRfD6cQ/o.jpg", "is_closed": false, "url": "https://www.yelp.com/biz/landhaus-voigt-hamburg?adjust_creative=hBJOknVQJ58S5goQyjmwRw&utm_campaign=yelp_api_v3&utm_medium=api_v3_business_search&utm_source=hBJOknVQJ58S5goQyjmwRw", "review_count": 11, "categories": [{"alias": "german", "title": "German"}], "rating": 3.0, "coordinates": {"latitude": 53.4752032, "longitude": 10.1021493}, "transactions": [], "price": "\u20ac\u20ac", "location": {"address1": "Ochsenwerder Norderdeich  113", "address2": null, "address3": null, "city": "Hamburg", "zip_code": "21037", "country": "DE", "state": "HH", "display_address": ["Ochsenwerder Norderdeich  113", "21037 Hamburg", "Germany"]}, "phone": "+49407372440", "display_phone": "+49 40 7372440", "distance": 1515.151734120706}, {"id": "k2BdDVKGXUPzG9rsKA9x2Q", "alias": "g\u00e4rtnerei-und-hofladen-stender-hamburg", "name": "G\u00e4rtnerei & Hofladen Stender", "image_url": "https://s3-media4.fl.yelpcdn.com/bphoto/s0brJ9GmjdooD7ufgx1X5A/o.jpg", "is_closed": false, "url": "https://www.yelp.com/biz/g%C3%A4rtnerei-und-hofladen-stender-hamburg?adjust_creative=hBJOknVQJ58S5goQyjmwRw&utm_campaign=yelp_api_v3&utm_medium=api_v3_business_search&utm_source=hBJOknVQJ58S5goQyjmwRw", "review_count": 7, "categories": [{"alias": "cafes", "title": "Cafes"}, {"alias": "gardening", "title": "Nurseries & Gardening"}, {"alias": "grocery", "title": "Grocery"}], "rating": 4.5, "coordinates": {"latitude": 53.4949, "longitude": 10.0834}, "transactions": [], "price": "\u20ac\u20ac", "location": {"address1": "Tatenberger Deich 154", "address2": null, "address3": null, "city": "Hamburg", "zip_code": "21037", "country": "DE", "state": "HH", "display_address": ["Tatenberger Deich 154", "21037 Hamburg", "Germany"]}, "phone": "+49407373427", "display_phone": "+49 40 7373427", "distance": 3318.9159998560754}, {"id": "5fZ9jkrklSrRyUbPaMAWjQ", "alias": "bamboo-restaurant-hamburg", "name": "Bamboo Restaurant", "image_url": "https://s3-media1.fl.yelpcdn.com/bphoto/CJi4ntAQvSHIw0BhBFiUlA/o.jpg", "is_closed": false, "url": "https://www.yelp.com/biz/bamboo-restaurant-hamburg?adjust_creative=hBJOknVQJ58S5goQyjmwRw&utm_campaign=yelp_api_v3&utm_medium=api_v3_business_search&utm_source=hBJOknVQJ58S5goQyjmwRw", "review_count": 9, "categories": [{"alias": "chinese", "title": "Chinese"}, {"alias": "thai", "title": "Thai"}], "rating": 4.0, "coordinates": {"latitude": 53.5013803, "longitude": 10.0799064}, "transactions": [], "price": "\u20ac\u20ac", "location": {"address1": "Tatenberger Weg 1", "address2": null, "address3": null, "city": "Hamburg", "zip_code": "22113", "country": "DE", "state": "HH", "display_address": ["Tatenberger Weg 1", "22113 Hamburg", "Germany"]}, "phone": "+494078071611", "display_phone": "+49 40 78071611", "distance": 4057.4388239606446}, {"id": "HVhu33lr5QK50I8F2s9Wlw", "alias": "surf-station-elke-vollstedt-hamburg", "name": "Surf-Station Elke Vollstedt", "image_url": "https://s3-media2.fl.yelpcdn.com/bphoto/ZGud6jsBYkleQU6yHmWvFQ/o.jpg", "is_closed": false, "url": "https://www.yelp.com/biz/surf-station-elke-vollstedt-hamburg?adjust_creative=hBJOknVQJ58S5goQyjmwRw&utm_campaign=yelp_api_v3&utm_medium=api_v3_business_search&utm_source=hBJOknVQJ58S5goQyjmwRw", "review_count": 2, "categories": [{"alias": "hotdogs", "title": "Fast Food"}], "rating": 4.5, "coordinates": {"latitude": 53.4401, "longitude": 10.1015}, "transactions": [], "location": {"address1": "Overwerder Hauptdeich 1", "address2": null, "address3": null, "city": "Hamburg", "zip_code": "21037", "country": "DE", "state": "HH", "display_address": ["Overwerder Hauptdeich 1", "21037 Hamburg", "Germany"]}, "phone": "+49407374397", "display_phone": "+49 40 7374397", "distance": 2948.365690567402}, {"id": "JDkH_lSN7mAUOeFJ7et6ow", "alias": "sushi-und-cocktail-delivery-seevetal", "name": "Sushi & Cocktail Delivery", "image_url": "https://s3-media2.fl.yelpcdn.com/bphoto/CS7rji9zorr_-4kqN9QdmQ/o.jpg", "is_closed": false, "url": "https://www.yelp.com/biz/sushi-und-cocktail-delivery-seevetal?adjust_creative=hBJOknVQJ58S5goQyjmwRw&utm_campaign=yelp_api_v3&utm_medium=api_v3_business_search&utm_source=hBJOknVQJ58S5goQyjmwRw", "review_count": 12, "categories": [{"alias": "sushi", "title": "Sushi Bars"}, {"alias": "cocktailbars", "title": "Cocktail Bars"}, {"alias": "buffets", "title": "Buffets"}], "rating": 4.0, "coordinates": {"latitude": 53.4323807, "longitude": 10.0615234}, "transactions": [], "price": "\u20ac\u20ac", "location": {"address1": "Fleestedter Ring 5", "address2": "", "address3": null, "city": "Seevetal", "zip_code": "21217", "country": "DE", "state": "NI", "display_address": ["Fleestedter Ring 5", "21217 Seevetal", "Germany"]}, "phone": "+494105652551", "display_phone": "+49 4105 652551", "distance": 4005.4380915810843}, {"id": "P7YC7oThRqesvw1RFWzRAQ", "alias": "mcdonalds-hamburg-64", "name": "McDonald's", "image_url": "", "is_closed": false, "url": "https://www.yelp.com/biz/mcdonalds-hamburg-64?adjust_creative=hBJOknVQJ58S5goQyjmwRw&utm_campaign=yelp_api_v3&utm_medium=api_v3_business_search&utm_source=hBJOknVQJ58S5goQyjmwRw", "review_count": 1, "categories": [{"alias": "hotdogs", "title": "Fast Food"}, {"alias": "burgers", "title": "Burgers"}], "rating": 5.0, "coordinates": {"latitude": 53.5068487174593, "longitude": 10.0890547782183}, "transactions": [], "location": {"address1": "Amandus-Stubbe-Str. 8", "address2": "", "address3": null, "city": "Hamburg", "zip_code": "22113", "country": "DE", "state": "HH", "display_address": ["Amandus-Stubbe-Str. 8", "22113 Hamburg", "Germany"]}, "phone": "+494041928545", "display_phone": "+49 40 41928545", "distance": 4642.620258805005}, {"id": "UFgYw6g6sRPsT7CP9nsO0w", "alias": "meckelfelder-seevetal", "name": "Meckelfelder", "image_url": "https://s3-media1.fl.yelpcdn.com/bphoto/u_PiKBSlkjhXWLHTNMZ20Q/o.jpg", "is_closed": false, "url": "https://www.yelp.com/biz/meckelfelder-seevetal?adjust_creative=hBJOknVQJ58S5goQyjmwRw&utm_campaign=yelp_api_v3&utm_medium=api_v3_business_search&utm_source=hBJOknVQJ58S5goQyjmwRw", "review_count": 10, "categories": [{"alias": "greek", "title": "Greek"}], "rating": 3.5, "coordinates": {"latitude": 53.4323807, "longitude": 10.0615234}, "transactions": [], "price": "\u20ac", "location": {"address1": "B\u00fcrgermeister-Heitmann-Str. 34c", "address2": "im Helbach-Haus", "address3": null, "city": "Seevetal", "zip_code": "21217", "country": "DE", "state": "NI", "display_address": ["B\u00fcrgermeister-Heitmann-Str. 34c", "im Helbach-Haus", "21217 Seevetal", "Germany"]}, "phone": "+494023848934", "display_phone": "+49 40 23848934", "distance": 4005.4380915810843}]