[{"id": "oSfMMhQCa84nYUsFIW9txg", "alias": "gastst\u00e4tte-bunthaus-hamburg", "name": "Gastst\u00e4tte Bunthaus", "image_url": "https://s3-media2.fl.yelpcdn.com/bphoto/PRPWKX1iWz3qiRyKS-NPMQ/o.jpg", "is_closed": false, "url": "https://www.yelp.com/biz/gastst%C3%A4tte-bunthaus-hamburg?adjust_creative=hBJOknVQJ58S5goQyjmwRw&utm_campaign=yelp_api_v3&utm_medium=api_v3_business_search&utm_source=hBJOknVQJ58S5goQyjmwRw", "review_count": 1, "categories": [{"alias": "german", "title": "German"}], "rating": 5.0, "coordinates": {"latitude": 53.4605354299647, "longitude": 10.0638100782702}, "transactions": [], "price": "\u20ac\u20ac", "location": {"address1": "Moorwerder Hauptdeich 33", "address2": "", "address3": null, "city": "Hamburg", "zip_code": "21109", "country": "DE", "state": "HH", "display_address": ["Moorwerder Hauptdeich 33", "21109 Hamburg", "Germany"]}, "phone": "+4915122949396", "display_phone": "+49 1512 2949396", "distance": 719.0674247493225}, {"id": "sT4XFrv0HOr0lKmkujunHg", "alias": "restaurant-cafe-essi-seevetal", "name": "Restaurant-Cafe Essi", "image_url": "", "is_closed": false, "url": "https://www.yelp.com/biz/restaurant-cafe-essi-seevetal?adjust_creative=hBJOknVQJ58S5goQyjmwRw&utm_campaign=yelp_api_v3&utm_medium=api_v3_business_search&utm_source=hBJOknVQJ58S5goQyjmwRw", "review_count": 4, "categories": [{"alias": "cafes", "title": "Cafes"}, {"alias": "international", "title": "International"}], "rating": 4.0, "coordinates": {"latitude": 53.44814, "longitude": 10.07638}, "transactions": [], "price": "\u20ac\u20ac", "location": {"address1": "L\u00fchrsweg 17", "address2": null, "address3": null, "city": "Seevetal", "zip_code": "21217", "country": "DE", "state": "NI", "display_address": ["L\u00fchrsweg 17", "21217 Seevetal", "Germany"]}, "phone": "+494085401129", "display_phone": "+49 40 85401129", "distance": 2321.2599337958986}, {"id": "45K9V6Od-olAsZzNnCq1Ew", "alias": "marschl\u00e4nder-elblounge-hamburg", "name": "Marschl\u00e4nder Elblounge", "image_url": "https://s3-media4.fl.yelpcdn.com/bphoto/VlmCBhqXZ0ySgPD7nGTxWg/o.jpg", "is_closed": false, "url": "https://www.yelp.com/biz/marschl%C3%A4nder-elblounge-hamburg?adjust_creative=hBJOknVQJ58S5goQyjmwRw&utm_campaign=yelp_api_v3&utm_medium=api_v3_business_search&utm_source=hBJOknVQJ58S5goQyjmwRw", "review_count": 1, "categories": [{"alias": "cafes", "title": "Cafes"}], "rating": 5.0, "coordinates": {"latitude": 53.478363, "longitude": 10.062896}, "transactions": [], "location": {"address1": "Spadenl\u00e4nder Elbdeich 40", "address2": "", "address3": null, "city": "Hamburg", "zip_code": "21037", "country": "DE", "state": "HH", "display_address": ["Spadenl\u00e4nder Elbdeich 40", "21037 Hamburg", "Germany"]}, "phone": "+494089723000", "display_phone": "+49 40 89723000", "distance": 1500.9994199213413}, {"id": "lb_5Il0RiWf-WYoleqq4SA", "alias": "zur-elbbr\u00fccke-hamburg", "name": "Zur Elbbr\u00fccke", "image_url": "https://s3-media3.fl.yelpcdn.com/bphoto/TRXDcKjduwNa11wWBF1rtA/o.jpg", "is_closed": false, "url": "https://www.yelp.com/biz/zur-elbbr%C3%BCcke-hamburg?adjust_creative=hBJOknVQJ58S5goQyjmwRw&utm_campaign=yelp_api_v3&utm_medium=api_v3_business_search&utm_source=hBJOknVQJ58S5goQyjmwRw", "review_count": 6, "categories": [{"alias": "german", "title": "German"}], "rating": 4.0, "coordinates": {"latitude": 53.501809, "longitude": 10.079916}, "transactions": [], "price": "\u20ac\u20ac", "location": {"address1": "Moorfleeter Deich 259", "address2": "", "address3": "", "city": "Hamburg", "zip_code": "22113", "country": "DE", "state": "HH", "display_address": ["Moorfleeter Deich 259", "22113 Hamburg", "Germany"]}, "phone": "+49407372304", "display_phone": "+49 40 7372304", "distance": 4339.394608173702}, {"id": "JDkH_lSN7mAUOeFJ7et6ow", "alias": "sushi-und-cocktail-delivery-seevetal", "name": "Sushi & Cocktail Delivery", "image_url": "https://s3-media2.fl.yelpcdn.com/bphoto/CS7rji9zorr_-4kqN9QdmQ/o.jpg", "is_closed": false, "url": "https://www.yelp.com/biz/sushi-und-cocktail-delivery-seevetal?adjust_creative=hBJOknVQJ58S5goQyjmwRw&utm_campaign=yelp_api_v3&utm_medium=api_v3_business_search&utm_source=hBJOknVQJ58S5goQyjmwRw", "review_count": 12, "categories": [{"alias": "sushi", "title": "Sushi Bars"}, {"alias": "cocktailbars", "title": "Cocktail Bars"}, {"alias": "buffets", "title": "Buffets"}], "rating": 4.0, "coordinates": {"latitude": 53.4323807, "longitude": 10.0615234}, "transactions": [], "price": "\u20ac\u20ac", "location": {"address1": "Fleestedter Ring 5", "address2": "", "address3": null, "city": "Seevetal", "zip_code": "21217", "country": "DE", "state": "NI", "display_address": ["Fleestedter Ring 5", "21217 Seevetal", "Germany"]}, "phone": "+494105652551", "display_phone": "+49 4105 652551", "distance": 3684.636662075119}, {"id": "UFgYw6g6sRPsT7CP9nsO0w", "alias": "meckelfelder-seevetal", "name": "Meckelfelder", "image_url": "https://s3-media1.fl.yelpcdn.com/bphoto/u_PiKBSlkjhXWLHTNMZ20Q/o.jpg", "is_closed": false, "url": "https://www.yelp.com/biz/meckelfelder-seevetal?adjust_creative=hBJOknVQJ58S5goQyjmwRw&utm_campaign=yelp_api_v3&utm_medium=api_v3_business_search&utm_source=hBJOknVQJ58S5goQyjmwRw", "review_count": 10, "categories": [{"alias": "greek", "title": "Greek"}], "rating": 3.5, "coordinates": {"latitude": 53.4323807, "longitude": 10.0615234}, "transactions": [], "price": "\u20ac", "location": {"address1": "B\u00fcrgermeister-Heitmann-Str. 34c", "address2": "im Helbach-Haus", "address3": null, "city": "Seevetal", "zip_code": "21217", "country": "DE", "state": "NI", "display_address": ["B\u00fcrgermeister-Heitmann-Str. 34c", "im Helbach-Haus", "21217 Seevetal", "Germany"]}, "phone": "+494023848934", "display_phone": "+49 40 23848934", "distance": 3684.636662075119}, {"id": "5fZ9jkrklSrRyUbPaMAWjQ", "alias": "bamboo-restaurant-hamburg", "name": "Bamboo Restaurant", "image_url": "https://s3-media1.fl.yelpcdn.com/bphoto/CJi4ntAQvSHIw0BhBFiUlA/o.jpg", "is_closed": false, "url": "https://www.yelp.com/biz/bamboo-restaurant-hamburg?adjust_creative=hBJOknVQJ58S5goQyjmwRw&utm_campaign=yelp_api_v3&utm_medium=api_v3_business_search&utm_source=hBJOknVQJ58S5goQyjmwRw", "review_count": 9, "categories": [{"alias": "chinese", "title": "Chinese"}, {"alias": "thai", "title": "Thai"}], "rating": 4.0, "coordinates": {"latitude": 53.5013803, "longitude": 10.0799064}, "transactions": [], "price": "\u20ac\u20ac", "location": {"address1": "Tatenberger Weg 1", "address2": null, "address3": null, "city": "Hamburg", "zip_code": "22113", "country": "DE", "state": "HH", "display_address": ["Tatenberger Weg 1", "22113 Hamburg", "Germany"]}, "phone": "+494078071611", "display_phone": "+49 40 78071611", "distance": 4288.085920869916}]