[{"id": "agbaBEb4rmoaZ3h09UTdIg", "alias": "taverna-olympiade-hamburg", "name": "Taverna Olympiade", "image_url": "https://s3-media2.fl.yelpcdn.com/bphoto/l3RqEs4VVt2PVK03nqKtEg/o.jpg", "is_closed": false, "url": "https://www.yelp.com/biz/taverna-olympiade-hamburg?adjust_creative=hBJOknVQJ58S5goQyjmwRw&utm_campaign=yelp_api_v3&utm_medium=api_v3_business_search&utm_source=hBJOknVQJ58S5goQyjmwRw", "review_count": 15, "categories": [{"alias": "greek", "title": "Greek"}], "rating": 4.5, "coordinates": {"latitude": 53.4602, "longitude": 9.93516}, "transactions": [], "price": "\u20ac\u20ac", "location": {"address1": "Heimfelder Str. 145", "address2": null, "address3": null, "city": "Hamburg", "zip_code": "21075", "country": "DE", "state": "HH", "display_address": ["Heimfelder Str. 145", "21075 Hamburg", "Germany"]}, "phone": "+49407924901", "display_phone": "+49 40 7924901", "distance": 691.803036940591}, {"id": "ZaXibVd2g4B38GUxI22v4Q", "alias": "restaurant-achilion-hamburg", "name": "Restaurant Achilion", "image_url": "https://s3-media3.fl.yelpcdn.com/bphoto/vWLPOmJxY6wdjefjBtLWfw/o.jpg", "is_closed": false, "url": "https://www.yelp.com/biz/restaurant-achilion-hamburg?adjust_creative=hBJOknVQJ58S5goQyjmwRw&utm_campaign=yelp_api_v3&utm_medium=api_v3_business_search&utm_source=hBJOknVQJ58S5goQyjmwRw", "review_count": 16, "categories": [{"alias": "greek", "title": "Greek"}], "rating": 4.5, "coordinates": {"latitude": 53.4583, "longitude": 9.9493}, "transactions": [], "price": "\u20ac", "location": {"address1": "Denickestr. 158", "address2": null, "address3": null, "city": "Hamburg", "zip_code": "21075", "country": "DE", "state": "HH", "display_address": ["Denickestr. 158", "21075 Hamburg", "Germany"]}, "phone": "+494088161166", "display_phone": "+49 40 88161166", "distance": 1252.4571607959747}, {"id": "gmU8_qjS5m4hKHl3g2M7wA", "alias": "lindenhof-hamburg", "name": "Lindenhof", "image_url": "https://s3-media2.fl.yelpcdn.com/bphoto/Q_1KHRQcbF6q5k7VqrLJCg/o.jpg", "is_closed": false, "url": "https://www.yelp.com/biz/lindenhof-hamburg?adjust_creative=hBJOknVQJ58S5goQyjmwRw&utm_campaign=yelp_api_v3&utm_medium=api_v3_business_search&utm_source=hBJOknVQJ58S5goQyjmwRw", "review_count": 17, "categories": [{"alias": "greek", "title": "Greek"}], "rating": 3.5, "coordinates": {"latitude": 53.46411, "longitude": 9.955298}, "transactions": [], "price": "\u20ac\u20ac", "location": {"address1": "Heimfelder Str. 44", "address2": null, "address3": null, "city": "Hamburg", "zip_code": "21075", "country": "DE", "state": "HH", "display_address": ["Heimfelder Str. 44", "21075 Hamburg", "Germany"]}, "phone": "+49407924111", "display_phone": "+49 40 7924111", "distance": 1293.1616776008862}, {"id": "T6ysCn_BgVcAVlIEcQhs4A", "alias": "sahlings-gasthaus-hamburg", "name": "Sahling's Gasthaus", "image_url": "https://s3-media3.fl.yelpcdn.com/bphoto/EdIsNoi-EThBNslj18EnKw/o.jpg", "is_closed": false, "url": "https://www.yelp.com/biz/sahlings-gasthaus-hamburg?adjust_creative=hBJOknVQJ58S5goQyjmwRw&utm_campaign=yelp_api_v3&utm_medium=api_v3_business_search&utm_source=hBJOknVQJ58S5goQyjmwRw", "review_count": 21, "categories": [{"alias": "greek", "title": "Greek"}, {"alias": "hotels", "title": "Hotels"}], "rating": 4.5, "coordinates": {"latitude": 53.4519, "longitude": 9.95489}, "transactions": [], "price": "\u20ac\u20ac", "location": {"address1": "Friedhofstr. 10", "address2": null, "address3": null, "city": "Hamburg", "zip_code": "21073", "country": "DE", "state": "HH", "display_address": ["Friedhofstr. 10", "21073 Hamburg", "Germany"]}, "phone": "+49407903505", "display_phone": "+49 40 7903505", "distance": 2034.1771960764336}, {"id": "C38fRvXCYl8dUQEl3nAqnQ", "alias": "bruzzelh\u00fctte-hamburg", "name": "Bruzzelh\u00fctte", "image_url": "https://s3-media2.fl.yelpcdn.com/bphoto/l2CObMSf7WtplrxoKI_3ZQ/o.jpg", "is_closed": false, "url": "https://www.yelp.com/biz/bruzzelh%C3%BCtte-hamburg?adjust_creative=hBJOknVQJ58S5goQyjmwRw&utm_campaign=yelp_api_v3&utm_medium=api_v3_business_search&utm_source=hBJOknVQJ58S5goQyjmwRw", "review_count": 40, "categories": [{"alias": "hotdogs", "title": "Fast Food"}, {"alias": "german", "title": "German"}], "rating": 4.5, "coordinates": {"latitude": 53.446203, "longitude": 9.957467}, "transactions": [], "price": "\u20ac", "location": {"address1": "Bremer Str. 239", "address2": "", "address3": "", "city": "Hamburg", "zip_code": "21079", "country": "DE", "state": "HH", "display_address": ["Bremer Str. 239", "21079 Hamburg", "Germany"]}, "phone": "+49407607828", "display_phone": "+49 40 7607828", "distance": 2654.8777301715727}, {"id": "LqO9oPYXKNQxbKlkmyKReg", "alias": "wasserturm-hamburg", "name": "Wasserturm", "image_url": "https://s3-media4.fl.yelpcdn.com/bphoto/BvzyILpjqUODGP785QymbQ/o.jpg", "is_closed": false, "url": "https://www.yelp.com/biz/wasserturm-hamburg?adjust_creative=hBJOknVQJ58S5goQyjmwRw&utm_campaign=yelp_api_v3&utm_medium=api_v3_business_search&utm_source=hBJOknVQJ58S5goQyjmwRw", "review_count": 30, "categories": [{"alias": "german", "title": "German"}], "rating": 4.5, "coordinates": {"latitude": 53.4897384, "longitude": 9.9364869}, "transactions": [], "price": "\u20ac\u20ac", "location": {"address1": "Moorburger Elbdeich 161", "address2": null, "address3": null, "city": "Hamburg", "zip_code": "21079", "country": "DE", "state": "HH", "display_address": ["Moorburger Elbdeich 161", "21079 Hamburg", "Germany"]}, "phone": "+494043188959", "display_phone": "+49 40 43188959", "distance": 2595.8801146006285}, {"id": "GXPKNQKMxeSXcIkc1uGpBg", "alias": "dubrovnik-hamburg-4", "name": "Dubrovnik", "image_url": "https://s3-media2.fl.yelpcdn.com/bphoto/wNr19wNaj6nFEzI2vP9GZw/o.jpg", "is_closed": false, "url": "https://www.yelp.com/biz/dubrovnik-hamburg-4?adjust_creative=hBJOknVQJ58S5goQyjmwRw&utm_campaign=yelp_api_v3&utm_medium=api_v3_business_search&utm_source=hBJOknVQJ58S5goQyjmwRw", "review_count": 16, "categories": [{"alias": "serbocroatian", "title": "Serbo Croatian"}], "rating": 4.0, "coordinates": {"latitude": 53.4496867879809, "longitude": 9.93726177417375}, "transactions": [], "price": "\u20ac\u20ac", "location": {"address1": "Hainholzweg 69", "address2": "", "address3": "", "city": "Hamburg", "zip_code": "21077", "country": "DE", "state": "HH", "display_address": ["Hainholzweg 69", "21077 Hamburg", "Germany"]}, "phone": "+494079142842", "display_phone": "+49 40 79142842", "distance": 1859.227071540773}, {"id": "Y3Bsu-Fkjhsw8VEaYylimw", "alias": "gastst\u00e4tte-lilium-hamburg", "name": "Gastst\u00e4tte Lilium", "image_url": "https://s3-media4.fl.yelpcdn.com/bphoto/hydPM-3cO8eXzQjdgjrqOg/o.jpg", "is_closed": false, "url": "https://www.yelp.com/biz/gastst%C3%A4tte-lilium-hamburg?adjust_creative=hBJOknVQJ58S5goQyjmwRw&utm_campaign=yelp_api_v3&utm_medium=api_v3_business_search&utm_source=hBJOknVQJ58S5goQyjmwRw", "review_count": 1, "categories": [{"alias": "german", "title": "German"}], "rating": 5.0, "coordinates": {"latitude": 53.4609, "longitude": 9.94004}, "transactions": [], "location": {"address1": "Heimfelder Str. 123", "address2": null, "address3": null, "city": "Hamburg", "zip_code": "21075", "country": "DE", "state": "HH", "display_address": ["Heimfelder Str. 123", "21075 Hamburg", "Germany"]}, "phone": "+4940790090", "display_phone": "+49 40 790090", "distance": 663.1377770901452}, {"id": "MC0hhfCNSBo7BrJjDR8BNw", "alias": "la-granja-hamburg", "name": "La Granja", "image_url": "https://s3-media2.fl.yelpcdn.com/bphoto/uTcrOlZKL4nBP_xXGN-ggA/o.jpg", "is_closed": false, "url": "https://www.yelp.com/biz/la-granja-hamburg?adjust_creative=hBJOknVQJ58S5goQyjmwRw&utm_campaign=yelp_api_v3&utm_medium=api_v3_business_search&utm_source=hBJOknVQJ58S5goQyjmwRw", "review_count": 17, "categories": [{"alias": "german", "title": "German"}], "rating": 4.5, "coordinates": {"latitude": 53.4352, "longitude": 9.93557}, "transactions": [], "price": "\u20ac\u20ac", "location": {"address1": "Bremer Str. 343", "address2": null, "address3": null, "city": "Hamburg", "zip_code": "21077", "country": "DE", "state": "HH", "display_address": ["Bremer Str. 343", "21077 Hamburg", "Germany"]}, "phone": "+49408816155866", "display_phone": "+49 40 8816155866", "distance": 3468.813814804127}, {"id": "n-CJZHJlOatDhZAvinMJeA", "alias": "restaurant-medousa-hamburg", "name": "Restaurant Medousa", "image_url": "https://s3-media4.fl.yelpcdn.com/bphoto/B4SDErtDvIQ8Ct0GpnQwXA/o.jpg", "is_closed": false, "url": "https://www.yelp.com/biz/restaurant-medousa-hamburg?adjust_creative=hBJOknVQJ58S5goQyjmwRw&utm_campaign=yelp_api_v3&utm_medium=api_v3_business_search&utm_source=hBJOknVQJ58S5goQyjmwRw", "review_count": 5, "categories": [{"alias": "greek", "title": "Greek"}], "rating": 4.0, "coordinates": {"latitude": 53.4459, "longitude": 9.95691}, "transactions": [], "price": "\u20ac\u20ac", "location": {"address1": "Bremer Str. 241", "address2": null, "address3": null, "city": "Hamburg", "zip_code": "21077", "country": "DE", "state": "HH", "display_address": ["Bremer Str. 241", "21077 Hamburg", "Germany"]}, "phone": "+494076111465", "display_phone": "+49 40 76111465", "distance": 2661.5033083528556}, {"id": "OjiJ_8pv3PQJbH1Rbxd6Vw", "alias": "hatay-imbiss-hamburg", "name": "Hatay Imbiss", "image_url": "", "is_closed": false, "url": "https://www.yelp.com/biz/hatay-imbiss-hamburg?adjust_creative=hBJOknVQJ58S5goQyjmwRw&utm_campaign=yelp_api_v3&utm_medium=api_v3_business_search&utm_source=hBJOknVQJ58S5goQyjmwRw", "review_count": 1, "categories": [{"alias": "hotdogs", "title": "Fast Food"}], "rating": 4.0, "coordinates": {"latitude": 53.4628, "longitude": 9.94953}, "transactions": [], "location": {"address1": "Heimfelder Str. 4", "address2": null, "address3": null, "city": "Hamburg", "zip_code": "21075", "country": "DE", "state": "HH", "display_address": ["Heimfelder Str. 4", "21075 Hamburg", "Germany"]}, "phone": "+494079140646", "display_phone": "+49 40 79140646", "distance": 972.118089312661}, {"id": "u3ub5f0MS4qY67Q8XF9ZoA", "alias": "sodemanns-fisch-kutter-nr-1-hamburg", "name": "Sodemann's Fisch-Kutter Nr. 1", "image_url": "https://s3-media3.fl.yelpcdn.com/bphoto/BlysP6fVPaL0eEjKvEbByw/o.jpg", "is_closed": false, "url": "https://www.yelp.com/biz/sodemanns-fisch-kutter-nr-1-hamburg?adjust_creative=hBJOknVQJ58S5goQyjmwRw&utm_campaign=yelp_api_v3&utm_medium=api_v3_business_search&utm_source=hBJOknVQJ58S5goQyjmwRw", "review_count": 3, "categories": [{"alias": "foodtrucks", "title": "Food Trucks"}, {"alias": "fischbroetchen", "title": "Fischbroetchen"}], "rating": 5.0, "coordinates": {"latitude": 53.5537490844727, "longitude": 9.99182987213135}, "transactions": [], "price": "\u20ac\u20ac", "location": {"address1": "", "address2": null, "address3": "", "city": "Hamburg", "zip_code": "", "country": "DE", "state": "HH", "display_address": ["Hamburg", "Germany"]}, "phone": "+491773606663", "display_phone": "+49 177 3606663", "distance": 10156.782358132554}, {"id": "nMGEgMT3fOc2xt6APKt7Yg", "alias": "caf\u00e9-beerental-das-tortenparadies-hamburg", "name": "Caf\u00e9 Beerental \"Das Tortenparadies\"", "image_url": "https://s3-media4.fl.yelpcdn.com/bphoto/XqHA-i5rrsrxZ97WA9tC9w/o.jpg", "is_closed": false, "url": "https://www.yelp.com/biz/caf%C3%A9-beerental-das-tortenparadies-hamburg?adjust_creative=hBJOknVQJ58S5goQyjmwRw&utm_campaign=yelp_api_v3&utm_medium=api_v3_business_search&utm_source=hBJOknVQJ58S5goQyjmwRw", "review_count": 13, "categories": [{"alias": "cafes", "title": "Cafes"}], "rating": 4.5, "coordinates": {"latitude": 53.44908, "longitude": 9.95292}, "transactions": [], "price": "\u20ac\u20ac", "location": {"address1": "Beerentalweg 46", "address2": null, "address3": null, "city": "Hamburg", "zip_code": "21077", "country": "DE", "state": "HH", "display_address": ["Beerentalweg 46", "21077 Hamburg", "Germany"]}, "phone": "+49171x3817395", "display_phone": "+49 171 ext. 3817395", "distance": 2206.975471881175}, {"id": "RUvELTNuACC7Q89V3-0QbQ", "alias": "mcdonalds-hamburg-10", "name": "McDonald's", "image_url": "https://s3-media2.fl.yelpcdn.com/bphoto/fM32vOY4bl5EwLtw0hyMVw/o.jpg", "is_closed": false, "url": "https://www.yelp.com/biz/mcdonalds-hamburg-10?adjust_creative=hBJOknVQJ58S5goQyjmwRw&utm_campaign=yelp_api_v3&utm_medium=api_v3_business_search&utm_source=hBJOknVQJ58S5goQyjmwRw", "review_count": 7, "categories": [{"alias": "hotdogs", "title": "Fast Food"}, {"alias": "burgers", "title": "Burgers"}], "rating": 2.5, "coordinates": {"latitude": 53.4709864343674, "longitude": 9.92870281507347}, "transactions": [], "price": "\u20ac\u20ac", "location": {"address1": "Stader Str. 256", "address2": "", "address3": "", "city": "Hamburg", "zip_code": "21075", "country": "DE", "state": "HH", "display_address": ["Stader Str. 256", "21075 Hamburg", "Germany"]}, "phone": "+49407923009", "display_phone": "+49 40 7923009", "distance": 709.429543391125}, {"id": "kfGyGne8Qn3mxvhXHzMIyQ", "alias": "burger-king-hamburg-3", "name": "Burger King", "image_url": "https://s3-media2.fl.yelpcdn.com/bphoto/vlyYJMsm8pyi6cVRGoOL9g/o.jpg", "is_closed": false, "url": "https://www.yelp.com/biz/burger-king-hamburg-3?adjust_creative=hBJOknVQJ58S5goQyjmwRw&utm_campaign=yelp_api_v3&utm_medium=api_v3_business_search&utm_source=hBJOknVQJ58S5goQyjmwRw", "review_count": 14, "categories": [{"alias": "hotdogs", "title": "Fast Food"}, {"alias": "burgers", "title": "Burgers"}], "rating": 3.0, "coordinates": {"latitude": 53.471143, "longitude": 9.922511}, "transactions": [], "price": "\u20ac\u20ac", "location": {"address1": "Stader Str. 302", "address2": "", "address3": null, "city": "Hamburg", "zip_code": "21075", "country": "DE", "state": "HH", "display_address": ["Stader Str. 302", "21075 Hamburg", "Germany"]}, "phone": "+494079143649", "display_phone": "+49 40 79143649", "distance": 1045.4632356358056}, {"id": "HGZAdxmEZja3-J06xwYzwQ", "alias": "imbiss-johann-b\u00f6ttcher-hamburg", "name": "Imbiss Johann B\u00f6ttcher", "image_url": "", "is_closed": false, "url": "https://www.yelp.com/biz/imbiss-johann-b%C3%B6ttcher-hamburg?adjust_creative=hBJOknVQJ58S5goQyjmwRw&utm_campaign=yelp_api_v3&utm_medium=api_v3_business_search&utm_source=hBJOknVQJ58S5goQyjmwRw", "review_count": 4, "categories": [{"alias": "food", "title": "Food"}, {"alias": "currysausage", "title": "Curry Sausage"}], "rating": 5.0, "coordinates": {"latitude": 53.4649, "longitude": 9.96122}, "transactions": [], "location": {"address1": "Heimfelder Str. 13", "address2": null, "address3": null, "city": "Hamburg", "zip_code": "21075", "country": "DE", "state": "HH", "display_address": ["Heimfelder Str. 13", "21075 Hamburg", "Germany"]}, "phone": "+49407906980", "display_phone": "+49 40 7906980", "distance": 1668.2635673099153}, {"id": "obRhSBOl1pAwV8Jz-02KFQ", "alias": "smileys-hamburg-16", "name": "Smiley's", "image_url": "https://s3-media4.fl.yelpcdn.com/bphoto/SM1dMiMPeCYBJDwYukb6kA/o.jpg", "is_closed": false, "url": "https://www.yelp.com/biz/smileys-hamburg-16?adjust_creative=hBJOknVQJ58S5goQyjmwRw&utm_campaign=yelp_api_v3&utm_medium=api_v3_business_search&utm_source=hBJOknVQJ58S5goQyjmwRw", "review_count": 15, "categories": [{"alias": "pizza", "title": "Pizza"}], "rating": 4.5, "coordinates": {"latitude": 53.45651, "longitude": 9.95963}, "transactions": [], "price": "\u20ac\u20ac", "location": {"address1": "Ei\u00dfendorfer Str. 161 a", "address2": null, "address3": null, "city": "Hamburg", "zip_code": "21073", "country": "DE", "state": "HH", "display_address": ["Ei\u00dfendorfer Str. 161 a", "21073 Hamburg", "Germany"]}, "phone": "+49407905600", "display_phone": "+49 40 7905600", "distance": 1904.0849353521855}, {"id": "Cf-sLIwvllFcN6QwXUH3MA", "alias": "hotel-majest\u00e4tische-aussicht-restaurant-pegasos-hamburg", "name": "Hotel Majest\u00e4tische Aussicht Restaurant Pegasos", "image_url": "https://s3-media3.fl.yelpcdn.com/bphoto/_JvVM76k2iNEhBJ4c85Vrg/o.jpg", "is_closed": false, "url": "https://www.yelp.com/biz/hotel-majest%C3%A4tische-aussicht-restaurant-pegasos-hamburg?adjust_creative=hBJOknVQJ58S5goQyjmwRw&utm_campaign=yelp_api_v3&utm_medium=api_v3_business_search&utm_source=hBJOknVQJ58S5goQyjmwRw", "review_count": 13, "categories": [{"alias": "hotels", "title": "Hotels"}, {"alias": "restaurants", "title": "Restaurants"}], "rating": 4.0, "coordinates": {"latitude": 53.4531, "longitude": 9.92459}, "transactions": [], "price": "\u20ac\u20ac\u20ac", "location": {"address1": "Ehestorfer Weg 215", "address2": null, "address3": null, "city": "Hamburg", "zip_code": "21075", "country": "DE", "state": "HH", "display_address": ["Ehestorfer Weg 215", "21075 Hamburg", "Germany"]}, "phone": "+49407906190", "display_phone": "+49 40 7906190", "distance": 1664.3697616390718}, {"id": "JqMC608vO708M-83lqNlWA", "alias": "kfc-hamburg-14", "name": "KFC", "image_url": "https://s3-media3.fl.yelpcdn.com/bphoto/ofONpb_sd7M69vVfPLYcdA/o.jpg", "is_closed": false, "url": "https://www.yelp.com/biz/kfc-hamburg-14?adjust_creative=hBJOknVQJ58S5goQyjmwRw&utm_campaign=yelp_api_v3&utm_medium=api_v3_business_search&utm_source=hBJOknVQJ58S5goQyjmwRw", "review_count": 21, "categories": [{"alias": "hotdogs", "title": "Fast Food"}, {"alias": "chicken_wings", "title": "Chicken Wings"}, {"alias": "chickenshop", "title": "Chicken Shop"}], "rating": 2.5, "coordinates": {"latitude": 53.4713017, "longitude": 9.936842}, "transactions": [], "price": "\u20ac\u20ac\u20ac", "location": {"address1": "Stader Str. 200", "address2": null, "address3": null, "city": "Hamburg", "zip_code": "21075", "country": "DE", "state": "HH", "display_address": ["Stader Str. 200", "21075 Hamburg", "Germany"]}, "phone": "+494079140500", "display_phone": "+49 40 79140500", "distance": 547.6733125107191}, {"id": "-DqKJtRy-0yc1NmCCWSXtQ", "alias": "am-hainholz-hamburg", "name": "Am Hainholz", "image_url": "", "is_closed": false, "url": "https://www.yelp.com/biz/am-hainholz-hamburg?adjust_creative=hBJOknVQJ58S5goQyjmwRw&utm_campaign=yelp_api_v3&utm_medium=api_v3_business_search&utm_source=hBJOknVQJ58S5goQyjmwRw", "review_count": 1, "categories": [{"alias": "cafes", "title": "Cafes"}, {"alias": "coffee", "title": "Coffee & Tea"}], "rating": 5.0, "coordinates": {"latitude": 53.4499, "longitude": 9.93798}, "transactions": [], "location": {"address1": "Hainholzweg 65", "address2": null, "address3": null, "city": "Hamburg", "zip_code": "21077", "country": "DE", "state": "HH", "display_address": ["Hainholzweg 65", "21077 Hamburg", "Germany"]}, "phone": "+49407924672", "display_phone": "+49 40 7924672", "distance": 1838.0712346766734}, {"id": "yonxXSPPDv5w0KwdARHKoA", "alias": "zur-gr\u00fcnen-tanne-hamburg", "name": "Zur Gr\u00fcnen Tanne", "image_url": "https://s3-media2.fl.yelpcdn.com/bphoto/DXbLk4UhZ4TEoWKjYyUBSg/o.jpg", "is_closed": false, "url": "https://www.yelp.com/biz/zur-gr%C3%BCnen-tanne-hamburg?adjust_creative=hBJOknVQJ58S5goQyjmwRw&utm_campaign=yelp_api_v3&utm_medium=api_v3_business_search&utm_source=hBJOknVQJ58S5goQyjmwRw", "review_count": 3, "categories": [{"alias": "international", "title": "International"}, {"alias": "beergarden", "title": "Beer Garden"}], "rating": 3.5, "coordinates": {"latitude": 53.4400119, "longitude": 9.943916}, "transactions": [], "price": "\u20ac\u20ac", "location": {"address1": "Bremer Str. 307", "address2": null, "address3": null, "city": "Hamburg", "zip_code": "21077", "country": "DE", "state": "HH", "display_address": ["Bremer Str. 307", "21077 Hamburg", "Germany"]}, "phone": "+494076116092", "display_phone": "+49 40 76116092", "distance": 2978.3566627512882}, {"id": "2jzIbZsfzca5drJYk7JwbQ", "alias": "the-bao-bros-hamburg-2", "name": "The Bao Bros", "image_url": "https://s3-media1.fl.yelpcdn.com/bphoto/vUMA4Y35x3UwZk6fMJfZRw/o.jpg", "is_closed": false, "url": "https://www.yelp.com/biz/the-bao-bros-hamburg-2?adjust_creative=hBJOknVQJ58S5goQyjmwRw&utm_campaign=yelp_api_v3&utm_medium=api_v3_business_search&utm_source=hBJOknVQJ58S5goQyjmwRw", "review_count": 2, "categories": [{"alias": "foodtrucks", "title": "Food Trucks"}, {"alias": "burgers", "title": "Burgers"}], "rating": 4.0, "coordinates": {"latitude": 53.5533409118652, "longitude": 9.99246978759766}, "transactions": [], "price": "\u20ac", "location": {"address1": "", "address2": "", "address3": "", "city": "Hamburg", "zip_code": "", "country": "DE", "state": "HH", "display_address": ["Hamburg", "Germany"]}, "phone": "+4915140700076", "display_phone": "+49 1514 0700076", "distance": 10156.779880880149}, {"id": "WD4KmmTtqnOn8kJMC4er1w", "alias": "ready-pizza-hamburg-3", "name": "Ready Pizza", "image_url": "", "is_closed": false, "url": "https://www.yelp.com/biz/ready-pizza-hamburg-3?adjust_creative=hBJOknVQJ58S5goQyjmwRw&utm_campaign=yelp_api_v3&utm_medium=api_v3_business_search&utm_source=hBJOknVQJ58S5goQyjmwRw", "review_count": 6, "categories": [{"alias": "fooddeliveryservices", "title": "Food Delivery Services"}, {"alias": "italian", "title": "Italian"}], "rating": 4.0, "coordinates": {"latitude": 53.456669, "longitude": 9.958456}, "transactions": [], "price": "\u20ac", "location": {"address1": "Ei\u00dfendorferstr. 130", "address2": "", "address3": "", "city": "Hamburg", "zip_code": "21073", "country": "DE", "state": "HH", "display_address": ["Ei\u00dfendorferstr. 130", "21073 Hamburg", "Germany"]}, "phone": "", "display_phone": "", "distance": 1825.9462196294573}]