[{"id": "yY91P0JuKq9Q6rISo-gbHQ", "alias": "porter-house-hamburg", "name": "Porter House", "image_url": "https://s3-media2.fl.yelpcdn.com/bphoto/FvG79MEEOgZROLC9IthiMA/o.jpg", "is_closed": false, "url": "https://www.yelp.com/biz/porter-house-hamburg?adjust_creative=hBJOknVQJ58S5goQyjmwRw&utm_campaign=yelp_api_v3&utm_medium=api_v3_business_search&utm_source=hBJOknVQJ58S5goQyjmwRw", "review_count": 6, "categories": [{"alias": "steak", "title": "Steakhouses"}, {"alias": "serbocroatian", "title": "Serbo Croatian"}], "rating": 4.5, "coordinates": {"latitude": 53.4651, "longitude": 10.2016}, "transactions": [], "price": "\u20ac\u20ac", "location": {"address1": "Curslacker Deich 375", "address2": null, "address3": null, "city": "Hamburg", "zip_code": "21039", "country": "DE", "state": "HH", "display_address": ["Curslacker Deich 375", "21039 Hamburg", "Germany"]}, "phone": "+49403609440", "display_phone": "+49 40 3609440", "distance": 1623.526359763143}, {"id": "uediSPOOphx_pjHdEh8o6w", "alias": "restaurant-zu-den-deichstuben-hamburg", "name": "Restaurant zu den Deichstuben", "image_url": "https://s3-media1.fl.yelpcdn.com/bphoto/IJlctgP696sK-5FHAxkqSg/o.jpg", "is_closed": false, "url": "https://www.yelp.com/biz/restaurant-zu-den-deichstuben-hamburg?adjust_creative=hBJOknVQJ58S5goQyjmwRw&utm_campaign=yelp_api_v3&utm_medium=api_v3_business_search&utm_source=hBJOknVQJ58S5goQyjmwRw", "review_count": 4, "categories": [{"alias": "german", "title": "German"}], "rating": 4.5, "coordinates": {"latitude": 53.472344, "longitude": 10.172569}, "transactions": [], "price": "\u20ac", "location": {"address1": "Hotel am Deich", "address2": "Allerm\u00f6her Werftstegel 3", "address3": "", "city": "Hamburg", "zip_code": "21037", "country": "DE", "state": "HH", "display_address": ["Hotel am Deich", "Allerm\u00f6her Werftstegel 3", "21037 Hamburg", "Germany"]}, "phone": "+49407237370", "display_phone": "+49 40 7237370", "distance": 948.8492125180965}, {"id": "uL2lgxX9ZyWuL5b_tM3V7w", "alias": "china-restaurant-allerm\u00f6he-hamburg", "name": "China-Restaurant Allerm\u00f6he", "image_url": "https://s3-media2.fl.yelpcdn.com/bphoto/AbVHJir-u9JuBtyaxLvB4Q/o.jpg", "is_closed": false, "url": "https://www.yelp.com/biz/china-restaurant-allerm%C3%B6he-hamburg?adjust_creative=hBJOknVQJ58S5goQyjmwRw&utm_campaign=yelp_api_v3&utm_medium=api_v3_business_search&utm_source=hBJOknVQJ58S5goQyjmwRw", "review_count": 6, "categories": [{"alias": "chinese", "title": "Chinese"}], "rating": 4.5, "coordinates": {"latitude": 53.4868, "longitude": 10.1803}, "transactions": [], "location": {"address1": "Edith-Stein-Platz 4", "address2": null, "address3": null, "city": "Hamburg", "zip_code": "21035", "country": "DE", "state": "HH", "display_address": ["Edith-Stein-Platz 4", "21035 Hamburg", "Germany"]}, "phone": "+49407353803", "display_phone": "+49 40 7353803", "distance": 2514.8509397783373}, {"id": "2owx8XU_Kh6NQYkWDCOHfA", "alias": "ristorante-mamma-mia-hamburg-5", "name": "Ristorante Mamma Mia", "image_url": "https://s3-media3.fl.yelpcdn.com/bphoto/64VOXDsDgkuWJbdgQROXFw/o.jpg", "is_closed": false, "url": "https://www.yelp.com/biz/ristorante-mamma-mia-hamburg-5?adjust_creative=hBJOknVQJ58S5goQyjmwRw&utm_campaign=yelp_api_v3&utm_medium=api_v3_business_search&utm_source=hBJOknVQJ58S5goQyjmwRw", "review_count": 2, "categories": [{"alias": "italian", "title": "Italian"}], "rating": 2.5, "coordinates": {"latitude": 53.4852198, "longitude": 10.1994549}, "transactions": [], "price": "\u20ac\u20ac\u20ac", "location": {"address1": "Am G\u00fcterbahnhof 17 e", "address2": "", "address3": "", "city": "Hamburg", "zip_code": "21035", "country": "DE", "state": "HH", "display_address": ["Am G\u00fcterbahnhof 17 e", "21035 Hamburg", "Germany"]}, "phone": "+494072697898", "display_phone": "+49 40 72697898", "distance": 2759.7521498919664}, {"id": "Cw7U5VNrO8Xc8RbOyv1eGg", "alias": "pi4-greek-soul-food-hamburg-2", "name": "pi4 - greek soul food", "image_url": "https://s3-media3.fl.yelpcdn.com/bphoto/A_3KhSDI4tMTXAeWTA-y8A/o.jpg", "is_closed": false, "url": "https://www.yelp.com/biz/pi4-greek-soul-food-hamburg-2?adjust_creative=hBJOknVQJ58S5goQyjmwRw&utm_campaign=yelp_api_v3&utm_medium=api_v3_business_search&utm_source=hBJOknVQJ58S5goQyjmwRw", "review_count": 3, "categories": [{"alias": "greek", "title": "Greek"}], "rating": 3.5, "coordinates": {"latitude": 53.4832364781722, "longitude": 10.174944403876}, "transactions": [], "price": "\u20ac\u20ac", "location": {"address1": "Grachtenplatz", "address2": "", "address3": "", "city": "Hamburg", "zip_code": "21035", "country": "DE", "state": "HH", "display_address": ["Grachtenplatz", "21035 Hamburg", "Germany"]}, "phone": "+494070103141", "display_phone": "+49 40 70103141", "distance": 2114.6359846330242}, {"id": "PdMnHFRCwzO1PGqvfCpnrg", "alias": "mensa-bergedorf-hamburg", "name": "Mensa Bergedorf", "image_url": "https://s3-media3.fl.yelpcdn.com/bphoto/A_DvNmVuKDG-fakHiga7pA/o.jpg", "is_closed": false, "url": "https://www.yelp.com/biz/mensa-bergedorf-hamburg?adjust_creative=hBJOknVQJ58S5goQyjmwRw&utm_campaign=yelp_api_v3&utm_medium=api_v3_business_search&utm_source=hBJOknVQJ58S5goQyjmwRw", "review_count": 3, "categories": [{"alias": "canteen", "title": "Canteen"}], "rating": 5.0, "coordinates": {"latitude": 53.493, "longitude": 10.1984}, "transactions": [], "location": {"address1": "Ulmenliet 20", "address2": null, "address3": null, "city": "Hamburg", "zip_code": "21033", "country": "DE", "state": "HH", "display_address": ["Ulmenliet 20", "21033 Hamburg", "Germany"]}, "phone": "+49407217633", "display_phone": "+49 40 7217633", "distance": 3492.0879672819888}, {"id": "QvEg8ddyF1ZbpZ-q1YxnwA", "alias": "asia-center-hamburg", "name": "Asia Center", "image_url": "", "is_closed": false, "url": "https://www.yelp.com/biz/asia-center-hamburg?adjust_creative=hBJOknVQJ58S5goQyjmwRw&utm_campaign=yelp_api_v3&utm_medium=api_v3_business_search&utm_source=hBJOknVQJ58S5goQyjmwRw", "review_count": 1, "categories": [{"alias": "fooddeliveryservices", "title": "Food Delivery Services"}, {"alias": "panasian", "title": "Pan Asian"}], "rating": 5.0, "coordinates": {"latitude": 53.4803637665279, "longitude": 10.1983971129925}, "transactions": [], "location": {"address1": "Randersweide 2 a", "address2": "", "address3": "", "city": "Hamburg", "zip_code": "21035", "country": "DE", "state": "HH", "display_address": ["Randersweide 2 a", "21035 Hamburg", "Germany"]}, "phone": "+4949407397395", "display_phone": "+49 4940 7397395", "distance": 2278.0177628318997}, {"id": "-ihNFjY9pJ247MVW51LvEQ", "alias": "sushi-f\u00fcr-hamburg-hamburg", "name": "Sushi f\u00fcr Hamburg", "image_url": "https://s3-media2.fl.yelpcdn.com/bphoto/TIW2Y3kO9P52-2lQFrCqtA/o.jpg", "is_closed": false, "url": "https://www.yelp.com/biz/sushi-f%C3%BCr-hamburg-hamburg?adjust_creative=hBJOknVQJ58S5goQyjmwRw&utm_campaign=yelp_api_v3&utm_medium=api_v3_business_search&utm_source=hBJOknVQJ58S5goQyjmwRw", "review_count": 5, "categories": [{"alias": "sushi", "title": "Sushi Bars"}, {"alias": "buffets", "title": "Buffets"}], "rating": 4.5, "coordinates": {"latitude": 53.48534, "longitude": 10.19983}, "transactions": [], "price": "\u20ac\u20ac", "location": {"address1": "Am G\u00fcterbahnhof 8", "address2": "", "address3": "", "city": "Hamburg", "zip_code": "21035", "country": "DE", "state": "HH", "display_address": ["Am G\u00fcterbahnhof 8", "21035 Hamburg", "Germany"]}, "phone": "+494072545474", "display_phone": "+49 40 72545474", "distance": 2779.5244997156315}, {"id": "5hLgt7EOAsakw7gvQXO2hg", "alias": "restaurant-kreta-hamburg-2", "name": "Restaurant Kreta", "image_url": "", "is_closed": false, "url": "https://www.yelp.com/biz/restaurant-kreta-hamburg-2?adjust_creative=hBJOknVQJ58S5goQyjmwRw&utm_campaign=yelp_api_v3&utm_medium=api_v3_business_search&utm_source=hBJOknVQJ58S5goQyjmwRw", "review_count": 1, "categories": [{"alias": "greek", "title": "Greek"}], "rating": 5.0, "coordinates": {"latitude": 53.4833, "longitude": 10.175}, "transactions": [], "price": "\u20ac\u20ac", "location": {"address1": "Grachtenplatz 11", "address2": null, "address3": null, "city": "Hamburg", "zip_code": "21035", "country": "DE", "state": "HH", "display_address": ["Grachtenplatz 11", "21035 Hamburg", "Germany"]}, "phone": "+494028575975", "display_phone": "+49 40 28575975", "distance": 2121.4371378458213}, {"id": "BuWxbW6pbqxsXs0eB7hrWA", "alias": "west-grill-hamburg", "name": "West Grill", "image_url": "", "is_closed": false, "url": "https://www.yelp.com/biz/west-grill-hamburg?adjust_creative=hBJOknVQJ58S5goQyjmwRw&utm_campaign=yelp_api_v3&utm_medium=api_v3_business_search&utm_source=hBJOknVQJ58S5goQyjmwRw", "review_count": 2, "categories": [{"alias": "kebab", "title": "Kebab"}], "rating": 3.5, "coordinates": {"latitude": 53.48927, "longitude": 10.18128}, "transactions": [], "location": {"address1": "Friedrich-Frank-Bogen 49", "address2": null, "address3": null, "city": "Hamburg", "zip_code": "21033", "country": "DE", "state": "HH", "display_address": ["Friedrich-Frank-Bogen 49", "21033 Hamburg", "Germany"]}, "phone": "", "display_phone": "", "distance": 2794.281173421215}, {"id": "uH_upvPztOicOQbLPKIxBg", "alias": "benvenuto-hamburg", "name": "Benvenuto", "image_url": "https://s3-media2.fl.yelpcdn.com/bphoto/WO2Ty4AGyxqQTia9wtCWCg/o.jpg", "is_closed": false, "url": "https://www.yelp.com/biz/benvenuto-hamburg?adjust_creative=hBJOknVQJ58S5goQyjmwRw&utm_campaign=yelp_api_v3&utm_medium=api_v3_business_search&utm_source=hBJOknVQJ58S5goQyjmwRw", "review_count": 1, "categories": [{"alias": "italian", "title": "Italian"}], "rating": 5.0, "coordinates": {"latitude": 53.483309, "longitude": 10.175063}, "transactions": [], "location": {"address1": "Grachtenplatz 11", "address2": "", "address3": "", "city": "Hamburg", "zip_code": "21035", "country": "DE", "state": "HH", "display_address": ["Grachtenplatz 11", "21035 Hamburg", "Germany"]}, "phone": "+494023814224", "display_phone": "+49 40 23814224", "distance": 2149.624232606317}, {"id": "5ZD5tiAehHozj6CNAa_57g", "alias": "china-und-thai-lieferservice-hamburg", "name": "China & Thai Lieferservice", "image_url": "https://s3-media2.fl.yelpcdn.com/bphoto/gkXjoR3DDIyBKWvq2YJpOg/o.jpg", "is_closed": false, "url": "https://www.yelp.com/biz/china-und-thai-lieferservice-hamburg?adjust_creative=hBJOknVQJ58S5goQyjmwRw&utm_campaign=yelp_api_v3&utm_medium=api_v3_business_search&utm_source=hBJOknVQJ58S5goQyjmwRw", "review_count": 6, "categories": [{"alias": "panasian", "title": "Pan Asian"}], "rating": 3.5, "coordinates": {"latitude": 53.4881508, "longitude": 10.1970707}, "transactions": [], "price": "\u20ac\u20ac", "location": {"address1": "Kurt-A.-K\u00f6rber-Chaussee 39 d", "address2": null, "address3": null, "city": "Hamburg", "zip_code": "21033", "country": "DE", "state": "HH", "display_address": ["Kurt-A.-K\u00f6rber-Chaussee 39 d", "21033 Hamburg", "Germany"]}, "phone": "", "display_phone": "", "distance": 2966.409257070696}, {"id": "EyRhmv16rRxKLtyuVHlaGg", "alias": "panorama-hamburg", "name": "Panorama", "image_url": "https://s3-media2.fl.yelpcdn.com/bphoto/tVnH_ZzV0I7Mdidhd7vgYg/o.jpg", "is_closed": false, "url": "https://www.yelp.com/biz/panorama-hamburg?adjust_creative=hBJOknVQJ58S5goQyjmwRw&utm_campaign=yelp_api_v3&utm_medium=api_v3_business_search&utm_source=hBJOknVQJ58S5goQyjmwRw", "review_count": 2, "categories": [{"alias": "mediterranean", "title": "Mediterranean"}, {"alias": "greek", "title": "Greek"}], "rating": 4.0, "coordinates": {"latitude": 53.4832369247714, "longitude": 10.1749044343861}, "transactions": [], "price": "\u20ac\u20ac", "location": {"address1": "Grachtenplatz 11", "address2": null, "address3": "", "city": "Hamburg", "zip_code": "21035", "country": "DE", "state": "HH", "display_address": ["Grachtenplatz 11", "21035 Hamburg", "Germany"]}, "phone": "+49407211888", "display_phone": "+49 40 7211888", "distance": 2114.866823876251}, {"id": "ssPTSOBjG7hS3h7hcOHsYQ", "alias": "rindocks-hamburg-3", "name": "Rindock's", "image_url": "https://s3-media2.fl.yelpcdn.com/bphoto/maMn7v-b7qsW214K30FKeQ/o.jpg", "is_closed": false, "url": "https://www.yelp.com/biz/rindocks-hamburg-3?adjust_creative=hBJOknVQJ58S5goQyjmwRw&utm_campaign=yelp_api_v3&utm_medium=api_v3_business_search&utm_source=hBJOknVQJ58S5goQyjmwRw", "review_count": 1, "categories": [{"alias": "steak", "title": "Steakhouses"}], "rating": 4.0, "coordinates": {"latitude": 53.50291, "longitude": 10.19312}, "transactions": [], "location": {"address1": "Lohbr\u00fcgger Landstr. 119", "address2": "", "address3": null, "city": "Hamburg", "zip_code": "21031", "country": "DE", "state": "HH", "display_address": ["Lohbr\u00fcgger Landstr. 119", "21031 Hamburg", "Germany"]}, "phone": "+494072106755", "display_phone": "+49 40 72106755", "distance": 4423.6536918936345}, {"id": "gvtbA9qV81QUCbQLCmLJ_A", "alias": "hof-neun-linden-hamburg", "name": "Hof Neun Linden", "image_url": "https://s3-media2.fl.yelpcdn.com/bphoto/WIFol5c1vAeZWyafy6dtzw/o.jpg", "is_closed": false, "url": "https://www.yelp.com/biz/hof-neun-linden-hamburg?adjust_creative=hBJOknVQJ58S5goQyjmwRw&utm_campaign=yelp_api_v3&utm_medium=api_v3_business_search&utm_source=hBJOknVQJ58S5goQyjmwRw", "review_count": 7, "categories": [{"alias": "cafes", "title": "Cafes"}, {"alias": "organic_stores", "title": "Organic Stores"}], "rating": 4.5, "coordinates": {"latitude": 53.5047, "longitude": 10.16919}, "transactions": [], "price": "\u20ac\u20ac\u20ac", "location": {"address1": "Billwerder Billdeich 480", "address2": "", "address3": "", "city": "Hamburg", "zip_code": "21033", "country": "DE", "state": "HH", "display_address": ["Billwerder Billdeich 480", "21033 Hamburg", "Germany"]}, "phone": "+494073928199", "display_phone": "+49 40 73928199", "distance": 4517.917013218321}, {"id": "dGHvj7ZvUZcTMzLWoNlb0A", "alias": "dorfkrug-hamburg-3", "name": "Dorfkrug", "image_url": "https://s3-media4.fl.yelpcdn.com/bphoto/hlW6I8HGP3zTxxLSTNhBEw/o.jpg", "is_closed": false, "url": "https://www.yelp.com/biz/dorfkrug-hamburg-3?adjust_creative=hBJOknVQJ58S5goQyjmwRw&utm_campaign=yelp_api_v3&utm_medium=api_v3_business_search&utm_source=hBJOknVQJ58S5goQyjmwRw", "review_count": 30, "categories": [{"alias": "german", "title": "German"}], "rating": 3.0, "coordinates": {"latitude": 53.5069, "longitude": 10.1622}, "transactions": [], "price": "\u20ac\u20ac", "location": {"address1": "Boberger Furtweg 1", "address2": null, "address3": null, "city": "Hamburg", "zip_code": "21033", "country": "DE", "state": "HH", "display_address": ["Boberger Furtweg 1", "21033 Hamburg", "Germany"]}, "phone": "+49407398190", "display_phone": "+49 40 7398190", "distance": 4842.620446465031}, {"id": "U8ZdmizPZNi-wSW6nyMr5A", "alias": "croque-und-co-hamburg", "name": "Croque & Co.", "image_url": "https://s3-media4.fl.yelpcdn.com/bphoto/PHAgCtgXFSk8DFOajWt9fw/o.jpg", "is_closed": false, "url": "https://www.yelp.com/biz/croque-und-co-hamburg?adjust_creative=hBJOknVQJ58S5goQyjmwRw&utm_campaign=yelp_api_v3&utm_medium=api_v3_business_search&utm_source=hBJOknVQJ58S5goQyjmwRw", "review_count": 2, "categories": [{"alias": "italian", "title": "Italian"}], "rating": 2.0, "coordinates": {"latitude": 53.5008366509923, "longitude": 10.1987437158823}, "transactions": [], "price": "\u20ac\u20ac", "location": {"address1": "Lohbr\u00fcgger Landstr.80", "address2": "", "address3": "", "city": "Hamburg", "zip_code": "21031", "country": "DE", "state": "HH", "display_address": ["Lohbr\u00fcgger Landstr.80", "21031 Hamburg", "Germany"]}, "phone": "+491115x2230", "display_phone": "+49 1115 ext. 2230", "distance": 4311.281027003781}, {"id": "YwskX4DDso1WQLrpsERCuw", "alias": "aldos-pizzeria-und-more-e-k-hamburg", "name": "Aldo's Pizzeria & More e.K.", "image_url": "https://s3-media2.fl.yelpcdn.com/bphoto/behwUs-gqFl_WC37C2AlfA/o.jpg", "is_closed": false, "url": "https://www.yelp.com/biz/aldos-pizzeria-und-more-e-k-hamburg?adjust_creative=hBJOknVQJ58S5goQyjmwRw&utm_campaign=yelp_api_v3&utm_medium=api_v3_business_search&utm_source=hBJOknVQJ58S5goQyjmwRw", "review_count": 2, "categories": [{"alias": "pizza", "title": "Pizza"}, {"alias": "italian", "title": "Italian"}], "rating": 4.0, "coordinates": {"latitude": 53.5009, "longitude": 10.1984}, "transactions": [], "price": "\u20ac", "location": {"address1": "Lohbr\u00fcgger Landstr. 80", "address2": null, "address3": null, "city": "Hamburg", "zip_code": "21031", "country": "DE", "state": "HH", "display_address": ["Lohbr\u00fcgger Landstr. 80", "21031 Hamburg", "Germany"]}, "phone": "+494089725548", "display_phone": "+49 40 89725548", "distance": 4310.441137039179}, {"id": "uFh86dusfDcIqUPZlAPWjA", "alias": "panos-grill-spezialit\u00e4ten-hamburg", "name": "Panos Grill Spezialit\u00e4ten", "image_url": "https://s3-media4.fl.yelpcdn.com/bphoto/R0pc3flO-9MYTnple4DP0Q/o.jpg", "is_closed": false, "url": "https://www.yelp.com/biz/panos-grill-spezialit%C3%A4ten-hamburg?adjust_creative=hBJOknVQJ58S5goQyjmwRw&utm_campaign=yelp_api_v3&utm_medium=api_v3_business_search&utm_source=hBJOknVQJ58S5goQyjmwRw", "review_count": 3, "categories": [{"alias": "hotdogs", "title": "Fast Food"}, {"alias": "greek", "title": "Greek"}], "rating": 2.5, "coordinates": {"latitude": 53.4887605, "longitude": 10.1948387}, "transactions": [], "price": "\u20ac\u20ac", "location": {"address1": "Kurt-A.-K\u00f6rber-Chaussee 53", "address2": null, "address3": null, "city": "Hamburg", "zip_code": "21033", "country": "DE", "state": "HH", "display_address": ["Kurt-A.-K\u00f6rber-Chaussee 53", "21033 Hamburg", "Germany"]}, "phone": "+494072541187", "display_phone": "+49 40 72541187", "distance": 2965.8020139711257}, {"id": "fa8IxUKMS_g7Vb5OZM4nrQ", "alias": "bacchus-hamburg-4", "name": "Bacchus", "image_url": "https://s3-media3.fl.yelpcdn.com/bphoto/-I-BNlVpKhsuJNkmmW-tNA/o.jpg", "is_closed": false, "url": "https://www.yelp.com/biz/bacchus-hamburg-4?adjust_creative=hBJOknVQJ58S5goQyjmwRw&utm_campaign=yelp_api_v3&utm_medium=api_v3_business_search&utm_source=hBJOknVQJ58S5goQyjmwRw", "review_count": 4, "categories": [{"alias": "greek", "title": "Greek"}], "rating": 4.0, "coordinates": {"latitude": 53.50132, "longitude": 10.1976}, "transactions": [], "location": {"address1": "Lohbr\u00fcgger Landstr. 90", "address2": "", "address3": null, "city": "Hamburg", "zip_code": "21031", "country": "DE", "state": "HH", "display_address": ["Lohbr\u00fcgger Landstr. 90", "21031 Hamburg", "Germany"]}, "phone": "+49407398990", "display_phone": "+49 40 7398990", "distance": 4342.842216120753}, {"id": "cFLgL5djHrgc4x8w-5SrRw", "alias": "akropolis-grill-bei-tasso-hamburg", "name": "Akropolis Grill bei Tasso", "image_url": "", "is_closed": false, "url": "https://www.yelp.com/biz/akropolis-grill-bei-tasso-hamburg?adjust_creative=hBJOknVQJ58S5goQyjmwRw&utm_campaign=yelp_api_v3&utm_medium=api_v3_business_search&utm_source=hBJOknVQJ58S5goQyjmwRw", "review_count": 1, "categories": [{"alias": "greek", "title": "Greek"}], "rating": 3.0, "coordinates": {"latitude": 53.4867, "longitude": 10.1799}, "transactions": [], "price": "\u20ac", "location": {"address1": "Edith-Stein-Platz 3", "address2": null, "address3": null, "city": "Hamburg", "zip_code": "21035", "country": "DE", "state": "HH", "display_address": ["Edith-Stein-Platz 3", "21035 Hamburg", "Germany"]}, "phone": "+49407353281", "display_phone": "+49 40 7353281", "distance": 2501.6808927260336}]