[{"id": "SW6EzuoNeoPTfpWySBiXXQ", "alias": "bei-fernando-hamburg", "name": "Bei Fernando", "image_url": "https://s3-media1.fl.yelpcdn.com/bphoto/BJnblbsN53uNoYjIC6oCBg/o.jpg", "is_closed": false, "url": "https://www.yelp.com/biz/bei-fernando-hamburg?adjust_creative=hBJOknVQJ58S5goQyjmwRw&utm_campaign=yelp_api_v3&utm_medium=api_v3_business_search&utm_source=hBJOknVQJ58S5goQyjmwRw", "review_count": 20, "categories": [{"alias": "portuguese", "title": "Portuguese"}], "rating": 4.5, "coordinates": {"latitude": 53.463421, "longitude": 9.9815204}, "transactions": [], "price": "\u20ac\u20ac", "location": {"address1": "Schlo\u00dfm\u00fchlendamm 29", "address2": null, "address3": null, "city": "Hamburg", "zip_code": "21073", "country": "DE", "state": "HH", "display_address": ["Schlo\u00dfm\u00fchlendamm 29", "21073 Hamburg", "Germany"]}, "phone": "+494032506758", "display_phone": "+49 40 32506758", "distance": 1022.2968006251956}, {"id": "a7H6qeYZwANboH-6prvHng", "alias": "meson-galicia-hamburg-2", "name": "Meson Galicia", "image_url": "https://s3-media4.fl.yelpcdn.com/bphoto/e_GwgldkKtliK-e2NMKbFA/o.jpg", "is_closed": false, "url": "https://www.yelp.com/biz/meson-galicia-hamburg-2?adjust_creative=hBJOknVQJ58S5goQyjmwRw&utm_campaign=yelp_api_v3&utm_medium=api_v3_business_search&utm_source=hBJOknVQJ58S5goQyjmwRw", "review_count": 64, "categories": [{"alias": "spanish", "title": "Spanish"}], "rating": 4.5, "coordinates": {"latitude": 53.45294, "longitude": 9.98227}, "transactions": [], "price": "\u20ac\u20ac", "location": {"address1": "Maretstr. 60", "address2": null, "address3": null, "city": "Hamburg", "zip_code": "21073", "country": "DE", "state": "HH", "display_address": ["Maretstr. 60", "21073 Hamburg", "Germany"]}, "phone": "+49407666315", "display_phone": "+49 40 7666315", "distance": 1719.6995712374335}, {"id": "ctYfzIX3CgxF0SyGmLSsDw", "alias": "caf\u00e9-am-park-hamburg", "name": "Caf\u00e9 am Park", "image_url": "https://s3-media2.fl.yelpcdn.com/bphoto/lkh8YnJ0cY_99D2Lm7XPSQ/o.jpg", "is_closed": false, "url": "https://www.yelp.com/biz/caf%C3%A9-am-park-hamburg?adjust_creative=hBJOknVQJ58S5goQyjmwRw&utm_campaign=yelp_api_v3&utm_medium=api_v3_business_search&utm_source=hBJOknVQJ58S5goQyjmwRw", "review_count": 2, "categories": [{"alias": "breakfast_brunch", "title": "Breakfast & Brunch"}, {"alias": "cafes", "title": "Cafes"}], "rating": 5.0, "coordinates": {"latitude": 53.44114, "longitude": 9.99351}, "transactions": [], "location": {"address1": "R\u00f6nneburger Str. 33", "address2": "", "address3": "", "city": "Hamburg", "zip_code": "21079", "country": "DE", "state": "HH", "display_address": ["R\u00f6nneburger Str. 33", "21079 Hamburg", "Germany"]}, "phone": "+494060433339", "display_phone": "+49 40 60433339", "distance": 2756.746397111945}, {"id": "k2VcY6vDQSyLZBkdegOzew", "alias": "wat-dat-pho-hamburg-7", "name": "WAT DAT PHO", "image_url": "https://s3-media3.fl.yelpcdn.com/bphoto/D03gVTWJ47v2HYytktD9qQ/o.jpg", "is_closed": false, "url": "https://www.yelp.com/biz/wat-dat-pho-hamburg-7?adjust_creative=hBJOknVQJ58S5goQyjmwRw&utm_campaign=yelp_api_v3&utm_medium=api_v3_business_search&utm_source=hBJOknVQJ58S5goQyjmwRw", "review_count": 9, "categories": [{"alias": "vietnamese", "title": "Vietnamese"}], "rating": 4.5, "coordinates": {"latitude": 53.505464, "longitude": 9.985858}, "transactions": [], "price": "\u20ac\u20ac", "location": {"address1": "Veringstr. 157", "address2": null, "address3": "", "city": "Hamburg", "zip_code": "21107", "country": "DE", "state": "HH", "display_address": ["Veringstr. 157", "21107 Hamburg", "Germany"]}, "phone": "+494030761822", "display_phone": "+49 40 30761822", "distance": 4453.399546348724}, {"id": "DkicI_gGtegHuEU5wnUH7Q", "alias": "scharf-hamburg-2", "name": "Scharf", "image_url": "https://s3-media2.fl.yelpcdn.com/bphoto/7eKwqJALMAiEnuXgIt52XQ/o.jpg", "is_closed": false, "url": "https://www.yelp.com/biz/scharf-hamburg-2?adjust_creative=hBJOknVQJ58S5goQyjmwRw&utm_campaign=yelp_api_v3&utm_medium=api_v3_business_search&utm_source=hBJOknVQJ58S5goQyjmwRw", "review_count": 45, "categories": [{"alias": "german", "title": "German"}], "rating": 4.0, "coordinates": {"latitude": 53.463973633028, "longitude": 9.98237585146832}, "transactions": [], "price": "\u20ac\u20ac", "location": {"address1": "Harburger Schlo\u00dfstr. 2", "address2": "", "address3": "", "city": "Hamburg", "zip_code": "21079", "country": "DE", "state": "HH", "display_address": ["Harburger Schlo\u00dfstr. 2", "21079 Hamburg", "Germany"]}, "phone": "+4940774422", "display_phone": "+49 40 774422", "distance": 952.1679641156495}, {"id": "EgKKnh3rXM6vvU8ChA_Cag", "alias": "tortuga-beach-hamburg", "name": "Tortuga Beach", "image_url": "https://s3-media1.fl.yelpcdn.com/bphoto/BwMra9jGdoe_Q7uTRITDug/o.jpg", "is_closed": false, "url": "https://www.yelp.com/biz/tortuga-beach-hamburg?adjust_creative=hBJOknVQJ58S5goQyjmwRw&utm_campaign=yelp_api_v3&utm_medium=api_v3_business_search&utm_source=hBJOknVQJ58S5goQyjmwRw", "review_count": 5, "categories": [{"alias": "bars", "title": "Bars"}, {"alias": "italian", "title": "Italian"}, {"alias": "burgers", "title": "Burgers"}], "rating": 4.5, "coordinates": {"latitude": 53.4590968, "longitude": 10.0138964}, "transactions": [], "price": "\u20ac\u20ac", "location": {"address1": "Am Neul\u00e4nder Baggerteich 3", "address2": "", "address3": "", "city": "Hamburg", "zip_code": "21079", "country": "DE", "state": "HH", "display_address": ["Am Neul\u00e4nder Baggerteich 3", "21079 Hamburg", "Germany"]}, "phone": "+494915231713404", "display_phone": "+49 491 5231713404", "distance": 1384.4514470130096}, {"id": "J4PDMBd_zrm2T-ygf5dq2A", "alias": "di-candele-hamburg-2", "name": "Di Candele", "image_url": "https://s3-media2.fl.yelpcdn.com/bphoto/sixzZ-99rw-NBfoM865qqg/o.jpg", "is_closed": false, "url": "https://www.yelp.com/biz/di-candele-hamburg-2?adjust_creative=hBJOknVQJ58S5goQyjmwRw&utm_campaign=yelp_api_v3&utm_medium=api_v3_business_search&utm_source=hBJOknVQJ58S5goQyjmwRw", "review_count": 31, "categories": [{"alias": "italian", "title": "Italian"}, {"alias": "pizza", "title": "Pizza"}], "rating": 4.0, "coordinates": {"latitude": 53.4634, "longitude": 9.98117}, "transactions": [], "price": "\u20ac\u20ac", "location": {"address1": "Kleine Gasse 6", "address2": null, "address3": null, "city": "Hamburg", "zip_code": "21073", "country": "DE", "state": "HH", "display_address": ["Kleine Gasse 6", "21073 Hamburg", "Germany"]}, "phone": "+494069647790", "display_phone": "+49 40 69647790", "distance": 1045.2674159433109}, {"id": "Tm4RNPABpZEI7s6RNXVy0g", "alias": "beyoglou-grandcafe-hamburg", "name": "Beyoglou Grandcafe", "image_url": "https://s3-media2.fl.yelpcdn.com/bphoto/r9EluYPOLPXrC0Vou_hLDQ/o.jpg", "is_closed": false, "url": "https://www.yelp.com/biz/beyoglou-grandcafe-hamburg?adjust_creative=hBJOknVQJ58S5goQyjmwRw&utm_campaign=yelp_api_v3&utm_medium=api_v3_business_search&utm_source=hBJOknVQJ58S5goQyjmwRw", "review_count": 1, "categories": [{"alias": "breakfast_brunch", "title": "Breakfast & Brunch"}, {"alias": "burgers", "title": "Burgers"}], "rating": 5.0, "coordinates": {"latitude": 53.4572287879905, "longitude": 9.98627069275361}, "transactions": [], "location": {"address1": "Seevepassage 1 - 3", "address2": "", "address3": null, "city": "Hamburg", "zip_code": "21073", "country": "DE", "state": "HH", "display_address": ["Seevepassage 1 - 3", "21073 Hamburg", "Germany"]}, "phone": "+4917695959556", "display_phone": "+49 176 95959556", "distance": 1174.6394369426798}, {"id": "0uPXrKkisF8npCRH6GwN9Q", "alias": "thai-asia-wok-hamburg", "name": "Thai Asia Wok", "image_url": "https://s3-media3.fl.yelpcdn.com/bphoto/BDnY0bnnumKG2RevNLDp4A/o.jpg", "is_closed": false, "url": "https://www.yelp.com/biz/thai-asia-wok-hamburg?adjust_creative=hBJOknVQJ58S5goQyjmwRw&utm_campaign=yelp_api_v3&utm_medium=api_v3_business_search&utm_source=hBJOknVQJ58S5goQyjmwRw", "review_count": 10, "categories": [{"alias": "panasian", "title": "Pan Asian"}], "rating": 4.5, "coordinates": {"latitude": 53.4601808, "longitude": 9.9757091}, "transactions": [], "price": "\u20ac", "location": {"address1": "Wilhelmstr. 1", "address2": null, "address3": null, "city": "Hamburg", "zip_code": "21073", "country": "DE", "state": "HH", "display_address": ["Wilhelmstr. 1", "21073 Hamburg", "Germany"]}, "phone": "+494032873806", "display_phone": "+49 40 32873806", "distance": 1509.7800806519285}, {"id": "P60dbmGnbgDrqUFTDPUIoQ", "alias": "hansekai-hamburg", "name": "Hansekai", "image_url": "https://s3-media2.fl.yelpcdn.com/bphoto/-ott8KJ1eH4hxUNkGNpW-Q/o.jpg", "is_closed": false, "url": "https://www.yelp.com/biz/hansekai-hamburg?adjust_creative=hBJOknVQJ58S5goQyjmwRw&utm_campaign=yelp_api_v3&utm_medium=api_v3_business_search&utm_source=hBJOknVQJ58S5goQyjmwRw", "review_count": 22, "categories": [{"alias": "international", "title": "International"}, {"alias": "burgers", "title": "Burgers"}, {"alias": "beachbars", "title": "Beach Bars"}], "rating": 4.5, "coordinates": {"latitude": 53.5080361720089, "longitude": 10.0018857781181}, "transactions": [], "price": "\u20ac\u20ac", "location": {"address1": "Jaffestr. 12", "address2": "", "address3": "", "city": "Hamburg", "zip_code": "21109", "country": "DE", "state": "HH", "display_address": ["Jaffestr. 12", "21109 Hamburg", "Germany"]}, "phone": "+494033396262", "display_phone": "+49 40 33396262", "distance": 4698.667969705471}, {"id": "7qe6iEYAad9IO1AnoXMP_Q", "alias": "momento-di-hamburg-2", "name": "Momento Di", "image_url": "https://s3-media4.fl.yelpcdn.com/bphoto/xcT6e2iqkDQnKjAq1CXAAg/o.jpg", "is_closed": false, "url": "https://www.yelp.com/biz/momento-di-hamburg-2?adjust_creative=hBJOknVQJ58S5goQyjmwRw&utm_campaign=yelp_api_v3&utm_medium=api_v3_business_search&utm_source=hBJOknVQJ58S5goQyjmwRw", "review_count": 48, "categories": [{"alias": "italian", "title": "Italian"}], "rating": 4.5, "coordinates": {"latitude": 53.46634, "longitude": 9.98675}, "transactions": [], "price": "\u20ac\u20ac\u20ac", "location": {"address1": "Veritaskai 3", "address2": null, "address3": null, "city": "Hamburg", "zip_code": "21079", "country": "DE", "state": "HH", "display_address": ["Veritaskai 3", "21079 Hamburg", "Germany"]}, "phone": "+494076755594", "display_phone": "+49 40 76755594", "distance": 627.0699949844383}, {"id": "C4cZIRpsrkZwUv7YTmaSoQ", "alias": "the-kumpir-hamburg", "name": "The Kumpir", "image_url": "https://s3-media3.fl.yelpcdn.com/bphoto/yzj4oqSEmOZP3JDgQzrSSw/o.jpg", "is_closed": false, "url": "https://www.yelp.com/biz/the-kumpir-hamburg?adjust_creative=hBJOknVQJ58S5goQyjmwRw&utm_campaign=yelp_api_v3&utm_medium=api_v3_business_search&utm_source=hBJOknVQJ58S5goQyjmwRw", "review_count": 17, "categories": [{"alias": "potatoes", "title": "Potatoes"}], "rating": 5.0, "coordinates": {"latitude": 53.45696, "longitude": 9.98583}, "transactions": [], "price": "\u20ac", "location": {"address1": "Moorstr. 5", "address2": "", "address3": "", "city": "Hamburg", "zip_code": "21073", "country": "DE", "state": "HH", "display_address": ["Moorstr. 5", "21073 Hamburg", "Germany"]}, "phone": "+494036198101", "display_phone": "+49 40 36198101", "distance": 1213.1970391574096}, {"id": "m9nHi2Gyoyi6kxQDz_Ijsw", "alias": "silo-16-hamburg-3", "name": "Silo 16", "image_url": "https://s3-media2.fl.yelpcdn.com/bphoto/qvYDd7yT1O9kw2PZtoWo9Q/o.jpg", "is_closed": false, "url": "https://www.yelp.com/biz/silo-16-hamburg-3?adjust_creative=hBJOknVQJ58S5goQyjmwRw&utm_campaign=yelp_api_v3&utm_medium=api_v3_business_search&utm_source=hBJOknVQJ58S5goQyjmwRw", "review_count": 76, "categories": [{"alias": "italian", "title": "Italian"}], "rating": 4.0, "coordinates": {"latitude": 53.4651, "longitude": 9.98633}, "transactions": [], "price": "\u20ac\u20ac\u20ac", "location": {"address1": "Schellerdamm 16", "address2": null, "address3": null, "city": "Hamburg", "zip_code": "21079", "country": "DE", "state": "HH", "display_address": ["Schellerdamm 16", "21079 Hamburg", "Germany"]}, "phone": "+494041541494", "display_phone": "+49 40 41541494", "distance": 671.8462871430495}, {"id": "PpNo9KfhymX_LMVGFPyfFQ", "alias": "d\u00f4ng-ti\u00ean-supermarkt-hamburg", "name": "D\u00f4ng Ti\u00ean Supermarkt", "image_url": "https://s3-media3.fl.yelpcdn.com/bphoto/WZlVErqCeCqdUgbDyNhi0Q/o.jpg", "is_closed": false, "url": "https://www.yelp.com/biz/d%C3%B4ng-ti%C3%AAn-supermarkt-hamburg?adjust_creative=hBJOknVQJ58S5goQyjmwRw&utm_campaign=yelp_api_v3&utm_medium=api_v3_business_search&utm_source=hBJOknVQJ58S5goQyjmwRw", "review_count": 11, "categories": [{"alias": "hotdogs", "title": "Fast Food"}, {"alias": "intlgrocery", "title": "International Grocery"}], "rating": 4.5, "coordinates": {"latitude": 53.4564705, "longitude": 9.9853497}, "transactions": [], "price": "\u20ac", "location": {"address1": "Wilstorfer Str. 52", "address2": "", "address3": "", "city": "Hamburg", "zip_code": "21073", "country": "DE", "state": "HH", "display_address": ["Wilstorfer Str. 52", "21073 Hamburg", "Germany"]}, "phone": "+494076756303", "display_phone": "+49 40 76756303", "distance": 1277.07533896579}, {"id": "1-bduZSZdqAGhv85_-H5QA", "alias": "wok-haus-hamburg-5", "name": "Wok-Haus", "image_url": "https://s3-media2.fl.yelpcdn.com/bphoto/0GDB4iv0-l_76h3SyrthVQ/o.jpg", "is_closed": false, "url": "https://www.yelp.com/biz/wok-haus-hamburg-5?adjust_creative=hBJOknVQJ58S5goQyjmwRw&utm_campaign=yelp_api_v3&utm_medium=api_v3_business_search&utm_source=hBJOknVQJ58S5goQyjmwRw", "review_count": 2, "categories": [{"alias": "thai", "title": "Thai"}], "rating": 4.5, "coordinates": {"latitude": 53.4615097, "longitude": 9.9786797}, "transactions": [], "price": "\u20ac\u20ac", "location": {"address1": "Neue Str. 17", "address2": null, "address3": "", "city": "Hamburg", "zip_code": "21073", "country": "DE", "state": "HH", "display_address": ["Neue Str. 17", "21073 Hamburg", "Germany"]}, "phone": "+494035989583", "display_phone": "+49 40 35989583", "distance": 1274.2324783728384}, {"id": "EMH0Ina8IUcx1tKR9AnNZA", "alias": "nikos-hamburg", "name": "Nikos", "image_url": "https://s3-media3.fl.yelpcdn.com/bphoto/W1qqsthP9BhoSez-ngq9og/o.jpg", "is_closed": false, "url": "https://www.yelp.com/biz/nikos-hamburg?adjust_creative=hBJOknVQJ58S5goQyjmwRw&utm_campaign=yelp_api_v3&utm_medium=api_v3_business_search&utm_source=hBJOknVQJ58S5goQyjmwRw", "review_count": 1, "categories": [{"alias": "mediterranean", "title": "Mediterranean"}, {"alias": "greek", "title": "Greek"}], "rating": 5.0, "coordinates": {"latitude": 53.4635617722027, "longitude": 9.98064033742283}, "transactions": [], "location": {"address1": "L\u00e4mmertwiete 9", "address2": "", "address3": null, "city": "Hamburg", "zip_code": "21073", "country": "DE", "state": "HH", "display_address": ["L\u00e4mmertwiete 9", "21073 Hamburg", "Germany"]}, "phone": "", "display_phone": "", "distance": 1074.5920996553705}, {"id": "TNSx-9txYa456CBRaICskw", "alias": "naos-hamburg", "name": "Naos", "image_url": "https://s3-media1.fl.yelpcdn.com/bphoto/Gtf6jJ6pqQPKm8h03yB1cQ/o.jpg", "is_closed": false, "url": "https://www.yelp.com/biz/naos-hamburg?adjust_creative=hBJOknVQJ58S5goQyjmwRw&utm_campaign=yelp_api_v3&utm_medium=api_v3_business_search&utm_source=hBJOknVQJ58S5goQyjmwRw", "review_count": 16, "categories": [{"alias": "greek", "title": "Greek"}], "rating": 4.0, "coordinates": {"latitude": 53.44361, "longitude": 9.99541}, "transactions": [], "price": "\u20ac", "location": {"address1": "Roseggerstr. 41", "address2": null, "address3": null, "city": "Hamburg", "zip_code": "21079", "country": "DE", "state": "HH", "display_address": ["Roseggerstr. 41", "21079 Hamburg", "Germany"]}, "phone": "+49407637334", "display_phone": "+49 40 7637334", "distance": 2473.411030089307}, {"id": "ZvCXfKNbGRtyPno_XwkGgg", "alias": "restaurant-r\u00f6nneburger-park-hamburg", "name": "Restaurant R\u00f6nneburger Park", "image_url": "https://s3-media1.fl.yelpcdn.com/bphoto/xa5OacYVadeNgmgOjQLHdQ/o.jpg", "is_closed": false, "url": "https://www.yelp.com/biz/restaurant-r%C3%B6nneburger-park-hamburg?adjust_creative=hBJOknVQJ58S5goQyjmwRw&utm_campaign=yelp_api_v3&utm_medium=api_v3_business_search&utm_source=hBJOknVQJ58S5goQyjmwRw", "review_count": 12, "categories": [{"alias": "greek", "title": "Greek"}], "rating": 4.0, "coordinates": {"latitude": 53.4371, "longitude": 10.0043}, "transactions": [], "price": "\u20ac\u20ac", "location": {"address1": "K\u00fcstersweg 15", "address2": null, "address3": null, "city": "Hamburg", "zip_code": "21079", "country": "DE", "state": "HH", "display_address": ["K\u00fcstersweg 15", "21079 Hamburg", "Germany"]}, "phone": "+494070973551", "display_phone": "+49 40 70973551", "distance": 3245.718658435621}, {"id": "2VkAB3DkyJ_2RQSYKksLhw", "alias": "al-limone-hamburg", "name": "Al Limone", "image_url": "https://s3-media1.fl.yelpcdn.com/bphoto/LsS6_KuUzvjONAhto1pvIA/o.jpg", "is_closed": false, "url": "https://www.yelp.com/biz/al-limone-hamburg?adjust_creative=hBJOknVQJ58S5goQyjmwRw&utm_campaign=yelp_api_v3&utm_medium=api_v3_business_search&utm_source=hBJOknVQJ58S5goQyjmwRw", "review_count": 62, "categories": [{"alias": "italian", "title": "Italian"}], "rating": 4.0, "coordinates": {"latitude": 53.46362, "longitude": 9.98079}, "transactions": [], "price": "\u20ac\u20ac\u20ac", "location": {"address1": "L\u00e4mmertwiete 12", "address2": null, "address3": null, "city": "Hamburg", "zip_code": "21073", "country": "DE", "state": "HH", "display_address": ["L\u00e4mmertwiete 12", "21073 Hamburg", "Germany"]}, "phone": "+49407679032", "display_phone": "+49 40 7679032", "distance": 1065.8872239664013}, {"id": "RfZJkJvcrG-4TU1ayVKoFA", "alias": "golden-city-hamburg", "name": "Golden City", "image_url": "https://s3-media2.fl.yelpcdn.com/bphoto/Lsabt_KuxKAI0ij0CjbVag/o.jpg", "is_closed": false, "url": "https://www.yelp.com/biz/golden-city-hamburg?adjust_creative=hBJOknVQJ58S5goQyjmwRw&utm_campaign=yelp_api_v3&utm_medium=api_v3_business_search&utm_source=hBJOknVQJ58S5goQyjmwRw", "review_count": 31, "categories": [{"alias": "chinese", "title": "Chinese"}], "rating": 3.5, "coordinates": {"latitude": 53.46012, "longitude": 9.97869}, "transactions": [], "price": "\u20ac\u20ac", "location": {"address1": "Am Centrumshaus 1", "address2": "", "address3": "", "city": "Hamburg", "zip_code": "21073", "country": "DE", "state": "HH", "display_address": ["Am Centrumshaus 1", "21073 Hamburg", "Germany"]}, "phone": "+4940774246", "display_phone": "+49 40 774246", "distance": 1338.481024599256}, {"id": "kT54kKJUkaNBsbtfQkmmsw", "alias": "southside-hamburg", "name": "Southside", "image_url": "https://s3-media3.fl.yelpcdn.com/bphoto/WyPJ6RcrhQpk_y99x7yuBA/o.jpg", "is_closed": false, "url": "https://www.yelp.com/biz/southside-hamburg?adjust_creative=hBJOknVQJ58S5goQyjmwRw&utm_campaign=yelp_api_v3&utm_medium=api_v3_business_search&utm_source=hBJOknVQJ58S5goQyjmwRw", "review_count": 6, "categories": [{"alias": "tex-mex", "title": "Tex-Mex"}, {"alias": "cocktailbars", "title": "Cocktail Bars"}], "rating": 4.5, "coordinates": {"latitude": 53.461716, "longitude": 9.979395}, "transactions": [], "price": "\u20ac\u20ac", "location": {"address1": "Neue Str. 24", "address2": "", "address3": null, "city": "Hamburg", "zip_code": "21073", "country": "DE", "state": "HH", "display_address": ["Neue Str. 24", "21073 Hamburg", "Germany"]}, "phone": "+494032507279", "display_phone": "+49 40 32507279", "distance": 1209.4667020743243}, {"id": "15RG_V8ydT4v-Dq62f71-Q", "alias": "h\u00fcnkar-hamburg", "name": "H\u00fcnkar", "image_url": "https://s3-media1.fl.yelpcdn.com/bphoto/WnJuaGEug87V99nYZ4f47w/o.jpg", "is_closed": false, "url": "https://www.yelp.com/biz/h%C3%BCnkar-hamburg?adjust_creative=hBJOknVQJ58S5goQyjmwRw&utm_campaign=yelp_api_v3&utm_medium=api_v3_business_search&utm_source=hBJOknVQJ58S5goQyjmwRw", "review_count": 47, "categories": [{"alias": "turkish", "title": "Turkish"}, {"alias": "kebab", "title": "Kebab"}], "rating": 4.0, "coordinates": {"latitude": 53.46081, "longitude": 9.98318}, "transactions": [], "price": "\u20ac\u20ac", "location": {"address1": "Schlossm\u00fchlendamm 14", "address2": null, "address3": null, "city": "Hamburg", "zip_code": "21073", "country": "DE", "state": "HH", "display_address": ["Schlossm\u00fchlendamm 14", "21073 Hamburg", "Germany"]}, "phone": "+49407658203", "display_phone": "+49 40 7658203", "distance": 1041.989986918095}, {"id": "K1AwSdC8Sd0SEZumdNh9Pw", "alias": "schwerelos-das-achterbahnrestaurant-hamburg-2", "name": "Schwerelos - Das Achterbahnrestaurant", "image_url": "https://s3-media1.fl.yelpcdn.com/bphoto/J-JIcWoSR3VuP_E5SbtR9w/o.jpg", "is_closed": false, "url": "https://www.yelp.com/biz/schwerelos-das-achterbahnrestaurant-hamburg-2?adjust_creative=hBJOknVQJ58S5goQyjmwRw&utm_campaign=yelp_api_v3&utm_medium=api_v3_business_search&utm_source=hBJOknVQJ58S5goQyjmwRw", "review_count": 275, "categories": [{"alias": "international", "title": "International"}, {"alias": "eatertainment", "title": "Eatertainment"}], "rating": 3.0, "coordinates": {"latitude": 53.464467, "longitude": 9.984774}, "transactions": [], "price": "\u20ac\u20ac", "location": {"address1": "Harburger Schlo\u00dfstr. 22", "address2": "", "address3": "", "city": "Hamburg", "zip_code": "21079", "country": "DE", "state": "HH", "display_address": ["Harburger Schlo\u00dfstr. 22", "21079 Hamburg", "Germany"]}, "phone": "+494089721310", "display_phone": "+49 40 89721310", "distance": 785.3267620096668}, {"id": "gZo-xc8Xc66o9s8exNh3fw", "alias": "viet-thai-gourmet-hamburg", "name": "Viet - Thai Gourmet", "image_url": "https://s3-media1.fl.yelpcdn.com/bphoto/L6AVY7NSwdaeGOB7o-Gk5w/o.jpg", "is_closed": false, "url": "https://www.yelp.com/biz/viet-thai-gourmet-hamburg?adjust_creative=hBJOknVQJ58S5goQyjmwRw&utm_campaign=yelp_api_v3&utm_medium=api_v3_business_search&utm_source=hBJOknVQJ58S5goQyjmwRw", "review_count": 1, "categories": [{"alias": "vietnamese", "title": "Vietnamese"}, {"alias": "thai", "title": "Thai"}, {"alias": "foodstands", "title": "Food Stands"}], "rating": 4.0, "coordinates": {"latitude": 53.46123, "longitude": 9.98232}, "transactions": [], "location": {"address1": "Schlo\u00dfm\u00fchlendamm 4", "address2": "", "address3": null, "city": "Hamburg", "zip_code": "21073", "country": "DE", "state": "HH", "display_address": ["Schlo\u00dfm\u00fchlendamm 4", "21073 Hamburg", "Germany"]}, "phone": "+494032872941", "display_phone": "+49 40 32872941", "distance": 1067.9849246673818}, {"id": "CKQRmTkIuz3E0H9Lxv4Nzw", "alias": "asia-quick-hamburg-5", "name": "Asia Quick", "image_url": "https://s3-media3.fl.yelpcdn.com/bphoto/q9DwD9BZz8-KE4dC_UsQ9Q/o.jpg", "is_closed": false, "url": "https://www.yelp.com/biz/asia-quick-hamburg-5?adjust_creative=hBJOknVQJ58S5goQyjmwRw&utm_campaign=yelp_api_v3&utm_medium=api_v3_business_search&utm_source=hBJOknVQJ58S5goQyjmwRw", "review_count": 21, "categories": [{"alias": "panasian", "title": "Pan Asian"}], "rating": 3.5, "coordinates": {"latitude": 53.4599674, "longitude": 9.9822394}, "transactions": [], "price": "\u20ac\u20ac", "location": {"address1": "L\u00fcneburger Str. 39", "address2": "", "address3": "", "city": "Hamburg", "zip_code": "21073", "country": "DE", "state": "HH", "display_address": ["L\u00fcneburger Str. 39", "21073 Hamburg", "Germany"]}, "phone": "+494076755145", "display_phone": "+49 40 76755145", "distance": 1146.0817488255168}, {"id": "afQhj6UkcZ3z49pd-tdKzg", "alias": "tamang-tempel-hamburg", "name": "Tamang Tempel", "image_url": "https://s3-media2.fl.yelpcdn.com/bphoto/1UD1l2Mw8oc7bIBMZN1sbw/o.jpg", "is_closed": false, "url": "https://www.yelp.com/biz/tamang-tempel-hamburg?adjust_creative=hBJOknVQJ58S5goQyjmwRw&utm_campaign=yelp_api_v3&utm_medium=api_v3_business_search&utm_source=hBJOknVQJ58S5goQyjmwRw", "review_count": 14, "categories": [{"alias": "chinese", "title": "Chinese"}, {"alias": "thai", "title": "Thai"}], "rating": 3.5, "coordinates": {"latitude": 53.4499799, "longitude": 9.98716}, "transactions": [], "price": "\u20ac\u20ac", "location": {"address1": "Winsenerstr. 16", "address2": "", "address3": "", "city": "Hamburg", "zip_code": "21073", "country": "DE", "state": "HH", "display_address": ["Winsenerstr. 16", "21073 Hamburg", "Germany"]}, "phone": "+494075360140", "display_phone": "+49 40 75360140", "distance": 1868.2320812896044}, {"id": "8khiPp6JzIhyCRPxoowd7g", "alias": "block-house-hamburg-17", "name": "Block House", "image_url": "https://s3-media3.fl.yelpcdn.com/bphoto/ZZHhlnEnlbVCeWm3pB7McQ/o.jpg", "is_closed": false, "url": "https://www.yelp.com/biz/block-house-hamburg-17?adjust_creative=hBJOknVQJ58S5goQyjmwRw&utm_campaign=yelp_api_v3&utm_medium=api_v3_business_search&utm_source=hBJOknVQJ58S5goQyjmwRw", "review_count": 54, "categories": [{"alias": "steak", "title": "Steakhouses"}], "rating": 4.0, "coordinates": {"latitude": 53.4621, "longitude": 9.98067}, "transactions": [], "price": "\u20ac\u20ac", "location": {"address1": "Sand 8", "address2": null, "address3": null, "city": "Hamburg", "zip_code": "21073", "country": "DE", "state": "HH", "display_address": ["Sand 8", "21073 Hamburg", "Germany"]}, "phone": "+4940772437", "display_phone": "+49 40 772437", "distance": 1123.334760750079}, {"id": "FYX0aKiLRAtvA66MndlPVw", "alias": "mediterran-hamburg", "name": "Mediterran", "image_url": "https://s3-media1.fl.yelpcdn.com/bphoto/6Cim9HgCub3Cj6oWP3MERA/o.jpg", "is_closed": false, "url": "https://www.yelp.com/biz/mediterran-hamburg?adjust_creative=hBJOknVQJ58S5goQyjmwRw&utm_campaign=yelp_api_v3&utm_medium=api_v3_business_search&utm_source=hBJOknVQJ58S5goQyjmwRw", "review_count": 14, "categories": [{"alias": "mediterranean", "title": "Mediterranean"}, {"alias": "steak", "title": "Steakhouses"}], "rating": 3.5, "coordinates": {"latitude": 53.43193, "longitude": 9.98307}, "transactions": [], "price": "\u20ac\u20ac", "location": {"address1": "Winsener Str. 152", "address2": null, "address3": null, "city": "Hamburg", "zip_code": "21077", "country": "DE", "state": "HH", "display_address": ["Winsener Str. 152", "21077 Hamburg", "Germany"]}, "phone": "+494070011450", "display_phone": "+49 40 70011450", "distance": 3879.620951442093}, {"id": "xij6Y-VVbGhK4jQZpuZWDA", "alias": "shukria-hamburg-4", "name": "Shukria", "image_url": "https://s3-media3.fl.yelpcdn.com/bphoto/ifDN3ZTbP4fRtdhEEO0aHA/o.jpg", "is_closed": false, "url": "https://www.yelp.com/biz/shukria-hamburg-4?adjust_creative=hBJOknVQJ58S5goQyjmwRw&utm_campaign=yelp_api_v3&utm_medium=api_v3_business_search&utm_source=hBJOknVQJ58S5goQyjmwRw", "review_count": 6, "categories": [{"alias": "indpak", "title": "Indian"}], "rating": 4.0, "coordinates": {"latitude": 53.46345, "longitude": 9.98142}, "transactions": [], "price": "\u20ac\u20ac", "location": {"address1": "L\u00e4mmertwiete 2", "address2": "", "address3": "", "city": "Hamburg", "zip_code": "21073", "country": "DE", "state": "HH", "display_address": ["L\u00e4mmertwiete 2", "21073 Hamburg", "Germany"]}, "phone": "+494032527895", "display_phone": "+49 40 32527895", "distance": 1034.3919763693023}, {"id": "b9JwmnYApmHBlQ6jFg-S1A", "alias": "as-urfa-hamburg-2", "name": "As Urfa", "image_url": "https://s3-media2.fl.yelpcdn.com/bphoto/-YEkBPzVnBaVKb19FZUvfg/o.jpg", "is_closed": false, "url": "https://www.yelp.com/biz/as-urfa-hamburg-2?adjust_creative=hBJOknVQJ58S5goQyjmwRw&utm_campaign=yelp_api_v3&utm_medium=api_v3_business_search&utm_source=hBJOknVQJ58S5goQyjmwRw", "review_count": 46, "categories": [{"alias": "kebab", "title": "Kebab"}, {"alias": "turkish", "title": "Turkish"}], "rating": 4.0, "coordinates": {"latitude": 53.4568, "longitude": 9.98584}, "transactions": [], "price": "\u20ac\u20ac", "location": {"address1": "Moorstr. 2", "address2": "", "address3": "", "city": "Hamburg", "zip_code": "21073", "country": "DE", "state": "HH", "display_address": ["Moorstr. 2", "21073 Hamburg", "Germany"]}, "phone": "+494064883613", "display_phone": "+49 40 64883613", "distance": 1230.0733727384866}, {"id": "EiRV0a-OAkBMUonaYf-jXw", "alias": "nusu-exotic-kitchen-hamburg", "name": "NUSU Exotic Kitchen", "image_url": "https://s3-media2.fl.yelpcdn.com/bphoto/ldJE62OezRdJryE40N0e0Q/o.jpg", "is_closed": false, "url": "https://www.yelp.com/biz/nusu-exotic-kitchen-hamburg?adjust_creative=hBJOknVQJ58S5goQyjmwRw&utm_campaign=yelp_api_v3&utm_medium=api_v3_business_search&utm_source=hBJOknVQJ58S5goQyjmwRw", "review_count": 6, "categories": [{"alias": "vietnamese", "title": "Vietnamese"}, {"alias": "thai", "title": "Thai"}, {"alias": "chinese", "title": "Chinese"}], "rating": 4.5, "coordinates": {"latitude": 53.465022, "longitude": 9.986041}, "transactions": [], "price": "\u20ac", "location": {"address1": "Schellerdamm 16", "address2": "", "address3": "", "city": "Hamburg", "zip_code": "21079", "country": "DE", "state": "HH", "display_address": ["Schellerdamm 16", "21079 Hamburg", "Germany"]}, "phone": "+494060867166", "display_phone": "+49 40 60867166", "distance": 689.9489402264662}, {"id": "EVZkD8TyGDlbYFz8v410FA", "alias": "fischhalle-hamburg", "name": "Fischhalle", "image_url": "https://s3-media2.fl.yelpcdn.com/bphoto/-2684jIyrMtos2ezbggajg/o.jpg", "is_closed": false, "url": "https://www.yelp.com/biz/fischhalle-hamburg?adjust_creative=hBJOknVQJ58S5goQyjmwRw&utm_campaign=yelp_api_v3&utm_medium=api_v3_business_search&utm_source=hBJOknVQJ58S5goQyjmwRw", "review_count": 3, "categories": [{"alias": "bistros", "title": "Bistros"}, {"alias": "cafes", "title": "Cafes"}, {"alias": "musicvenues", "title": "Music Venues"}], "rating": 5.0, "coordinates": {"latitude": 53.46718, "longitude": 9.98234}, "transactions": [], "location": {"address1": "Kanalplatz 16", "address2": "", "address3": null, "city": "Hamburg", "zip_code": "21079", "country": "DE", "state": "HH", "display_address": ["Kanalplatz 16", "21079 Hamburg", "Germany"]}, "phone": "+491715463474", "display_phone": "+49 171 5463474", "distance": 951.3071960070478}, {"id": "tsMbmtFE7c8oI4BpbBWfkQ", "alias": "refugium-hamburg", "name": "Refugium", "image_url": "https://s3-media2.fl.yelpcdn.com/bphoto/bHZfzE7ViTgSRY7PhswAtw/o.jpg", "is_closed": false, "url": "https://www.yelp.com/biz/refugium-hamburg?adjust_creative=hBJOknVQJ58S5goQyjmwRw&utm_campaign=yelp_api_v3&utm_medium=api_v3_business_search&utm_source=hBJOknVQJ58S5goQyjmwRw", "review_count": 1, "categories": [{"alias": "mediterranean", "title": "Mediterranean"}, {"alias": "bistros", "title": "Bistros"}], "rating": 4.0, "coordinates": {"latitude": 53.4945412, "longitude": 10.0030804}, "transactions": [], "price": "\u20ac\u20ac", "location": {"address1": "Inselpark 20", "address2": "", "address3": "", "city": "Hamburg", "zip_code": "21109", "country": "DE", "state": "HH", "display_address": ["Inselpark 20", "21109 Hamburg", "Germany"]}, "phone": "+494033442688", "display_phone": "+49 40 33442688", "distance": 3215.771378748549}, {"id": "yFKrFeN3B3-AZh6FClPM0A", "alias": "mr-kebab-s\u00fcdland-hamburg", "name": "Mr. Kebab S\u00fcdland", "image_url": "https://s3-media1.fl.yelpcdn.com/bphoto/MtJMIdh9ExNJLIlWLPdfew/o.jpg", "is_closed": false, "url": "https://www.yelp.com/biz/mr-kebab-s%C3%BCdland-hamburg?adjust_creative=hBJOknVQJ58S5goQyjmwRw&utm_campaign=yelp_api_v3&utm_medium=api_v3_business_search&utm_source=hBJOknVQJ58S5goQyjmwRw", "review_count": 9, "categories": [{"alias": "turkish", "title": "Turkish"}, {"alias": "kebab", "title": "Kebab"}], "rating": 5.0, "coordinates": {"latitude": 53.4972749534473, "longitude": 10.0043760985136}, "transactions": [], "price": "\u20ac\u20ac", "location": {"address1": "Neuenfelder Str. 31", "address2": "", "address3": "", "city": "Hamburg", "zip_code": "21109", "country": "DE", "state": "HH", "display_address": ["Neuenfelder Str. 31", "21109 Hamburg", "Germany"]}, "phone": "+4915209060666", "display_phone": "+49 1520 9060666", "distance": 3527.7958161581396}, {"id": "DCjxHknq-_I-m8-e0yVJ_A", "alias": "caspari-hamburg", "name": "Caspari", "image_url": "https://s3-media3.fl.yelpcdn.com/bphoto/X6zbPziRxtnWameYQb55DQ/o.jpg", "is_closed": false, "url": "https://www.yelp.com/biz/caspari-hamburg?adjust_creative=hBJOknVQJ58S5goQyjmwRw&utm_campaign=yelp_api_v3&utm_medium=api_v3_business_search&utm_source=hBJOknVQJ58S5goQyjmwRw", "review_count": 87, "categories": [{"alias": "cocktailbars", "title": "Cocktail Bars"}, {"alias": "international", "title": "International"}], "rating": 3.0, "coordinates": {"latitude": 53.46351, "longitude": 9.98117}, "transactions": [], "price": "\u20ac\u20ac", "location": {"address1": "L\u00e4mmertwiete 6-10", "address2": null, "address3": null, "city": "Hamburg", "zip_code": "21073", "country": "DE", "state": "HH", "display_address": ["L\u00e4mmertwiete 6-10", "21073 Hamburg", "Germany"]}, "phone": "+49407665157", "display_phone": "+49 40 7665157", "distance": 1049.5803633517858}, {"id": "y4Qj23Rm3I3S6_Mumc_sgg", "alias": "entennest-bernd-heiland-hamburg", "name": "Entennest Bernd Heiland", "image_url": "https://s3-media2.fl.yelpcdn.com/bphoto/9cGd5oVBJs2YC-YbmPBw-A/o.jpg", "is_closed": false, "url": "https://www.yelp.com/biz/entennest-bernd-heiland-hamburg?adjust_creative=hBJOknVQJ58S5goQyjmwRw&utm_campaign=yelp_api_v3&utm_medium=api_v3_business_search&utm_source=hBJOknVQJ58S5goQyjmwRw", "review_count": 2, "categories": [{"alias": "restaurants", "title": "Restaurants"}], "rating": 3.0, "coordinates": {"latitude": 53.4491, "longitude": 9.98374}, "transactions": [], "price": "\u20ac\u20ac", "location": {"address1": "Vinzenzweg 20", "address2": null, "address3": null, "city": "Hamburg", "zip_code": "21077", "country": "DE", "state": "HH", "display_address": ["Vinzenzweg 20", "21077 Hamburg", "Germany"]}, "phone": "+494070388858", "display_phone": "+49 40 70388858", "distance": 2047.8775025166449}, {"id": "DjrUqDZfLxqlLjWNhp9_Tw", "alias": "komm-du-hamburg", "name": "Komm du", "image_url": "https://s3-media3.fl.yelpcdn.com/bphoto/ol-8ep-AUiWSI0v8rg8WFg/o.jpg", "is_closed": false, "url": "https://www.yelp.com/biz/komm-du-hamburg?adjust_creative=hBJOknVQJ58S5goQyjmwRw&utm_campaign=yelp_api_v3&utm_medium=api_v3_business_search&utm_source=hBJOknVQJ58S5goQyjmwRw", "review_count": 2, "categories": [{"alias": "cafes", "title": "Cafes"}, {"alias": "musicvenues", "title": "Music Venues"}], "rating": 4.5, "coordinates": {"latitude": 53.4653091, "longitude": 9.9760799}, "transactions": [], "price": "\u20ac", "location": {"address1": "Buxtehuder Str. 13", "address2": "", "address3": "", "city": "Hamburg", "zip_code": "21073", "country": "DE", "state": "HH", "display_address": ["Buxtehuder Str. 13", "21073 Hamburg", "Germany"]}, "phone": "+494057228952", "display_phone": "+49 40 57228952", "distance": 1353.2335384759913}, {"id": "hb3VLlzB9mVg-KSlkf7htQ", "alias": "leuchtturm-hamburg", "name": "Leuchtturm", "image_url": "https://s3-media1.fl.yelpcdn.com/bphoto/9GZB4j0l00fnq47N7tpNTg/o.jpg", "is_closed": false, "url": "https://www.yelp.com/biz/leuchtturm-hamburg?adjust_creative=hBJOknVQJ58S5goQyjmwRw&utm_campaign=yelp_api_v3&utm_medium=api_v3_business_search&utm_source=hBJOknVQJ58S5goQyjmwRw", "review_count": 55, "categories": [{"alias": "seafood", "title": "Seafood"}, {"alias": "mediterranean", "title": "Mediterranean"}], "rating": 4.0, "coordinates": {"latitude": 53.45078, "longitude": 9.98107}, "transactions": [], "price": "\u20ac\u20ac\u20ac", "location": {"address1": "Au\u00dfenm\u00fchlendamm 2", "address2": "", "address3": "", "city": "Hamburg", "zip_code": "21077", "country": "DE", "state": "HH", "display_address": ["Au\u00dfenm\u00fchlendamm 2", "21077 Hamburg", "Germany"]}, "phone": "+494070299777", "display_phone": "+49 40 70299777", "distance": 1956.7703892509962}, {"id": "83Aj0NzMKmvnm0yg9gtsoQ", "alias": "aomame-hamburg", "name": "Aomame", "image_url": "https://s3-media2.fl.yelpcdn.com/bphoto/QRWWfntUW489uX2CaCKaGw/o.jpg", "is_closed": false, "url": "https://www.yelp.com/biz/aomame-hamburg?adjust_creative=hBJOknVQJ58S5goQyjmwRw&utm_campaign=yelp_api_v3&utm_medium=api_v3_business_search&utm_source=hBJOknVQJ58S5goQyjmwRw", "review_count": 5, "categories": [{"alias": "ramen", "title": "Ramen"}], "rating": 4.0, "coordinates": {"latitude": 53.505699, "longitude": 9.985711}, "transactions": [], "location": {"address1": "Veringstr. 155", "address2": null, "address3": "", "city": "Hamburg", "zip_code": "20148", "country": "DE", "state": "HH", "display_address": ["Veringstr. 155", "20148 Hamburg", "Germany"]}, "phone": "+494030925084", "display_phone": "+49 40 30925084", "distance": 4489.118524610599}, {"id": "ayF0e3tcGWWuwFJmjn8gvQ", "alias": "\u00f6z-g\u0171ven-hamburg", "name": "\u00d6z G\u0171ven", "image_url": "https://s3-media2.fl.yelpcdn.com/bphoto/UJnFYfpaCKrSdLlKwNaAZg/o.jpg", "is_closed": false, "url": "https://www.yelp.com/biz/%C3%B6z-g%C5%B1ven-hamburg?adjust_creative=hBJOknVQJ58S5goQyjmwRw&utm_campaign=yelp_api_v3&utm_medium=api_v3_business_search&utm_source=hBJOknVQJ58S5goQyjmwRw", "review_count": 1, "categories": [{"alias": "kebab", "title": "Kebab"}], "rating": 4.0, "coordinates": {"latitude": 53.4616135741349, "longitude": 9.978715069592}, "transactions": [], "location": {"address1": "Neue Stra\u00dfe 19", "address2": "", "address3": null, "city": "Hamburg", "zip_code": "21073", "country": "DE", "state": "HH", "display_address": ["Neue Stra\u00dfe 19", "21073 Hamburg", "Germany"]}, "phone": "", "display_phone": "", "distance": 1263.5949736666284}, {"id": "RQqMIo4Ek0FJqJ2P5D3DDA", "alias": "cigk\u00f6ftem-hamburg", "name": "Cigk\u00f6ftem", "image_url": "https://s3-media1.fl.yelpcdn.com/bphoto/HZ4mOGonGYiPp1iilXzUmQ/o.jpg", "is_closed": false, "url": "https://www.yelp.com/biz/cigk%C3%B6ftem-hamburg?adjust_creative=hBJOknVQJ58S5goQyjmwRw&utm_campaign=yelp_api_v3&utm_medium=api_v3_business_search&utm_source=hBJOknVQJ58S5goQyjmwRw", "review_count": 10, "categories": [{"alias": "vegetarian", "title": "Vegetarian"}, {"alias": "turkish", "title": "Turkish"}], "rating": 4.0, "coordinates": {"latitude": 53.46156, "longitude": 9.98088}, "transactions": [], "price": "\u20ac", "location": {"address1": "Sand 11", "address2": "", "address3": "", "city": "Hamburg", "zip_code": "21073", "country": "DE", "state": "HH", "display_address": ["Sand 11", "21073 Hamburg", "Germany"]}, "phone": "+494046636520", "display_phone": "+49 40 46636520", "distance": 1120.2584701650687}, {"id": "XpcjjoBY2o47QXsa_KatYA", "alias": "bootshaus-aussenm\u00fchle-hamburg", "name": "Bootshaus Aussenm\u00fchle", "image_url": "https://s3-media1.fl.yelpcdn.com/bphoto/yYG7mTrE-p9elKjA9MflNw/o.jpg", "is_closed": false, "url": "https://www.yelp.com/biz/bootshaus-aussenm%C3%BChle-hamburg?adjust_creative=hBJOknVQJ58S5goQyjmwRw&utm_campaign=yelp_api_v3&utm_medium=api_v3_business_search&utm_source=hBJOknVQJ58S5goQyjmwRw", "review_count": 10, "categories": [{"alias": "cafes", "title": "Cafes"}, {"alias": "german", "title": "German"}, {"alias": "beergarden", "title": "Beer Garden"}], "rating": 3.5, "coordinates": {"latitude": 53.4481161, "longitude": 9.9813583}, "transactions": [], "price": "\u20ac\u20ac", "location": {"address1": "Gotthelfweg 2a", "address2": null, "address3": null, "city": "Hamburg", "zip_code": "21077", "country": "DE", "state": "HH", "display_address": ["Gotthelfweg 2a", "21077 Hamburg", "Germany"]}, "phone": "+49407642485", "display_phone": "+49 40 7642485", "distance": 2214.425235869777}, {"id": "xL83_3wwHpUy8VlegrjYgQ", "alias": "panthera-rodizio-hamburg", "name": "Panthera Rodizio", "image_url": "https://s3-media3.fl.yelpcdn.com/bphoto/kQ2VrXh5x2c5QODDyYdnsg/o.jpg", "is_closed": false, "url": "https://www.yelp.com/biz/panthera-rodizio-hamburg?adjust_creative=hBJOknVQJ58S5goQyjmwRw&utm_campaign=yelp_api_v3&utm_medium=api_v3_business_search&utm_source=hBJOknVQJ58S5goQyjmwRw", "review_count": 102, "categories": [{"alias": "brazilian", "title": "Brazilian"}], "rating": 3.5, "coordinates": {"latitude": 53.46346, "longitude": 9.98094}, "transactions": [], "price": "\u20ac\u20ac\u20ac", "location": {"address1": "L\u00e4mmertwiete 5 - 7", "address2": null, "address3": null, "city": "Hamburg", "zip_code": "21073", "country": "DE", "state": "HH", "display_address": ["L\u00e4mmertwiete 5 - 7", "21073 Hamburg", "Germany"]}, "phone": "+49407650775", "display_phone": "+49 40 7650775", "distance": 1065.7472231796005}, {"id": "fr2Cwrn5sR1id2P9eU2pIA", "alias": "habanero-mexican-grill-hamburg", "name": "Habanero Mexican Grill", "image_url": "https://s3-media2.fl.yelpcdn.com/bphoto/h8qdnE-ZvhN7DFnUSB2_aA/o.jpg", "is_closed": false, "url": "https://www.yelp.com/biz/habanero-mexican-grill-hamburg?adjust_creative=hBJOknVQJ58S5goQyjmwRw&utm_campaign=yelp_api_v3&utm_medium=api_v3_business_search&utm_source=hBJOknVQJ58S5goQyjmwRw", "review_count": 1, "categories": [{"alias": "mexican", "title": "Mexican"}, {"alias": "hotdogs", "title": "Fast Food"}, {"alias": "foodstands", "title": "Food Stands"}], "rating": 1.0, "coordinates": {"latitude": 53.456217, "longitude": 9.9879498}, "transactions": [], "location": {"address1": "Hannoversche Str. 86", "address2": "", "address3": null, "city": "Hamburg", "zip_code": "21079", "country": "DE", "state": "HH", "display_address": ["Hannoversche Str. 86", "21079 Hamburg", "Germany"]}, "phone": "+491629704003", "display_phone": "+49 162 9704003", "distance": 1213.67636850257}, {"id": "qlWbNZaKXirvqm0hq_BO7Q", "alias": "ristorante-da-luigi-hamburg-3", "name": "Ristorante da Luigi", "image_url": "https://s3-media4.fl.yelpcdn.com/bphoto/hxCKfyiNR3U0GzpWryXUTw/o.jpg", "is_closed": false, "url": "https://www.yelp.com/biz/ristorante-da-luigi-hamburg-3?adjust_creative=hBJOknVQJ58S5goQyjmwRw&utm_campaign=yelp_api_v3&utm_medium=api_v3_business_search&utm_source=hBJOknVQJ58S5goQyjmwRw", "review_count": 44, "categories": [{"alias": "italian", "title": "Italian"}], "rating": 3.5, "coordinates": {"latitude": 53.4621, "longitude": 9.97928}, "transactions": [], "price": "\u20ac\u20ac", "location": {"address1": "Neue Str. 29", "address2": null, "address3": null, "city": "Hamburg", "zip_code": "21073", "country": "DE", "state": "HH", "display_address": ["Neue Str. 29", "21073 Hamburg", "Germany"]}, "phone": "+49407659603", "display_phone": "+49 40 7659603", "distance": 1209.063705788656}, {"id": "pSzgOFD0cfVQtC8A8IMI4w", "alias": "die-kochburg-hamburg", "name": "Die Kochburg", "image_url": "https://s3-media3.fl.yelpcdn.com/bphoto/AlW3hwFbpOwsk55U7CttYg/o.jpg", "is_closed": false, "url": "https://www.yelp.com/biz/die-kochburg-hamburg?adjust_creative=hBJOknVQJ58S5goQyjmwRw&utm_campaign=yelp_api_v3&utm_medium=api_v3_business_search&utm_source=hBJOknVQJ58S5goQyjmwRw", "review_count": 4, "categories": [{"alias": "international", "title": "International"}, {"alias": "german", "title": "German"}], "rating": 4.5, "coordinates": {"latitude": 53.500262, "longitude": 9.995971}, "transactions": [], "location": {"address1": "Mengestr. 20", "address2": "", "address3": "", "city": "Hamburg", "zip_code": "21107", "country": "DE", "state": "HH", "display_address": ["Mengestr. 20", "21107 Hamburg", "Germany"]}, "phone": "+4940883020915", "display_phone": "+49 40 883020915", "distance": 3820.2231044055743}, {"id": "BUxiGAHxRjtM82ywFjV_bw", "alias": "d\u00f6ner-treff-hamburg", "name": "D\u00f6ner-Treff", "image_url": "https://s3-media1.fl.yelpcdn.com/bphoto/4_qUsH322fk753aEyjSwTQ/o.jpg", "is_closed": false, "url": "https://www.yelp.com/biz/d%C3%B6ner-treff-hamburg?adjust_creative=hBJOknVQJ58S5goQyjmwRw&utm_campaign=yelp_api_v3&utm_medium=api_v3_business_search&utm_source=hBJOknVQJ58S5goQyjmwRw", "review_count": 3, "categories": [{"alias": "kebab", "title": "Kebab"}, {"alias": "foodstands", "title": "Food Stands"}], "rating": 4.5, "coordinates": {"latitude": 53.46042, "longitude": 9.9784}, "transactions": [], "price": "\u20ac\u20ac", "location": {"address1": "Am Centrumshaus 5", "address2": null, "address3": null, "city": "Hamburg", "zip_code": "21073", "country": "DE", "state": "HH", "display_address": ["Am Centrumshaus 5", "21073 Hamburg", "Germany"]}, "phone": "", "display_phone": "", "distance": 1343.4447751960674}, {"id": "WONM0UT7TO0WPNlaPYamOg", "alias": "von-bis-schnell-restaurant-hamburg", "name": "von-BIS Schnell-Restaurant", "image_url": "https://s3-media1.fl.yelpcdn.com/bphoto/OCI6KRiZ-PKCvebxeR9c9g/o.jpg", "is_closed": false, "url": "https://www.yelp.com/biz/von-bis-schnell-restaurant-hamburg?adjust_creative=hBJOknVQJ58S5goQyjmwRw&utm_campaign=yelp_api_v3&utm_medium=api_v3_business_search&utm_source=hBJOknVQJ58S5goQyjmwRw", "review_count": 8, "categories": [{"alias": "hotdogs", "title": "Fast Food"}, {"alias": "german", "title": "German"}], "rating": 4.0, "coordinates": {"latitude": 53.4667462, "longitude": 9.9840558}, "transactions": [], "price": "\u20ac\u20ac", "location": {"address1": "Kanalplatz 8a", "address2": null, "address3": null, "city": "Hamburg", "zip_code": "21079", "country": "DE", "state": "HH", "display_address": ["Kanalplatz 8a", "21079 Hamburg", "Germany"]}, "phone": "+4940777434", "display_phone": "+49 40 777434", "distance": 821.6738750699869}, {"id": "UUCWxYZuVvwFSBQDeXCy9A", "alias": "ciao-bella-hamburg-5", "name": "Ciao Bella", "image_url": "https://s3-media2.fl.yelpcdn.com/bphoto/QBZZZEeqipYKVX9M1237GA/o.jpg", "is_closed": false, "url": "https://www.yelp.com/biz/ciao-bella-hamburg-5?adjust_creative=hBJOknVQJ58S5goQyjmwRw&utm_campaign=yelp_api_v3&utm_medium=api_v3_business_search&utm_source=hBJOknVQJ58S5goQyjmwRw", "review_count": 10, "categories": [{"alias": "italian", "title": "Italian"}], "rating": 4.5, "coordinates": {"latitude": 53.456566, "longitude": 9.987206}, "transactions": [], "price": "\u20ac\u20ac", "location": {"address1": "Hannoversche Str. 86", "address2": "", "address3": "", "city": "Hamburg", "zip_code": "21079", "country": "DE", "state": "HH", "display_address": ["Hannoversche Str. 86", "21079 Hamburg", "Germany"]}, "phone": "+494073442755", "display_phone": "+49 40 73442755", "distance": 1203.466309598899}, {"id": "jRwG8fGkXFkRpsRnnFuyIg", "alias": "ria-de-aveiro-hamburg", "name": "Ria de Aveiro", "image_url": "https://s3-media4.fl.yelpcdn.com/bphoto/WZ9FZ055ICwy-sjw-WKgOA/o.jpg", "is_closed": false, "url": "https://www.yelp.com/biz/ria-de-aveiro-hamburg?adjust_creative=hBJOknVQJ58S5goQyjmwRw&utm_campaign=yelp_api_v3&utm_medium=api_v3_business_search&utm_source=hBJOknVQJ58S5goQyjmwRw", "review_count": 3, "categories": [{"alias": "cafes", "title": "Cafes"}], "rating": 4.0, "coordinates": {"latitude": 53.461, "longitude": 9.98095}, "transactions": [], "location": {"address1": "H\u00f6lertwiete 10", "address2": "", "address3": "", "city": "Hamburg", "zip_code": "21073", "country": "DE", "state": "HH", "display_address": ["H\u00f6lertwiete 10", "21073 Hamburg", "Germany"]}, "phone": "+494025778251", "display_phone": "+49 40 25778251", "distance": 1161.889690496513}, {"id": "a6_1MO12bUkQMWN3bKAKTw", "alias": "mercato-hamburg", "name": "Mercato", "image_url": "https://s3-media3.fl.yelpcdn.com/bphoto/BRe2gP8QH3iAfqzeENDLqA/o.jpg", "is_closed": false, "url": "https://www.yelp.com/biz/mercato-hamburg?adjust_creative=hBJOknVQJ58S5goQyjmwRw&utm_campaign=yelp_api_v3&utm_medium=api_v3_business_search&utm_source=hBJOknVQJ58S5goQyjmwRw", "review_count": 39, "categories": [{"alias": "italian", "title": "Italian"}, {"alias": "cafes", "title": "Cafes"}, {"alias": "pizza", "title": "Pizza"}], "rating": 4.0, "coordinates": {"latitude": 53.46247, "longitude": 9.9794}, "transactions": [], "price": "\u20ac\u20ac\u20ac", "location": {"address1": "Neue Str. 35", "address2": "", "address3": "", "city": "Hamburg", "zip_code": "21073", "country": "DE", "state": "HH", "display_address": ["Neue Str. 35", "21073 Hamburg", "Germany"]}, "phone": "+494076758862", "display_phone": "+49 40 76758862", "distance": 1191.5854828273564}, {"id": "eH1rB0Kc5CX-szUqsWeiCg", "alias": "black-rock-hamburg-2", "name": "Black Rock", "image_url": "", "is_closed": false, "url": "https://www.yelp.com/biz/black-rock-hamburg-2?adjust_creative=hBJOknVQJ58S5goQyjmwRw&utm_campaign=yelp_api_v3&utm_medium=api_v3_business_search&utm_source=hBJOknVQJ58S5goQyjmwRw", "review_count": 1, "categories": [{"alias": "steak", "title": "Steakhouses"}], "rating": 4.0, "coordinates": {"latitude": 53.46353, "longitude": 9.98068}, "transactions": [], "location": {"address1": "L\u00e4mmertwiete 9", "address2": "", "address3": null, "city": "Hamburg", "zip_code": "21073", "country": "DE", "state": "HH", "display_address": ["L\u00e4mmertwiete 9", "21073 Hamburg", "Germany"]}, "phone": "+4915252773254", "display_phone": "+49 1525 2773254", "distance": 1080.7466613898935}, {"id": "9Uih8R-kHPO6QIra-CjtQw", "alias": "paros-grill-hamburg", "name": "Paros-Grill", "image_url": "https://s3-media4.fl.yelpcdn.com/bphoto/bI6WTN-CQSYDF9Z56w1Gkw/o.jpg", "is_closed": false, "url": "https://www.yelp.com/biz/paros-grill-hamburg?adjust_creative=hBJOknVQJ58S5goQyjmwRw&utm_campaign=yelp_api_v3&utm_medium=api_v3_business_search&utm_source=hBJOknVQJ58S5goQyjmwRw", "review_count": 24, "categories": [{"alias": "greek", "title": "Greek"}], "rating": 4.0, "coordinates": {"latitude": 53.4574, "longitude": 9.97888}, "transactions": [], "price": "\u20ac", "location": {"address1": "Hastedtstr. 2", "address2": "", "address3": null, "city": "Hamburg", "zip_code": "21073", "country": "DE", "state": "HH", "display_address": ["Hastedtstr. 2", "21073 Hamburg", "Germany"]}, "phone": "+4940776507", "display_phone": "+49 40 776507", "distance": 1496.0708718758576}, {"id": "rWLMSvU75oNyUAq9aR2I1g", "alias": "harburger-stube-hamburg", "name": "Harburger Stube", "image_url": "https://s3-media4.fl.yelpcdn.com/bphoto/VNW1bxRoxBTqRDw3DPOptw/o.jpg", "is_closed": false, "url": "https://www.yelp.com/biz/harburger-stube-hamburg?adjust_creative=hBJOknVQJ58S5goQyjmwRw&utm_campaign=yelp_api_v3&utm_medium=api_v3_business_search&utm_source=hBJOknVQJ58S5goQyjmwRw", "review_count": 3, "categories": [{"alias": "german", "title": "German"}], "rating": 3.5, "coordinates": {"latitude": 53.46079, "longitude": 9.98138}, "transactions": [], "location": {"address1": "Harburger Ring 20", "address2": null, "address3": null, "city": "Hamburg", "zip_code": "21073", "country": "DE", "state": "HH", "display_address": ["Harburger Ring 20", "21073 Hamburg", "Germany"]}, "phone": "+494076621606", "display_phone": "+49 40 76621606", "distance": 1171.9834244627955}, {"id": "AlDUWW2NRY5iWci8qbBJag", "alias": "bistro-sharri-hamburg", "name": "Bistro Sharri", "image_url": "https://s3-media2.fl.yelpcdn.com/bphoto/A5vAJhLb8SG5ZTFUkN4Q7w/o.jpg", "is_closed": false, "url": "https://www.yelp.com/biz/bistro-sharri-hamburg?adjust_creative=hBJOknVQJ58S5goQyjmwRw&utm_campaign=yelp_api_v3&utm_medium=api_v3_business_search&utm_source=hBJOknVQJ58S5goQyjmwRw", "review_count": 1, "categories": [{"alias": "bistros", "title": "Bistros"}, {"alias": "modern_european", "title": "Modern European"}], "rating": 4.0, "coordinates": {"latitude": 53.5011180951635, "longitude": 10.0088192406728}, "transactions": [], "price": "\u20ac\u20ac", "location": {"address1": "Wittestra\u00dfe 7", "address2": "", "address3": null, "city": "Hamburg", "zip_code": "21109", "country": "DE", "state": "HH", "display_address": ["Wittestra\u00dfe 7", "21109 Hamburg", "Germany"]}, "phone": "+494031794321", "display_phone": "+49 40 31794321", "distance": 4000.7753098993967}, {"id": "RtMCxMcwlDl3ZtQSklVR-Q", "alias": "steakhammer-hamburg", "name": "Steakhammer", "image_url": "https://s3-media1.fl.yelpcdn.com/bphoto/EOXF8gOwEgjnQv5g59x0_A/o.jpg", "is_closed": false, "url": "https://www.yelp.com/biz/steakhammer-hamburg?adjust_creative=hBJOknVQJ58S5goQyjmwRw&utm_campaign=yelp_api_v3&utm_medium=api_v3_business_search&utm_source=hBJOknVQJ58S5goQyjmwRw", "review_count": 43, "categories": [{"alias": "steak", "title": "Steakhouses"}], "rating": 3.5, "coordinates": {"latitude": 53.4613, "longitude": 9.98481}, "transactions": [], "price": "\u20ac", "location": {"address1": "Gro\u00dfer Schippsee 34", "address2": null, "address3": null, "city": "Hamburg", "zip_code": "21073", "country": "DE", "state": "HH", "display_address": ["Gro\u00dfer Schippsee 34", "21073 Hamburg", "Germany"]}, "phone": "+494032508965", "display_phone": "+49 40 32508965", "distance": 921.8957322488718}, {"id": "D0nfIlvK_wTibaSS9LyoqQ", "alias": "kaiserlich-hamburg", "name": "Kaiserlich", "image_url": "https://s3-media2.fl.yelpcdn.com/bphoto/Lnyrym_W6Urbtf-kj3T2sA/o.jpg", "is_closed": false, "url": "https://www.yelp.com/biz/kaiserlich-hamburg?adjust_creative=hBJOknVQJ58S5goQyjmwRw&utm_campaign=yelp_api_v3&utm_medium=api_v3_business_search&utm_source=hBJOknVQJ58S5goQyjmwRw", "review_count": 1, "categories": [{"alias": "german", "title": "German"}, {"alias": "beergarden", "title": "Beer Garden"}], "rating": 4.0, "coordinates": {"latitude": 53.46486, "longitude": 9.97301}, "transactions": [], "location": {"address1": "Schwarzenbergstr. 80", "address2": "", "address3": null, "city": "Hamburg", "zip_code": "21073", "country": "DE", "state": "HH", "display_address": ["Schwarzenbergstr. 80", "21073 Hamburg", "Germany"]}, "phone": "+494030085115", "display_phone": "+49 40 30085115", "distance": 1554.1561209122174}, {"id": "r86H2RdbCSvuBXG4NPe-9Q", "alias": "imbi\u00df-kutscherstube-hamburg", "name": "Imbi\u00df Kutscherstube", "image_url": "https://s3-media2.fl.yelpcdn.com/bphoto/cEabUhISIkK9plp6NE4cYw/o.jpg", "is_closed": false, "url": "https://www.yelp.com/biz/imbi%C3%9F-kutscherstube-hamburg?adjust_creative=hBJOknVQJ58S5goQyjmwRw&utm_campaign=yelp_api_v3&utm_medium=api_v3_business_search&utm_source=hBJOknVQJ58S5goQyjmwRw", "review_count": 3, "categories": [{"alias": "hotdogs", "title": "Fast Food"}], "rating": 4.5, "coordinates": {"latitude": 53.45736, "longitude": 10.01091}, "transactions": [], "price": "\u20ac", "location": {"address1": "Grossmoorbogen 11 a", "address2": "", "address3": "", "city": "Hamburg", "zip_code": "21079", "country": "DE", "state": "HH", "display_address": ["Grossmoorbogen 11 a", "21079 Hamburg", "Germany"]}, "phone": "+494033319762", "display_phone": "+49 40 33319762", "distance": 1362.9933840001795}, {"id": "GzkdZKdjaoIzIz0SzaoKdg", "alias": "wilhelmsburger-hof-hamburg-2", "name": "Wilhelmsburger Hof", "image_url": "https://s3-media1.fl.yelpcdn.com/bphoto/CGnsfjYCBfgkRuQcwfQZAQ/o.jpg", "is_closed": false, "url": "https://www.yelp.com/biz/wilhelmsburger-hof-hamburg-2?adjust_creative=hBJOknVQJ58S5goQyjmwRw&utm_campaign=yelp_api_v3&utm_medium=api_v3_business_search&utm_source=hBJOknVQJ58S5goQyjmwRw", "review_count": 5, "categories": [{"alias": "german", "title": "German"}], "rating": 3.5, "coordinates": {"latitude": 53.48202, "longitude": 9.99189}, "transactions": [], "location": {"address1": "Hotel Wilhelmsburger Hof", "address2": "Georg-Wilhelm-Str. 329", "address3": null, "city": "Hamburg", "zip_code": "21107", "country": "DE", "state": "HH", "display_address": ["Hotel Wilhelmsburger Hof", "Georg-Wilhelm-Str. 329", "21107 Hamburg", "Germany"]}, "phone": "+4940758841", "display_phone": "+49 40 758841", "distance": 1816.4854805119357}, {"id": "94Zk6MIaVfxFKUcaFvy-NQ", "alias": "sofia-pizza-hamburg", "name": "Sofia Pizza", "image_url": "https://s3-media2.fl.yelpcdn.com/bphoto/QGi_k4KjaT-k_myPkbISog/o.jpg", "is_closed": false, "url": "https://www.yelp.com/biz/sofia-pizza-hamburg?adjust_creative=hBJOknVQJ58S5goQyjmwRw&utm_campaign=yelp_api_v3&utm_medium=api_v3_business_search&utm_source=hBJOknVQJ58S5goQyjmwRw", "review_count": 9, "categories": [{"alias": "fooddeliveryservices", "title": "Food Delivery Services"}, {"alias": "italian", "title": "Italian"}], "rating": 4.0, "coordinates": {"latitude": 53.45045, "longitude": 9.98862}, "transactions": [], "price": "\u20ac\u20ac", "location": {"address1": "N\u00f6ldekestr. 2", "address2": "", "address3": null, "city": "Hamburg", "zip_code": "21079", "country": "DE", "state": "HH", "display_address": ["N\u00f6ldekestr. 2", "21079 Hamburg", "Germany"]}, "phone": "+49407642187", "display_phone": "+49 40 7642187", "distance": 1794.0206174153275}, {"id": "eFE5SnsanlNihnFs1fORDw", "alias": "willi-villa-hamburg", "name": "Willi Villa", "image_url": "https://s3-media4.fl.yelpcdn.com/bphoto/48pXxWCV6HKm1VDPnZF5XA/o.jpg", "is_closed": false, "url": "https://www.yelp.com/biz/willi-villa-hamburg?adjust_creative=hBJOknVQJ58S5goQyjmwRw&utm_campaign=yelp_api_v3&utm_medium=api_v3_business_search&utm_source=hBJOknVQJ58S5goQyjmwRw", "review_count": 7, "categories": [{"alias": "boatcharters", "title": "Boat Charters"}, {"alias": "cafes", "title": "Cafes"}, {"alias": "kiosk", "title": "Kiosk"}], "rating": 3.5, "coordinates": {"latitude": 53.490407693867, "longitude": 10.00002330531}, "transactions": [], "price": "\u20ac\u20ac", "location": {"address1": "Hauland 81", "address2": "", "address3": "", "city": "Hamburg", "zip_code": "21109", "country": "DE", "state": "HH", "display_address": ["Hauland 81", "21109 Hamburg", "Germany"]}, "phone": "+494086687781", "display_phone": "+49 40 86687781", "distance": 2734.9725893967975}, {"id": "jfNuFmyWQfl-dUt-SPQ7OA", "alias": "der-grieche-hamburg-3", "name": "Der Grieche", "image_url": "https://s3-media1.fl.yelpcdn.com/bphoto/VlvOP7MZxhr_qgMJ8TRNcA/o.jpg", "is_closed": false, "url": "https://www.yelp.com/biz/der-grieche-hamburg-3?adjust_creative=hBJOknVQJ58S5goQyjmwRw&utm_campaign=yelp_api_v3&utm_medium=api_v3_business_search&utm_source=hBJOknVQJ58S5goQyjmwRw", "review_count": 4, "categories": [{"alias": "greek", "title": "Greek"}], "rating": 3.5, "coordinates": {"latitude": 53.5054, "longitude": 9.986}, "transactions": [], "price": "\u20ac\u20ac", "location": {"address1": "Veringstr. 159", "address2": null, "address3": null, "city": "Hamburg", "zip_code": "21107", "country": "DE", "state": "HH", "display_address": ["Veringstr. 159", "21107 Hamburg", "Germany"]}, "phone": "+494075662581", "display_phone": "+49 40 75662581", "distance": 4444.90839591684}, {"id": "5vxkcyXLuqOuDQNW9aCyRw", "alias": "eiscaf\u00e9-leonardo-hamburg-2", "name": "Eiscaf\u00e9 Leonardo", "image_url": "https://s3-media2.fl.yelpcdn.com/bphoto/8jCWdYJRgSLmA2qx4ALh3A/o.jpg", "is_closed": false, "url": "https://www.yelp.com/biz/eiscaf%C3%A9-leonardo-hamburg-2?adjust_creative=hBJOknVQJ58S5goQyjmwRw&utm_campaign=yelp_api_v3&utm_medium=api_v3_business_search&utm_source=hBJOknVQJ58S5goQyjmwRw", "review_count": 2, "categories": [{"alias": "cafes", "title": "Cafes"}, {"alias": "icecream", "title": "Ice Cream & Frozen Yogurt"}], "rating": 4.0, "coordinates": {"latitude": 53.4597478944529, "longitude": 9.98378828394465}, "transactions": [], "price": "\u20ac\u20ac", "location": {"address1": "L\u00fcneburger Tor 10", "address2": "", "address3": "", "city": "Hamburg", "zip_code": "21073", "country": "DE", "state": "HH", "display_address": ["L\u00fcneburger Tor 10", "21073 Hamburg", "Germany"]}, "phone": "+494036029951", "display_phone": "+49 40 36029951", "distance": 1079.247133373607}, {"id": "svMvWfP_oj_T5ol1u3gH0A", "alias": "gasthof-sohre-hamburg", "name": "Gasthof Sohre", "image_url": "https://s3-media2.fl.yelpcdn.com/bphoto/JLMLC6GhAnw8WCg0KW-btw/o.jpg", "is_closed": false, "url": "https://www.yelp.com/biz/gasthof-sohre-hamburg?adjust_creative=hBJOknVQJ58S5goQyjmwRw&utm_campaign=yelp_api_v3&utm_medium=api_v3_business_search&utm_source=hBJOknVQJ58S5goQyjmwRw", "review_count": 20, "categories": [{"alias": "hotels", "title": "Hotels"}, {"alias": "german", "title": "German"}], "rating": 3.5, "coordinates": {"latitude": 53.4869, "longitude": 10.0163}, "transactions": [], "price": "\u20ac\u20ac", "location": {"address1": "Kirchdorfer Str. 169", "address2": null, "address3": null, "city": "Hamburg", "zip_code": "21109", "country": "DE", "state": "HH", "display_address": ["Kirchdorfer Str. 169", "21109 Hamburg", "Germany"]}, "phone": "+494031976742", "display_phone": "+49 40 31976742", "distance": 2680.570235615952}, {"id": "bV7QqSWeT214eEYNKFHfUQ", "alias": "schweinske-hamburg-14", "name": "Schweinske", "image_url": "https://s3-media2.fl.yelpcdn.com/bphoto/EP1I_Xr6BSXui6fd3YbgDQ/o.jpg", "is_closed": false, "url": "https://www.yelp.com/biz/schweinske-hamburg-14?adjust_creative=hBJOknVQJ58S5goQyjmwRw&utm_campaign=yelp_api_v3&utm_medium=api_v3_business_search&utm_source=hBJOknVQJ58S5goQyjmwRw", "review_count": 7, "categories": [{"alias": "german", "title": "German"}], "rating": 3.0, "coordinates": {"latitude": 53.4982, "longitude": 10.011}, "transactions": [], "price": "\u20ac\u20ac\u20ac", "location": {"address1": "Berta-Kr\u00f6ger-Platz", "address2": "Krieterstr. 18", "address3": null, "city": "Hamburg", "zip_code": "21109", "country": "DE", "state": "HH", "display_address": ["Berta-Kr\u00f6ger-Platz", "Krieterstr. 18", "21109 Hamburg", "Germany"]}, "phone": "+494023936965", "display_phone": "+49 40 23936965", "distance": 3718.719642170109}, {"id": "JMcS_pgzXcJoDTyug5U7QA", "alias": "central-hamburg-2", "name": "Central", "image_url": "https://s3-media2.fl.yelpcdn.com/bphoto/-Y8FKGnalDkTlw6-06RiZw/o.jpg", "is_closed": false, "url": "https://www.yelp.com/biz/central-hamburg-2?adjust_creative=hBJOknVQJ58S5goQyjmwRw&utm_campaign=yelp_api_v3&utm_medium=api_v3_business_search&utm_source=hBJOknVQJ58S5goQyjmwRw", "review_count": 29, "categories": [{"alias": "international", "title": "International"}, {"alias": "burgers", "title": "Burgers"}], "rating": 3.0, "coordinates": {"latitude": 53.45697, "longitude": 9.98519}, "transactions": [], "price": "\u20ac\u20ac", "location": {"address1": "Wilstorfer Str. 43", "address2": "", "address3": "", "city": "Hamburg", "zip_code": "21073", "country": "DE", "state": "HH", "display_address": ["Wilstorfer Str. 43", "21073 Hamburg", "Germany"]}, "phone": "+494075365240", "display_phone": "+49 40 75365240", "distance": 1337.650730056901}, {"id": "stc7YthQ_jis4ZAxtKCOew", "alias": "dubrovnik-kupferkanne-hamburg-2", "name": "Dubrovnik - Kupferkanne", "image_url": "https://s3-media2.fl.yelpcdn.com/bphoto/_N1rRn8pgKtVxvTtsNMiIg/o.jpg", "is_closed": false, "url": "https://www.yelp.com/biz/dubrovnik-kupferkanne-hamburg-2?adjust_creative=hBJOknVQJ58S5goQyjmwRw&utm_campaign=yelp_api_v3&utm_medium=api_v3_business_search&utm_source=hBJOknVQJ58S5goQyjmwRw", "review_count": 11, "categories": [{"alias": "serbocroatian", "title": "Serbo Croatian"}], "rating": 4.0, "coordinates": {"latitude": 53.46032, "longitude": 9.97982}, "transactions": [], "price": "\u20ac\u20ac", "location": {"address1": "Julius-Ludowieg-Str. 8", "address2": null, "address3": null, "city": "Hamburg", "zip_code": "21073", "country": "DE", "state": "HH", "display_address": ["Julius-Ludowieg-Str. 8", "21073 Hamburg", "Germany"]}, "phone": "+494076755115", "display_phone": "+49 40 76755115", "distance": 1260.5280994312175}, {"id": "lI3WCd2uVB1Bgoy_Gu4fxQ", "alias": "dubara-hamburg-2", "name": "Dubara", "image_url": "https://s3-media3.fl.yelpcdn.com/bphoto/EJvCso5qM_sbWwzkdYxN0Q/o.jpg", "is_closed": false, "url": "https://www.yelp.com/biz/dubara-hamburg-2?adjust_creative=hBJOknVQJ58S5goQyjmwRw&utm_campaign=yelp_api_v3&utm_medium=api_v3_business_search&utm_source=hBJOknVQJ58S5goQyjmwRw", "review_count": 18, "categories": [{"alias": "hotdogs", "title": "Fast Food"}], "rating": 4.0, "coordinates": {"latitude": 53.46096, "longitude": 9.98246}, "transactions": [], "price": "\u20ac", "location": {"address1": "Schlo\u00dfm\u00fchlendamm 2", "address2": "", "address3": "", "city": "Hamburg", "zip_code": "21073", "country": "DE", "state": "HH", "display_address": ["Schlo\u00dfm\u00fchlendamm 2", "21073 Hamburg", "Germany"]}, "phone": "", "display_phone": "", "distance": 1039.413568749842}, {"id": "les2_m_bDxfAflDLDtStkg", "alias": "bahnhofsgrill-pavillion-hamburg-3", "name": "Bahnhofsgrill Pavillion", "image_url": "https://s3-media1.fl.yelpcdn.com/bphoto/VRnUbq6JuW8qR31zz6n65g/o.jpg", "is_closed": false, "url": "https://www.yelp.com/biz/bahnhofsgrill-pavillion-hamburg-3?adjust_creative=hBJOknVQJ58S5goQyjmwRw&utm_campaign=yelp_api_v3&utm_medium=api_v3_business_search&utm_source=hBJOknVQJ58S5goQyjmwRw", "review_count": 1, "categories": [{"alias": "currysausage", "title": "Curry Sausage"}, {"alias": "hotdogs", "title": "Fast Food"}, {"alias": "foodtrucks", "title": "Food Trucks"}], "rating": 5.0, "coordinates": {"latitude": 53.456827284711, "longitude": 9.98948923232295}, "transactions": [], "price": "\u20ac", "location": {"address1": "Hannoverstr. 86", "address2": null, "address3": null, "city": "Hamburg", "zip_code": "", "country": "DE", "state": "HH", "display_address": ["Hannoverstr. 86", "Hamburg", "Germany"]}, "phone": "", "display_phone": "", "distance": 1108.1041465212909}, {"id": "tSgLnQpFHxEmy4v_b7MOlA", "alias": "imbiss-stube-hamburg", "name": "Imbiss Stube", "image_url": "https://s3-media1.fl.yelpcdn.com/bphoto/tXRb6VZadgTWpUw7hR94pQ/o.jpg", "is_closed": false, "url": "https://www.yelp.com/biz/imbiss-stube-hamburg?adjust_creative=hBJOknVQJ58S5goQyjmwRw&utm_campaign=yelp_api_v3&utm_medium=api_v3_business_search&utm_source=hBJOknVQJ58S5goQyjmwRw", "review_count": 1, "categories": [{"alias": "divebars", "title": "Dive Bars"}, {"alias": "hotdogs", "title": "Fast Food"}], "rating": 3.0, "coordinates": {"latitude": 53.447, "longitude": 9.99155264562841}, "transactions": [], "price": "\u20ac\u20ac", "location": {"address1": "Tivoliweg 1", "address2": "", "address3": "", "city": "Hamburg", "zip_code": "21079", "country": "DE", "state": "HH", "display_address": ["Tivoliweg 1", "21079 Hamburg", "Germany"]}, "phone": "", "display_phone": "", "distance": 2126.5767757631456}, {"id": "Uh7Dku50dXIfWmDiQ6xYQg", "alias": "patara-grill-hamburg", "name": "Patara Grill", "image_url": "https://s3-media2.fl.yelpcdn.com/bphoto/sdEuUHITWRmodA2bpfaFHw/o.jpg", "is_closed": false, "url": "https://www.yelp.com/biz/patara-grill-hamburg?adjust_creative=hBJOknVQJ58S5goQyjmwRw&utm_campaign=yelp_api_v3&utm_medium=api_v3_business_search&utm_source=hBJOknVQJ58S5goQyjmwRw", "review_count": 7, "categories": [{"alias": "kebab", "title": "Kebab"}, {"alias": "foodstands", "title": "Food Stands"}], "rating": 3.5, "coordinates": {"latitude": 53.45622, "longitude": 9.98567}, "transactions": [], "price": "\u20ac", "location": {"address1": "Wilstorfer Str. 56", "address2": "", "address3": "", "city": "Hamburg", "zip_code": "21073", "country": "DE", "state": "HH", "display_address": ["Wilstorfer Str. 56", "21073 Hamburg", "Germany"]}, "phone": "+4940770055", "display_phone": "+49 40 770055", "distance": 1296.311463067899}, {"id": "MAMwjqbBtwhc5hEvn8-2TQ", "alias": "hornbachers-goldener-engel-hamburg", "name": "Hornbachers Goldener Engel", "image_url": "https://s3-media4.fl.yelpcdn.com/bphoto/aGi6weAAOpot4YrbWe-ZfA/o.jpg", "is_closed": false, "url": "https://www.yelp.com/biz/hornbachers-goldener-engel-hamburg?adjust_creative=hBJOknVQJ58S5goQyjmwRw&utm_campaign=yelp_api_v3&utm_medium=api_v3_business_search&utm_source=hBJOknVQJ58S5goQyjmwRw", "review_count": 33, "categories": [{"alias": "german", "title": "German"}], "rating": 3.5, "coordinates": {"latitude": 53.4642658, "longitude": 9.9823764}, "transactions": [], "price": "\u20ac\u20ac", "location": {"address1": "Harburger Schlo\u00dfstr. 7", "address2": null, "address3": null, "city": "Hamburg", "zip_code": "21079", "country": "DE", "state": "HH", "display_address": ["Harburger Schlo\u00dfstr. 7", "21079 Hamburg", "Germany"]}, "phone": "+494033443858", "display_phone": "+49 40 33443858", "distance": 945.3249847163338}, {"id": "fn9G7u7Ok4u5aLwtY3Ok4Q", "alias": "pizza-max-hamburg-5", "name": "Pizza Max", "image_url": "https://s3-media3.fl.yelpcdn.com/bphoto/ii2_bSz4l0LdTtBjUjznrw/o.jpg", "is_closed": false, "url": "https://www.yelp.com/biz/pizza-max-hamburg-5?adjust_creative=hBJOknVQJ58S5goQyjmwRw&utm_campaign=yelp_api_v3&utm_medium=api_v3_business_search&utm_source=hBJOknVQJ58S5goQyjmwRw", "review_count": 5, "categories": [{"alias": "hotdogs", "title": "Fast Food"}, {"alias": "pizza", "title": "Pizza"}, {"alias": "burgers", "title": "Burgers"}], "rating": 4.5, "coordinates": {"latitude": 53.44405, "longitude": 9.99892}, "transactions": [], "price": "\u20ac", "location": {"address1": "Mensingstr. 3", "address2": "", "address3": "", "city": "Hamburg", "zip_code": "21079", "country": "DE", "state": "HH", "display_address": ["Mensingstr. 3", "21079 Hamburg", "Germany"]}, "phone": "+494030375150", "display_phone": "+49 40 30375150", "distance": 2437.0268606275154}, {"id": "sdAZwPKxjK9G_tgdBTQm_Q", "alias": "hallo-pizza-hamburg-16", "name": "Hallo Pizza", "image_url": "https://s3-media1.fl.yelpcdn.com/bphoto/Ws_ObNA3I4z-EMXMgWO2-g/o.jpg", "is_closed": false, "url": "https://www.yelp.com/biz/hallo-pizza-hamburg-16?adjust_creative=hBJOknVQJ58S5goQyjmwRw&utm_campaign=yelp_api_v3&utm_medium=api_v3_business_search&utm_source=hBJOknVQJ58S5goQyjmwRw", "review_count": 1, "categories": [{"alias": "pizza", "title": "Pizza"}], "rating": 5.0, "coordinates": {"latitude": 53.4961847403054, "longitude": 10.0036735875583}, "transactions": [], "location": {"address1": "Neuenfelder Str. 31", "address2": "", "address3": null, "city": "Hamburg", "zip_code": "20457", "country": "DE", "state": "HH", "display_address": ["Neuenfelder Str. 31", "20457 Hamburg", "Germany"]}, "phone": "+494031807141", "display_phone": "+49 40 31807141", "distance": 3401.0881383842147}, {"id": "UE-1d29OEoGaBKgyZfmsnQ", "alias": "schnurr-bart-seevetal", "name": "Schnurr-Bart", "image_url": "https://s3-media2.fl.yelpcdn.com/bphoto/2db7UH7qOD35M__0wZKt4w/o.jpg", "is_closed": false, "url": "https://www.yelp.com/biz/schnurr-bart-seevetal?adjust_creative=hBJOknVQJ58S5goQyjmwRw&utm_campaign=yelp_api_v3&utm_medium=api_v3_business_search&utm_source=hBJOknVQJ58S5goQyjmwRw", "review_count": 20, "categories": [{"alias": "bars", "title": "Bars"}, {"alias": "german", "title": "German"}, {"alias": "breakfast_brunch", "title": "Breakfast & Brunch"}], "rating": 3.5, "coordinates": {"latitude": 53.42342, "longitude": 10.02082}, "transactions": [], "price": "\u20ac\u20ac", "location": {"address1": "R\u00f6nneburger Str. 12", "address2": "", "address3": null, "city": "Seevetal", "zip_code": "21217", "country": "DE", "state": "NI", "display_address": ["R\u00f6nneburger Str. 12", "21217 Seevetal", "Germany"]}, "phone": "+49407688040", "display_phone": "+49 40 7688040", "distance": 4993.70642178564}, {"id": "CbUiL17tlxO2GqF6ckuBfQ", "alias": "hotel-panorama-hamburg", "name": "Hotel Panorama", "image_url": "https://s3-media2.fl.yelpcdn.com/bphoto/RmfzM3AhpCmNFfdsIU46nw/o.jpg", "is_closed": false, "url": "https://www.yelp.com/biz/hotel-panorama-hamburg?adjust_creative=hBJOknVQJ58S5goQyjmwRw&utm_campaign=yelp_api_v3&utm_medium=api_v3_business_search&utm_source=hBJOknVQJ58S5goQyjmwRw", "review_count": 15, "categories": [{"alias": "hotels", "title": "Hotels"}, {"alias": "restaurants", "title": "Restaurants"}], "rating": 3.5, "coordinates": {"latitude": 53.4589, "longitude": 9.98489}, "transactions": [], "price": "\u20ac\u20ac", "location": {"address1": "Harburger Ring 8-10", "address2": "", "address3": "", "city": "Hamburg", "zip_code": "21073", "country": "DE", "state": "HH", "display_address": ["Harburger Ring 8-10", "21073 Hamburg", "Germany"]}, "phone": "+4940766950", "display_phone": "+49 40 766950", "distance": 1057.4683568183502}, {"id": "kVRS_McR3zw0Ql4wcQIqfQ", "alias": "mimi-kirchner-hamburg", "name": "Mimi Kirchner", "image_url": "https://s3-media2.fl.yelpcdn.com/bphoto/rxzQzyJMhYCV6ClvliphVQ/o.jpg", "is_closed": false, "url": "https://www.yelp.com/biz/mimi-kirchner-hamburg?adjust_creative=hBJOknVQJ58S5goQyjmwRw&utm_campaign=yelp_api_v3&utm_medium=api_v3_business_search&utm_source=hBJOknVQJ58S5goQyjmwRw", "review_count": 15, "categories": [{"alias": "delicatessen", "title": "Delicatessen"}, {"alias": "seafood", "title": "Seafood"}], "rating": 4.0, "coordinates": {"latitude": 53.46112, "longitude": 9.98021}, "transactions": [], "price": "\u20ac\u20ac", "location": {"address1": "Sand 25", "address2": null, "address3": null, "city": "Hamburg", "zip_code": "21073", "country": "DE", "state": "HH", "display_address": ["Sand 25", "21073 Hamburg", "Germany"]}, "phone": "+4940773263", "display_phone": "+49 40 773263", "distance": 1198.7610178505101}, {"id": "ZYzMjE-TO_m3pcbC3gVFSg", "alias": "a-la-fisch-hamburg", "name": "A la Fisch", "image_url": "https://s3-media2.fl.yelpcdn.com/bphoto/2RulBT1N6hZwxnQiXt_w4A/o.jpg", "is_closed": false, "url": "https://www.yelp.com/biz/a-la-fisch-hamburg?adjust_creative=hBJOknVQJ58S5goQyjmwRw&utm_campaign=yelp_api_v3&utm_medium=api_v3_business_search&utm_source=hBJOknVQJ58S5goQyjmwRw", "review_count": 1, "categories": [{"alias": "seafood", "title": "Seafood"}], "rating": 3.0, "coordinates": {"latitude": 53.46314, "longitude": 9.98105}, "transactions": [], "location": {"address1": "Kleine Gasse 2", "address2": "", "address3": null, "city": "Hamburg", "zip_code": "21073", "country": "DE", "state": "HH", "display_address": ["Kleine Gasse 2", "21073 Hamburg", "Germany"]}, "phone": "+494036911551", "display_phone": "+49 40 36911551", "distance": 1063.799813066191}, {"id": "mpxfxZg4yEkvNEaiB4Ting", "alias": "schweinske-hamburg-42", "name": "Schweinske", "image_url": "https://s3-media1.fl.yelpcdn.com/bphoto/bxEWE799gFKJ4u6oOfOvyg/o.jpg", "is_closed": false, "url": "https://www.yelp.com/biz/schweinske-hamburg-42?adjust_creative=hBJOknVQJ58S5goQyjmwRw&utm_campaign=yelp_api_v3&utm_medium=api_v3_business_search&utm_source=hBJOknVQJ58S5goQyjmwRw", "review_count": 6, "categories": [{"alias": "german", "title": "German"}], "rating": 3.5, "coordinates": {"latitude": 53.45767, "longitude": 9.984}, "transactions": [], "location": {"address1": "L\u00fcneburger Str. 2", "address2": "", "address3": null, "city": "Hamburg", "zip_code": "21073", "country": "DE", "state": "HH", "display_address": ["L\u00fcneburger Str. 2", "21073 Hamburg", "Germany"]}, "phone": "+494030701523", "display_phone": "+49 40 30701523", "distance": 1220.2655452751796}, {"id": "Mrn-cXjAt7L168a8gGDyug", "alias": "tungs-asia-hamburg", "name": "Tung's Asia", "image_url": "https://s3-media4.fl.yelpcdn.com/bphoto/ZDdzi_FVZiuQ_LiQcLmpNw/o.jpg", "is_closed": false, "url": "https://www.yelp.com/biz/tungs-asia-hamburg?adjust_creative=hBJOknVQJ58S5goQyjmwRw&utm_campaign=yelp_api_v3&utm_medium=api_v3_business_search&utm_source=hBJOknVQJ58S5goQyjmwRw", "review_count": 6, "categories": [{"alias": "fooddeliveryservices", "title": "Food Delivery Services"}, {"alias": "panasian", "title": "Pan Asian"}], "rating": 3.5, "coordinates": {"latitude": 53.45963, "longitude": 9.98218}, "transactions": [], "price": "\u20ac", "location": {"address1": "Deichhausweg 3", "address2": "", "address3": "", "city": "Hamburg", "zip_code": "21073", "country": "DE", "state": "HH", "display_address": ["Deichhausweg 3", "21073 Hamburg", "Germany"]}, "phone": "+494041450841", "display_phone": "+49 40 41450841", "distance": 1176.541166308075}, {"id": "r109Jqlib2MXiZhlc_IaiQ", "alias": "pommesfreunde-hamburg", "name": "Pommesfreunde", "image_url": "https://s3-media1.fl.yelpcdn.com/bphoto/exxt6WKmED3Wufg76Pre-w/o.jpg", "is_closed": false, "url": "https://www.yelp.com/biz/pommesfreunde-hamburg?adjust_creative=hBJOknVQJ58S5goQyjmwRw&utm_campaign=yelp_api_v3&utm_medium=api_v3_business_search&utm_source=hBJOknVQJ58S5goQyjmwRw", "review_count": 7, "categories": [{"alias": "hotdogs", "title": "Fast Food"}, {"alias": "currysausage", "title": "Curry Sausage"}, {"alias": "burgers", "title": "Burgers"}], "rating": 3.0, "coordinates": {"latitude": 53.456473, "longitude": 9.988011}, "transactions": [], "price": "\u20ac\u20ac", "location": {"address1": "Hannoversche Str. 86", "address2": "", "address3": "", "city": "Hamburg", "zip_code": "21079", "country": "DE", "state": "HH", "display_address": ["Hannoversche Str. 86", "21079 Hamburg", "Germany"]}, "phone": "+4915124058079", "display_phone": "+49 1512 4058079", "distance": 1186.5778715930135}, {"id": "_lnuho27eVj0Mo9uaUwKjw", "alias": "mina-restaurant-hamburg", "name": "Mina Restaurant", "image_url": "https://s3-media3.fl.yelpcdn.com/bphoto/sQklcxFb_JpubEyocZAv0g/o.jpg", "is_closed": false, "url": "https://www.yelp.com/biz/mina-restaurant-hamburg?adjust_creative=hBJOknVQJ58S5goQyjmwRw&utm_campaign=yelp_api_v3&utm_medium=api_v3_business_search&utm_source=hBJOknVQJ58S5goQyjmwRw", "review_count": 9, "categories": [{"alias": "hotdogs", "title": "Fast Food"}], "rating": 3.5, "coordinates": {"latitude": 53.49804, "longitude": 10.00861}, "transactions": [], "price": "\u20ac", "location": {"address1": "Wilhelm-Strau\u00df-Weg 8", "address2": "", "address3": "", "city": "Hamburg", "zip_code": "21109", "country": "DE", "state": "HH", "display_address": ["Wilhelm-Strau\u00df-Weg 8", "21109 Hamburg", "Germany"]}, "phone": "+494030236968", "display_phone": "+49 40 30236968", "distance": 3663.418974546013}, {"id": "FLs5M08YQIGFx65y_yjCSw", "alias": "asia-bistro-tung-hamburg", "name": "Asia Bistro Tung", "image_url": "https://s3-media3.fl.yelpcdn.com/bphoto/M5bM4E4G093z-_o_N0zviQ/o.jpg", "is_closed": false, "url": "https://www.yelp.com/biz/asia-bistro-tung-hamburg?adjust_creative=hBJOknVQJ58S5goQyjmwRw&utm_campaign=yelp_api_v3&utm_medium=api_v3_business_search&utm_source=hBJOknVQJ58S5goQyjmwRw", "review_count": 14, "categories": [{"alias": "restaurants", "title": "Restaurants"}], "rating": 4.0, "coordinates": {"latitude": 53.4597043, "longitude": 9.9820942}, "transactions": [], "price": "\u20ac\u20ac", "location": {"address1": "Deichhausweg 3", "address2": null, "address3": null, "city": "Hamburg", "zip_code": "21073", "country": "DE", "state": "HH", "display_address": ["Deichhausweg 3", "21073 Hamburg", "Germany"]}, "phone": "+494041450841", "display_phone": "+49 40 41450841", "distance": 1170.9422912106256}, {"id": "gnxogqKBPeZYngFzKcaj5w", "alias": "k\u00f6z-harput-hamburg", "name": "K\u00f6z Harput", "image_url": "https://s3-media1.fl.yelpcdn.com/bphoto/qKK3qfi2FIkDRp130MTvOA/o.jpg", "is_closed": false, "url": "https://www.yelp.com/biz/k%C3%B6z-harput-hamburg?adjust_creative=hBJOknVQJ58S5goQyjmwRw&utm_campaign=yelp_api_v3&utm_medium=api_v3_business_search&utm_source=hBJOknVQJ58S5goQyjmwRw", "review_count": 1, "categories": [{"alias": "kebab", "title": "Kebab"}, {"alias": "turkish", "title": "Turkish"}], "rating": 4.0, "coordinates": {"latitude": 53.4612434989418, "longitude": 9.97852988419762}, "transactions": [], "location": {"address1": "Neue Str. 9", "address2": "", "address3": "", "city": "Hamburg", "zip_code": "21073", "country": "DE", "state": "HH", "display_address": ["Neue Str. 9", "21073 Hamburg", "Germany"]}, "phone": "+494046636117", "display_phone": "+49 40 46636117", "distance": 1290.9304401539366}, {"id": "t2KeQPf2njyeUstJ80yWmg", "alias": "bosporus-lounge-hamburg", "name": "Bosporus Lounge", "image_url": "https://s3-media1.fl.yelpcdn.com/bphoto/mI-OQl8acHBOpXz3y9zRFA/o.jpg", "is_closed": false, "url": "https://www.yelp.com/biz/bosporus-lounge-hamburg?adjust_creative=hBJOknVQJ58S5goQyjmwRw&utm_campaign=yelp_api_v3&utm_medium=api_v3_business_search&utm_source=hBJOknVQJ58S5goQyjmwRw", "review_count": 2, "categories": [{"alias": "turkish", "title": "Turkish"}], "rating": 2.5, "coordinates": {"latitude": 53.456175, "longitude": 9.98617}, "transactions": [], "location": {"address1": "Hannoversche Str. 86", "address2": "", "address3": "", "city": "Hamburg", "zip_code": "21079", "country": "DE", "state": "HH", "display_address": ["Hannoversche Str. 86", "21079 Hamburg", "Germany"]}, "phone": "+494032527714", "display_phone": "+49 40 32527714", "distance": 1276.1780305397808}, {"id": "G4zsU0sJR31QUzYWd8wrlw", "alias": "oktober-hamburg-2", "name": "Oktober", "image_url": "https://s3-media1.fl.yelpcdn.com/bphoto/t59SMzwjydOCS10X8fddRA/o.jpg", "is_closed": false, "url": "https://www.yelp.com/biz/oktober-hamburg-2?adjust_creative=hBJOknVQJ58S5goQyjmwRw&utm_campaign=yelp_api_v3&utm_medium=api_v3_business_search&utm_source=hBJOknVQJ58S5goQyjmwRw", "review_count": 78, "categories": [{"alias": "breakfast_brunch", "title": "Breakfast & Brunch"}, {"alias": "cafes", "title": "Cafes"}, {"alias": "cocktailbars", "title": "Cocktail Bars"}], "rating": 3.0, "coordinates": {"latitude": 53.46306, "longitude": 9.98155}, "transactions": [], "price": "\u20ac\u20ac", "location": {"address1": "Schlossm\u00fchlendamm 23", "address2": "", "address3": "", "city": "Hamburg", "zip_code": "21073", "country": "DE", "state": "HH", "display_address": ["Schlossm\u00fchlendamm 23", "21073 Hamburg", "Germany"]}, "phone": "+4940772618", "display_phone": "+49 40 772618", "distance": 1042.5530408926973}, {"id": "_LxqJQqvVtbccu8u0A-28w", "alias": "asia-palast-hamburg", "name": "Asia Palast", "image_url": "https://s3-media3.fl.yelpcdn.com/bphoto/CuAWnIvluQjT62Uwa0cFDw/o.jpg", "is_closed": false, "url": "https://www.yelp.com/biz/asia-palast-hamburg?adjust_creative=hBJOknVQJ58S5goQyjmwRw&utm_campaign=yelp_api_v3&utm_medium=api_v3_business_search&utm_source=hBJOknVQJ58S5goQyjmwRw", "review_count": 1, "categories": [{"alias": "chinese", "title": "Chinese"}, {"alias": "panasian", "title": "Pan Asian"}], "rating": 3.0, "coordinates": {"latitude": 53.4398084, "longitude": 9.9839908}, "transactions": [], "location": {"address1": "Freudenthalweg 33", "address2": "", "address3": "", "city": "Hamburg", "zip_code": "21077", "country": "DE", "state": "HH", "display_address": ["Freudenthalweg 33", "21077 Hamburg", "Germany"]}, "phone": "+494022610499", "display_phone": "+49 40 22610499", "distance": 3015.8792512657174}, {"id": "Xw8JuSvkCJXP_veYJWafvw", "alias": "von-allw\u00f6rden-hamburg-48", "name": "Von Allw\u00f6rden", "image_url": "https://s3-media1.fl.yelpcdn.com/bphoto/O4mGVx4Nwvr5I6FfBwWUiw/o.jpg", "is_closed": false, "url": "https://www.yelp.com/biz/von-allw%C3%B6rden-hamburg-48?adjust_creative=hBJOknVQJ58S5goQyjmwRw&utm_campaign=yelp_api_v3&utm_medium=api_v3_business_search&utm_source=hBJOknVQJ58S5goQyjmwRw", "review_count": 1, "categories": [{"alias": "bistros", "title": "Bistros"}, {"alias": "cakeshop", "title": "Patisserie/Cake Shop"}, {"alias": "bakeries", "title": "Bakeries"}], "rating": 4.0, "coordinates": {"latitude": 53.4607303515967, "longitude": 9.97968190447996}, "transactions": [], "location": {"address1": "Harburger Ring", "address2": "", "address3": null, "city": "Hamburg", "zip_code": "21073", "country": "DE", "state": "HH", "display_address": ["Harburger Ring", "21073 Hamburg", "Germany"]}, "phone": "", "display_phone": "", "distance": 1246.7747798245366}, {"id": "1y2XtqilhsXVnr9C7RLYLw", "alias": "milkas-laden-hamburg", "name": "Milka's Laden", "image_url": "https://s3-media3.fl.yelpcdn.com/bphoto/EfF1EGYqFEn16Fc9Idw1xQ/o.jpg", "is_closed": false, "url": "https://www.yelp.com/biz/milkas-laden-hamburg?adjust_creative=hBJOknVQJ58S5goQyjmwRw&utm_campaign=yelp_api_v3&utm_medium=api_v3_business_search&utm_source=hBJOknVQJ58S5goQyjmwRw", "review_count": 2, "categories": [{"alias": "kiosk", "title": "Kiosk"}, {"alias": "beverage_stores", "title": "Beverage Store"}, {"alias": "cafes", "title": "Cafes"}], "rating": 3.0, "coordinates": {"latitude": 53.4549797455945, "longitude": 9.97639850078627}, "transactions": [], "location": {"address1": "", "address2": "", "address3": null, "city": "Hamburg", "zip_code": "", "country": "DE", "state": "HH", "display_address": ["Hamburg", "Germany"]}, "phone": "+4915779175885", "display_phone": "+49 1577 9175885", "distance": 1796.5774384851745}, {"id": "nugXt5zdBJw3xpscNmkwcw", "alias": "zaza-d\u00f6ner-und-pizzaria-hamburg", "name": "Zaza D\u00f6ner  und Pizzaria", "image_url": "https://s3-media3.fl.yelpcdn.com/bphoto/CtvlY2C9RVIBBVYJLUwUBg/o.jpg", "is_closed": false, "url": "https://www.yelp.com/biz/zaza-d%C3%B6ner-und-pizzaria-hamburg?adjust_creative=hBJOknVQJ58S5goQyjmwRw&utm_campaign=yelp_api_v3&utm_medium=api_v3_business_search&utm_source=hBJOknVQJ58S5goQyjmwRw", "review_count": 3, "categories": [{"alias": "pizza", "title": "Pizza"}, {"alias": "hotdogs", "title": "Fast Food"}, {"alias": "kebab", "title": "Kebab"}], "rating": 4.0, "coordinates": {"latitude": 53.457, "longitude": 9.98663}, "transactions": [], "location": {"address1": "Moorstr. 7", "address2": null, "address3": null, "city": "Hamburg", "zip_code": "21073", "country": "DE", "state": "HH", "display_address": ["Moorstr. 7", "21073 Hamburg", "Germany"]}, "phone": "+494076500111", "display_phone": "+49 40 76500111", "distance": 1182.4653343655677}, {"id": "OiRjhR0XPYINaGdKY6pSAw", "alias": "croque-master-hamburg", "name": "Croque Master", "image_url": "https://s3-media3.fl.yelpcdn.com/bphoto/mNCWgYgGs53m_ZQ4h_pAgw/o.jpg", "is_closed": false, "url": "https://www.yelp.com/biz/croque-master-hamburg?adjust_creative=hBJOknVQJ58S5goQyjmwRw&utm_campaign=yelp_api_v3&utm_medium=api_v3_business_search&utm_source=hBJOknVQJ58S5goQyjmwRw", "review_count": 22, "categories": [{"alias": "pizza", "title": "Pizza"}, {"alias": "baguettes", "title": "Baguettes"}], "rating": 3.5, "coordinates": {"latitude": 53.4604, "longitude": 9.97603}, "transactions": [], "price": "\u20ac\u20ac", "location": {"address1": "Ei\u00dfendorfer Str. 16", "address2": null, "address3": null, "city": "Hamburg", "zip_code": "21073", "country": "DE", "state": "HH", "display_address": ["Ei\u00dfendorfer Str. 16", "21073 Hamburg", "Germany"]}, "phone": "+4940773930", "display_phone": "+49 40 773930", "distance": 1480.2945793963481}, {"id": "Knjq3e0foO65SAwwNtr4mg", "alias": "kantine-stadtreinigung-hamburg", "name": "Kantine Stadtreinigung", "image_url": "", "is_closed": false, "url": "https://www.yelp.com/biz/kantine-stadtreinigung-hamburg?adjust_creative=hBJOknVQJ58S5goQyjmwRw&utm_campaign=yelp_api_v3&utm_medium=api_v3_business_search&utm_source=hBJOknVQJ58S5goQyjmwRw", "review_count": 4, "categories": [{"alias": "canteen", "title": "Canteen"}], "rating": 3.5, "coordinates": {"latitude": 53.4602, "longitude": 10.0021}, "transactions": [], "price": "\u20ac\u20ac", "location": {"address1": "Neul\u00e4nder Kamp 6", "address2": "", "address3": null, "city": "Hamburg", "zip_code": "21079", "country": "DE", "state": "HH", "display_address": ["Neul\u00e4nder Kamp 6", "21079 Hamburg", "Germany"]}, "phone": "", "display_phone": "", "distance": 738.660932002393}, {"id": "gyezVlqRrOVwzDiFzbpP6A", "alias": "mcdonalds-hamburg-35", "name": "McDonald's", "image_url": "https://s3-media1.fl.yelpcdn.com/bphoto/tB3bG0dIoyfIJ-wA8Zz2mg/o.jpg", "is_closed": false, "url": "https://www.yelp.com/biz/mcdonalds-hamburg-35?adjust_creative=hBJOknVQJ58S5goQyjmwRw&utm_campaign=yelp_api_v3&utm_medium=api_v3_business_search&utm_source=hBJOknVQJ58S5goQyjmwRw", "review_count": 11, "categories": [{"alias": "hotdogs", "title": "Fast Food"}, {"alias": "burgers", "title": "Burgers"}], "rating": 2.0, "coordinates": {"latitude": 53.4996933, "longitude": 9.9996645}, "transactions": [], "price": "\u20ac", "location": {"address1": "Dratelnstr. 31", "address2": "", "address3": null, "city": "Hamburg", "zip_code": "21109", "country": "DE", "state": "HH", "display_address": ["Dratelnstr. 31", "21109 Hamburg", "Germany"]}, "phone": "+494068873372", "display_phone": "+49 40 68873372", "distance": 3768.9470292929814}, {"id": "dijCqK6CmPhlUPC17sKHgg", "alias": "me-like-falafel-hamburg", "name": "Me Like Falafel", "image_url": "", "is_closed": false, "url": "https://www.yelp.com/biz/me-like-falafel-hamburg?adjust_creative=hBJOknVQJ58S5goQyjmwRw&utm_campaign=yelp_api_v3&utm_medium=api_v3_business_search&utm_source=hBJOknVQJ58S5goQyjmwRw", "review_count": 1, "categories": [{"alias": "arabian", "title": "Arabian"}, {"alias": "falafel", "title": "Falafel"}], "rating": 4.0, "coordinates": {"latitude": 53.50535, "longitude": 9.9862}, "transactions": [], "location": {"address1": "Veringstr. 156 a", "address2": "", "address3": "", "city": "Hamburg", "zip_code": "21107", "country": "DE", "state": "HH", "display_address": ["Veringstr. 156 a", "21107 Hamburg", "Germany"]}, "phone": "+494074128730", "display_phone": "+49 40 74128730", "distance": 4443.190416141435}, {"id": "E9dmhyidDuuUTPMBYS4cVw", "alias": "la-boca-hamburg", "name": "La Boca", "image_url": "https://s3-media1.fl.yelpcdn.com/bphoto/TZaXKwlGVwaL7xOBLd8KGw/o.jpg", "is_closed": false, "url": "https://www.yelp.com/biz/la-boca-hamburg?adjust_creative=hBJOknVQJ58S5goQyjmwRw&utm_campaign=yelp_api_v3&utm_medium=api_v3_business_search&utm_source=hBJOknVQJ58S5goQyjmwRw", "review_count": 3, "categories": [{"alias": "cafes", "title": "Cafes"}], "rating": 3.5, "coordinates": {"latitude": 53.4635, "longitude": 9.98023}, "transactions": [], "price": "\u20ac\u20ac", "location": {"address1": "Neue Str. 56", "address2": null, "address3": null, "city": "Hamburg", "zip_code": "21073", "country": "DE", "state": "HH", "display_address": ["Neue Str. 56", "21073 Hamburg", "Germany"]}, "phone": "", "display_phone": "", "distance": 1102.6105498899976}, {"id": "0eRwKOR0cRr25xWKQkaUxg", "alias": "uni-grill-house-hamburg", "name": "Uni Grill House", "image_url": "https://s3-media4.fl.yelpcdn.com/bphoto/v4C68yTzCxAOu46YIlFyOw/o.jpg", "is_closed": false, "url": "https://www.yelp.com/biz/uni-grill-house-hamburg?adjust_creative=hBJOknVQJ58S5goQyjmwRw&utm_campaign=yelp_api_v3&utm_medium=api_v3_business_search&utm_source=hBJOknVQJ58S5goQyjmwRw", "review_count": 12, "categories": [{"alias": "hotdogs", "title": "Fast Food"}, {"alias": "kebab", "title": "Kebab"}], "rating": 3.0, "coordinates": {"latitude": 53.46013, "longitude": 9.97536}, "transactions": [], "price": "\u20ac", "location": {"address1": "Ei\u00dfendorfer Str. 21", "address2": null, "address3": null, "city": "Hamburg", "zip_code": "21073", "country": "DE", "state": "HH", "display_address": ["Ei\u00dfendorfer Str. 21", "21073 Hamburg", "Germany"]}, "phone": "+494076757070", "display_phone": "+49 40 76757070", "distance": 1532.9618908120076}, {"id": "O3_9LrM2z7eyznSAP9KrsA", "alias": "ufuk-imbiss-hamburg", "name": "Ufuk Imbiss", "image_url": "https://s3-media2.fl.yelpcdn.com/bphoto/goYm_dAQrCE9-1hW9ORJxw/o.jpg", "is_closed": false, "url": "https://www.yelp.com/biz/ufuk-imbiss-hamburg?adjust_creative=hBJOknVQJ58S5goQyjmwRw&utm_campaign=yelp_api_v3&utm_medium=api_v3_business_search&utm_source=hBJOknVQJ58S5goQyjmwRw", "review_count": 7, "categories": [{"alias": "kebab", "title": "Kebab"}], "rating": 4.5, "coordinates": {"latitude": 53.4930679366908, "longitude": 10.0133583998035}, "transactions": [], "price": "\u20ac", "location": {"address1": "Neuenfelder Str. 96", "address2": null, "address3": null, "city": "Hamburg", "zip_code": "21109", "country": "DE", "state": "HH", "display_address": ["Neuenfelder Str. 96", "21109 Hamburg", "Germany"]}, "phone": "+491734556070", "display_phone": "+49 173 4556070", "distance": 3222.18816473632}, {"id": "JLME-JhmhywsfAjxdGukJg", "alias": "helms-lounge-hamburg-2", "name": "Helms Lounge", "image_url": "https://s3-media1.fl.yelpcdn.com/bphoto/4LgaB7grul2Bknuty4Shqg/o.jpg", "is_closed": false, "url": "https://www.yelp.com/biz/helms-lounge-hamburg-2?adjust_creative=hBJOknVQJ58S5goQyjmwRw&utm_campaign=yelp_api_v3&utm_medium=api_v3_business_search&utm_source=hBJOknVQJ58S5goQyjmwRw", "review_count": 10, "categories": [{"alias": "lounges", "title": "Lounges"}, {"alias": "afghani", "title": "Afghan"}], "rating": 3.0, "coordinates": {"latitude": 53.458997, "longitude": 9.977169}, "transactions": [], "price": "\u20ac\u20ac", "location": {"address1": "Museumsplatz 2", "address2": "", "address3": "", "city": "Hamburg", "zip_code": "21073", "country": "DE", "state": "HH", "display_address": ["Museumsplatz 2", "21073 Hamburg", "Germany"]}, "phone": "+494076755799", "display_phone": "+49 40 76755799", "distance": 1492.7082798943875}, {"id": "KNgLSOq74uet45R_GgMOfA", "alias": "segafredo-hamburg", "name": "Segafredo", "image_url": "https://s3-media4.fl.yelpcdn.com/bphoto/VB8GqUI7HGi-8kma4LLpjw/o.jpg", "is_closed": false, "url": "https://www.yelp.com/biz/segafredo-hamburg?adjust_creative=hBJOknVQJ58S5goQyjmwRw&utm_campaign=yelp_api_v3&utm_medium=api_v3_business_search&utm_source=hBJOknVQJ58S5goQyjmwRw", "review_count": 3, "categories": [{"alias": "cafes", "title": "Cafes"}], "rating": 3.5, "coordinates": {"latitude": 53.4565203968907, "longitude": 9.98704690807347}, "transactions": [], "price": "\u20ac\u20ac", "location": {"address1": "Hannoversche Str. 86", "address2": "", "address3": null, "city": "Hamburg", "zip_code": "21079", "country": "DE", "state": "HH", "display_address": ["Hannoversche Str. 86", "21079 Hamburg", "Germany"]}, "phone": "+4917648580450", "display_phone": "+49 176 48580450", "distance": 1213.1804775730452}, {"id": "JzOAhg3YkiIpBkWfy-cIPg", "alias": "deichdiele-hamburg", "name": "Deichdiele", "image_url": "https://s3-media4.fl.yelpcdn.com/bphoto/7JuQrGXIHWW3dPjfJxTGyw/o.jpg", "is_closed": false, "url": "https://www.yelp.com/biz/deichdiele-hamburg?adjust_creative=hBJOknVQJ58S5goQyjmwRw&utm_campaign=yelp_api_v3&utm_medium=api_v3_business_search&utm_source=hBJOknVQJ58S5goQyjmwRw", "review_count": 13, "categories": [{"alias": "cafes", "title": "Cafes"}, {"alias": "breakfast_brunch", "title": "Breakfast & Brunch"}], "rating": 3.5, "coordinates": {"latitude": 53.50542, "longitude": 9.98639}, "transactions": [], "price": "\u20ac\u20ac", "location": {"address1": "Veringstr. 156", "address2": "", "address3": "", "city": "Hamburg", "zip_code": "21107", "country": "DE", "state": "HH", "display_address": ["Veringstr. 156", "21107 Hamburg", "Germany"]}, "phone": "+494065864514", "display_phone": "+49 40 65864514", "distance": 4443.190416141435}, {"id": "_jg-uq_jg1L9ASCZNd54Tg", "alias": "smileys-hamburg-19", "name": "Smileys", "image_url": "", "is_closed": false, "url": "https://www.yelp.com/biz/smileys-hamburg-19?adjust_creative=hBJOknVQJ58S5goQyjmwRw&utm_campaign=yelp_api_v3&utm_medium=api_v3_business_search&utm_source=hBJOknVQJ58S5goQyjmwRw", "review_count": 1, "categories": [{"alias": "pizza", "title": "Pizza"}], "rating": 4.0, "coordinates": {"latitude": 53.48524, "longitude": 10.01903}, "transactions": [], "price": "\u20ac\u20ac\u20ac", "location": {"address1": "Kirchdorfer Damm 3", "address2": "", "address3": "", "city": "Hamburg", "zip_code": "21109", "country": "DE", "state": "HH", "display_address": ["Kirchdorfer Damm 3", "21109 Hamburg", "Germany"]}, "phone": "+494075062232", "display_phone": "+49 40 75062232", "distance": 2621.8322217873942}, {"id": "AU5b-bvmRWAoP2A9-EvGbQ", "alias": "mr-phung-hamburg", "name": "Mr. Phung", "image_url": "https://s3-media3.fl.yelpcdn.com/bphoto/mUs3FSMNBmGfNA1DwKXRjw/o.jpg", "is_closed": false, "url": "https://www.yelp.com/biz/mr-phung-hamburg?adjust_creative=hBJOknVQJ58S5goQyjmwRw&utm_campaign=yelp_api_v3&utm_medium=api_v3_business_search&utm_source=hBJOknVQJ58S5goQyjmwRw", "review_count": 7, "categories": [{"alias": "hotdogs", "title": "Fast Food"}, {"alias": "panasian", "title": "Pan Asian"}], "rating": 3.5, "coordinates": {"latitude": 53.4565866466298, "longitude": 9.98769180762406}, "transactions": [], "price": "\u20ac\u20ac", "location": {"address1": "Hannoversche Str. 86", "address2": "", "address3": null, "city": "Hamburg", "zip_code": "21079", "country": "DE", "state": "HH", "display_address": ["Hannoversche Str. 86", "21079 Hamburg", "Germany"]}, "phone": "+494087874108", "display_phone": "+49 40 87874108", "distance": 1185.5376915432491}, {"id": "4-kUVcQhE_ErgwIPGhanqg", "alias": "d\u00f6ner-queen-hamburg-2", "name": "D\u00f6ner Queen", "image_url": "https://s3-media3.fl.yelpcdn.com/bphoto/onJw8pwhwOvILhyxT1cVnQ/o.jpg", "is_closed": false, "url": "https://www.yelp.com/biz/d%C3%B6ner-queen-hamburg-2?adjust_creative=hBJOknVQJ58S5goQyjmwRw&utm_campaign=yelp_api_v3&utm_medium=api_v3_business_search&utm_source=hBJOknVQJ58S5goQyjmwRw", "review_count": 19, "categories": [{"alias": "food", "title": "Food"}, {"alias": "kebab", "title": "Kebab"}], "rating": 3.0, "coordinates": {"latitude": 53.4612, "longitude": 9.9816}, "transactions": [], "price": "\u20ac", "location": {"address1": "Schlo\u00dfm\u00fchlendamm 7", "address2": null, "address3": null, "city": "Hamburg", "zip_code": "21073", "country": "DE", "state": "HH", "display_address": ["Schlo\u00dfm\u00fchlendamm 7", "21073 Hamburg", "Germany"]}, "phone": "+494032528850", "display_phone": "+49 40 32528850", "distance": 1110.095177969072}, {"id": "8_ZQO67CJEjBox0fqOA0Dw", "alias": "potato-hamburg", "name": "Potato", "image_url": "https://s3-media1.fl.yelpcdn.com/bphoto/RqVw_K6dEaxoCF8VnDrPZw/o.jpg", "is_closed": false, "url": "https://www.yelp.com/biz/potato-hamburg?adjust_creative=hBJOknVQJ58S5goQyjmwRw&utm_campaign=yelp_api_v3&utm_medium=api_v3_business_search&utm_source=hBJOknVQJ58S5goQyjmwRw", "review_count": 2, "categories": [{"alias": "kebab", "title": "Kebab"}, {"alias": "potatoes", "title": "Potatoes"}], "rating": 4.0, "coordinates": {"latitude": 53.460734, "longitude": 9.981879}, "transactions": [], "price": "\u20ac", "location": {"address1": "Schlo\u00dfm\u00fchlendamm 1", "address2": "", "address3": "", "city": "Hamburg", "zip_code": "21073", "country": "DE", "state": "HH", "display_address": ["Schlo\u00dfm\u00fchlendamm 1", "21073 Hamburg", "Germany"]}, "phone": "+494023848304", "display_phone": "+49 40 23848304", "distance": 1119.5642290711432}, {"id": "h48R1_44cHxVB6DuWJkRfw", "alias": "thai-foo-hamburg", "name": "Thai Foo", "image_url": "https://s3-media1.fl.yelpcdn.com/bphoto/Fxmnk8C0DEATuVMn42vLGA/o.jpg", "is_closed": false, "url": "https://www.yelp.com/biz/thai-foo-hamburg?adjust_creative=hBJOknVQJ58S5goQyjmwRw&utm_campaign=yelp_api_v3&utm_medium=api_v3_business_search&utm_source=hBJOknVQJ58S5goQyjmwRw", "review_count": 4, "categories": [{"alias": "thai", "title": "Thai"}], "rating": 3.0, "coordinates": {"latitude": 53.45996, "longitude": 9.98231}, "transactions": [], "price": "\u20ac", "location": {"address1": "L\u00fcneburger Str. 39", "address2": "", "address3": "", "city": "Hamburg", "zip_code": "21073", "country": "DE", "state": "HH", "display_address": ["L\u00fcneburger Str. 39", "21073 Hamburg", "Germany"]}, "phone": "+494076753072", "display_phone": "+49 40 76753072", "distance": 1164.8388204191338}, {"id": "NlpB1dQu2XiRQSeTV733dw", "alias": "asia-hung-hamburg-14", "name": "asia hung", "image_url": "https://s3-media3.fl.yelpcdn.com/bphoto/zXgkhzhjvYW1izVts-UA0w/o.jpg", "is_closed": false, "url": "https://www.yelp.com/biz/asia-hung-hamburg-14?adjust_creative=hBJOknVQJ58S5goQyjmwRw&utm_campaign=yelp_api_v3&utm_medium=api_v3_business_search&utm_source=hBJOknVQJ58S5goQyjmwRw", "review_count": 11, "categories": [{"alias": "hotdogs", "title": "Fast Food"}, {"alias": "panasian", "title": "Pan Asian"}], "rating": 3.5, "coordinates": {"latitude": 53.4566063200581, "longitude": 9.98748892237631}, "transactions": [], "price": "\u20ac\u20ac", "location": {"address1": "Hannoversche Str. 86", "address2": "", "address3": "", "city": "Hamburg", "zip_code": "21079", "country": "DE", "state": "HH", "display_address": ["Hannoversche Str. 86", "21079 Hamburg", "Germany"]}, "phone": "+494069208007", "display_phone": "+49 40 69208007", "distance": 1190.2169723402765}, {"id": "JC6gdUGy79FIUd6T24wUIQ", "alias": "imbiss-binnenhafen-hamburg", "name": "Imbiss Binnenhafen", "image_url": "https://s3-media1.fl.yelpcdn.com/bphoto/CXN-Ivlpl6SdWFHj5_Mtbw/o.jpg", "is_closed": false, "url": "https://www.yelp.com/biz/imbiss-binnenhafen-hamburg?adjust_creative=hBJOknVQJ58S5goQyjmwRw&utm_campaign=yelp_api_v3&utm_medium=api_v3_business_search&utm_source=hBJOknVQJ58S5goQyjmwRw", "review_count": 4, "categories": [{"alias": "foodstands", "title": "Food Stands"}, {"alias": "hotdogs", "title": "Fast Food"}], "rating": 4.0, "coordinates": {"latitude": 53.46618, "longitude": 9.9858}, "transactions": [], "location": {"address1": "Kanalplatz 1a", "address2": "", "address3": "", "city": "Hamburg", "zip_code": "21079", "country": "DE", "state": "HH", "display_address": ["Kanalplatz 1a", "21079 Hamburg", "Germany"]}, "phone": "", "display_phone": "", "distance": 708.5490754445033}, {"id": "fAg5Pzglm70q2pjFl941ow", "alias": "pizza-stra\u00dfenverkauf-hamburg", "name": "Pizza Stra\u00dfenverkauf", "image_url": "https://s3-media2.fl.yelpcdn.com/bphoto/vcI1Uk5IFKR5O0hEoIJw-Q/o.jpg", "is_closed": false, "url": "https://www.yelp.com/biz/pizza-stra%C3%9Fenverkauf-hamburg?adjust_creative=hBJOknVQJ58S5goQyjmwRw&utm_campaign=yelp_api_v3&utm_medium=api_v3_business_search&utm_source=hBJOknVQJ58S5goQyjmwRw", "review_count": 1, "categories": [{"alias": "pizza", "title": "Pizza"}], "rating": 3.0, "coordinates": {"latitude": 53.462, "longitude": 9.97951}, "transactions": [], "price": "\u20ac", "location": {"address1": "Sand 35-37", "address2": null, "address3": null, "city": "Hamburg", "zip_code": "21073", "country": "DE", "state": "HH", "display_address": ["Sand 35-37", "21073 Hamburg", "Germany"]}, "phone": "", "display_phone": "", "distance": 1198.7994652132768}, {"id": "gAGnFIZbHDSlzsH2ATizNg", "alias": "kebapwelt-hamburg", "name": "KebapWelt", "image_url": "https://s3-media2.fl.yelpcdn.com/bphoto/MvhRdRgJEqPwwfvSioz67g/o.jpg", "is_closed": false, "url": "https://www.yelp.com/biz/kebapwelt-hamburg?adjust_creative=hBJOknVQJ58S5goQyjmwRw&utm_campaign=yelp_api_v3&utm_medium=api_v3_business_search&utm_source=hBJOknVQJ58S5goQyjmwRw", "review_count": 5, "categories": [{"alias": "turkish", "title": "Turkish"}, {"alias": "currysausage", "title": "Curry Sausage"}, {"alias": "pizza", "title": "Pizza"}], "rating": 3.5, "coordinates": {"latitude": 53.4602, "longitude": 9.97695}, "transactions": [], "price": "\u20ac\u20ac", "location": {"address1": "Knoopstr. 4", "address2": null, "address3": null, "city": "Hamburg", "zip_code": "21073", "country": "DE", "state": "HH", "display_address": ["Knoopstr. 4", "21073 Hamburg", "Germany"]}, "phone": "+494046866777", "display_phone": "+49 40 46866777", "distance": 1434.7680971008633}, {"id": "NgCFYoLGiXzjrwQGDV2W8Q", "alias": "nordsee-hamburg-7", "name": "Nordsee", "image_url": "https://s3-media4.fl.yelpcdn.com/bphoto/JHYMPVzr61_mvplpOJVOtA/o.jpg", "is_closed": false, "url": "https://www.yelp.com/biz/nordsee-hamburg-7?adjust_creative=hBJOknVQJ58S5goQyjmwRw&utm_campaign=yelp_api_v3&utm_medium=api_v3_business_search&utm_source=hBJOknVQJ58S5goQyjmwRw", "review_count": 8, "categories": [{"alias": "fischbroetchen", "title": "Fischbroetchen"}], "rating": 3.0, "coordinates": {"latitude": 53.4562413934789, "longitude": 9.98737429340213}, "transactions": [], "price": "\u20ac\u20ac", "location": {"address1": "Hannoversche Str. 86", "address2": "", "address3": "", "city": "Hamburg", "zip_code": "21079", "country": "DE", "state": "HH", "display_address": ["Hannoversche Str. 86", "21079 Hamburg", "Germany"]}, "phone": "+494046866969", "display_phone": "+49 40 46866969", "distance": 1229.3063059704964}, {"id": "1PycgNQ8LeD0tigqdTM5Zw", "alias": "renates-grill-hamburg", "name": "Renate's Grill", "image_url": "https://s3-media2.fl.yelpcdn.com/bphoto/pVSTvSj2kMwPNlSpTcm2Tw/o.jpg", "is_closed": false, "url": "https://www.yelp.com/biz/renates-grill-hamburg?adjust_creative=hBJOknVQJ58S5goQyjmwRw&utm_campaign=yelp_api_v3&utm_medium=api_v3_business_search&utm_source=hBJOknVQJ58S5goQyjmwRw", "review_count": 1, "categories": [{"alias": "divebars", "title": "Dive Bars"}, {"alias": "hotdogs", "title": "Fast Food"}], "rating": 4.0, "coordinates": {"latitude": 53.4570084, "longitude": 9.98596}, "transactions": [], "price": "\u20ac", "location": {"address1": "Moorstr. 7", "address2": "", "address3": "", "city": "Hamburg", "zip_code": "21073", "country": "DE", "state": "HH", "display_address": ["Moorstr. 7", "21073 Hamburg", "Germany"]}, "phone": "", "display_phone": "", "distance": 1206.1492094366602}, {"id": "18NbyuHVcmHFQHniZpt5LQ", "alias": "nordsee-hamburg-16", "name": "Nordsee", "image_url": "https://s3-media1.fl.yelpcdn.com/bphoto/JA0c2EETfbRel4qZet8nCA/o.jpg", "is_closed": false, "url": "https://www.yelp.com/biz/nordsee-hamburg-16?adjust_creative=hBJOknVQJ58S5goQyjmwRw&utm_campaign=yelp_api_v3&utm_medium=api_v3_business_search&utm_source=hBJOknVQJ58S5goQyjmwRw", "review_count": 1, "categories": [{"alias": "fischbroetchen", "title": "Fischbroetchen"}], "rating": 4.0, "coordinates": {"latitude": 53.4599674, "longitude": 9.9822394}, "transactions": [], "location": {"address1": "L\u00fcneburger Str. 39", "address2": "", "address3": "", "city": "Hamburg", "zip_code": "21073", "country": "DE", "state": "HH", "display_address": ["L\u00fcneburger Str. 39", "21073 Hamburg", "Germany"]}, "phone": "", "display_phone": "", "distance": 1146.0817488255168}, {"id": "1Cn3SKMTlIm8ATXNpkekyg", "alias": "wilhelms-hamburg-2", "name": "Wilhelms", "image_url": "https://s3-media4.fl.yelpcdn.com/bphoto/QLs4XKkB5hSLb8vD-iiSCQ/o.jpg", "is_closed": false, "url": "https://www.yelp.com/biz/wilhelms-hamburg-2?adjust_creative=hBJOknVQJ58S5goQyjmwRw&utm_campaign=yelp_api_v3&utm_medium=api_v3_business_search&utm_source=hBJOknVQJ58S5goQyjmwRw", "review_count": 8, "categories": [{"alias": "german", "title": "German"}], "rating": 3.5, "coordinates": {"latitude": 53.4983, "longitude": 10.0004}, "transactions": [], "location": {"address1": "W\u00e4lderhaus", "address2": "Am Inselpark 19", "address3": null, "city": "Hamburg", "zip_code": "21109", "country": "DE", "state": "HH", "display_address": ["W\u00e4lderhaus", "Am Inselpark 19", "21109 Hamburg", "Germany"]}, "phone": "+4940302156600", "display_phone": "+49 40 302156600", "distance": 3611.7255289224618}, {"id": "KQ8Wlwj0F4nDhtiuS7dCAg", "alias": "dominos-hamburg-8", "name": "Domino's", "image_url": "https://s3-media1.fl.yelpcdn.com/bphoto/kxP34hw2IDSZFwZW7r4lKw/o.jpg", "is_closed": false, "url": "https://www.yelp.com/biz/dominos-hamburg-8?adjust_creative=hBJOknVQJ58S5goQyjmwRw&utm_campaign=yelp_api_v3&utm_medium=api_v3_business_search&utm_source=hBJOknVQJ58S5goQyjmwRw", "review_count": 1, "categories": [{"alias": "pizza", "title": "Pizza"}], "rating": 3.0, "coordinates": {"latitude": 53.4563156, "longitude": 9.9854386}, "transactions": [], "location": {"address1": "Wilstorfer Str. 54", "address2": "", "address3": null, "city": "Hamburg", "zip_code": "21073", "country": "DE", "state": "HH", "display_address": ["Wilstorfer Str. 54", "21073 Hamburg", "Germany"]}, "phone": "+49407647270", "display_phone": "+49 40 7647270", "distance": 1289.5322691953868}, {"id": "0N2WPiWN_kI_3TQlab_uAg", "alias": "mai-mai-hamburg-9", "name": "mai-mai", "image_url": "https://s3-media3.fl.yelpcdn.com/bphoto/v7jYJU4bpeRQl0ZjhMO9ng/o.jpg", "is_closed": false, "url": "https://www.yelp.com/biz/mai-mai-hamburg-9?adjust_creative=hBJOknVQJ58S5goQyjmwRw&utm_campaign=yelp_api_v3&utm_medium=api_v3_business_search&utm_source=hBJOknVQJ58S5goQyjmwRw", "review_count": 2, "categories": [{"alias": "panasian", "title": "Pan Asian"}], "rating": 3.0, "coordinates": {"latitude": 53.49866, "longitude": 10.00908}, "transactions": [], "location": {"address1": "Wilhelm-Strau\u00df-Weg 2 b", "address2": "", "address3": "", "city": "Hamburg", "zip_code": "21109", "country": "DE", "state": "HH", "display_address": ["Wilhelm-Strau\u00df-Weg 2 b", "21109 Hamburg", "Germany"]}, "phone": "+494036919568", "display_phone": "+49 40 36919568", "distance": 3720.3440170679464}, {"id": "wblfKYOU-lF0ijpsXQNFQA", "alias": "easy-pizza-hamburg", "name": "Easy Pizza", "image_url": "", "is_closed": false, "url": "https://www.yelp.com/biz/easy-pizza-hamburg?adjust_creative=hBJOknVQJ58S5goQyjmwRw&utm_campaign=yelp_api_v3&utm_medium=api_v3_business_search&utm_source=hBJOknVQJ58S5goQyjmwRw", "review_count": 2, "categories": [{"alias": "pizza", "title": "Pizza"}], "rating": 2.5, "coordinates": {"latitude": 53.45048, "longitude": 9.98851}, "transactions": [], "location": {"address1": "N\u00f6ldekerstr. 2", "address2": "", "address3": "", "city": "Hamburg", "zip_code": "21079", "country": "DE", "state": "HH", "display_address": ["N\u00f6ldekerstr. 2", "21079 Hamburg", "Germany"]}, "phone": "+494076429746", "display_phone": "+49 40 76429746", "distance": 1793.232234983431}, {"id": "aV6FjXhMxupF7l26q1mcaw", "alias": "burger-lounge-hamburg-6", "name": "Burger Lounge", "image_url": "https://s3-media2.fl.yelpcdn.com/bphoto/6Ifrx3qMjMkEzXFNpOcZCA/o.jpg", "is_closed": false, "url": "https://www.yelp.com/biz/burger-lounge-hamburg-6?adjust_creative=hBJOknVQJ58S5goQyjmwRw&utm_campaign=yelp_api_v3&utm_medium=api_v3_business_search&utm_source=hBJOknVQJ58S5goQyjmwRw", "review_count": 3, "categories": [{"alias": "burgers", "title": "Burgers"}], "rating": 2.0, "coordinates": {"latitude": 53.4601491526657, "longitude": 9.97944713803599}, "transactions": [], "location": {"address1": "Am Centrumhaus 2", "address2": "", "address3": null, "city": "Hamburg", "zip_code": "21073", "country": "DE", "state": "HH", "display_address": ["Am Centrumhaus 2", "21073 Hamburg", "Germany"]}, "phone": "+494049200712", "display_phone": "+49 40 49200712", "distance": 1291.3771719899714}, {"id": "xmU6uVUEbYDgtmppRidtYg", "alias": "zur-b\u00fcrste-hamburg", "name": "Zur B\u00fcrste", "image_url": "", "is_closed": false, "url": "https://www.yelp.com/biz/zur-b%C3%BCrste-hamburg?adjust_creative=hBJOknVQJ58S5goQyjmwRw&utm_campaign=yelp_api_v3&utm_medium=api_v3_business_search&utm_source=hBJOknVQJ58S5goQyjmwRw", "review_count": 1, "categories": [{"alias": "german", "title": "German"}, {"alias": "burgers", "title": "Burgers"}], "rating": 4.0, "coordinates": {"latitude": 53.4869, "longitude": 9.99042}, "transactions": [], "location": {"address1": "Pollhornbogen 2", "address2": null, "address3": null, "city": "Hamburg", "zip_code": "21107", "country": "DE", "state": "HH", "display_address": ["Pollhornbogen 2", "21107 Hamburg", "Germany"]}, "phone": "+494032840887", "display_phone": "+49 40 32840887", "distance": 2367.520398411897}, {"id": "QT6cMEwYzsTEFaQ2Iob6-g", "alias": "bierbrunnen-zwo-hamburg", "name": "Bierbrunnen Zwo", "image_url": "", "is_closed": false, "url": "https://www.yelp.com/biz/bierbrunnen-zwo-hamburg?adjust_creative=hBJOknVQJ58S5goQyjmwRw&utm_campaign=yelp_api_v3&utm_medium=api_v3_business_search&utm_source=hBJOknVQJ58S5goQyjmwRw", "review_count": 1, "categories": [{"alias": "indpak", "title": "Indian"}], "rating": 4.0, "coordinates": {"latitude": 53.4634, "longitude": 9.98157}, "transactions": [], "location": {"address1": "Schlo\u00dfm\u00fchlendamm 29", "address2": null, "address3": null, "city": "Hamburg", "zip_code": "21073", "country": "DE", "state": "HH", "display_address": ["Schlo\u00dfm\u00fchlendamm 29", "21073 Hamburg", "Germany"]}, "phone": "+494041481493", "display_phone": "+49 40 41481493", "distance": 1019.7721594600974}, {"id": "dKmVeXBONK-Ky3lr83kYvA", "alias": "mcdonalds-hamburg-39", "name": "McDonald's", "image_url": "", "is_closed": false, "url": "https://www.yelp.com/biz/mcdonalds-hamburg-39?adjust_creative=hBJOknVQJ58S5goQyjmwRw&utm_campaign=yelp_api_v3&utm_medium=api_v3_business_search&utm_source=hBJOknVQJ58S5goQyjmwRw", "review_count": 1, "categories": [{"alias": "hotdogs", "title": "Fast Food"}, {"alias": "burgers", "title": "Burgers"}], "rating": 4.0, "coordinates": {"latitude": 53.4576, "longitude": 9.98747}, "transactions": [], "location": {"address1": "Seeveplatz 1", "address2": null, "address3": null, "city": "Hamburg", "zip_code": "21073", "country": "DE", "state": "HH", "display_address": ["Seeveplatz 1", "21073 Hamburg", "Germany"]}, "phone": "+494030386867", "display_phone": "+49 40 30386867", "distance": 1096.2486924655664}, {"id": "xQ9mWuzzbzULyF597RInPg", "alias": "backhaus-wedermann-hamburg", "name": "Backhaus Wedermann", "image_url": "", "is_closed": false, "url": "https://www.yelp.com/biz/backhaus-wedermann-hamburg?adjust_creative=hBJOknVQJ58S5goQyjmwRw&utm_campaign=yelp_api_v3&utm_medium=api_v3_business_search&utm_source=hBJOknVQJ58S5goQyjmwRw", "review_count": 1, "categories": [{"alias": "cafes", "title": "Cafes"}, {"alias": "bakeries", "title": "Bakeries"}, {"alias": "coffee", "title": "Coffee & Tea"}], "rating": 2.0, "coordinates": {"latitude": 53.4663391, "longitude": 9.9867496}, "transactions": [], "location": {"address1": "Veritaskai 3", "address2": "", "address3": "", "city": "Hamburg", "zip_code": "21079", "country": "DE", "state": "HH", "display_address": ["Veritaskai 3", "21079 Hamburg", "Germany"]}, "phone": "+494046866745", "display_phone": "+49 40 46866745", "distance": 628.5793432387084}, {"id": "ar8n2pUvaFSD7k6hK1IQHA", "alias": "fatih-servet-hamburg-2", "name": "Fatih Servet", "image_url": "https://s3-media3.fl.yelpcdn.com/bphoto/ZLXc90FPoZbmIWnslKSomg/o.jpg", "is_closed": false, "url": "https://www.yelp.com/biz/fatih-servet-hamburg-2?adjust_creative=hBJOknVQJ58S5goQyjmwRw&utm_campaign=yelp_api_v3&utm_medium=api_v3_business_search&utm_source=hBJOknVQJ58S5goQyjmwRw", "review_count": 1, "categories": [{"alias": "foodstands", "title": "Food Stands"}], "rating": 2.0, "coordinates": {"latitude": 53.45644, "longitude": 9.987667}, "transactions": [], "location": {"address1": "Hannoversche Str. 86", "address2": "", "address3": "", "city": "Hamburg", "zip_code": "21079", "country": "DE", "state": "HH", "display_address": ["Hannoversche Str. 86", "21079 Hamburg", "Germany"]}, "phone": "+4917689100388", "display_phone": "+49 176 89100388", "distance": 1222.489738645127}, {"id": "yhosiYiOI9xISvFwMonfjg", "alias": "schmidtchen-wilhelmsburg-hamburg-2", "name": "Schmidtchen Wilhelmsburg", "image_url": "https://s3-media4.fl.yelpcdn.com/bphoto/QdWRGyl-DTEv66POc_UXBw/o.jpg", "is_closed": false, "url": "https://www.yelp.com/biz/schmidtchen-wilhelmsburg-hamburg-2?adjust_creative=hBJOknVQJ58S5goQyjmwRw&utm_campaign=yelp_api_v3&utm_medium=api_v3_business_search&utm_source=hBJOknVQJ58S5goQyjmwRw", "review_count": 2, "categories": [{"alias": "cafes", "title": "Cafes"}, {"alias": "bakeries", "title": "Bakeries"}, {"alias": "breakfast_brunch", "title": "Breakfast & Brunch"}], "rating": 2.5, "coordinates": {"latitude": 53.49538, "longitude": 9.99518}, "transactions": [], "location": {"address1": "Kurdamm 24", "address2": "", "address3": "Wasserwerk", "city": "Hamburg", "zip_code": "21107", "country": "DE", "state": "HH", "display_address": ["Kurdamm 24", "Wasserwerk", "21107 Hamburg", "Germany"]}, "phone": "+494041926042", "display_phone": "+49 40 41926042", "distance": 3297.4624974945336}, {"id": "i54hs9R9ZDMYQb8CkXd33g", "alias": "fatih-servet-hamburg", "name": "Fatih Servet", "image_url": "", "is_closed": false, "url": "https://www.yelp.com/biz/fatih-servet-hamburg?adjust_creative=hBJOknVQJ58S5goQyjmwRw&utm_campaign=yelp_api_v3&utm_medium=api_v3_business_search&utm_source=hBJOknVQJ58S5goQyjmwRw", "review_count": 2, "categories": [{"alias": "hotdogs", "title": "Fast Food"}, {"alias": "kebab", "title": "Kebab"}], "rating": 1.0, "coordinates": {"latitude": 53.457, "longitude": 9.98703}, "transactions": [], "location": {"address1": "Moorstr. 4", "address2": null, "address3": null, "city": "Hamburg", "zip_code": "21073", "country": "DE", "state": "HH", "display_address": ["Moorstr. 4", "21073 Hamburg", "Germany"]}, "phone": "+494033319721", "display_phone": "+49 40 33319721", "distance": 1168.208405573641}, {"id": "SVQN8XTfkjCVD3U18EslLQ", "alias": "immergr\u00fcn-hamburg-4", "name": "Immergr\u00fcn", "image_url": "https://s3-media3.fl.yelpcdn.com/bphoto/xDo9Rw5JwnPnFH5QMEJDQg/o.jpg", "is_closed": false, "url": "https://www.yelp.com/biz/immergr%C3%BCn-hamburg-4?adjust_creative=hBJOknVQJ58S5goQyjmwRw&utm_campaign=yelp_api_v3&utm_medium=api_v3_business_search&utm_source=hBJOknVQJ58S5goQyjmwRw", "review_count": 2, "categories": [{"alias": "juicebars", "title": "Juice Bars & Smoothies"}, {"alias": "sandwiches", "title": "Sandwiches"}, {"alias": "salad", "title": "Salad"}], "rating": 2.0, "coordinates": {"latitude": 53.4564245333095, "longitude": 9.98754331985174}, "transactions": [], "location": {"address1": "Hannoversche Str. 86", "address2": "", "address3": null, "city": "Hamburg", "zip_code": "21079", "country": "DE", "state": "HH", "display_address": ["Hannoversche Str. 86", "21079 Hamburg", "Germany"]}, "phone": "", "display_phone": "", "distance": 1206.0698790722636}, {"id": "B89ymG_m9xwOuQ0CWh5obg", "alias": "d\u00f6ner-center-hamburg", "name": "D\u00f6ner Center", "image_url": "https://s3-media2.fl.yelpcdn.com/bphoto/D76ItZFkKboZceNg_n2dHA/o.jpg", "is_closed": false, "url": "https://www.yelp.com/biz/d%C3%B6ner-center-hamburg?adjust_creative=hBJOknVQJ58S5goQyjmwRw&utm_campaign=yelp_api_v3&utm_medium=api_v3_business_search&utm_source=hBJOknVQJ58S5goQyjmwRw", "review_count": 2, "categories": [{"alias": "turkish", "title": "Turkish"}, {"alias": "hotdogs", "title": "Fast Food"}, {"alias": "kebab", "title": "Kebab"}], "rating": 2.0, "coordinates": {"latitude": 53.4573, "longitude": 9.98562}, "transactions": [], "price": "\u20ac\u20ac\u20ac", "location": {"address1": "Seevepassage  1-3", "address2": null, "address3": null, "city": "Hamburg", "zip_code": "21073", "country": "DE", "state": "HH", "display_address": ["Seevepassage  1-3", "21073 Hamburg", "Germany"]}, "phone": "", "display_phone": "", "distance": 1193.3652229583856}, {"id": "4b6hJXdu-YanZmA93i45Gw", "alias": "subway-hamburg-18", "name": "Subway", "image_url": "https://s3-media3.fl.yelpcdn.com/bphoto/1rFYIUUWBfngdTl-P8R1wQ/o.jpg", "is_closed": false, "url": "https://www.yelp.com/biz/subway-hamburg-18?adjust_creative=hBJOknVQJ58S5goQyjmwRw&utm_campaign=yelp_api_v3&utm_medium=api_v3_business_search&utm_source=hBJOknVQJ58S5goQyjmwRw", "review_count": 6, "categories": [{"alias": "sandwiches", "title": "Sandwiches"}, {"alias": "hotdogs", "title": "Fast Food"}], "rating": 3.0, "coordinates": {"latitude": 53.4564852222445, "longitude": 9.9869961492127}, "transactions": [], "price": "\u20ac\u20ac", "location": {"address1": "Hannoversche Str. 86", "address2": "", "address3": "", "city": "Hamburg", "zip_code": "21079", "country": "DE", "state": "HH", "display_address": ["Hannoversche Str. 86", "21079 Hamburg", "Germany"]}, "phone": "+494097071755", "display_phone": "+49 40 97071755", "distance": 1218.2588056824818}, {"id": "NSAJr-jy7QCoGSvvsuA3Bw", "alias": "wolffs-stadt-grill-hamburg", "name": "Wolff's Stadt-Grill", "image_url": "", "is_closed": false, "url": "https://www.yelp.com/biz/wolffs-stadt-grill-hamburg?adjust_creative=hBJOknVQJ58S5goQyjmwRw&utm_campaign=yelp_api_v3&utm_medium=api_v3_business_search&utm_source=hBJOknVQJ58S5goQyjmwRw", "review_count": 1, "categories": [{"alias": "hotdogs", "title": "Fast Food"}], "rating": 1.0, "coordinates": {"latitude": 53.4574064, "longitude": 9.9843749}, "transactions": [], "location": {"address1": "Harburger Ring 1", "address2": "", "address3": null, "city": "Hamburg", "zip_code": "21073", "country": "DE", "state": "HH", "display_address": ["Harburger Ring 1", "21073 Hamburg", "Germany"]}, "phone": "", "display_phone": "", "distance": 1235.2858466342132}, {"id": "gBH3d24lctwqqCQkiAyNWw", "alias": "mina-hamburg", "name": "Mina", "image_url": "https://s3-media4.fl.yelpcdn.com/bphoto/pAnAfcHsKmFEjdELLPcLDA/o.jpg", "is_closed": false, "url": "https://www.yelp.com/biz/mina-hamburg?adjust_creative=hBJOknVQJ58S5goQyjmwRw&utm_campaign=yelp_api_v3&utm_medium=api_v3_business_search&utm_source=hBJOknVQJ58S5goQyjmwRw", "review_count": 1, "categories": [{"alias": "kebab", "title": "Kebab"}], "rating": 1.0, "coordinates": {"latitude": 53.4978479484476, "longitude": 10.0068896636367}, "transactions": [], "location": {"address1": "Wilhelm-Strau\u00df-Weg 1 b", "address2": "", "address3": "S-Bahnhof Wilhelmsburg", "city": "Hamburg", "zip_code": "21109", "country": "DE", "state": "HH", "display_address": ["Wilhelm-Strau\u00df-Weg 1 b", "S-Bahnhof Wilhelmsburg", "21109 Hamburg", "Germany"]}, "phone": "", "display_phone": "", "distance": 3619.0246143343243}, {"id": "8hwCKvb8ks_FBjP4ujY1Hw", "alias": "mcdonalds-hamburg-14", "name": "McDonald's", "image_url": "https://s3-media2.fl.yelpcdn.com/bphoto/iDEbdg4cURdrZzFdiQxyvA/o.jpg", "is_closed": false, "url": "https://www.yelp.com/biz/mcdonalds-hamburg-14?adjust_creative=hBJOknVQJ58S5goQyjmwRw&utm_campaign=yelp_api_v3&utm_medium=api_v3_business_search&utm_source=hBJOknVQJ58S5goQyjmwRw", "review_count": 3, "categories": [{"alias": "hotdogs", "title": "Fast Food"}, {"alias": "burgers", "title": "Burgers"}], "rating": 1.5, "coordinates": {"latitude": 53.45996, "longitude": 9.98231}, "transactions": [], "price": "\u20ac\u20ac", "location": {"address1": "L\u00fcneburger Str. 39", "address2": null, "address3": null, "city": "Hamburg", "zip_code": "21073", "country": "DE", "state": "HH", "display_address": ["L\u00fcneburger Str. 39", "21073 Hamburg", "Germany"]}, "phone": "+494032507321", "display_phone": "+49 40 32507321", "distance": 1164.8388204191338}, {"id": "X8SOo9tuM7pzU78H8rx0Zw", "alias": "mr-clou-hamburg", "name": "Mr. Clou", "image_url": "https://s3-media4.fl.yelpcdn.com/bphoto/kGg66gMJNk0-owzcyQgTEw/o.jpg", "is_closed": false, "url": "https://www.yelp.com/biz/mr-clou-hamburg?adjust_creative=hBJOknVQJ58S5goQyjmwRw&utm_campaign=yelp_api_v3&utm_medium=api_v3_business_search&utm_source=hBJOknVQJ58S5goQyjmwRw", "review_count": 4, "categories": [{"alias": "juicebars", "title": "Juice Bars & Smoothies"}, {"alias": "hotdogs", "title": "Fast Food"}], "rating": 1.5, "coordinates": {"latitude": 53.4564916105484, "longitude": 9.98700687804876}, "transactions": [], "price": "\u20ac\u20ac", "location": {"address1": "Hannoversche Str. 86", "address2": "", "address3": "", "city": "Hamburg", "zip_code": "21079", "country": "DE", "state": "HH", "display_address": ["Hannoversche Str. 86", "21079 Hamburg", "Germany"]}, "phone": "+494030096785", "display_phone": "+49 40 30096785", "distance": 1217.2854340215513}, {"id": "KNricMRGqktNGZWp-aoyEg", "alias": "pizza-hut-hamburg-10", "name": "Pizza Hut", "image_url": "https://s3-media2.fl.yelpcdn.com/bphoto/vTW-PU_ZRa7or84tYc-o4A/o.jpg", "is_closed": false, "url": "https://www.yelp.com/biz/pizza-hut-hamburg-10?adjust_creative=hBJOknVQJ58S5goQyjmwRw&utm_campaign=yelp_api_v3&utm_medium=api_v3_business_search&utm_source=hBJOknVQJ58S5goQyjmwRw", "review_count": 8, "categories": [{"alias": "hotdogs", "title": "Fast Food"}, {"alias": "pizza", "title": "Pizza"}], "rating": 2.5, "coordinates": {"latitude": 53.4565651149608, "longitude": 9.9873931461716}, "transactions": [], "location": {"address1": "Hannoversche Str. 86", "address2": "", "address3": null, "city": "Hamburg", "zip_code": "21079", "country": "DE", "state": "HH", "display_address": ["Hannoversche Str. 86", "21079 Hamburg", "Germany"]}, "phone": "+494030094922", "display_phone": "+49 40 30094922", "distance": 1197.3412107743607}]