[{"id": "3egK5RDiKkrS11o-krMX3g", "alias": "restaurant-mediterran-hamburg", "name": "Restaurant Mediterran", "image_url": "https://s3-media4.fl.yelpcdn.com/bphoto/V76lnZxFDtYdEvqXAUtsUQ/o.jpg", "is_closed": false, "url": "https://www.yelp.com/biz/restaurant-mediterran-hamburg?adjust_creative=hBJOknVQJ58S5goQyjmwRw&utm_campaign=yelp_api_v3&utm_medium=api_v3_business_search&utm_source=hBJOknVQJ58S5goQyjmwRw", "review_count": 16, "categories": [{"alias": "italian", "title": "Italian"}], "rating": 4.5, "coordinates": {"latitude": 53.477673, "longitude": 10.240457}, "transactions": [], "price": "\u20ac\u20ac", "location": {"address1": "Rothenhauschaussee 32", "address2": null, "address3": null, "city": "Hamburg", "zip_code": "21029", "country": "DE", "state": "HH", "display_address": ["Rothenhauschaussee 32", "21029 Hamburg", "Germany"]}, "phone": "+49407202081", "display_phone": "+49 40 7202081", "distance": 1572.2902236516577}, {"id": "y19OFck2j0sD_cLTGHwciQ", "alias": "zur-alten-16-wentorf", "name": "Zur Alten 16", "image_url": "", "is_closed": false, "url": "https://www.yelp.com/biz/zur-alten-16-wentorf?adjust_creative=hBJOknVQJ58S5goQyjmwRw&utm_campaign=yelp_api_v3&utm_medium=api_v3_business_search&utm_source=hBJOknVQJ58S5goQyjmwRw", "review_count": 2, "categories": [{"alias": "german", "title": "German"}], "rating": 4.5, "coordinates": {"latitude": 53.489, "longitude": 10.2473}, "transactions": [], "price": "\u20ac\u20ac", "location": {"address1": "Hamburger Landstr. 28b", "address2": null, "address3": null, "city": "Wentorf", "zip_code": "21465", "country": "DE", "state": "SH", "display_address": ["Hamburger Landstr. 28b", "21465 Wentorf", "Germany"]}, "phone": "+49407204316", "display_phone": "+49 40 7204316", "distance": 2894.1748110415942}, {"id": "iDbFa_QS9dWsxaVWCZjy8Q", "alias": "santa-lucia-hamburg-2", "name": "Santa Lucia", "image_url": "https://s3-media1.fl.yelpcdn.com/bphoto/eSlgAEYc9SSgS5aL19TvgQ/o.jpg", "is_closed": false, "url": "https://www.yelp.com/biz/santa-lucia-hamburg-2?adjust_creative=hBJOknVQJ58S5goQyjmwRw&utm_campaign=yelp_api_v3&utm_medium=api_v3_business_search&utm_source=hBJOknVQJ58S5goQyjmwRw", "review_count": 6, "categories": [{"alias": "italian", "title": "Italian"}, {"alias": "pizza", "title": "Pizza"}], "rating": 4.0, "coordinates": {"latitude": 53.487704, "longitude": 10.214498}, "transactions": [], "price": "\u20ac\u20ac", "location": {"address1": "Bergedorfer Schlo\u00dfstr. 12", "address2": null, "address3": null, "city": "Hamburg", "zip_code": "21029", "country": "DE", "state": "HH", "display_address": ["Bergedorfer Schlo\u00dfstr. 12", "21029 Hamburg", "Germany"]}, "phone": "+494079419349", "display_phone": "+49 40 79419349", "distance": 3072.2792702739957}, {"id": "p6NLrDG7PeH60IUcmTwPAA", "alias": "gastst\u00e4tte-zum-alten-bahnhof-hamburg", "name": "Gastst\u00e4tte Zum alten Bahnhof", "image_url": "https://s3-media4.fl.yelpcdn.com/bphoto/bq3mLtdVBdxpjpI6-ilBDg/o.jpg", "is_closed": false, "url": "https://www.yelp.com/biz/gastst%C3%A4tte-zum-alten-bahnhof-hamburg?adjust_creative=hBJOknVQJ58S5goQyjmwRw&utm_campaign=yelp_api_v3&utm_medium=api_v3_business_search&utm_source=hBJOknVQJ58S5goQyjmwRw", "review_count": 1, "categories": [{"alias": "german", "title": "German"}], "rating": 5.0, "coordinates": {"latitude": 53.4486, "longitude": 10.22153}, "transactions": [], "price": "\u20ac\u20ac", "location": {"address1": "Odemanns Heck 5", "address2": null, "address3": null, "city": "Hamburg", "zip_code": "21039", "country": "DE", "state": "HH", "display_address": ["Odemanns Heck 5", "21039 Hamburg", "Germany"]}, "phone": "+494072370570", "display_phone": "+49 40 72370570", "distance": 1974.735079696744}, {"id": "VL0pEEHT9ogmfMwXwD-5zw", "alias": "achilleon-hamburg", "name": "Achilleon", "image_url": "https://s3-media3.fl.yelpcdn.com/bphoto/DS-m2w61hweUbTPfi9EdrA/o.jpg", "is_closed": false, "url": "https://www.yelp.com/biz/achilleon-hamburg?adjust_creative=hBJOknVQJ58S5goQyjmwRw&utm_campaign=yelp_api_v3&utm_medium=api_v3_business_search&utm_source=hBJOknVQJ58S5goQyjmwRw", "review_count": 30, "categories": [{"alias": "greek", "title": "Greek"}], "rating": 4.5, "coordinates": {"latitude": 53.489276, "longitude": 10.2260726}, "transactions": [], "price": "\u20ac\u20ac", "location": {"address1": "Holtenklinker Str. 74", "address2": "", "address3": null, "city": "Hamburg", "zip_code": "21029", "country": "DE", "state": "HH", "display_address": ["Holtenklinker Str. 74", "21029 Hamburg", "Germany"]}, "phone": "+494072693667", "display_phone": "+49 40 72693667", "distance": 2945.162263068532}, {"id": "LKzo9giIoKGVtMsuAvuIAg", "alias": "gasthof-zum-elbdeich-hamburg-2", "name": "Gasthof zum Elbdeich", "image_url": "", "is_closed": false, "url": "https://www.yelp.com/biz/gasthof-zum-elbdeich-hamburg-2?adjust_creative=hBJOknVQJ58S5goQyjmwRw&utm_campaign=yelp_api_v3&utm_medium=api_v3_business_search&utm_source=hBJOknVQJ58S5goQyjmwRw", "review_count": 3, "categories": [{"alias": "german", "title": "German"}], "rating": 4.5, "coordinates": {"latitude": 53.4423, "longitude": 10.2328}, "transactions": [], "location": {"address1": "Neuengammer Hausdeich 2", "address2": null, "address3": null, "city": "Hamburg", "zip_code": "21039", "country": "DE", "state": "HH", "display_address": ["Neuengammer Hausdeich 2", "21039 Hamburg", "Germany"]}, "phone": "+49407235481", "display_phone": "+49 40 7235481", "distance": 2393.5456217985575}, {"id": "wEtVg37Ypxat_mW1ZrRuWg", "alias": "dubrovnik-hamburg-5", "name": "Dubrovnik", "image_url": "https://s3-media4.fl.yelpcdn.com/bphoto/a1XRjKIcmaR6a1lQ3_mrvw/o.jpg", "is_closed": false, "url": "https://www.yelp.com/biz/dubrovnik-hamburg-5?adjust_creative=hBJOknVQJ58S5goQyjmwRw&utm_campaign=yelp_api_v3&utm_medium=api_v3_business_search&utm_source=hBJOknVQJ58S5goQyjmwRw", "review_count": 18, "categories": [{"alias": "serbocroatian", "title": "Serbo Croatian"}], "rating": 4.0, "coordinates": {"latitude": 53.4733, "longitude": 10.2299}, "transactions": [], "price": "\u20ac\u20ac", "location": {"address1": "Achterschlag 2", "address2": null, "address3": null, "city": "Hamburg", "zip_code": "21039", "country": "DE", "state": "HH", "display_address": ["Achterschlag 2", "21039 Hamburg", "Germany"]}, "phone": "+494087604024", "display_phone": "+49 40 87604024", "distance": 1180.536849731785}, {"id": "zyNzT7I7tYdCjmDSiILDBA", "alias": "thai-asia-wok-wentorf-bei-hamburg", "name": "Thai Asia Wok", "image_url": "https://s3-media4.fl.yelpcdn.com/bphoto/eHVf5_O6xDN6kEx1zMB77Q/o.jpg", "is_closed": false, "url": "https://www.yelp.com/biz/thai-asia-wok-wentorf-bei-hamburg?adjust_creative=hBJOknVQJ58S5goQyjmwRw&utm_campaign=yelp_api_v3&utm_medium=api_v3_business_search&utm_source=hBJOknVQJ58S5goQyjmwRw", "review_count": 2, "categories": [{"alias": "thai", "title": "Thai"}], "rating": 4.5, "coordinates": {"latitude": 53.487743, "longitude": 10.26275}, "transactions": [], "location": {"address1": "S\u00fcdring 46", "address2": "", "address3": "", "city": "Wentorf bei Hamburg", "zip_code": "21465", "country": "DE", "state": "SH", "display_address": ["S\u00fcdring 46", "21465 Wentorf bei Hamburg", "Germany"]}, "phone": "+494071189181", "display_phone": "+49 40 71189181", "distance": 3154.5467811425365}, {"id": "eB5ZgXwqX4OjH3PjvcVqqw", "alias": "trattoria-olivo-hamburg", "name": "Trattoria Olivo", "image_url": "https://s3-media3.fl.yelpcdn.com/bphoto/azb16-pwIH6-s5zGK2CfIg/o.jpg", "is_closed": false, "url": "https://www.yelp.com/biz/trattoria-olivo-hamburg?adjust_creative=hBJOknVQJ58S5goQyjmwRw&utm_campaign=yelp_api_v3&utm_medium=api_v3_business_search&utm_source=hBJOknVQJ58S5goQyjmwRw", "review_count": 12, "categories": [{"alias": "italian", "title": "Italian"}], "rating": 4.5, "coordinates": {"latitude": 53.48585, "longitude": 10.2173}, "transactions": [], "price": "\u20ac\u20ac", "location": {"address1": "Am Brink 10", "address2": "", "address3": "", "city": "Hamburg", "zip_code": "21029", "country": "DE", "state": "HH", "display_address": ["Am Brink 10", "21029 Hamburg", "Germany"]}, "phone": "+494072106745", "display_phone": "+49 40 72106745", "distance": 2805.728365985355}, {"id": "-y32zu4-y6NOWlPed6dNIQ", "alias": "forsthaus-bergedorf-hamburg", "name": "Forsthaus Bergedorf", "image_url": "https://s3-media3.fl.yelpcdn.com/bphoto/Im-8jxv5Afs-3THncFXKug/o.jpg", "is_closed": false, "url": "https://www.yelp.com/biz/forsthaus-bergedorf-hamburg?adjust_creative=hBJOknVQJ58S5goQyjmwRw&utm_campaign=yelp_api_v3&utm_medium=api_v3_business_search&utm_source=hBJOknVQJ58S5goQyjmwRw", "review_count": 13, "categories": [{"alias": "northerngerman", "title": "Northern German"}], "rating": 4.0, "coordinates": {"latitude": 53.4924, "longitude": 10.2267}, "transactions": [], "price": "\u20ac\u20ac\u20ac", "location": {"address1": "Reinbeker Weg 77", "address2": null, "address3": null, "city": "Hamburg", "zip_code": "21029", "country": "DE", "state": "HH", "display_address": ["Reinbeker Weg 77", "21029 Hamburg", "Germany"]}, "phone": "+49407258890", "display_phone": "+49 40 7258890", "distance": 3273.175233253654}, {"id": "Zv1LeZIpUf-fgVDZnfsTyg", "alias": "vapiano-hamburg-11", "name": "Vapiano", "image_url": "https://s3-media2.fl.yelpcdn.com/bphoto/yjG-y_zly9_YaRjRwLAHOw/o.jpg", "is_closed": false, "url": "https://www.yelp.com/biz/vapiano-hamburg-11?adjust_creative=hBJOknVQJ58S5goQyjmwRw&utm_campaign=yelp_api_v3&utm_medium=api_v3_business_search&utm_source=hBJOknVQJ58S5goQyjmwRw", "review_count": 5, "categories": [{"alias": "italian", "title": "Italian"}], "rating": 3.0, "coordinates": {"latitude": 53.4865151843347, "longitude": 10.213736811045}, "transactions": [], "price": "\u20ac\u20ac", "location": {"address1": "Bergedorfer Str. 131 - 135", "address2": "", "address3": null, "city": "Hamburg", "zip_code": "21029", "country": "DE", "state": "HH", "display_address": ["Bergedorfer Str. 131 - 135", "21029 Hamburg", "Germany"]}, "phone": "+4940609436970", "display_phone": "+49 40 609436970", "distance": 2984.0167328736857}, {"id": "8RTFCEVFVel7jHWdyzyS7g", "alias": "ha-dang-dung-hamburg", "name": "Ha Dang Dung", "image_url": "https://s3-media3.fl.yelpcdn.com/bphoto/Badnhs7BNcNC3eSVURl_2A/o.jpg", "is_closed": false, "url": "https://www.yelp.com/biz/ha-dang-dung-hamburg?adjust_creative=hBJOknVQJ58S5goQyjmwRw&utm_campaign=yelp_api_v3&utm_medium=api_v3_business_search&utm_source=hBJOknVQJ58S5goQyjmwRw", "review_count": 1, "categories": [{"alias": "vietnamese", "title": "Vietnamese"}], "rating": 4.0, "coordinates": {"latitude": 53.486007, "longitude": 10.214888}, "transactions": [], "location": {"address1": "Bergedorfer Str 152", "address2": "", "address3": null, "city": "Hamburg", "zip_code": "21029", "country": "DE", "state": "HH", "display_address": ["Bergedorfer Str 152", "21029 Hamburg", "Germany"]}, "phone": "+494072105999", "display_phone": "+49 40 72105999", "distance": 2896.1972601948737}, {"id": "zSJs6UlQpjoeyYtP0KmIXw", "alias": "sushibar-bergedorf-hamburg", "name": "sushibar bergedorf", "image_url": "https://s3-media4.fl.yelpcdn.com/bphoto/C8iFPvFJzRKix6tiM3SnOg/o.jpg", "is_closed": false, "url": "https://www.yelp.com/biz/sushibar-bergedorf-hamburg?adjust_creative=hBJOknVQJ58S5goQyjmwRw&utm_campaign=yelp_api_v3&utm_medium=api_v3_business_search&utm_source=hBJOknVQJ58S5goQyjmwRw", "review_count": 53, "categories": [{"alias": "sushi", "title": "Sushi Bars"}], "rating": 4.0, "coordinates": {"latitude": 53.48635, "longitude": 10.21301}, "transactions": [], "price": "\u20ac\u20ac", "location": {"address1": "Bergedorfer Str. 138", "address2": null, "address3": null, "city": "Hamburg", "zip_code": "21029", "country": "DE", "state": "HH", "display_address": ["Bergedorfer Str. 138", "21029 Hamburg", "Germany"]}, "phone": "+494018073686", "display_phone": "+49 40 18073686", "distance": 2976.8125418795526}, {"id": "VYiOF0mjK_FuOVMWxSs-Ag", "alias": "fidelio-hamburg-2", "name": "Fidelio", "image_url": "https://s3-media2.fl.yelpcdn.com/bphoto/pKzIFFExzuRnpFGPCDJrUQ/o.jpg", "is_closed": false, "url": "https://www.yelp.com/biz/fidelio-hamburg-2?adjust_creative=hBJOknVQJ58S5goQyjmwRw&utm_campaign=yelp_api_v3&utm_medium=api_v3_business_search&utm_source=hBJOknVQJ58S5goQyjmwRw", "review_count": 29, "categories": [{"alias": "international", "title": "International"}], "rating": 3.5, "coordinates": {"latitude": 53.488404, "longitude": 10.2135165}, "transactions": [], "price": "\u20ac\u20ac", "location": {"address1": "Bergedorfer Schlo\u00dfstr. 15", "address2": "", "address3": "", "city": "Hamburg", "zip_code": "21029", "country": "DE", "state": "HH", "display_address": ["Bergedorfer Schlo\u00dfstr. 15", "21029 Hamburg", "Germany"]}, "phone": "+494072008855", "display_phone": "+49 40 72008855", "distance": 3172.0530540868253}, {"id": "XkWCRoKT9xo3WGnYi7Fceg", "alias": "mongolei-wentorf-bei-hamburg", "name": "Mongolei", "image_url": "https://s3-media2.fl.yelpcdn.com/bphoto/v_o-gDSFYB1fz4apBLXm5Q/o.jpg", "is_closed": false, "url": "https://www.yelp.com/biz/mongolei-wentorf-bei-hamburg?adjust_creative=hBJOknVQJ58S5goQyjmwRw&utm_campaign=yelp_api_v3&utm_medium=api_v3_business_search&utm_source=hBJOknVQJ58S5goQyjmwRw", "review_count": 42, "categories": [{"alias": "mongolian", "title": "Mongolian"}, {"alias": "buffets", "title": "Buffets"}], "rating": 3.0, "coordinates": {"latitude": 53.4909, "longitude": 10.25127}, "transactions": [], "price": "\u20ac\u20ac", "location": {"address1": "Hamburger Landstr. 41", "address2": "", "address3": "", "city": "Wentorf bei Hamburg", "zip_code": "21465", "country": "DE", "state": "SH", "display_address": ["Hamburger Landstr. 41", "21465 Wentorf bei Hamburg", "Germany"]}, "phone": "+494063678388", "display_phone": "+49 40 63678388", "distance": 3172.8805926610657}, {"id": "zonrbXJvqBtw1CA_5YMJRQ", "alias": "locanda-riva-hamburg-4", "name": "Locanda Riva", "image_url": "https://s3-media1.fl.yelpcdn.com/bphoto/tUbPNJc59zHLy3dPyExe4Q/o.jpg", "is_closed": false, "url": "https://www.yelp.com/biz/locanda-riva-hamburg-4?adjust_creative=hBJOknVQJ58S5goQyjmwRw&utm_campaign=yelp_api_v3&utm_medium=api_v3_business_search&utm_source=hBJOknVQJ58S5goQyjmwRw", "review_count": 9, "categories": [{"alias": "mediterranean", "title": "Mediterranean"}, {"alias": "italian", "title": "Italian"}], "rating": 4.0, "coordinates": {"latitude": 53.49331, "longitude": 10.21416}, "transactions": [], "price": "\u20ac\u20ac\u20ac", "location": {"address1": "Schillerufer 41", "address2": "", "address3": "", "city": "Hamburg", "zip_code": "21029", "country": "DE", "state": "HH", "display_address": ["Schillerufer 41", "21029 Hamburg", "Germany"]}, "phone": "+494075111933", "display_phone": "+49 40 75111933", "distance": 3637.2095907866646}, {"id": "XguDzRJ2azu46Kze_kRgCA", "alias": "taverna-corfu-hamburg-2", "name": "Taverna Corfu", "image_url": "https://s3-media2.fl.yelpcdn.com/bphoto/YDAiBOH8-f7CBqW1LNpJ9w/o.jpg", "is_closed": false, "url": "https://www.yelp.com/biz/taverna-corfu-hamburg-2?adjust_creative=hBJOknVQJ58S5goQyjmwRw&utm_campaign=yelp_api_v3&utm_medium=api_v3_business_search&utm_source=hBJOknVQJ58S5goQyjmwRw", "review_count": 8, "categories": [{"alias": "greek", "title": "Greek"}], "rating": 4.0, "coordinates": {"latitude": 53.4857, "longitude": 10.2178}, "transactions": [], "price": "\u20ac\u20ac", "location": {"address1": "Am Brink 14", "address2": null, "address3": null, "city": "Hamburg", "zip_code": "21029", "country": "DE", "state": "HH", "display_address": ["Am Brink 14", "21029 Hamburg", "Germany"]}, "phone": "+49407214342", "display_phone": "+49 40 7214342", "distance": 2771.9234788824256}, {"id": "DVKffPJvyr_9UHWSfp5hDg", "alias": "china-restaurant-lotos-wentorf", "name": "China Restaurant Lotos", "image_url": "https://s3-media4.fl.yelpcdn.com/bphoto/yEfMH5OUPFMPgsRGQyhpxw/o.jpg", "is_closed": false, "url": "https://www.yelp.com/biz/china-restaurant-lotos-wentorf?adjust_creative=hBJOknVQJ58S5goQyjmwRw&utm_campaign=yelp_api_v3&utm_medium=api_v3_business_search&utm_source=hBJOknVQJ58S5goQyjmwRw", "review_count": 8, "categories": [{"alias": "chinese", "title": "Chinese"}], "rating": 3.5, "coordinates": {"latitude": 53.4908, "longitude": 10.2515}, "transactions": [], "price": "\u20ac\u20ac", "location": {"address1": "Hamburger Landstr. 38", "address2": null, "address3": null, "city": "Wentorf", "zip_code": "21465", "country": "DE", "state": "SH", "display_address": ["Hamburger Landstr. 38", "21465 Wentorf", "Germany"]}, "phone": "+49407203782", "display_phone": "+49 40 7203782", "distance": 3160.325937032518}, {"id": "JF4a1Vg18qepoYsWyhEaJQ", "alias": "ristorante-pizzeria-luce-wentorf", "name": "Ristorante Pizzeria Luce", "image_url": "", "is_closed": false, "url": "https://www.yelp.com/biz/ristorante-pizzeria-luce-wentorf?adjust_creative=hBJOknVQJ58S5goQyjmwRw&utm_campaign=yelp_api_v3&utm_medium=api_v3_business_search&utm_source=hBJOknVQJ58S5goQyjmwRw", "review_count": 11, "categories": [{"alias": "italian", "title": "Italian"}, {"alias": "pizza", "title": "Pizza"}], "rating": 4.5, "coordinates": {"latitude": 53.4941, "longitude": 10.2557}, "transactions": [], "price": "\u20ac\u20ac\u20ac", "location": {"address1": "Hauptstr. 18", "address2": null, "address3": null, "city": "Wentorf", "zip_code": "21465", "country": "DE", "state": "SH", "display_address": ["Hauptstr. 18", "21465 Wentorf", "Germany"]}, "phone": "+49407247569", "display_phone": "+49 40 7247569", "distance": 3596.5396235643575}, {"id": "JfKWYXLZiYXl_51QhxdYaQ", "alias": "restaurant-bergedorfer-h\u00f6he-hamburg", "name": "Restaurant Bergedorfer H\u00f6he", "image_url": "https://s3-media1.fl.yelpcdn.com/bphoto/Yvbz2pxUkaT06u9zlRO1QA/o.jpg", "is_closed": false, "url": "https://www.yelp.com/biz/restaurant-bergedorfer-h%C3%B6he-hamburg?adjust_creative=hBJOknVQJ58S5goQyjmwRw&utm_campaign=yelp_api_v3&utm_medium=api_v3_business_search&utm_source=hBJOknVQJ58S5goQyjmwRw", "review_count": 2, "categories": [{"alias": "german", "title": "German"}], "rating": 4.5, "coordinates": {"latitude": 53.4922, "longitude": 10.2244}, "transactions": [], "price": "\u20ac\u20ac", "location": {"address1": "Reinbeker Weg 59", "address2": null, "address3": null, "city": "Hamburg", "zip_code": "21029", "country": "DE", "state": "HH", "display_address": ["Reinbeker Weg 59", "21029 Hamburg", "Germany"]}, "phone": "+494072004400", "display_phone": "+49 40 72004400", "distance": 3287.818845784343}, {"id": "hG3SYB9Q99Y9Y1nN7UqblQ", "alias": "caf\u00e9-chrysander-hamburg", "name": "Caf\u00e9 Chrysander", "image_url": "https://s3-media4.fl.yelpcdn.com/bphoto/noJgmaj6eeFrqPgtEZd5wg/o.jpg", "is_closed": false, "url": "https://www.yelp.com/biz/caf%C3%A9-chrysander-hamburg?adjust_creative=hBJOknVQJ58S5goQyjmwRw&utm_campaign=yelp_api_v3&utm_medium=api_v3_business_search&utm_source=hBJOknVQJ58S5goQyjmwRw", "review_count": 2, "categories": [{"alias": "cafes", "title": "Cafes"}], "rating": 4.5, "coordinates": {"latitude": 53.4895058007076, "longitude": 10.2154295946289}, "transactions": [], "price": "\u20ac", "location": {"address1": "Chrysanderstr. 61", "address2": "", "address3": null, "city": "Hamburg", "zip_code": "21029", "country": "DE", "state": "HH", "display_address": ["Chrysanderstr. 61", "21029 Hamburg", "Germany"]}, "phone": "+494038073657", "display_phone": "+49 40 38073657", "distance": 3219.9089849659513}, {"id": "vnrTvNw0oatmQ46Bu7XMZA", "alias": "cafe-raum-und-zeit-hamburg", "name": "Cafe Raum & Zeit", "image_url": "https://s3-media4.fl.yelpcdn.com/bphoto/5Xm4YiD6IsG0zZVNIrS2aQ/o.jpg", "is_closed": false, "url": "https://www.yelp.com/biz/cafe-raum-und-zeit-hamburg?adjust_creative=hBJOknVQJ58S5goQyjmwRw&utm_campaign=yelp_api_v3&utm_medium=api_v3_business_search&utm_source=hBJOknVQJ58S5goQyjmwRw", "review_count": 10, "categories": [{"alias": "cafes", "title": "Cafes"}], "rating": 4.0, "coordinates": {"latitude": 53.4809, "longitude": 10.2417}, "transactions": [], "price": "\u20ac\u20ac", "location": {"address1": "August-Bebel-Str. 196", "address2": "", "address3": null, "city": "Hamburg", "zip_code": "21029", "country": "DE", "state": "HH", "display_address": ["August-Bebel-Str. 196", "21029 Hamburg", "Germany"]}, "phone": "+494022649959", "display_phone": "+49 40 22649959", "distance": 1939.0988547443305}, {"id": "GEcvvuBMISOIxHyec8Xs7Q", "alias": "athena-grill-wentorf", "name": "Athena Grill", "image_url": "https://s3-media1.fl.yelpcdn.com/bphoto/SxIR5JAz7TVlLHVPkfpJ4w/o.jpg", "is_closed": false, "url": "https://www.yelp.com/biz/athena-grill-wentorf?adjust_creative=hBJOknVQJ58S5goQyjmwRw&utm_campaign=yelp_api_v3&utm_medium=api_v3_business_search&utm_source=hBJOknVQJ58S5goQyjmwRw", "review_count": 5, "categories": [{"alias": "greek", "title": "Greek"}], "rating": 4.0, "coordinates": {"latitude": 53.4913, "longitude": 10.2572}, "transactions": [], "price": "\u20ac\u20ac", "location": {"address1": "Am Grotensahl 6 - 10", "address2": null, "address3": null, "city": "Wentorf", "zip_code": "21465", "country": "DE", "state": "SH", "display_address": ["Am Grotensahl 6 - 10", "21465 Wentorf", "Germany"]}, "phone": "+494023959787", "display_phone": "+49 40 23959787", "distance": 3342.8997069773022}, {"id": "5ofzRX3nd1gxx9e9z7MASw", "alias": "pizza-max-hamburg-9", "name": "Pizza Max", "image_url": "https://s3-media3.fl.yelpcdn.com/bphoto/5laqwogK0AddypFaUxxNOg/o.jpg", "is_closed": false, "url": "https://www.yelp.com/biz/pizza-max-hamburg-9?adjust_creative=hBJOknVQJ58S5goQyjmwRw&utm_campaign=yelp_api_v3&utm_medium=api_v3_business_search&utm_source=hBJOknVQJ58S5goQyjmwRw", "review_count": 5, "categories": [{"alias": "pizza", "title": "Pizza"}], "rating": 3.5, "coordinates": {"latitude": 53.4871, "longitude": 10.2123}, "transactions": [], "price": "\u20ac\u20ac", "location": {"address1": "Bergedorfer Str. 127", "address2": null, "address3": null, "city": "Hamburg", "zip_code": "21029", "country": "DE", "state": "HH", "display_address": ["Bergedorfer Str. 127", "21029 Hamburg", "Germany"]}, "phone": "+4940720044444", "display_phone": "+49 40 720044444", "distance": 3089.565443279074}, {"id": "u3ub5f0MS4qY67Q8XF9ZoA", "alias": "sodemanns-fisch-kutter-nr-1-hamburg", "name": "Sodemann's Fisch-Kutter Nr. 1", "image_url": "https://s3-media3.fl.yelpcdn.com/bphoto/BlysP6fVPaL0eEjKvEbByw/o.jpg", "is_closed": false, "url": "https://www.yelp.com/biz/sodemanns-fisch-kutter-nr-1-hamburg?adjust_creative=hBJOknVQJ58S5goQyjmwRw&utm_campaign=yelp_api_v3&utm_medium=api_v3_business_search&utm_source=hBJOknVQJ58S5goQyjmwRw", "review_count": 3, "categories": [{"alias": "foodtrucks", "title": "Food Trucks"}, {"alias": "fischbroetchen", "title": "Fischbroetchen"}], "rating": 5.0, "coordinates": {"latitude": 53.5537490844727, "longitude": 9.99182987213135}, "transactions": [], "price": "\u20ac\u20ac", "location": {"address1": "", "address2": null, "address3": "", "city": "Hamburg", "zip_code": "", "country": "DE", "state": "HH", "display_address": ["Hamburg", "Germany"]}, "phone": "+491773606663", "display_phone": "+49 177 3606663", "distance": 18819.367859835427}, {"id": "ipf3737p-Jpij5seiTyztg", "alias": "november-hamburg", "name": "November", "image_url": "https://s3-media1.fl.yelpcdn.com/bphoto/Ea5h-2cr_6mpuwtUwtMqQg/o.jpg", "is_closed": false, "url": "https://www.yelp.com/biz/november-hamburg?adjust_creative=hBJOknVQJ58S5goQyjmwRw&utm_campaign=yelp_api_v3&utm_medium=api_v3_business_search&utm_source=hBJOknVQJ58S5goQyjmwRw", "review_count": 50, "categories": [{"alias": "german", "title": "German"}, {"alias": "cafes", "title": "Cafes"}, {"alias": "coffee", "title": "Coffee & Tea"}], "rating": 3.0, "coordinates": {"latitude": 53.48706, "longitude": 10.2119}, "transactions": [], "price": "\u20ac\u20ac", "location": {"address1": "Bergedorfer Str. 125", "address2": null, "address3": null, "city": "Hamburg", "zip_code": "21029", "country": "DE", "state": "HH", "display_address": ["Bergedorfer Str. 125", "21029 Hamburg", "Germany"]}, "phone": "+494073937937", "display_phone": "+49 40 73937937", "distance": 3096.7462012893334}, {"id": "UsN7oty__ct1qIZLJ2SSkQ", "alias": "caf\u00e9-la-petite-rue-hamburg", "name": "Caf\u00e9 La Petite Rue", "image_url": "https://s3-media1.fl.yelpcdn.com/bphoto/2r1JCwoBnwdnpjiKD-zpjQ/o.jpg", "is_closed": false, "url": "https://www.yelp.com/biz/caf%C3%A9-la-petite-rue-hamburg?adjust_creative=hBJOknVQJ58S5goQyjmwRw&utm_campaign=yelp_api_v3&utm_medium=api_v3_business_search&utm_source=hBJOknVQJ58S5goQyjmwRw", "review_count": 5, "categories": [{"alias": "cafes", "title": "Cafes"}], "rating": 4.0, "coordinates": {"latitude": 53.488, "longitude": 10.213}, "transactions": [], "price": "\u20ac\u20ac\u20ac", "location": {"address1": "Sachsentor 29", "address2": null, "address3": null, "city": "Hamburg", "zip_code": "21029", "country": "DE", "state": "HH", "display_address": ["Sachsentor 29", "21029 Hamburg", "Germany"]}, "phone": "+494098769802", "display_phone": "+49 40 98769802", "distance": 3150.509458417036}, {"id": "afWOLrr2PZLyeDsXZeojKg", "alias": "mundfein-pizzawerkstatt-wentorf-bei-hamburg", "name": "Mundfein Pizzawerkstatt", "image_url": "", "is_closed": false, "url": "https://www.yelp.com/biz/mundfein-pizzawerkstatt-wentorf-bei-hamburg?adjust_creative=hBJOknVQJ58S5goQyjmwRw&utm_campaign=yelp_api_v3&utm_medium=api_v3_business_search&utm_source=hBJOknVQJ58S5goQyjmwRw", "review_count": 3, "categories": [{"alias": "pizza", "title": "Pizza"}], "rating": 4.5, "coordinates": {"latitude": 53.49121, "longitude": 10.25412}, "transactions": [], "price": "\u20ac\u20ac", "location": {"address1": "Berliner Landstr. 9 a", "address2": "", "address3": "", "city": "Wentorf bei Hamburg", "zip_code": "21465", "country": "DE", "state": "SH", "display_address": ["Berliner Landstr. 9 a", "21465 Wentorf bei Hamburg", "Germany"]}, "phone": "+494076500807", "display_phone": "+49 40 76500807", "distance": 3263.4283545178896}, {"id": "YvxXpdzIc8JEAs5LrzePDQ", "alias": "ma-maison-hamburg-2", "name": "Ma Maison", "image_url": "https://s3-media4.fl.yelpcdn.com/bphoto/Rcs6oRdiwbAxRI6REbTPvw/o.jpg", "is_closed": false, "url": "https://www.yelp.com/biz/ma-maison-hamburg-2?adjust_creative=hBJOknVQJ58S5goQyjmwRw&utm_campaign=yelp_api_v3&utm_medium=api_v3_business_search&utm_source=hBJOknVQJ58S5goQyjmwRw", "review_count": 8, "categories": [{"alias": "cafes", "title": "Cafes"}, {"alias": "tapas", "title": "Tapas Bars"}], "rating": 3.0, "coordinates": {"latitude": 53.4873, "longitude": 10.21339}, "transactions": [], "price": "\u20ac\u20ac", "location": {"address1": "Hintern Graben 21", "address2": "", "address3": "", "city": "Hamburg", "zip_code": "21029", "country": "DE", "state": "HH", "display_address": ["Hintern Graben 21", "21029 Hamburg", "Germany"]}, "phone": "+494036911990", "display_phone": "+49 40 36911990", "distance": 3073.430393393089}, {"id": "8KfeWOJl-gMUhwRXmWJ1pA", "alias": "bergedorfer-schlo\u00dfcaf\u00e9-hamburg", "name": "Bergedorfer Schlo\u00dfcaf\u00e9", "image_url": "https://s3-media1.fl.yelpcdn.com/bphoto/csKkuOcZ6ERm9_CC0UBafQ/o.jpg", "is_closed": false, "url": "https://www.yelp.com/biz/bergedorfer-schlo%C3%9Fcaf%C3%A9-hamburg?adjust_creative=hBJOknVQJ58S5goQyjmwRw&utm_campaign=yelp_api_v3&utm_medium=api_v3_business_search&utm_source=hBJOknVQJ58S5goQyjmwRw", "review_count": 2, "categories": [{"alias": "cafes", "title": "Cafes"}, {"alias": "breakfast_brunch", "title": "Breakfast & Brunch"}], "rating": 3.5, "coordinates": {"latitude": 53.4896544436104, "longitude": 10.2123371726824}, "transactions": [], "location": {"address1": "Bergedorfer Schlo\u00dfstr. 4", "address2": "", "address3": null, "city": "Hamburg", "zip_code": "21029", "country": "DE", "state": "HH", "display_address": ["Bergedorfer Schlo\u00dfstr. 4", "21029 Hamburg", "Germany"]}, "phone": "+494078011100", "display_phone": "+49 40 78011100", "distance": 3331.4842387911626}, {"id": "faKURxONbe2INqK5BXHdag", "alias": "imbiss-oase-wentorf-bei-hamburg", "name": "Imbiss Oase", "image_url": "https://s3-media3.fl.yelpcdn.com/bphoto/END3LKvUozXKb3ONNRhsyA/o.jpg", "is_closed": false, "url": "https://www.yelp.com/biz/imbiss-oase-wentorf-bei-hamburg?adjust_creative=hBJOknVQJ58S5goQyjmwRw&utm_campaign=yelp_api_v3&utm_medium=api_v3_business_search&utm_source=hBJOknVQJ58S5goQyjmwRw", "review_count": 10, "categories": [{"alias": "currysausage", "title": "Curry Sausage"}, {"alias": "hotdogs", "title": "Fast Food"}], "rating": 5.0, "coordinates": {"latitude": 53.4909899, "longitude": 10.25225}, "transactions": [], "price": "\u20ac", "location": {"address1": "Berliner Landstr. 2", "address2": "", "address3": "", "city": "Wentorf bei Hamburg", "zip_code": "21465", "country": "DE", "state": "SH", "display_address": ["Berliner Landstr. 2", "21465 Wentorf bei Hamburg", "Germany"]}, "phone": "+49407208687", "display_phone": "+49 40 7208687", "distance": 3191.9339567017455}, {"id": "QOgAHBJ-mrD0tRC3rLOEvg", "alias": "mckumpir-hamburg", "name": "McKumpir", "image_url": "https://s3-media1.fl.yelpcdn.com/bphoto/SREBizanG3oyB-ieR9shXA/o.jpg", "is_closed": false, "url": "https://www.yelp.com/biz/mckumpir-hamburg?adjust_creative=hBJOknVQJ58S5goQyjmwRw&utm_campaign=yelp_api_v3&utm_medium=api_v3_business_search&utm_source=hBJOknVQJ58S5goQyjmwRw", "review_count": 1, "categories": [{"alias": "potatoes", "title": "Potatoes"}], "rating": 5.0, "coordinates": {"latitude": 53.4868849099982, "longitude": 10.2133054286242}, "transactions": [], "location": {"address1": "Bergedorfer Str. 133", "address2": "", "address3": "", "city": "Hamburg", "zip_code": "21029", "country": "DE", "state": "HH", "display_address": ["Bergedorfer Str. 133", "21029 Hamburg", "Germany"]}, "phone": "+494055898666", "display_phone": "+49 40 55898666", "distance": 3033.9886554228165}, {"id": "TttYOxgubZqsIApBXps3xw", "alias": "belami-hamburg", "name": "Belami", "image_url": "https://s3-media3.fl.yelpcdn.com/bphoto/8FOHa1w4wwLiUiW8QzdIdQ/o.jpg", "is_closed": false, "url": "https://www.yelp.com/biz/belami-hamburg?adjust_creative=hBJOknVQJ58S5goQyjmwRw&utm_campaign=yelp_api_v3&utm_medium=api_v3_business_search&utm_source=hBJOknVQJ58S5goQyjmwRw", "review_count": 15, "categories": [{"alias": "bars", "title": "Bars"}, {"alias": "beergarden", "title": "Beer Garden"}, {"alias": "german", "title": "German"}], "rating": 3.0, "coordinates": {"latitude": 53.4847, "longitude": 10.2187}, "transactions": [], "price": "\u20ac\u20ac", "location": {"address1": "Holtenklinker Str. 26", "address2": null, "address3": null, "city": "Hamburg", "zip_code": "21029", "country": "DE", "state": "HH", "display_address": ["Holtenklinker Str. 26", "21029 Hamburg", "Germany"]}, "phone": "+494072699173", "display_phone": "+49 40 72699173", "distance": 2645.78996957221}, {"id": "MjvA08ZvJZu0J29TPqUS-Q", "alias": "caf\u00e9-flop-hamburg-2", "name": "Caf\u00e9 Flop", "image_url": "", "is_closed": false, "url": "https://www.yelp.com/biz/caf%C3%A9-flop-hamburg-2?adjust_creative=hBJOknVQJ58S5goQyjmwRw&utm_campaign=yelp_api_v3&utm_medium=api_v3_business_search&utm_source=hBJOknVQJ58S5goQyjmwRw", "review_count": 2, "categories": [{"alias": "cafes", "title": "Cafes"}, {"alias": "vegan", "title": "Vegan"}], "rating": 3.5, "coordinates": {"latitude": 53.4872, "longitude": 10.2192}, "transactions": [], "price": "\u20ac", "location": {"address1": "Wentorfer Str. 26", "address2": null, "address3": null, "city": "Hamburg", "zip_code": "21029", "country": "DE", "state": "HH", "display_address": ["Wentorfer Str. 26", "21029 Hamburg", "Germany"]}, "phone": "", "display_phone": "", "distance": 2880.602032552009}, {"id": "g9ylvGdAVIch-Y52TLGCww", "alias": "zur-sternwarte-wentorf-bei-hamburg", "name": "Zur Sternwarte", "image_url": "", "is_closed": false, "url": "https://www.yelp.com/biz/zur-sternwarte-wentorf-bei-hamburg?adjust_creative=hBJOknVQJ58S5goQyjmwRw&utm_campaign=yelp_api_v3&utm_medium=api_v3_business_search&utm_source=hBJOknVQJ58S5goQyjmwRw", "review_count": 6, "categories": [{"alias": "international", "title": "International"}, {"alias": "italian", "title": "Italian"}, {"alias": "cakeshop", "title": "Patisserie/Cake Shop"}], "rating": 3.0, "coordinates": {"latitude": 53.481107, "longitude": 10.2438929}, "transactions": [], "price": "\u20ac\u20ac", "location": {"address1": "August-Bebel-Str. 201", "address2": null, "address3": null, "city": "Wentorf bei Hamburg", "zip_code": "21029", "country": "DE", "state": "HH", "display_address": ["August-Bebel-Str. 201", "21029 Wentorf bei Hamburg", "Germany"]}, "phone": "+49407205669", "display_phone": "+49 40 7205669", "distance": 1988.3417983054312}, {"id": "edje85kZBoKiccEv6Wo4mQ", "alias": "grill-shop-hamburg-2", "name": "Grill Shop", "image_url": "https://s3-media4.fl.yelpcdn.com/bphoto/ODHOBZBuD4fTiVATuCUGAA/o.jpg", "is_closed": false, "url": "https://www.yelp.com/biz/grill-shop-hamburg-2?adjust_creative=hBJOknVQJ58S5goQyjmwRw&utm_campaign=yelp_api_v3&utm_medium=api_v3_business_search&utm_source=hBJOknVQJ58S5goQyjmwRw", "review_count": 6, "categories": [{"alias": "currysausage", "title": "Curry Sausage"}, {"alias": "german", "title": "German"}], "rating": 4.5, "coordinates": {"latitude": 53.48713, "longitude": 10.21846}, "transactions": [], "price": "\u20ac\u20ac", "location": {"address1": "Wentorfer Str. 20", "address2": null, "address3": null, "city": "Hamburg", "zip_code": "21029", "country": "DE", "state": "HH", "display_address": ["Wentorfer Str. 20", "21029 Hamburg", "Germany"]}, "phone": "+49407247337", "display_phone": "+49 40 7247337", "distance": 2894.345253807276}, {"id": "JayE4rK3kl3b6_gNXpqqQw", "alias": "bla-bla-gastst\u00e4tte-hamburg-2", "name": "Bla bla Gastst\u00e4tte", "image_url": "https://s3-media4.fl.yelpcdn.com/bphoto/ZAPXKJ0xunxGQhSXkkFZAw/o.jpg", "is_closed": false, "url": "https://www.yelp.com/biz/bla-bla-gastst%C3%A4tte-hamburg-2?adjust_creative=hBJOknVQJ58S5goQyjmwRw&utm_campaign=yelp_api_v3&utm_medium=api_v3_business_search&utm_source=hBJOknVQJ58S5goQyjmwRw", "review_count": 1, "categories": [{"alias": "german", "title": "German"}], "rating": 4.0, "coordinates": {"latitude": 53.48488, "longitude": 10.2184414}, "transactions": [], "price": "\u20ac", "location": {"address1": "Holtenklinker Str.22", "address2": "", "address3": "", "city": "Hamburg", "zip_code": "21029", "country": "DE", "state": "HH", "display_address": ["Holtenklinker Str.22", "21029 Hamburg", "Germany"]}, "phone": "+49407243714", "display_phone": "+49 40 7243714", "distance": 2671.4831131377405}, {"id": "-FGEmzXxd6vzetcdQNksdg", "alias": "taverna-dimi-hamburg", "name": "Taverna Dimi", "image_url": "https://s3-media2.fl.yelpcdn.com/bphoto/T6j4KRaz6NhKa49FCqLpmA/o.jpg", "is_closed": false, "url": "https://www.yelp.com/biz/taverna-dimi-hamburg?adjust_creative=hBJOknVQJ58S5goQyjmwRw&utm_campaign=yelp_api_v3&utm_medium=api_v3_business_search&utm_source=hBJOknVQJ58S5goQyjmwRw", "review_count": 1, "categories": [{"alias": "greek", "title": "Greek"}], "rating": 1.0, "coordinates": {"latitude": 53.48597, "longitude": 10.2134}, "transactions": [], "location": {"address1": "Neuer Weg 19", "address2": null, "address3": null, "city": "Hamburg", "zip_code": "21029", "country": "DE", "state": "HH", "display_address": ["Neuer Weg 19", "21029 Hamburg", "Germany"]}, "phone": "", "display_phone": "", "distance": 2956.9196940978777}, {"id": "ssnLRo5BRqn2epOzxnHryg", "alias": "smileys-hamburg-8", "name": "Smiley's", "image_url": "https://s3-media3.fl.yelpcdn.com/bphoto/sOMzVXvslVgd4uQ3GF2pdg/o.jpg", "is_closed": false, "url": "https://www.yelp.com/biz/smileys-hamburg-8?adjust_creative=hBJOknVQJ58S5goQyjmwRw&utm_campaign=yelp_api_v3&utm_medium=api_v3_business_search&utm_source=hBJOknVQJ58S5goQyjmwRw", "review_count": 5, "categories": [{"alias": "pizza", "title": "Pizza"}], "rating": 2.0, "coordinates": {"latitude": 53.504, "longitude": 10.2147}, "transactions": [], "price": "\u20ac\u20ac", "location": {"address1": "Binnenfeldredder 40", "address2": null, "address3": null, "city": "Hamburg", "zip_code": "21031", "country": "DE", "state": "HH", "display_address": ["Binnenfeldredder 40", "21031 Hamburg", "Germany"]}, "phone": "+4940751150303", "display_phone": "+49 40 751150303", "distance": 4729.97768583815}]