[{"id": "zrz_KLCNk22s82RPnn8mNw", "alias": "weinkontor-retana-oststeinbek-2", "name": "Weinkontor Retana", "image_url": "https://s3-media2.fl.yelpcdn.com/bphoto/cu9XTncBI584BgUBqQAaJg/o.jpg", "is_closed": false, "url": "https://www.yelp.com/biz/weinkontor-retana-oststeinbek-2?adjust_creative=hBJOknVQJ58S5goQyjmwRw&utm_campaign=yelp_api_v3&utm_medium=api_v3_business_search&utm_source=hBJOknVQJ58S5goQyjmwRw", "review_count": 2, "categories": [{"alias": "tapas", "title": "Tapas Bars"}, {"alias": "wine_bars", "title": "Wine Bars"}, {"alias": "beer_and_wine", "title": "Beer, Wine & Spirits"}], "rating": 5.0, "coordinates": {"latitude": 53.5226187361936, "longitude": 10.1647896319628}, "transactions": [], "location": {"address1": "Dorfstr. 10", "address2": "", "address3": "", "city": "Oststeinbek", "zip_code": "22113", "country": "DE", "state": "SH", "display_address": ["Dorfstr. 10", "22113 Oststeinbek", "Germany"]}, "phone": "+494060174920", "display_phone": "+49 40 60174920", "distance": 4602.352060105463}, {"id": "uediSPOOphx_pjHdEh8o6w", "alias": "restaurant-zu-den-deichstuben-hamburg", "name": "Restaurant zu den Deichstuben", "image_url": "https://s3-media1.fl.yelpcdn.com/bphoto/IJlctgP696sK-5FHAxkqSg/o.jpg", "is_closed": false, "url": "https://www.yelp.com/biz/restaurant-zu-den-deichstuben-hamburg?adjust_creative=hBJOknVQJ58S5goQyjmwRw&utm_campaign=yelp_api_v3&utm_medium=api_v3_business_search&utm_source=hBJOknVQJ58S5goQyjmwRw", "review_count": 4, "categories": [{"alias": "german", "title": "German"}], "rating": 4.5, "coordinates": {"latitude": 53.472344, "longitude": 10.172569}, "transactions": [], "price": "\u20ac", "location": {"address1": "Hotel am Deich", "address2": "Allerm\u00f6her Werftstegel 3", "address3": "", "city": "Hamburg", "zip_code": "21037", "country": "DE", "state": "HH", "display_address": ["Hotel am Deich", "Allerm\u00f6her Werftstegel 3", "21037 Hamburg", "Germany"]}, "phone": "+49407237370", "display_phone": "+49 40 7237370", "distance": 2005.7838958100479}, {"id": "gvtbA9qV81QUCbQLCmLJ_A", "alias": "hof-neun-linden-hamburg", "name": "Hof Neun Linden", "image_url": "https://s3-media2.fl.yelpcdn.com/bphoto/WIFol5c1vAeZWyafy6dtzw/o.jpg", "is_closed": false, "url": "https://www.yelp.com/biz/hof-neun-linden-hamburg?adjust_creative=hBJOknVQJ58S5goQyjmwRw&utm_campaign=yelp_api_v3&utm_medium=api_v3_business_search&utm_source=hBJOknVQJ58S5goQyjmwRw", "review_count": 7, "categories": [{"alias": "cafes", "title": "Cafes"}, {"alias": "organic_stores", "title": "Organic Stores"}], "rating": 4.5, "coordinates": {"latitude": 53.5047, "longitude": 10.16919}, "transactions": [], "price": "\u20ac\u20ac\u20ac", "location": {"address1": "Billwerder Billdeich 480", "address2": "", "address3": "", "city": "Hamburg", "zip_code": "21033", "country": "DE", "state": "HH", "display_address": ["Billwerder Billdeich 480", "21033 Hamburg", "Germany"]}, "phone": "+494073928199", "display_phone": "+49 40 73928199", "distance": 2846.2664374242972}, {"id": "dGHvj7ZvUZcTMzLWoNlb0A", "alias": "dorfkrug-hamburg-3", "name": "Dorfkrug", "image_url": "https://s3-media4.fl.yelpcdn.com/bphoto/hlW6I8HGP3zTxxLSTNhBEw/o.jpg", "is_closed": false, "url": "https://www.yelp.com/biz/dorfkrug-hamburg-3?adjust_creative=hBJOknVQJ58S5goQyjmwRw&utm_campaign=yelp_api_v3&utm_medium=api_v3_business_search&utm_source=hBJOknVQJ58S5goQyjmwRw", "review_count": 30, "categories": [{"alias": "german", "title": "German"}], "rating": 3.0, "coordinates": {"latitude": 53.5069, "longitude": 10.1622}, "transactions": [], "price": "\u20ac\u20ac", "location": {"address1": "Boberger Furtweg 1", "address2": null, "address3": null, "city": "Hamburg", "zip_code": "21033", "country": "DE", "state": "HH", "display_address": ["Boberger Furtweg 1", "21033 Hamburg", "Germany"]}, "phone": "+49407398190", "display_phone": "+49 40 7398190", "distance": 2879.489394404346}, {"id": "7n3VbNvGndnknyhA1KcYYw", "alias": "akropolis-restaurant-hamburg", "name": "Akropolis Restaurant", "image_url": "", "is_closed": false, "url": "https://www.yelp.com/biz/akropolis-restaurant-hamburg?adjust_creative=hBJOknVQJ58S5goQyjmwRw&utm_campaign=yelp_api_v3&utm_medium=api_v3_business_search&utm_source=hBJOknVQJ58S5goQyjmwRw", "review_count": 2, "categories": [{"alias": "steak", "title": "Steakhouses"}], "rating": 4.0, "coordinates": {"latitude": 53.51469, "longitude": 10.16777}, "transactions": [], "location": {"address1": "Heidhorst 4", "address2": "", "address3": null, "city": "Hamburg", "zip_code": "21031", "country": "DE", "state": "HH", "display_address": ["Heidhorst 4", "21031 Hamburg", "Germany"]}, "phone": "+494018235999", "display_phone": "+49 40 18235999", "distance": 3840.331354682699}, {"id": "W9EAWUwf4GOi5eQkci3bHQ", "alias": "weinhaus-an-der-bergstrasse-hamburg-4", "name": "Weinhaus an der Bergstrasse", "image_url": "https://s3-media3.fl.yelpcdn.com/bphoto/m3tXdKYTsM4UdnF2INBrHg/o.jpg", "is_closed": false, "url": "https://www.yelp.com/biz/weinhaus-an-der-bergstrasse-hamburg-4?adjust_creative=hBJOknVQJ58S5goQyjmwRw&utm_campaign=yelp_api_v3&utm_medium=api_v3_business_search&utm_source=hBJOknVQJ58S5goQyjmwRw", "review_count": 6, "categories": [{"alias": "shopping", "title": "Shopping"}, {"alias": "bistros", "title": "Bistros"}, {"alias": "vacation_rentals", "title": "Vacation Rentals"}], "rating": 4.5, "coordinates": {"latitude": 53.51666, "longitude": 10.1574}, "transactions": [], "location": {"address1": "Am Langberg 104", "address2": "", "address3": "", "city": "Hamburg", "zip_code": "21033", "country": "DE", "state": "HH", "display_address": ["Am Langberg 104", "21033 Hamburg", "Germany"]}, "phone": "+49407399642", "display_phone": "+49 40 7399642", "distance": 3855.3465806579406}, {"id": "pedUYCXfp2wOXnGQBPfzqw", "alias": "schwarzenbeck-oststeinbek-havighorst", "name": "Schwarzenbeck", "image_url": "https://s3-media2.fl.yelpcdn.com/bphoto/u4ZvIfwyLUJf4bGgxT3unw/o.jpg", "is_closed": false, "url": "https://www.yelp.com/biz/schwarzenbeck-oststeinbek-havighorst?adjust_creative=hBJOknVQJ58S5goQyjmwRw&utm_campaign=yelp_api_v3&utm_medium=api_v3_business_search&utm_source=hBJOknVQJ58S5goQyjmwRw", "review_count": 1, "categories": [{"alias": "german", "title": "German"}], "rating": 5.0, "coordinates": {"latitude": 53.5252914, "longitude": 10.1684103}, "transactions": [], "location": {"address1": "Dorfstr. 26", "address2": null, "address3": "", "city": "Oststeinbek-Havighorst", "zip_code": "22113", "country": "DE", "state": "SH", "display_address": ["Dorfstr. 26", "22113 Oststeinbek-Havighorst", "Germany"]}, "phone": "+49407399494", "display_phone": "+49 40 7399494", "distance": 4957.499221001913}, {"id": "WydBmafvTE05XL8cvXh1tg", "alias": "burger-king-hamburg-20", "name": "Burger King", "image_url": "https://s3-media4.fl.yelpcdn.com/bphoto/V3cb0OD0lYxuwjOswhJ4DA/o.jpg", "is_closed": false, "url": "https://www.yelp.com/biz/burger-king-hamburg-20?adjust_creative=hBJOknVQJ58S5goQyjmwRw&utm_campaign=yelp_api_v3&utm_medium=api_v3_business_search&utm_source=hBJOknVQJ58S5goQyjmwRw", "review_count": 21, "categories": [{"alias": "burgers", "title": "Burgers"}, {"alias": "hotdogs", "title": "Fast Food"}], "rating": 2.5, "coordinates": {"latitude": 53.5139571611171, "longitude": 10.1691299087044}, "transactions": [], "price": "\u20ac\u20ac", "location": {"address1": "Reinbeker Redder 2", "address2": "", "address3": "", "city": "Hamburg", "zip_code": "21031", "country": "DE", "state": "HH", "display_address": ["Reinbeker Redder 2", "21031 Hamburg", "Germany"]}, "phone": "+494041092480", "display_phone": "+49 40 41092480", "distance": 3776.6037747319306}]