[{"id": "8XSZziK-2FuaItksHhgwUw", "alias": "duckdalben-international-seamens-club-hamburg", "name": "Duckdalben International Seamen's Club", "image_url": "https://s3-media1.fl.yelpcdn.com/bphoto/ilV-Z3ZAV0trBqoRpUoz7w/o.jpg", "is_closed": false, "url": "https://www.yelp.com/biz/duckdalben-international-seamens-club-hamburg?adjust_creative=hBJOknVQJ58S5goQyjmwRw&utm_campaign=yelp_api_v3&utm_medium=api_v3_business_search&utm_source=hBJOknVQJ58S5goQyjmwRw", "review_count": 12, "categories": [{"alias": "cafes", "title": "Cafes"}, {"alias": "religiousorgs", "title": "Religious Organizations"}, {"alias": "social_clubs", "title": "Social Clubs"}], "rating": 5.0, "coordinates": {"latitude": 53.52042, "longitude": 9.9213799}, "transactions": [], "price": "\u20ac", "location": {"address1": "Terminal Waltershof-Freihafen", "address2": "Zellmannstr. 16", "address3": null, "city": "Hamburg", "zip_code": "21129", "country": "DE", "state": "HH", "display_address": ["Terminal Waltershof-Freihafen", "Zellmannstr. 16", "21129 Hamburg", "Germany"]}, "phone": "+49407401661", "display_phone": "+49 40 7401661", "distance": 4122.479940508342}, {"id": "yI3Dc37NudFTaMcqTnTc1Q", "alias": "restaurant-zum-storchennest-hamburg", "name": "Restaurant Zum Storchennest", "image_url": "https://s3-media3.fl.yelpcdn.com/bphoto/p2iS9Ap2W5GOhaXOUPJMNg/o.jpg", "is_closed": false, "url": "https://www.yelp.com/biz/restaurant-zum-storchennest-hamburg?adjust_creative=hBJOknVQJ58S5goQyjmwRw&utm_campaign=yelp_api_v3&utm_medium=api_v3_business_search&utm_source=hBJOknVQJ58S5goQyjmwRw", "review_count": 12, "categories": [{"alias": "seafood", "title": "Seafood"}], "rating": 5.0, "coordinates": {"latitude": 53.5202, "longitude": 9.88556}, "transactions": [], "price": "\u20ac\u20ac\u20ac", "location": {"address1": "Osterfelddeich 2", "address2": null, "address3": null, "city": "Hamburg", "zip_code": "21129", "country": "DE", "state": "HH", "display_address": ["Osterfelddeich 2", "21129 Hamburg", "Germany"]}, "phone": "+49407426850", "display_phone": "+49 40 7426850", "distance": 4191.53751946208}, {"id": "VmKHDB9yn_W5vXAI13Ojkw", "alias": "k\u00e4rntner-h\u00fctte-hamburg", "name": "K\u00e4rntner H\u00fctte", "image_url": "https://s3-media3.fl.yelpcdn.com/bphoto/VDOi8qVRnDJjkBlhEDvxnQ/o.jpg", "is_closed": false, "url": "https://www.yelp.com/biz/k%C3%A4rntner-h%C3%BCtte-hamburg?adjust_creative=hBJOknVQJ58S5goQyjmwRw&utm_campaign=yelp_api_v3&utm_medium=api_v3_business_search&utm_source=hBJOknVQJ58S5goQyjmwRw", "review_count": 15, "categories": [{"alias": "german", "title": "German"}, {"alias": "austrian", "title": "Austrian"}], "rating": 3.5, "coordinates": {"latitude": 53.47016, "longitude": 9.90457052513125}, "transactions": [], "price": "\u20ac\u20ac", "location": {"address1": "Cuxhavener Str. 55 c", "address2": null, "address3": null, "city": "Hamburg", "zip_code": "21149", "country": "DE", "state": "HH", "display_address": ["Cuxhavener Str. 55 c", "21149 Hamburg", "Germany"]}, "phone": "+49407964622", "display_phone": "+49 40 7964622", "distance": 1610.370838383627}, {"id": "viU8W58X8U7CIk18WRp8IQ", "alias": "taverna-acchillion-zum-dorfkrug-hamburg", "name": "Taverna Acchillion - Zum Dorfkrug", "image_url": "https://s3-media2.fl.yelpcdn.com/bphoto/b-aqA76Y4d8LlXd8HqhBkA/o.jpg", "is_closed": false, "url": "https://www.yelp.com/biz/taverna-acchillion-zum-dorfkrug-hamburg?adjust_creative=hBJOknVQJ58S5goQyjmwRw&utm_campaign=yelp_api_v3&utm_medium=api_v3_business_search&utm_source=hBJOknVQJ58S5goQyjmwRw", "review_count": 7, "categories": [{"alias": "greek", "title": "Greek"}], "rating": 4.5, "coordinates": {"latitude": 53.47825, "longitude": 9.8878}, "transactions": [], "price": "\u20ac\u20ac", "location": {"address1": "Neuwiedenthaler Str. 133", "address2": "", "address3": "", "city": "Hamburg", "zip_code": "21147", "country": "DE", "state": "HH", "display_address": ["Neuwiedenthaler Str. 133", "21147 Hamburg", "Germany"]}, "phone": "+49407962103", "display_phone": "+49 40 7962103", "distance": 1416.026690796686}, {"id": "KaMlL3EyCdcSzkDAfVIt-g", "alias": "landhaus-j\u00e4gerhof-hamburg-2", "name": "Landhaus J\u00e4gerhof", "image_url": "https://s3-media2.fl.yelpcdn.com/bphoto/FqOyL1xyztMlYzIiFbxi7Q/o.jpg", "is_closed": false, "url": "https://www.yelp.com/biz/landhaus-j%C3%A4gerhof-hamburg-2?adjust_creative=hBJOknVQJ58S5goQyjmwRw&utm_campaign=yelp_api_v3&utm_medium=api_v3_business_search&utm_source=hBJOknVQJ58S5goQyjmwRw", "review_count": 3, "categories": [{"alias": "german", "title": "German"}, {"alias": "bowling", "title": "Bowling"}], "rating": 3.5, "coordinates": {"latitude": 53.47019, "longitude": 9.88699}, "transactions": [], "location": {"address1": "Ehestorfer Heuweg 12 - 14", "address2": null, "address3": null, "city": "Hamburg", "zip_code": "21149", "country": "DE", "state": "HH", "display_address": ["Ehestorfer Heuweg 12 - 14", "21149 Hamburg", "Germany"]}, "phone": "+49407962015", "display_phone": "+49 40 7962015", "distance": 2053.827506932309}, {"id": "ykRtViJfcQxt1VKtK-ojcg", "alias": "wildpark-restaurant-rosengarten", "name": "Wildpark-Restaurant", "image_url": "https://s3-media3.fl.yelpcdn.com/bphoto/BPB2FUuYfd0v8KyznZ31YQ/o.jpg", "is_closed": false, "url": "https://www.yelp.com/biz/wildpark-restaurant-rosengarten?adjust_creative=hBJOknVQJ58S5goQyjmwRw&utm_campaign=yelp_api_v3&utm_medium=api_v3_business_search&utm_source=hBJOknVQJ58S5goQyjmwRw", "review_count": 6, "categories": [{"alias": "german", "title": "German"}], "rating": 3.5, "coordinates": {"latitude": 53.4415452, "longitude": 9.8886414}, "transactions": [], "price": "\u20ac\u20ac", "location": {"address1": "Am Wildpark 1", "address2": null, "address3": "", "city": "Rosengarten", "zip_code": "21224", "country": "DE", "state": "BW", "display_address": ["Am Wildpark 1", "21224 Rosengarten", "Germany"]}, "phone": "+4940819774740", "display_phone": "+49 40 819774740", "distance": 4905.2097084204}, {"id": "kfGyGne8Qn3mxvhXHzMIyQ", "alias": "burger-king-hamburg-3", "name": "Burger King", "image_url": "https://s3-media2.fl.yelpcdn.com/bphoto/vlyYJMsm8pyi6cVRGoOL9g/o.jpg", "is_closed": false, "url": "https://www.yelp.com/biz/burger-king-hamburg-3?adjust_creative=hBJOknVQJ58S5goQyjmwRw&utm_campaign=yelp_api_v3&utm_medium=api_v3_business_search&utm_source=hBJOknVQJ58S5goQyjmwRw", "review_count": 14, "categories": [{"alias": "hotdogs", "title": "Fast Food"}, {"alias": "burgers", "title": "Burgers"}], "rating": 3.0, "coordinates": {"latitude": 53.471143, "longitude": 9.922511}, "transactions": [], "price": "\u20ac\u20ac", "location": {"address1": "Stader Str. 302", "address2": "", "address3": null, "city": "Hamburg", "zip_code": "21075", "country": "DE", "state": "HH", "display_address": ["Stader Str. 302", "21075 Hamburg", "Germany"]}, "phone": "+494079143649", "display_phone": "+49 40 79143649", "distance": 1837.3496376554342}, {"id": "_7drLx2S3W9MRaSGq7I5og", "alias": "grando-sukredo-hamburg", "name": "Grando Sukredo", "image_url": "https://s3-media2.fl.yelpcdn.com/bphoto/3NfZ11_c5hbVZpK9SfdssQ/o.jpg", "is_closed": false, "url": "https://www.yelp.com/biz/grando-sukredo-hamburg?adjust_creative=hBJOknVQJ58S5goQyjmwRw&utm_campaign=yelp_api_v3&utm_medium=api_v3_business_search&utm_source=hBJOknVQJ58S5goQyjmwRw", "review_count": 17, "categories": [{"alias": "steak", "title": "Steakhouses"}], "rating": 4.5, "coordinates": {"latitude": 53.46093, "longitude": 9.89245}, "transactions": [], "price": "\u20ac\u20ac", "location": {"address1": "Ehestorfer Heuweg 89", "address2": null, "address3": null, "city": "Hamburg", "zip_code": "21149", "country": "DE", "state": "HH", "display_address": ["Ehestorfer Heuweg 89", "21149 Hamburg", "Germany"]}, "phone": "+494061193643", "display_phone": "+49 40 61193643", "distance": 2784.8726626795515}, {"id": "_BNYVKl7NdOIzbpEfeFD0Q", "alias": "mundfein-pizzawerkstatt-hamburg-2", "name": "Mundfein Pizzawerkstatt", "image_url": "https://s3-media2.fl.yelpcdn.com/bphoto/V6jQeQHP487aHvucKn_zzg/o.jpg", "is_closed": false, "url": "https://www.yelp.com/biz/mundfein-pizzawerkstatt-hamburg-2?adjust_creative=hBJOknVQJ58S5goQyjmwRw&utm_campaign=yelp_api_v3&utm_medium=api_v3_business_search&utm_source=hBJOknVQJ58S5goQyjmwRw", "review_count": 8, "categories": [{"alias": "pizza", "title": "Pizza"}], "rating": 4.0, "coordinates": {"latitude": 53.4721624, "longitude": 9.8875506}, "transactions": [], "price": "\u20ac\u20ac\u20ac", "location": {"address1": "Cuxhavener Str. 152", "address2": null, "address3": null, "city": "Hamburg", "zip_code": "21149", "country": "DE", "state": "HH", "display_address": ["Cuxhavener Str. 152", "21149 Hamburg", "Germany"]}, "phone": "+494079752777", "display_phone": "+49 40 79752777", "distance": 1862.6294850197673}, {"id": "RUvELTNuACC7Q89V3-0QbQ", "alias": "mcdonalds-hamburg-10", "name": "McDonald's", "image_url": "https://s3-media2.fl.yelpcdn.com/bphoto/fM32vOY4bl5EwLtw0hyMVw/o.jpg", "is_closed": false, "url": "https://www.yelp.com/biz/mcdonalds-hamburg-10?adjust_creative=hBJOknVQJ58S5goQyjmwRw&utm_campaign=yelp_api_v3&utm_medium=api_v3_business_search&utm_source=hBJOknVQJ58S5goQyjmwRw", "review_count": 7, "categories": [{"alias": "hotdogs", "title": "Fast Food"}, {"alias": "burgers", "title": "Burgers"}], "rating": 2.5, "coordinates": {"latitude": 53.4709864343674, "longitude": 9.92870281507347}, "transactions": [], "price": "\u20ac\u20ac", "location": {"address1": "Stader Str. 256", "address2": "", "address3": "", "city": "Hamburg", "zip_code": "21075", "country": "DE", "state": "HH", "display_address": ["Stader Str. 256", "21075 Hamburg", "Germany"]}, "phone": "+49407923009", "display_phone": "+49 40 7923009", "distance": 2114.1769654249447}, {"id": "l2udFcs0_5l2JWJtUnTwRQ", "alias": "meyers-linde-rosengarten", "name": "Meyer's Linde", "image_url": "https://s3-media3.fl.yelpcdn.com/bphoto/1vWS6t0s9piDkVllXqsOVA/o.jpg", "is_closed": false, "url": "https://www.yelp.com/biz/meyers-linde-rosengarten?adjust_creative=hBJOknVQJ58S5goQyjmwRw&utm_campaign=yelp_api_v3&utm_medium=api_v3_business_search&utm_source=hBJOknVQJ58S5goQyjmwRw", "review_count": 4, "categories": [{"alias": "german", "title": "German"}], "rating": 3.5, "coordinates": {"latitude": 53.4441237, "longitude": 9.9050738}, "transactions": [], "location": {"address1": "Harburger Stadtweg 2", "address2": "", "address3": "", "city": "Rosengarten", "zip_code": "21224", "country": "DE", "state": "NI", "display_address": ["Harburger Stadtweg 2", "21224 Rosengarten", "Germany"]}, "phone": "+49407906236", "display_phone": "+49 40 7906236", "distance": 4501.761849245724}, {"id": "Cf-sLIwvllFcN6QwXUH3MA", "alias": "hotel-majest\u00e4tische-aussicht-restaurant-pegasos-hamburg", "name": "Hotel Majest\u00e4tische Aussicht Restaurant Pegasos", "image_url": "https://s3-media3.fl.yelpcdn.com/bphoto/_JvVM76k2iNEhBJ4c85Vrg/o.jpg", "is_closed": false, "url": "https://www.yelp.com/biz/hotel-majest%C3%A4tische-aussicht-restaurant-pegasos-hamburg?adjust_creative=hBJOknVQJ58S5goQyjmwRw&utm_campaign=yelp_api_v3&utm_medium=api_v3_business_search&utm_source=hBJOknVQJ58S5goQyjmwRw", "review_count": 13, "categories": [{"alias": "hotels", "title": "Hotels"}, {"alias": "restaurants", "title": "Restaurants"}], "rating": 4.0, "coordinates": {"latitude": 53.4531, "longitude": 9.92459}, "transactions": [], "price": "\u20ac\u20ac\u20ac", "location": {"address1": "Ehestorfer Weg 215", "address2": null, "address3": null, "city": "Hamburg", "zip_code": "21075", "country": "DE", "state": "HH", "display_address": ["Ehestorfer Weg 215", "21075 Hamburg", "Germany"]}, "phone": "+49407906190", "display_phone": "+49 40 7906190", "distance": 3703.8782270508723}]