[{"id": "uwN7W2qQoeTgwR2RtbzE3Q", "alias": "kuhberg-hamburg-2", "name": "Kuhberg", "image_url": "https://s3-media1.fl.yelpcdn.com/bphoto/ocOTFIWwUY2xlqhKaeXctw/o.jpg", "is_closed": false, "url": "https://www.yelp.com/biz/kuhberg-hamburg-2?adjust_creative=hBJOknVQJ58S5goQyjmwRw&utm_campaign=yelp_api_v3&utm_medium=api_v3_business_search&utm_source=hBJOknVQJ58S5goQyjmwRw", "review_count": 7, "categories": [{"alias": "international", "title": "International"}], "rating": 5.0, "coordinates": {"latitude": 53.4879359, "longitude": 10.2114569}, "transactions": [], "price": "\u20ac\u20ac", "location": {"address1": "Wiebekingweg 2a", "address2": null, "address3": null, "city": "Hamburg", "zip_code": "21029", "country": "DE", "state": "HH", "display_address": ["Wiebekingweg 2a", "21029 Hamburg", "Germany"]}, "phone": "+494072698006", "display_phone": "+49 40 72698006", "distance": 710.966242263068}, {"id": "eB5ZgXwqX4OjH3PjvcVqqw", "alias": "trattoria-olivo-hamburg", "name": "Trattoria Olivo", "image_url": "https://s3-media3.fl.yelpcdn.com/bphoto/azb16-pwIH6-s5zGK2CfIg/o.jpg", "is_closed": false, "url": "https://www.yelp.com/biz/trattoria-olivo-hamburg?adjust_creative=hBJOknVQJ58S5goQyjmwRw&utm_campaign=yelp_api_v3&utm_medium=api_v3_business_search&utm_source=hBJOknVQJ58S5goQyjmwRw", "review_count": 12, "categories": [{"alias": "italian", "title": "Italian"}], "rating": 4.5, "coordinates": {"latitude": 53.48585, "longitude": 10.2173}, "transactions": [], "price": "\u20ac\u20ac", "location": {"address1": "Am Brink 10", "address2": "", "address3": "", "city": "Hamburg", "zip_code": "21029", "country": "DE", "state": "HH", "display_address": ["Am Brink 10", "21029 Hamburg", "Germany"]}, "phone": "+494072106745", "display_phone": "+49 40 72106745", "distance": 766.1548446751859}, {"id": "aAKi6ncepOps5ayCZfZM8A", "alias": "casareccio-hamburg", "name": "Casareccio", "image_url": "https://s3-media2.fl.yelpcdn.com/bphoto/voClR3mHAFWPNNUol_xMqA/o.jpg", "is_closed": false, "url": "https://www.yelp.com/biz/casareccio-hamburg?adjust_creative=hBJOknVQJ58S5goQyjmwRw&utm_campaign=yelp_api_v3&utm_medium=api_v3_business_search&utm_source=hBJOknVQJ58S5goQyjmwRw", "review_count": 13, "categories": [{"alias": "italian", "title": "Italian"}], "rating": 4.5, "coordinates": {"latitude": 53.4955781280715, "longitude": 10.2065417837382}, "transactions": [], "price": "\u20ac\u20ac", "location": {"address1": "Lohbr\u00fcgger Markt 1", "address2": "", "address3": "", "city": "Hamburg", "zip_code": "21031", "country": "DE", "state": "HH", "display_address": ["Lohbr\u00fcgger Markt 1", "21031 Hamburg", "Germany"]}, "phone": "+494033986569", "display_phone": "+49 40 33986569", "distance": 1519.0296312779924}, {"id": "Lz0Ub6tuzImPgQJZCLv8qA", "alias": "pamukkale-grill-und-backshop-hamburg", "name": "Pamukkale Grill & Backshop", "image_url": "https://s3-media3.fl.yelpcdn.com/bphoto/wosuymQ8MYSdQR0IoqmTfw/o.jpg", "is_closed": false, "url": "https://www.yelp.com/biz/pamukkale-grill-und-backshop-hamburg?adjust_creative=hBJOknVQJ58S5goQyjmwRw&utm_campaign=yelp_api_v3&utm_medium=api_v3_business_search&utm_source=hBJOknVQJ58S5goQyjmwRw", "review_count": 16, "categories": [{"alias": "kebab", "title": "Kebab"}, {"alias": "backshop", "title": "Backshop"}], "rating": 4.5, "coordinates": {"latitude": 53.48945, "longitude": 10.20707}, "transactions": [], "price": "\u20ac", "location": {"address1": "Weidenbaumsweg 14", "address2": "", "address3": "S-Bahnhof Bergedorf, Ausgang Johann-Meyer Stra\u00dfe", "city": "Hamburg", "zip_code": "21029", "country": "DE", "state": "HH", "display_address": ["Weidenbaumsweg 14", "S-Bahnhof Bergedorf, Ausgang Johann-Meyer Stra\u00dfe", "21029 Hamburg", "Germany"]}, "phone": "", "display_phone": "", "distance": 790.4227483213155}, {"id": "VL0pEEHT9ogmfMwXwD-5zw", "alias": "achilleon-hamburg", "name": "Achilleon", "image_url": "https://s3-media3.fl.yelpcdn.com/bphoto/DS-m2w61hweUbTPfi9EdrA/o.jpg", "is_closed": false, "url": "https://www.yelp.com/biz/achilleon-hamburg?adjust_creative=hBJOknVQJ58S5goQyjmwRw&utm_campaign=yelp_api_v3&utm_medium=api_v3_business_search&utm_source=hBJOknVQJ58S5goQyjmwRw", "review_count": 30, "categories": [{"alias": "greek", "title": "Greek"}], "rating": 4.5, "coordinates": {"latitude": 53.489276, "longitude": 10.2260726}, "transactions": [], "price": "\u20ac\u20ac", "location": {"address1": "Holtenklinker Str. 74", "address2": "", "address3": null, "city": "Hamburg", "zip_code": "21029", "country": "DE", "state": "HH", "display_address": ["Holtenklinker Str. 74", "21029 Hamburg", "Germany"]}, "phone": "+494072693667", "display_phone": "+49 40 72693667", "distance": 1461.7780595378406}, {"id": "-y32zu4-y6NOWlPed6dNIQ", "alias": "forsthaus-bergedorf-hamburg", "name": "Forsthaus Bergedorf", "image_url": "https://s3-media3.fl.yelpcdn.com/bphoto/Im-8jxv5Afs-3THncFXKug/o.jpg", "is_closed": false, "url": "https://www.yelp.com/biz/forsthaus-bergedorf-hamburg?adjust_creative=hBJOknVQJ58S5goQyjmwRw&utm_campaign=yelp_api_v3&utm_medium=api_v3_business_search&utm_source=hBJOknVQJ58S5goQyjmwRw", "review_count": 13, "categories": [{"alias": "northerngerman", "title": "Northern German"}], "rating": 4.0, "coordinates": {"latitude": 53.4924, "longitude": 10.2267}, "transactions": [], "price": "\u20ac\u20ac\u20ac", "location": {"address1": "Reinbeker Weg 77", "address2": null, "address3": null, "city": "Hamburg", "zip_code": "21029", "country": "DE", "state": "HH", "display_address": ["Reinbeker Weg 77", "21029 Hamburg", "Germany"]}, "phone": "+49407258890", "display_phone": "+49 40 7258890", "distance": 1710.7863677332325}, {"id": "QmjFGY9B_GncEmCnrzLhNQ", "alias": "the-burger-lab-hamburg-2", "name": "The Burger Lab", "image_url": "https://s3-media3.fl.yelpcdn.com/bphoto/bu7B2fAQiHP3j0qNR2OqVg/o.jpg", "is_closed": false, "url": "https://www.yelp.com/biz/the-burger-lab-hamburg-2?adjust_creative=hBJOknVQJ58S5goQyjmwRw&utm_campaign=yelp_api_v3&utm_medium=api_v3_business_search&utm_source=hBJOknVQJ58S5goQyjmwRw", "review_count": 10, "categories": [{"alias": "burgers", "title": "Burgers"}], "rating": 4.5, "coordinates": {"latitude": 53.4906929842145, "longitude": 10.2109466396525}, "transactions": [], "price": "\u20ac\u20ac", "location": {"address1": "Ernst-Mantius-Str. 10", "address2": "", "address3": null, "city": "Hamburg", "zip_code": "21029", "country": "DE", "state": "HH", "display_address": ["Ernst-Mantius-Str. 10", "21029 Hamburg", "Germany"]}, "phone": "+494072378210", "display_phone": "+49 40 72378210", "distance": 996.5350329016002}, {"id": "iDbFa_QS9dWsxaVWCZjy8Q", "alias": "santa-lucia-hamburg-2", "name": "Santa Lucia", "image_url": "https://s3-media1.fl.yelpcdn.com/bphoto/eSlgAEYc9SSgS5aL19TvgQ/o.jpg", "is_closed": false, "url": "https://www.yelp.com/biz/santa-lucia-hamburg-2?adjust_creative=hBJOknVQJ58S5goQyjmwRw&utm_campaign=yelp_api_v3&utm_medium=api_v3_business_search&utm_source=hBJOknVQJ58S5goQyjmwRw", "review_count": 6, "categories": [{"alias": "italian", "title": "Italian"}, {"alias": "pizza", "title": "Pizza"}], "rating": 4.0, "coordinates": {"latitude": 53.487704, "longitude": 10.214498}, "transactions": [], "price": "\u20ac\u20ac", "location": {"address1": "Bergedorfer Schlo\u00dfstr. 12", "address2": null, "address3": null, "city": "Hamburg", "zip_code": "21029", "country": "DE", "state": "HH", "display_address": ["Bergedorfer Schlo\u00dfstr. 12", "21029 Hamburg", "Germany"]}, "phone": "+494079419349", "display_phone": "+49 40 79419349", "distance": 781.71921618356}, {"id": "Zz4ls--O20WxfSrE-Mardg", "alias": "sushi-und-asia-lounge-hamburg-2", "name": "Sushi & Asia Lounge", "image_url": "https://s3-media3.fl.yelpcdn.com/bphoto/8F0iJS0GH_Mm4E1G8XrRCA/o.jpg", "is_closed": false, "url": "https://www.yelp.com/biz/sushi-und-asia-lounge-hamburg-2?adjust_creative=hBJOknVQJ58S5goQyjmwRw&utm_campaign=yelp_api_v3&utm_medium=api_v3_business_search&utm_source=hBJOknVQJ58S5goQyjmwRw", "review_count": 14, "categories": [{"alias": "sushi", "title": "Sushi Bars"}, {"alias": "fooddeliveryservices", "title": "Food Delivery Services"}, {"alias": "panasian", "title": "Pan Asian"}], "rating": 4.0, "coordinates": {"latitude": 53.4859099, "longitude": 10.21034}, "transactions": [], "price": "\u20ac\u20ac", "location": {"address1": "Vierlandenstr. 31", "address2": "", "address3": "", "city": "Hamburg", "zip_code": "21029", "country": "DE", "state": "HH", "display_address": ["Vierlandenstr. 31", "21029 Hamburg", "Germany"]}, "phone": "+494032036711", "display_phone": "+49 40 32036711", "distance": 476.1386348156067}, {"id": "nPPmY-N0ALc-bfAz7huaQg", "alias": "huang-hamburg-5", "name": "Huang", "image_url": "https://s3-media2.fl.yelpcdn.com/bphoto/sPMm3R_AN9zYu7K7ptfoeQ/o.jpg", "is_closed": false, "url": "https://www.yelp.com/biz/huang-hamburg-5?adjust_creative=hBJOknVQJ58S5goQyjmwRw&utm_campaign=yelp_api_v3&utm_medium=api_v3_business_search&utm_source=hBJOknVQJ58S5goQyjmwRw", "review_count": 15, "categories": [{"alias": "chinese", "title": "Chinese"}, {"alias": "panasian", "title": "Pan Asian"}], "rating": 4.0, "coordinates": {"latitude": 53.491429, "longitude": 10.207438}, "transactions": [], "price": "\u20ac", "location": {"address1": "Alte Holstenstr. 42", "address2": "", "address3": "", "city": "Hamburg", "zip_code": "21031", "country": "DE", "state": "HH", "display_address": ["Alte Holstenstr. 42", "21031 Hamburg", "Germany"]}, "phone": "+494032513477", "display_phone": "+49 40 32513477", "distance": 1057.631879792553}, {"id": "-ihNFjY9pJ247MVW51LvEQ", "alias": "sushi-f\u00fcr-hamburg-hamburg", "name": "Sushi f\u00fcr Hamburg", "image_url": "https://s3-media2.fl.yelpcdn.com/bphoto/TIW2Y3kO9P52-2lQFrCqtA/o.jpg", "is_closed": false, "url": "https://www.yelp.com/biz/sushi-f%C3%BCr-hamburg-hamburg?adjust_creative=hBJOknVQJ58S5goQyjmwRw&utm_campaign=yelp_api_v3&utm_medium=api_v3_business_search&utm_source=hBJOknVQJ58S5goQyjmwRw", "review_count": 5, "categories": [{"alias": "sushi", "title": "Sushi Bars"}, {"alias": "buffets", "title": "Buffets"}], "rating": 4.5, "coordinates": {"latitude": 53.48534, "longitude": 10.19983}, "transactions": [], "price": "\u20ac\u20ac", "location": {"address1": "Am G\u00fcterbahnhof 8", "address2": "", "address3": "", "city": "Hamburg", "zip_code": "21035", "country": "DE", "state": "HH", "display_address": ["Am G\u00fcterbahnhof 8", "21035 Hamburg", "Germany"]}, "phone": "+494072545474", "display_phone": "+49 40 72545474", "distance": 658.3678114484451}, {"id": "5N_GFt0eu3sCXEbvuWF_xA", "alias": "fusion-hamburg-2", "name": "Fusion", "image_url": "https://s3-media4.fl.yelpcdn.com/bphoto/hVwUIu99nh1H2LrCTk-e7g/o.jpg", "is_closed": false, "url": "https://www.yelp.com/biz/fusion-hamburg-2?adjust_creative=hBJOknVQJ58S5goQyjmwRw&utm_campaign=yelp_api_v3&utm_medium=api_v3_business_search&utm_source=hBJOknVQJ58S5goQyjmwRw", "review_count": 16, "categories": [{"alias": "steak", "title": "Steakhouses"}], "rating": 4.5, "coordinates": {"latitude": 53.50163, "longitude": 10.20584}, "transactions": [], "price": "\u20ac\u20ac", "location": {"address1": "Leuschnerstr. 72", "address2": "", "address3": "", "city": "Hamburg", "zip_code": "21031", "country": "DE", "state": "HH", "display_address": ["Leuschnerstr. 72", "21031 Hamburg", "Germany"]}, "phone": "+494038633711", "display_phone": "+49 40 38633711", "distance": 2194.3715849457903}, {"id": "_2qYJYNRbeHNqB6W6ALWxg", "alias": "lola-bar-hamburg", "name": "Lola Bar", "image_url": "https://s3-media2.fl.yelpcdn.com/bphoto/N58CKa2IAME-PKNivAAhDQ/o.jpg", "is_closed": false, "url": "https://www.yelp.com/biz/lola-bar-hamburg?adjust_creative=hBJOknVQJ58S5goQyjmwRw&utm_campaign=yelp_api_v3&utm_medium=api_v3_business_search&utm_source=hBJOknVQJ58S5goQyjmwRw", "review_count": 4, "categories": [{"alias": "bars", "title": "Bars"}, {"alias": "modern_european", "title": "Modern European"}], "rating": 4.5, "coordinates": {"latitude": 53.49544, "longitude": 10.20572}, "transactions": [], "price": "\u20ac\u20ac", "location": {"address1": "Lohbr\u00fcgger Landstr. 8", "address2": null, "address3": null, "city": "Hamburg", "zip_code": "21031", "country": "DE", "state": "HH", "display_address": ["Lohbr\u00fcgger Landstr. 8", "21031 Hamburg", "Germany"]}, "phone": "+49407249663", "display_phone": "+49 40 7249663", "distance": 1502.4370509231971}, {"id": "Zv1LeZIpUf-fgVDZnfsTyg", "alias": "vapiano-hamburg-11", "name": "Vapiano", "image_url": "https://s3-media2.fl.yelpcdn.com/bphoto/yjG-y_zly9_YaRjRwLAHOw/o.jpg", "is_closed": false, "url": "https://www.yelp.com/biz/vapiano-hamburg-11?adjust_creative=hBJOknVQJ58S5goQyjmwRw&utm_campaign=yelp_api_v3&utm_medium=api_v3_business_search&utm_source=hBJOknVQJ58S5goQyjmwRw", "review_count": 5, "categories": [{"alias": "italian", "title": "Italian"}], "rating": 3.0, "coordinates": {"latitude": 53.4865151843347, "longitude": 10.213736811045}, "transactions": [], "price": "\u20ac\u20ac", "location": {"address1": "Bergedorfer Str. 131 - 135", "address2": "", "address3": null, "city": "Hamburg", "zip_code": "21029", "country": "DE", "state": "HH", "display_address": ["Bergedorfer Str. 131 - 135", "21029 Hamburg", "Germany"]}, "phone": "+4940609436970", "display_phone": "+49 40 609436970", "distance": 645.3807991084193}, {"id": "yY91P0JuKq9Q6rISo-gbHQ", "alias": "porter-house-hamburg", "name": "Porter House", "image_url": "https://s3-media2.fl.yelpcdn.com/bphoto/FvG79MEEOgZROLC9IthiMA/o.jpg", "is_closed": false, "url": "https://www.yelp.com/biz/porter-house-hamburg?adjust_creative=hBJOknVQJ58S5goQyjmwRw&utm_campaign=yelp_api_v3&utm_medium=api_v3_business_search&utm_source=hBJOknVQJ58S5goQyjmwRw", "review_count": 6, "categories": [{"alias": "steak", "title": "Steakhouses"}, {"alias": "serbocroatian", "title": "Serbo Croatian"}], "rating": 4.5, "coordinates": {"latitude": 53.4651, "longitude": 10.2016}, "transactions": [], "price": "\u20ac\u20ac", "location": {"address1": "Curslacker Deich 375", "address2": null, "address3": null, "city": "Hamburg", "zip_code": "21039", "country": "DE", "state": "HH", "display_address": ["Curslacker Deich 375", "21039 Hamburg", "Germany"]}, "phone": "+49403609440", "display_phone": "+49 40 3609440", "distance": 1915.7122208898872}, {"id": "PdMnHFRCwzO1PGqvfCpnrg", "alias": "mensa-bergedorf-hamburg", "name": "Mensa Bergedorf", "image_url": "https://s3-media3.fl.yelpcdn.com/bphoto/A_DvNmVuKDG-fakHiga7pA/o.jpg", "is_closed": false, "url": "https://www.yelp.com/biz/mensa-bergedorf-hamburg?adjust_creative=hBJOknVQJ58S5goQyjmwRw&utm_campaign=yelp_api_v3&utm_medium=api_v3_business_search&utm_source=hBJOknVQJ58S5goQyjmwRw", "review_count": 3, "categories": [{"alias": "canteen", "title": "Canteen"}], "rating": 5.0, "coordinates": {"latitude": 53.493, "longitude": 10.1984}, "transactions": [], "location": {"address1": "Ulmenliet 20", "address2": null, "address3": null, "city": "Hamburg", "zip_code": "21033", "country": "DE", "state": "HH", "display_address": ["Ulmenliet 20", "21033 Hamburg", "Germany"]}, "phone": "+49407217633", "display_phone": "+49 40 7217633", "distance": 1376.8560410595671}, {"id": "GK_fTWOJbRbQO30X1t58-A", "alias": "mahal-express-hamburg", "name": "Mahal Express", "image_url": "https://s3-media1.fl.yelpcdn.com/bphoto/5UNNy-7w_EtgWaXytdiYBw/o.jpg", "is_closed": false, "url": "https://www.yelp.com/biz/mahal-express-hamburg?adjust_creative=hBJOknVQJ58S5goQyjmwRw&utm_campaign=yelp_api_v3&utm_medium=api_v3_business_search&utm_source=hBJOknVQJ58S5goQyjmwRw", "review_count": 3, "categories": [{"alias": "indpak", "title": "Indian"}], "rating": 4.0, "coordinates": {"latitude": 53.4881883959455, "longitude": 10.2086662854583}, "transactions": [], "location": {"address1": "Weidenbaumsweg 21", "address2": "", "address3": "", "city": "Hamburg", "zip_code": "21029", "country": "DE", "state": "HH", "display_address": ["Weidenbaumsweg 21", "21029 Hamburg", "Germany"]}, "phone": "", "display_phone": "", "distance": 697.9207340036378}, {"id": "zonrbXJvqBtw1CA_5YMJRQ", "alias": "locanda-riva-hamburg-4", "name": "Locanda Riva", "image_url": "https://s3-media1.fl.yelpcdn.com/bphoto/tUbPNJc59zHLy3dPyExe4Q/o.jpg", "is_closed": false, "url": "https://www.yelp.com/biz/locanda-riva-hamburg-4?adjust_creative=hBJOknVQJ58S5goQyjmwRw&utm_campaign=yelp_api_v3&utm_medium=api_v3_business_search&utm_source=hBJOknVQJ58S5goQyjmwRw", "review_count": 9, "categories": [{"alias": "mediterranean", "title": "Mediterranean"}, {"alias": "italian", "title": "Italian"}], "rating": 4.0, "coordinates": {"latitude": 53.49331, "longitude": 10.21416}, "transactions": [], "price": "\u20ac\u20ac\u20ac", "location": {"address1": "Schillerufer 41", "address2": "", "address3": "", "city": "Hamburg", "zip_code": "21029", "country": "DE", "state": "HH", "display_address": ["Schillerufer 41", "21029 Hamburg", "Germany"]}, "phone": "+494075111933", "display_phone": "+49 40 75111933", "distance": 1334.081180812921}, {"id": "8RTFCEVFVel7jHWdyzyS7g", "alias": "ha-dang-dung-hamburg", "name": "Ha Dang Dung", "image_url": "https://s3-media3.fl.yelpcdn.com/bphoto/Badnhs7BNcNC3eSVURl_2A/o.jpg", "is_closed": false, "url": "https://www.yelp.com/biz/ha-dang-dung-hamburg?adjust_creative=hBJOknVQJ58S5goQyjmwRw&utm_campaign=yelp_api_v3&utm_medium=api_v3_business_search&utm_source=hBJOknVQJ58S5goQyjmwRw", "review_count": 1, "categories": [{"alias": "vietnamese", "title": "Vietnamese"}], "rating": 4.0, "coordinates": {"latitude": 53.486007, "longitude": 10.214888}, "transactions": [], "location": {"address1": "Bergedorfer Str 152", "address2": "", "address3": null, "city": "Hamburg", "zip_code": "21029", "country": "DE", "state": "HH", "display_address": ["Bergedorfer Str 152", "21029 Hamburg", "Germany"]}, "phone": "+494072105999", "display_phone": "+49 40 72105999", "distance": 654.5032549510219}, {"id": "zSJs6UlQpjoeyYtP0KmIXw", "alias": "sushibar-bergedorf-hamburg", "name": "sushibar bergedorf", "image_url": "https://s3-media4.fl.yelpcdn.com/bphoto/C8iFPvFJzRKix6tiM3SnOg/o.jpg", "is_closed": false, "url": "https://www.yelp.com/biz/sushibar-bergedorf-hamburg?adjust_creative=hBJOknVQJ58S5goQyjmwRw&utm_campaign=yelp_api_v3&utm_medium=api_v3_business_search&utm_source=hBJOknVQJ58S5goQyjmwRw", "review_count": 53, "categories": [{"alias": "sushi", "title": "Sushi Bars"}], "rating": 4.0, "coordinates": {"latitude": 53.48635, "longitude": 10.21301}, "transactions": [], "price": "\u20ac\u20ac", "location": {"address1": "Bergedorfer Str. 138", "address2": null, "address3": null, "city": "Hamburg", "zip_code": "21029", "country": "DE", "state": "HH", "display_address": ["Bergedorfer Str. 138", "21029 Hamburg", "Germany"]}, "phone": "+494018073686", "display_phone": "+49 40 18073686", "distance": 598.7539509301251}, {"id": "VYiOF0mjK_FuOVMWxSs-Ag", "alias": "fidelio-hamburg-2", "name": "Fidelio", "image_url": "https://s3-media2.fl.yelpcdn.com/bphoto/pKzIFFExzuRnpFGPCDJrUQ/o.jpg", "is_closed": false, "url": "https://www.yelp.com/biz/fidelio-hamburg-2?adjust_creative=hBJOknVQJ58S5goQyjmwRw&utm_campaign=yelp_api_v3&utm_medium=api_v3_business_search&utm_source=hBJOknVQJ58S5goQyjmwRw", "review_count": 29, "categories": [{"alias": "international", "title": "International"}], "rating": 3.5, "coordinates": {"latitude": 53.488404, "longitude": 10.2135165}, "transactions": [], "price": "\u20ac\u20ac", "location": {"address1": "Bergedorfer Schlo\u00dfstr. 15", "address2": "", "address3": "", "city": "Hamburg", "zip_code": "21029", "country": "DE", "state": "HH", "display_address": ["Bergedorfer Schlo\u00dfstr. 15", "21029 Hamburg", "Germany"]}, "phone": "+494072008855", "display_phone": "+49 40 72008855", "distance": 814.347313179003}, {"id": "wEtVg37Ypxat_mW1ZrRuWg", "alias": "dubrovnik-hamburg-5", "name": "Dubrovnik", "image_url": "https://s3-media4.fl.yelpcdn.com/bphoto/a1XRjKIcmaR6a1lQ3_mrvw/o.jpg", "is_closed": false, "url": "https://www.yelp.com/biz/dubrovnik-hamburg-5?adjust_creative=hBJOknVQJ58S5goQyjmwRw&utm_campaign=yelp_api_v3&utm_medium=api_v3_business_search&utm_source=hBJOknVQJ58S5goQyjmwRw", "review_count": 18, "categories": [{"alias": "serbocroatian", "title": "Serbo Croatian"}], "rating": 4.0, "coordinates": {"latitude": 53.4733, "longitude": 10.2299}, "transactions": [], "price": "\u20ac\u20ac", "location": {"address1": "Achterschlag 2", "address2": null, "address3": null, "city": "Hamburg", "zip_code": "21039", "country": "DE", "state": "HH", "display_address": ["Achterschlag 2", "21039 Hamburg", "Germany"]}, "phone": "+494087604024", "display_phone": "+49 40 87604024", "distance": 1752.678964297192}, {"id": "2owx8XU_Kh6NQYkWDCOHfA", "alias": "ristorante-mamma-mia-hamburg-5", "name": "Ristorante Mamma Mia", "image_url": "https://s3-media3.fl.yelpcdn.com/bphoto/64VOXDsDgkuWJbdgQROXFw/o.jpg", "is_closed": false, "url": "https://www.yelp.com/biz/ristorante-mamma-mia-hamburg-5?adjust_creative=hBJOknVQJ58S5goQyjmwRw&utm_campaign=yelp_api_v3&utm_medium=api_v3_business_search&utm_source=hBJOknVQJ58S5goQyjmwRw", "review_count": 2, "categories": [{"alias": "italian", "title": "Italian"}], "rating": 2.5, "coordinates": {"latitude": 53.4852198, "longitude": 10.1994549}, "transactions": [], "price": "\u20ac\u20ac\u20ac", "location": {"address1": "Am G\u00fcterbahnhof 17 e", "address2": "", "address3": "", "city": "Hamburg", "zip_code": "21035", "country": "DE", "state": "HH", "display_address": ["Am G\u00fcterbahnhof 17 e", "21035 Hamburg", "Germany"]}, "phone": "+494072697898", "display_phone": "+49 40 72697898", "distance": 658.8898643086727}, {"id": "ro0WL2LKDt9QzdE4QnuzoQ", "alias": "taverna-nostos-hamburg", "name": "Taverna Nostos", "image_url": "https://s3-media3.fl.yelpcdn.com/bphoto/txGbzBwUSbZ_yt_WEgWYFA/o.jpg", "is_closed": false, "url": "https://www.yelp.com/biz/taverna-nostos-hamburg?adjust_creative=hBJOknVQJ58S5goQyjmwRw&utm_campaign=yelp_api_v3&utm_medium=api_v3_business_search&utm_source=hBJOknVQJ58S5goQyjmwRw", "review_count": 12, "categories": [{"alias": "greek", "title": "Greek"}], "rating": 4.0, "coordinates": {"latitude": 53.4947, "longitude": 10.2062}, "transactions": [], "price": "\u20ac\u20ac", "location": {"address1": "Lohbr\u00fcgger Landstr. 1", "address2": null, "address3": null, "city": "Hamburg", "zip_code": "21031", "country": "DE", "state": "HH", "display_address": ["Lohbr\u00fcgger Landstr. 1", "21031 Hamburg", "Germany"]}, "phone": "+494072004128", "display_phone": "+49 40 72004128", "distance": 1422.9736074460416}, {"id": "hG3SYB9Q99Y9Y1nN7UqblQ", "alias": "caf\u00e9-chrysander-hamburg", "name": "Caf\u00e9 Chrysander", "image_url": "https://s3-media4.fl.yelpcdn.com/bphoto/noJgmaj6eeFrqPgtEZd5wg/o.jpg", "is_closed": false, "url": "https://www.yelp.com/biz/caf%C3%A9-chrysander-hamburg?adjust_creative=hBJOknVQJ58S5goQyjmwRw&utm_campaign=yelp_api_v3&utm_medium=api_v3_business_search&utm_source=hBJOknVQJ58S5goQyjmwRw", "review_count": 2, "categories": [{"alias": "cafes", "title": "Cafes"}], "rating": 4.5, "coordinates": {"latitude": 53.4895058007076, "longitude": 10.2154295946289}, "transactions": [], "price": "\u20ac", "location": {"address1": "Chrysanderstr. 61", "address2": "", "address3": null, "city": "Hamburg", "zip_code": "21029", "country": "DE", "state": "HH", "display_address": ["Chrysanderstr. 61", "21029 Hamburg", "Germany"]}, "phone": "+494038073657", "display_phone": "+49 40 38073657", "distance": 983.4171259600566}, {"id": "JfKWYXLZiYXl_51QhxdYaQ", "alias": "restaurant-bergedorfer-h\u00f6he-hamburg", "name": "Restaurant Bergedorfer H\u00f6he", "image_url": "https://s3-media1.fl.yelpcdn.com/bphoto/Yvbz2pxUkaT06u9zlRO1QA/o.jpg", "is_closed": false, "url": "https://www.yelp.com/biz/restaurant-bergedorfer-h%C3%B6he-hamburg?adjust_creative=hBJOknVQJ58S5goQyjmwRw&utm_campaign=yelp_api_v3&utm_medium=api_v3_business_search&utm_source=hBJOknVQJ58S5goQyjmwRw", "review_count": 2, "categories": [{"alias": "german", "title": "German"}], "rating": 4.5, "coordinates": {"latitude": 53.4922, "longitude": 10.2244}, "transactions": [], "price": "\u20ac\u20ac", "location": {"address1": "Reinbeker Weg 59", "address2": null, "address3": null, "city": "Hamburg", "zip_code": "21029", "country": "DE", "state": "HH", "display_address": ["Reinbeker Weg 59", "21029 Hamburg", "Germany"]}, "phone": "+494072004400", "display_phone": "+49 40 72004400", "distance": 1586.5053473371381}, {"id": "OKLnmkZ6bYNYDAEjW6U0Cw", "alias": "restaurant-bergers-hamburg", "name": "Restaurant Berger's", "image_url": "https://s3-media2.fl.yelpcdn.com/bphoto/RtOOYs_u28UvzhFIxydQkw/o.jpg", "is_closed": false, "url": "https://www.yelp.com/biz/restaurant-bergers-hamburg?adjust_creative=hBJOknVQJ58S5goQyjmwRw&utm_campaign=yelp_api_v3&utm_medium=api_v3_business_search&utm_source=hBJOknVQJ58S5goQyjmwRw", "review_count": 6, "categories": [{"alias": "mediterranean", "title": "Mediterranean"}], "rating": 4.0, "coordinates": {"latitude": 53.489514, "longitude": 10.209249}, "transactions": [], "price": "\u20ac\u20ac", "location": {"address1": "Serrahnstr. 2", "address2": "", "address3": null, "city": "Hamburg", "zip_code": "21029", "country": "DE", "state": "HH", "display_address": ["Serrahnstr. 2", "21029 Hamburg", "Germany"]}, "phone": "+494085405184", "display_phone": "+49 40 85405184", "distance": 848.5116019324586}, {"id": "mOPs94-ltSa41cqVn9hGIQ", "alias": "seemannsgarn-hamburg", "name": "Seemannsgarn", "image_url": "https://s3-media4.fl.yelpcdn.com/bphoto/8EiltmETvlISJppweu-R7g/o.jpg", "is_closed": false, "url": "https://www.yelp.com/biz/seemannsgarn-hamburg?adjust_creative=hBJOknVQJ58S5goQyjmwRw&utm_campaign=yelp_api_v3&utm_medium=api_v3_business_search&utm_source=hBJOknVQJ58S5goQyjmwRw", "review_count": 1, "categories": [{"alias": "cafes", "title": "Cafes"}, {"alias": "knittingsupplies", "title": "Knitting Supplies"}], "rating": 5.0, "coordinates": {"latitude": 53.49048, "longitude": 10.20915}, "transactions": [], "price": "\u20ac\u20ac", "location": {"address1": "Reetwerder 2", "address2": "", "address3": "", "city": "Hamburg", "zip_code": "21029", "country": "DE", "state": "HH", "display_address": ["Reetwerder 2", "21029 Hamburg", "Germany"]}, "phone": "+494063910220", "display_phone": "+49 40 63910220", "distance": 953.4348492260705}, {"id": "1mSvHvNrgw8QDONThwxEMQ", "alias": "jim-block-hamburg-9", "name": "Jim Block", "image_url": "https://s3-media3.fl.yelpcdn.com/bphoto/ohfrPAjAgTxff6V9arv1MA/o.jpg", "is_closed": false, "url": "https://www.yelp.com/biz/jim-block-hamburg-9?adjust_creative=hBJOknVQJ58S5goQyjmwRw&utm_campaign=yelp_api_v3&utm_medium=api_v3_business_search&utm_source=hBJOknVQJ58S5goQyjmwRw", "review_count": 98, "categories": [{"alias": "hotdogs", "title": "Fast Food"}, {"alias": "burgers", "title": "Burgers"}], "rating": 4.5, "coordinates": {"latitude": 53.4885266, "longitude": 10.2113464}, "transactions": [], "price": "\u20ac\u20ac", "location": {"address1": "Sachsentor 2", "address2": "", "address3": "", "city": "Hamburg", "zip_code": "21029", "country": "DE", "state": "HH", "display_address": ["Sachsentor 2", "21029 Hamburg", "Germany"]}, "phone": "+49407212425", "display_phone": "+49 40 7212425", "distance": 770.6430663357992}, {"id": "f5g2ILmgueS9e83nQ4N77g", "alias": "hhanse-grill-hamburg", "name": "HHanse Grill", "image_url": "https://s3-media3.fl.yelpcdn.com/bphoto/vN7DJ9lHxchQ2eWtCtWHKQ/o.jpg", "is_closed": false, "url": "https://www.yelp.com/biz/hhanse-grill-hamburg?adjust_creative=hBJOknVQJ58S5goQyjmwRw&utm_campaign=yelp_api_v3&utm_medium=api_v3_business_search&utm_source=hBJOknVQJ58S5goQyjmwRw", "review_count": 18, "categories": [{"alias": "hotdogs", "title": "Fast Food"}], "rating": 4.0, "coordinates": {"latitude": 53.48883, "longitude": 10.20283}, "transactions": [], "price": "\u20ac", "location": {"address1": "Kurt-A.-K\u00f6rber-Chaussee 3", "address2": "", "address3": "", "city": "Hamburg", "zip_code": "21033", "country": "DE", "state": "HH", "display_address": ["Kurt-A.-K\u00f6rber-Chaussee 3", "21033 Hamburg", "Germany"]}, "phone": "+494060174990", "display_phone": "+49 40 60174990", "distance": 827.6322963140556}, {"id": "Fr2vBIGYy5vB55SJYItQ9g", "alias": "soulkebab-hamburg-2", "name": "Soulkebab", "image_url": "https://s3-media1.fl.yelpcdn.com/bphoto/cIYMgP0SZ0aEv0TBnXbY9g/o.jpg", "is_closed": false, "url": "https://www.yelp.com/biz/soulkebab-hamburg-2?adjust_creative=hBJOknVQJ58S5goQyjmwRw&utm_campaign=yelp_api_v3&utm_medium=api_v3_business_search&utm_source=hBJOknVQJ58S5goQyjmwRw", "review_count": 4, "categories": [{"alias": "kebab", "title": "Kebab"}, {"alias": "turkish", "title": "Turkish"}], "rating": 4.5, "coordinates": {"latitude": 53.4891396, "longitude": 10.2075195}, "transactions": [], "price": "\u20ac", "location": {"address1": "Weidenbaumsweg 19", "address2": "", "address3": "", "city": "Hamburg", "zip_code": "21029", "country": "DE", "state": "HH", "display_address": ["Weidenbaumsweg 19", "21029 Hamburg", "Germany"]}, "phone": "", "display_phone": "", "distance": 785.8433558970695}, {"id": "XguDzRJ2azu46Kze_kRgCA", "alias": "taverna-corfu-hamburg-2", "name": "Taverna Corfu", "image_url": "https://s3-media2.fl.yelpcdn.com/bphoto/YDAiBOH8-f7CBqW1LNpJ9w/o.jpg", "is_closed": false, "url": "https://www.yelp.com/biz/taverna-corfu-hamburg-2?adjust_creative=hBJOknVQJ58S5goQyjmwRw&utm_campaign=yelp_api_v3&utm_medium=api_v3_business_search&utm_source=hBJOknVQJ58S5goQyjmwRw", "review_count": 8, "categories": [{"alias": "greek", "title": "Greek"}], "rating": 4.0, "coordinates": {"latitude": 53.4857, "longitude": 10.2178}, "transactions": [], "price": "\u20ac\u20ac", "location": {"address1": "Am Brink 14", "address2": null, "address3": null, "city": "Hamburg", "zip_code": "21029", "country": "DE", "state": "HH", "display_address": ["Am Brink 14", "21029 Hamburg", "Germany"]}, "phone": "+49407214342", "display_phone": "+49 40 7214342", "distance": 786.0775712470509}, {"id": "8KfeWOJl-gMUhwRXmWJ1pA", "alias": "bergedorfer-schlo\u00dfcaf\u00e9-hamburg", "name": "Bergedorfer Schlo\u00dfcaf\u00e9", "image_url": "https://s3-media1.fl.yelpcdn.com/bphoto/csKkuOcZ6ERm9_CC0UBafQ/o.jpg", "is_closed": false, "url": "https://www.yelp.com/biz/bergedorfer-schlo%C3%9Fcaf%C3%A9-hamburg?adjust_creative=hBJOknVQJ58S5goQyjmwRw&utm_campaign=yelp_api_v3&utm_medium=api_v3_business_search&utm_source=hBJOknVQJ58S5goQyjmwRw", "review_count": 2, "categories": [{"alias": "cafes", "title": "Cafes"}, {"alias": "breakfast_brunch", "title": "Breakfast & Brunch"}], "rating": 3.5, "coordinates": {"latitude": 53.4896544436104, "longitude": 10.2123371726824}, "transactions": [], "location": {"address1": "Bergedorfer Schlo\u00dfstr. 4", "address2": "", "address3": null, "city": "Hamburg", "zip_code": "21029", "country": "DE", "state": "HH", "display_address": ["Bergedorfer Schlo\u00dfstr. 4", "21029 Hamburg", "Germany"]}, "phone": "+494078011100", "display_phone": "+49 40 78011100", "distance": 910.4829635583143}, {"id": "nuC2B4JHpAGoRMq5FUCeRw", "alias": "hikari-hamburg", "name": "Hikari", "image_url": "https://s3-media2.fl.yelpcdn.com/bphoto/LY2aW4wS7FBIID2ZTBa6ig/o.jpg", "is_closed": false, "url": "https://www.yelp.com/biz/hikari-hamburg?adjust_creative=hBJOknVQJ58S5goQyjmwRw&utm_campaign=yelp_api_v3&utm_medium=api_v3_business_search&utm_source=hBJOknVQJ58S5goQyjmwRw", "review_count": 1, "categories": [{"alias": "panasian", "title": "Pan Asian"}], "rating": 3.0, "coordinates": {"latitude": 53.48893, "longitude": 10.20687}, "transactions": [], "price": "\u20ac\u20ac", "location": {"address1": "Weidenbaumsweg 21", "address2": "", "address3": "", "city": "Hamburg", "zip_code": "21029", "country": "DE", "state": "HH", "display_address": ["Weidenbaumsweg 21", "21029 Hamburg", "Germany"]}, "phone": "", "display_phone": "", "distance": 736.8035086604947}, {"id": "XUkBWdxfYvIQ9J3Dq5BtIw", "alias": "lavastein-hamburg", "name": "Lavastein", "image_url": "https://s3-media3.fl.yelpcdn.com/bphoto/3qT31aOkNq5JDpMbc96mng/o.jpg", "is_closed": false, "url": "https://www.yelp.com/biz/lavastein-hamburg?adjust_creative=hBJOknVQJ58S5goQyjmwRw&utm_campaign=yelp_api_v3&utm_medium=api_v3_business_search&utm_source=hBJOknVQJ58S5goQyjmwRw", "review_count": 42, "categories": [{"alias": "international", "title": "International"}, {"alias": "german", "title": "German"}], "rating": 3.0, "coordinates": {"latitude": 53.48894, "longitude": 10.20833}, "transactions": [], "price": "\u20ac\u20ac", "location": {"address1": "Serrahnstr. 3 - 5", "address2": null, "address3": null, "city": "Hamburg", "zip_code": "21029", "country": "DE", "state": "HH", "display_address": ["Serrahnstr. 3 - 5", "21029 Hamburg", "Germany"]}, "phone": "+49407212233", "display_phone": "+49 40 7212233", "distance": 774.5752976165973}, {"id": "YvxXpdzIc8JEAs5LrzePDQ", "alias": "ma-maison-hamburg-2", "name": "Ma Maison", "image_url": "https://s3-media4.fl.yelpcdn.com/bphoto/Rcs6oRdiwbAxRI6REbTPvw/o.jpg", "is_closed": false, "url": "https://www.yelp.com/biz/ma-maison-hamburg-2?adjust_creative=hBJOknVQJ58S5goQyjmwRw&utm_campaign=yelp_api_v3&utm_medium=api_v3_business_search&utm_source=hBJOknVQJ58S5goQyjmwRw", "review_count": 8, "categories": [{"alias": "cafes", "title": "Cafes"}, {"alias": "tapas", "title": "Tapas Bars"}], "rating": 3.0, "coordinates": {"latitude": 53.4873, "longitude": 10.21339}, "transactions": [], "price": "\u20ac\u20ac", "location": {"address1": "Hintern Graben 21", "address2": "", "address3": "", "city": "Hamburg", "zip_code": "21029", "country": "DE", "state": "HH", "display_address": ["Hintern Graben 21", "21029 Hamburg", "Germany"]}, "phone": "+494036911990", "display_phone": "+49 40 36911990", "distance": 706.0143398809795}, {"id": "e7ddDbWUKeYiuy4cGDTUdw", "alias": "pane-und-vino-hamburg", "name": "Pane & Vino", "image_url": "https://s3-media3.fl.yelpcdn.com/bphoto/u2oz9FrAD1xCcJWmZIlAPA/o.jpg", "is_closed": false, "url": "https://www.yelp.com/biz/pane-und-vino-hamburg?adjust_creative=hBJOknVQJ58S5goQyjmwRw&utm_campaign=yelp_api_v3&utm_medium=api_v3_business_search&utm_source=hBJOknVQJ58S5goQyjmwRw", "review_count": 5, "categories": [{"alias": "divebars", "title": "Dive Bars"}, {"alias": "italian", "title": "Italian"}], "rating": 3.5, "coordinates": {"latitude": 53.4882539, "longitude": 10.2094553}, "transactions": [], "price": "\u20ac\u20ac", "location": {"address1": "Kupferhof 4", "address2": "", "address3": "EG", "city": "Hamburg", "zip_code": "21029", "country": "DE", "state": "HH", "display_address": ["Kupferhof 4", "EG", "21029 Hamburg", "Germany"]}, "phone": "+49407244138", "display_phone": "+49 40 7244138", "distance": 711.5984339552723}, {"id": "uvR7nZx1CY5pKQIM48ZZGA", "alias": "restaurant-alt-lohbr\u00fcgger-hof-hamburg", "name": "Restaurant Alt Lohbr\u00fcgger Hof", "image_url": "https://s3-media4.fl.yelpcdn.com/bphoto/Z_xhXthXpDjX4cWGx3JJsw/o.jpg", "is_closed": false, "url": "https://www.yelp.com/biz/restaurant-alt-lohbr%C3%BCgger-hof-hamburg?adjust_creative=hBJOknVQJ58S5goQyjmwRw&utm_campaign=yelp_api_v3&utm_medium=api_v3_business_search&utm_source=hBJOknVQJ58S5goQyjmwRw", "review_count": 10, "categories": [{"alias": "german", "title": "German"}], "rating": 3.5, "coordinates": {"latitude": 53.502, "longitude": 10.2054}, "transactions": [], "price": "\u20ac\u20ac\u20ac", "location": {"address1": "Leuschnerstr. 76", "address2": null, "address3": null, "city": "Hamburg", "zip_code": "21031", "country": "DE", "state": "HH", "display_address": ["Leuschnerstr. 76", "21031 Hamburg", "Germany"]}, "phone": "+49407396000", "display_phone": "+49 40 7396000", "distance": 2236.4067479823607}, {"id": "HyAhvvMP0iVtRYjm6VWyGA", "alias": "schweinske-hamburg-27", "name": "Schweinske", "image_url": "https://s3-media2.fl.yelpcdn.com/bphoto/wWa5iaJObE_DxT8ohqNowA/o.jpg", "is_closed": false, "url": "https://www.yelp.com/biz/schweinske-hamburg-27?adjust_creative=hBJOknVQJ58S5goQyjmwRw&utm_campaign=yelp_api_v3&utm_medium=api_v3_business_search&utm_source=hBJOknVQJ58S5goQyjmwRw", "review_count": 42, "categories": [{"alias": "german", "title": "German"}], "rating": 3.0, "coordinates": {"latitude": 53.48747, "longitude": 10.2099499}, "transactions": [], "price": "\u20ac\u20ac", "location": {"address1": "Bergedorfer Str. 112", "address2": null, "address3": null, "city": "Hamburg", "zip_code": "21029", "country": "DE", "state": "HH", "display_address": ["Bergedorfer Str. 112", "21029 Hamburg", "Germany"]}, "phone": "+494079685768", "display_phone": "+49 40 79685768", "distance": 628.9122257497116}, {"id": "UsN7oty__ct1qIZLJ2SSkQ", "alias": "caf\u00e9-la-petite-rue-hamburg", "name": "Caf\u00e9 La Petite Rue", "image_url": "https://s3-media1.fl.yelpcdn.com/bphoto/2r1JCwoBnwdnpjiKD-zpjQ/o.jpg", "is_closed": false, "url": "https://www.yelp.com/biz/caf%C3%A9-la-petite-rue-hamburg?adjust_creative=hBJOknVQJ58S5goQyjmwRw&utm_campaign=yelp_api_v3&utm_medium=api_v3_business_search&utm_source=hBJOknVQJ58S5goQyjmwRw", "review_count": 5, "categories": [{"alias": "cafes", "title": "Cafes"}], "rating": 4.0, "coordinates": {"latitude": 53.488, "longitude": 10.213}, "transactions": [], "price": "\u20ac\u20ac\u20ac", "location": {"address1": "Sachsentor 29", "address2": null, "address3": null, "city": "Hamburg", "zip_code": "21029", "country": "DE", "state": "HH", "display_address": ["Sachsentor 29", "21029 Hamburg", "Germany"]}, "phone": "+494098769802", "display_phone": "+49 40 98769802", "distance": 758.6993777535616}, {"id": "FuDqMFs1-ce6w0Pi8NCU1w", "alias": "pamukkale-k\u00f6z-bergedorf-hamburg", "name": "Pamukkale K\u00f6z Bergedorf", "image_url": "https://s3-media2.fl.yelpcdn.com/bphoto/VWeYy47Rwu6VZjfPEHKG2A/o.jpg", "is_closed": false, "url": "https://www.yelp.com/biz/pamukkale-k%C3%B6z-bergedorf-hamburg?adjust_creative=hBJOknVQJ58S5goQyjmwRw&utm_campaign=yelp_api_v3&utm_medium=api_v3_business_search&utm_source=hBJOknVQJ58S5goQyjmwRw", "review_count": 9, "categories": [{"alias": "turkish", "title": "Turkish"}, {"alias": "kebab", "title": "Kebab"}], "rating": 3.5, "coordinates": {"latitude": 53.4901627722898, "longitude": 10.2086043771255}, "transactions": [], "price": "\u20ac", "location": {"address1": "Alte Holstenstr. 56", "address2": null, "address3": null, "city": "Hamburg", "zip_code": "21029", "country": "DE", "state": "HH", "display_address": ["Alte Holstenstr. 56", "21029 Hamburg", "Germany"]}, "phone": "+49407245982", "display_phone": "+49 40 7245982", "distance": 916.5573798884301}, {"id": "eaar-pJ3iU3FLRGcMykupw", "alias": "quicks-hamburg", "name": "Quick's", "image_url": "https://s3-media2.fl.yelpcdn.com/bphoto/ICpOFjNZ5_1XoHqlZG3EqQ/o.jpg", "is_closed": false, "url": "https://www.yelp.com/biz/quicks-hamburg?adjust_creative=hBJOknVQJ58S5goQyjmwRw&utm_campaign=yelp_api_v3&utm_medium=api_v3_business_search&utm_source=hBJOknVQJ58S5goQyjmwRw", "review_count": 21, "categories": [{"alias": "burgers", "title": "Burgers"}, {"alias": "hotdogs", "title": "Fast Food"}], "rating": 4.0, "coordinates": {"latitude": 53.49057, "longitude": 10.20844}, "transactions": [], "price": "\u20ac\u20ac", "location": {"address1": "Alte Holstenstr. 57", "address2": "", "address3": "", "city": "Hamburg", "zip_code": "21029", "country": "DE", "state": "HH", "display_address": ["Alte Holstenstr. 57", "21029 Hamburg", "Germany"]}, "phone": "+494072008595", "display_phone": "+49 40 72008595", "distance": 962.0952886789651}, {"id": "p6NLrDG7PeH60IUcmTwPAA", "alias": "gastst\u00e4tte-zum-alten-bahnhof-hamburg", "name": "Gastst\u00e4tte Zum alten Bahnhof", "image_url": "https://s3-media4.fl.yelpcdn.com/bphoto/bq3mLtdVBdxpjpI6-ilBDg/o.jpg", "is_closed": false, "url": "https://www.yelp.com/biz/gastst%C3%A4tte-zum-alten-bahnhof-hamburg?adjust_creative=hBJOknVQJ58S5goQyjmwRw&utm_campaign=yelp_api_v3&utm_medium=api_v3_business_search&utm_source=hBJOknVQJ58S5goQyjmwRw", "review_count": 1, "categories": [{"alias": "german", "title": "German"}], "rating": 5.0, "coordinates": {"latitude": 53.4486, "longitude": 10.22153}, "transactions": [], "price": "\u20ac\u20ac", "location": {"address1": "Odemanns Heck 5", "address2": null, "address3": null, "city": "Hamburg", "zip_code": "21039", "country": "DE", "state": "HH", "display_address": ["Odemanns Heck 5", "21039 Hamburg", "Germany"]}, "phone": "+494072370570", "display_phone": "+49 40 72370570", "distance": 3817.4602505461044}, {"id": "TttYOxgubZqsIApBXps3xw", "alias": "belami-hamburg", "name": "Belami", "image_url": "https://s3-media3.fl.yelpcdn.com/bphoto/8FOHa1w4wwLiUiW8QzdIdQ/o.jpg", "is_closed": false, "url": "https://www.yelp.com/biz/belami-hamburg?adjust_creative=hBJOknVQJ58S5goQyjmwRw&utm_campaign=yelp_api_v3&utm_medium=api_v3_business_search&utm_source=hBJOknVQJ58S5goQyjmwRw", "review_count": 15, "categories": [{"alias": "bars", "title": "Bars"}, {"alias": "beergarden", "title": "Beer Garden"}, {"alias": "german", "title": "German"}], "rating": 3.0, "coordinates": {"latitude": 53.4847, "longitude": 10.2187}, "transactions": [], "price": "\u20ac\u20ac", "location": {"address1": "Holtenklinker Str. 26", "address2": null, "address3": null, "city": "Hamburg", "zip_code": "21029", "country": "DE", "state": "HH", "display_address": ["Holtenklinker Str. 26", "21029 Hamburg", "Germany"]}, "phone": "+494072699173", "display_phone": "+49 40 72699173", "distance": 787.4048516839393}, {"id": "nXrodL-98LfldQ-dJfmxdw", "alias": "block-house-hamburg-11", "name": "Block House", "image_url": "https://s3-media4.fl.yelpcdn.com/bphoto/qAJuODl1msQqhJSY8wya0g/o.jpg", "is_closed": false, "url": "https://www.yelp.com/biz/block-house-hamburg-11?adjust_creative=hBJOknVQJ58S5goQyjmwRw&utm_campaign=yelp_api_v3&utm_medium=api_v3_business_search&utm_source=hBJOknVQJ58S5goQyjmwRw", "review_count": 75, "categories": [{"alias": "steak", "title": "Steakhouses"}], "rating": 4.0, "coordinates": {"latitude": 53.4885243515164, "longitude": 10.2110642107037}, "transactions": [], "price": "\u20ac\u20ac", "location": {"address1": "Sachsentor 2", "address2": "", "address3": "", "city": "Hamburg", "zip_code": "21029", "country": "DE", "state": "HH", "display_address": ["Sachsentor 2", "21029 Hamburg", "Germany"]}, "phone": "+49407217171", "display_phone": "+49 40 7217171", "distance": 764.8346752188138}, {"id": "ECY6Bpg-yRIOkLiePIWplw", "alias": "schweinske-hamburg-25", "name": "Schweinske", "image_url": "https://s3-media1.fl.yelpcdn.com/bphoto/fHgtyH8f7T66J1ZlxPzwFg/o.jpg", "is_closed": false, "url": "https://www.yelp.com/biz/schweinske-hamburg-25?adjust_creative=hBJOknVQJ58S5goQyjmwRw&utm_campaign=yelp_api_v3&utm_medium=api_v3_business_search&utm_source=hBJOknVQJ58S5goQyjmwRw", "review_count": 13, "categories": [{"alias": "german", "title": "German"}, {"alias": "breakfast_brunch", "title": "Breakfast & Brunch"}], "rating": 3.5, "coordinates": {"latitude": 53.494164, "longitude": 10.206469}, "transactions": [], "price": "\u20ac\u20ac", "location": {"address1": "Alte Holstenstr. 2", "address2": null, "address3": null, "city": "Hamburg", "zip_code": "21031", "country": "DE", "state": "HH", "display_address": ["Alte Holstenstr. 2", "21031 Hamburg", "Germany"]}, "phone": "+494072697204", "display_phone": "+49 40 72697204", "distance": 1344.2828155146676}, {"id": "ipf3737p-Jpij5seiTyztg", "alias": "november-hamburg", "name": "November", "image_url": "https://s3-media1.fl.yelpcdn.com/bphoto/Ea5h-2cr_6mpuwtUwtMqQg/o.jpg", "is_closed": false, "url": "https://www.yelp.com/biz/november-hamburg?adjust_creative=hBJOknVQJ58S5goQyjmwRw&utm_campaign=yelp_api_v3&utm_medium=api_v3_business_search&utm_source=hBJOknVQJ58S5goQyjmwRw", "review_count": 50, "categories": [{"alias": "german", "title": "German"}, {"alias": "cafes", "title": "Cafes"}, {"alias": "coffee", "title": "Coffee & Tea"}], "rating": 3.0, "coordinates": {"latitude": 53.48706, "longitude": 10.2119}, "transactions": [], "price": "\u20ac\u20ac", "location": {"address1": "Bergedorfer Str. 125", "address2": null, "address3": null, "city": "Hamburg", "zip_code": "21029", "country": "DE", "state": "HH", "display_address": ["Bergedorfer Str. 125", "21029 Hamburg", "Germany"]}, "phone": "+494073937937", "display_phone": "+49 40 73937937", "distance": 634.615912600371}, {"id": "ssPTSOBjG7hS3h7hcOHsYQ", "alias": "rindocks-hamburg-3", "name": "Rindock's", "image_url": "https://s3-media2.fl.yelpcdn.com/bphoto/maMn7v-b7qsW214K30FKeQ/o.jpg", "is_closed": false, "url": "https://www.yelp.com/biz/rindocks-hamburg-3?adjust_creative=hBJOknVQJ58S5goQyjmwRw&utm_campaign=yelp_api_v3&utm_medium=api_v3_business_search&utm_source=hBJOknVQJ58S5goQyjmwRw", "review_count": 1, "categories": [{"alias": "steak", "title": "Steakhouses"}], "rating": 4.0, "coordinates": {"latitude": 53.50291, "longitude": 10.19312}, "transactions": [], "location": {"address1": "Lohbr\u00fcgger Landstr. 119", "address2": "", "address3": null, "city": "Hamburg", "zip_code": "21031", "country": "DE", "state": "HH", "display_address": ["Lohbr\u00fcgger Landstr. 119", "21031 Hamburg", "Germany"]}, "phone": "+494072106755", "display_phone": "+49 40 72106755", "distance": 2523.9214407989516}, {"id": "5ZD5tiAehHozj6CNAa_57g", "alias": "china-und-thai-lieferservice-hamburg", "name": "China & Thai Lieferservice", "image_url": "https://s3-media2.fl.yelpcdn.com/bphoto/gkXjoR3DDIyBKWvq2YJpOg/o.jpg", "is_closed": false, "url": "https://www.yelp.com/biz/china-und-thai-lieferservice-hamburg?adjust_creative=hBJOknVQJ58S5goQyjmwRw&utm_campaign=yelp_api_v3&utm_medium=api_v3_business_search&utm_source=hBJOknVQJ58S5goQyjmwRw", "review_count": 6, "categories": [{"alias": "panasian", "title": "Pan Asian"}], "rating": 3.5, "coordinates": {"latitude": 53.4881508, "longitude": 10.1970707}, "transactions": [], "price": "\u20ac\u20ac", "location": {"address1": "Kurt-A.-K\u00f6rber-Chaussee 39 d", "address2": null, "address3": null, "city": "Hamburg", "zip_code": "21033", "country": "DE", "state": "HH", "display_address": ["Kurt-A.-K\u00f6rber-Chaussee 39 d", "21033 Hamburg", "Germany"]}, "phone": "", "display_phone": "", "distance": 988.0610064667414}, {"id": "po87ojNd_qixKGwCCQboLQ", "alias": "p\u00e2tisserie-andreas-hamburg", "name": "P\u00e2tisserie Andreas", "image_url": "https://s3-media4.fl.yelpcdn.com/bphoto/r3A4KFJ9nm1uGq4g7zu0gA/o.jpg", "is_closed": false, "url": "https://www.yelp.com/biz/p%C3%A2tisserie-andreas-hamburg?adjust_creative=hBJOknVQJ58S5goQyjmwRw&utm_campaign=yelp_api_v3&utm_medium=api_v3_business_search&utm_source=hBJOknVQJ58S5goQyjmwRw", "review_count": 2, "categories": [{"alias": "cafes", "title": "Cafes"}, {"alias": "cakeshop", "title": "Patisserie/Cake Shop"}, {"alias": "icecream", "title": "Ice Cream & Frozen Yogurt"}], "rating": 4.0, "coordinates": {"latitude": 53.488492, "longitude": 10.2103728794484}, "transactions": [], "price": "\u20ac\u20ac", "location": {"address1": "Kupferhof 1", "address2": "", "address3": null, "city": "Hamburg", "zip_code": "21029", "country": "DE", "state": "HH", "display_address": ["Kupferhof 1", "21029 Hamburg", "Germany"]}, "phone": "+494072378106", "display_phone": "+49 40 72378106", "distance": 749.4721271343899}, {"id": "qYs2XBBr-SN0Lvz_VnhBiw", "alias": "tungs-asia-hamburg-2", "name": "Tung's Asia", "image_url": "https://s3-media1.fl.yelpcdn.com/bphoto/6rO7lxvjiy8Rlv4_lTzyvw/o.jpg", "is_closed": false, "url": "https://www.yelp.com/biz/tungs-asia-hamburg-2?adjust_creative=hBJOknVQJ58S5goQyjmwRw&utm_campaign=yelp_api_v3&utm_medium=api_v3_business_search&utm_source=hBJOknVQJ58S5goQyjmwRw", "review_count": 4, "categories": [{"alias": "vietnamese", "title": "Vietnamese"}], "rating": 3.5, "coordinates": {"latitude": 53.4890291906508, "longitude": 10.2070283889771}, "transactions": [], "location": {"address1": "Weidenbaumsweg 17", "address2": "", "address3": "", "city": "Hamburg", "zip_code": "21029", "country": "DE", "state": "HH", "display_address": ["Weidenbaumsweg 17", "21029 Hamburg", "Germany"]}, "phone": "", "display_phone": "", "distance": 790.157845586765}, {"id": "MjvA08ZvJZu0J29TPqUS-Q", "alias": "caf\u00e9-flop-hamburg-2", "name": "Caf\u00e9 Flop", "image_url": "", "is_closed": false, "url": "https://www.yelp.com/biz/caf%C3%A9-flop-hamburg-2?adjust_creative=hBJOknVQJ58S5goQyjmwRw&utm_campaign=yelp_api_v3&utm_medium=api_v3_business_search&utm_source=hBJOknVQJ58S5goQyjmwRw", "review_count": 2, "categories": [{"alias": "cafes", "title": "Cafes"}, {"alias": "vegan", "title": "Vegan"}], "rating": 3.5, "coordinates": {"latitude": 53.4872, "longitude": 10.2192}, "transactions": [], "price": "\u20ac", "location": {"address1": "Wentorfer Str. 26", "address2": null, "address3": null, "city": "Hamburg", "zip_code": "21029", "country": "DE", "state": "HH", "display_address": ["Wentorfer Str. 26", "21029 Hamburg", "Germany"]}, "phone": "", "display_phone": "", "distance": 957.7017775112456}, {"id": "LKzo9giIoKGVtMsuAvuIAg", "alias": "gasthof-zum-elbdeich-hamburg-2", "name": "Gasthof zum Elbdeich", "image_url": "", "is_closed": false, "url": "https://www.yelp.com/biz/gasthof-zum-elbdeich-hamburg-2?adjust_creative=hBJOknVQJ58S5goQyjmwRw&utm_campaign=yelp_api_v3&utm_medium=api_v3_business_search&utm_source=hBJOknVQJ58S5goQyjmwRw", "review_count": 3, "categories": [{"alias": "german", "title": "German"}], "rating": 4.5, "coordinates": {"latitude": 53.4423, "longitude": 10.2328}, "transactions": [], "location": {"address1": "Neuengammer Hausdeich 2", "address2": null, "address3": null, "city": "Hamburg", "zip_code": "21039", "country": "DE", "state": "HH", "display_address": ["Neuengammer Hausdeich 2", "21039 Hamburg", "Germany"]}, "phone": "+49407235481", "display_phone": "+49 40 7235481", "distance": 4709.108922788838}, {"id": "QvEg8ddyF1ZbpZ-q1YxnwA", "alias": "asia-center-hamburg", "name": "Asia Center", "image_url": "", "is_closed": false, "url": "https://www.yelp.com/biz/asia-center-hamburg?adjust_creative=hBJOknVQJ58S5goQyjmwRw&utm_campaign=yelp_api_v3&utm_medium=api_v3_business_search&utm_source=hBJOknVQJ58S5goQyjmwRw", "review_count": 1, "categories": [{"alias": "fooddeliveryservices", "title": "Food Delivery Services"}, {"alias": "panasian", "title": "Pan Asian"}], "rating": 5.0, "coordinates": {"latitude": 53.4803637665279, "longitude": 10.1983971129925}, "transactions": [], "location": {"address1": "Randersweide 2 a", "address2": "", "address3": "", "city": "Hamburg", "zip_code": "21035", "country": "DE", "state": "HH", "display_address": ["Randersweide 2 a", "21035 Hamburg", "Germany"]}, "phone": "+4949407397395", "display_phone": "+49 4940 7397395", "distance": 642.7069368710057}, {"id": "DEm3YYWieo1IwwnNsCMWQw", "alias": "la-puglia-hamburg", "name": "La Puglia", "image_url": "https://s3-media1.fl.yelpcdn.com/bphoto/ivRSgTjT3Jw2OWOygwZdTQ/o.jpg", "is_closed": false, "url": "https://www.yelp.com/biz/la-puglia-hamburg?adjust_creative=hBJOknVQJ58S5goQyjmwRw&utm_campaign=yelp_api_v3&utm_medium=api_v3_business_search&utm_source=hBJOknVQJ58S5goQyjmwRw", "review_count": 17, "categories": [{"alias": "italian", "title": "Italian"}], "rating": 3.0, "coordinates": {"latitude": 53.4885, "longitude": 10.2115}, "transactions": [], "price": "\u20ac\u20ac\u20ac", "location": {"address1": "Sachsentor 6", "address2": null, "address3": null, "city": "Hamburg", "zip_code": "21029", "country": "DE", "state": "HH", "display_address": ["Sachsentor 6", "21029 Hamburg", "Germany"]}, "phone": "+49407216895", "display_phone": "+49 40 7216895", "distance": 771.0463308801677}, {"id": "LPscYMQOIhBdkNmYsBSitw", "alias": "taverna-alexandros-hamburg", "name": "Taverna Alexandros", "image_url": "", "is_closed": false, "url": "https://www.yelp.com/biz/taverna-alexandros-hamburg?adjust_creative=hBJOknVQJ58S5goQyjmwRw&utm_campaign=yelp_api_v3&utm_medium=api_v3_business_search&utm_source=hBJOknVQJ58S5goQyjmwRw", "review_count": 1, "categories": [{"alias": "greek", "title": "Greek"}], "rating": 4.0, "coordinates": {"latitude": 53.4972, "longitude": 10.2042}, "transactions": [], "price": "\u20ac\u20ac", "location": {"address1": "Lohbr\u00fcgger Landstr. 26", "address2": null, "address3": null, "city": "Hamburg", "zip_code": "21031", "country": "DE", "state": "HH", "display_address": ["Lohbr\u00fcgger Landstr. 26", "21031 Hamburg", "Germany"]}, "phone": "+49407215680", "display_phone": "+49 40 7215680", "distance": 1713.406221348194}, {"id": "QzVpEFaN0XZe6jALMZg1sQ", "alias": "caf\u00e9-bouquet-hamburg", "name": "Caf\u00e9 Bouquet", "image_url": "https://s3-media3.fl.yelpcdn.com/bphoto/Gt8CTT1t8N0YpCjmq4d-NQ/o.jpg", "is_closed": false, "url": "https://www.yelp.com/biz/caf%C3%A9-bouquet-hamburg?adjust_creative=hBJOknVQJ58S5goQyjmwRw&utm_campaign=yelp_api_v3&utm_medium=api_v3_business_search&utm_source=hBJOknVQJ58S5goQyjmwRw", "review_count": 7, "categories": [{"alias": "cafes", "title": "Cafes"}, {"alias": "breakfast_brunch", "title": "Breakfast & Brunch"}], "rating": 3.5, "coordinates": {"latitude": 53.4897505474139, "longitude": 10.2092158440421}, "transactions": [], "price": "\u20ac\u20ac", "location": {"address1": "Alte Holstenstr. 62", "address2": "", "address3": null, "city": "Hamburg", "zip_code": "21029", "country": "DE", "state": "HH", "display_address": ["Alte Holstenstr. 62", "21029 Hamburg", "Germany"]}, "phone": "+491728630371", "display_phone": "+49 172 8630371", "distance": 874.3910025381762}, {"id": "5ofzRX3nd1gxx9e9z7MASw", "alias": "pizza-max-hamburg-9", "name": "Pizza Max", "image_url": "https://s3-media3.fl.yelpcdn.com/bphoto/5laqwogK0AddypFaUxxNOg/o.jpg", "is_closed": false, "url": "https://www.yelp.com/biz/pizza-max-hamburg-9?adjust_creative=hBJOknVQJ58S5goQyjmwRw&utm_campaign=yelp_api_v3&utm_medium=api_v3_business_search&utm_source=hBJOknVQJ58S5goQyjmwRw", "review_count": 5, "categories": [{"alias": "pizza", "title": "Pizza"}], "rating": 3.5, "coordinates": {"latitude": 53.4871, "longitude": 10.2123}, "transactions": [], "price": "\u20ac\u20ac", "location": {"address1": "Bergedorfer Str. 127", "address2": null, "address3": null, "city": "Hamburg", "zip_code": "21029", "country": "DE", "state": "HH", "display_address": ["Bergedorfer Str. 127", "21029 Hamburg", "Germany"]}, "phone": "+4940720044444", "display_phone": "+49 40 720044444", "distance": 648.5454146792878}, {"id": "nPQLEHdNcxG1ggK21Jg0og", "alias": "curryph\u00e4e-reinbek", "name": "Curryph\u00e4e", "image_url": "https://s3-media4.fl.yelpcdn.com/bphoto/c9l03AUzyV9TFWLLJBjNMA/o.jpg", "is_closed": false, "url": "https://www.yelp.com/biz/curryph%C3%A4e-reinbek?adjust_creative=hBJOknVQJ58S5goQyjmwRw&utm_campaign=yelp_api_v3&utm_medium=api_v3_business_search&utm_source=hBJOknVQJ58S5goQyjmwRw", "review_count": 4, "categories": [{"alias": "foodstands", "title": "Food Stands"}, {"alias": "bbq", "title": "Barbeque"}], "rating": 5.0, "coordinates": {"latitude": 53.52179, "longitude": 10.2319}, "transactions": [], "price": "\u20ac", "location": {"address1": "Liebigstr. 2", "address2": "", "address3": "", "city": "Reinbek", "zip_code": "21465", "country": "DE", "state": "SH", "display_address": ["Liebigstr. 2", "21465 Reinbek", "Germany"]}, "phone": "+494027824762", "display_phone": "+49 40 27824762", "distance": 4692.8824901256185}, {"id": "wns0tEarHxA0M5UsbrY-XQ", "alias": "lohbr\u00fcgger-grill-hamburg-2", "name": "Lohbr\u00fcgger Grill", "image_url": "https://s3-media2.fl.yelpcdn.com/bphoto/jAbjpc2e08mEWz-0ev9adg/o.jpg", "is_closed": false, "url": "https://www.yelp.com/biz/lohbr%C3%BCgger-grill-hamburg-2?adjust_creative=hBJOknVQJ58S5goQyjmwRw&utm_campaign=yelp_api_v3&utm_medium=api_v3_business_search&utm_source=hBJOknVQJ58S5goQyjmwRw", "review_count": 2, "categories": [{"alias": "foodstands", "title": "Food Stands"}], "rating": 5.0, "coordinates": {"latitude": 53.4982264838837, "longitude": 10.2029393613338}, "transactions": [], "price": "\u20ac", "location": {"address1": "Lohbr\u00fcgger Landstr. 43", "address2": "", "address3": null, "city": "Hamburg", "zip_code": "21031", "country": "DE", "state": "HH", "display_address": ["Lohbr\u00fcgger Landstr. 43", "21031 Hamburg", "Germany"]}, "phone": "+494072005533", "display_phone": "+49 40 72005533", "distance": 1839.1043388484222}, {"id": "oPW51OhB-6g_olx51q2kTw", "alias": "meyrs-reinbek", "name": "Meyr's", "image_url": "https://s3-media3.fl.yelpcdn.com/bphoto/H3xPqsHQ6xAIX7iqWRnINQ/o.jpg", "is_closed": false, "url": "https://www.yelp.com/biz/meyrs-reinbek?adjust_creative=hBJOknVQJ58S5goQyjmwRw&utm_campaign=yelp_api_v3&utm_medium=api_v3_business_search&utm_source=hBJOknVQJ58S5goQyjmwRw", "review_count": 5, "categories": [{"alias": "german", "title": "German"}, {"alias": "bistros", "title": "Bistros"}], "rating": 4.5, "coordinates": {"latitude": 53.5152, "longitude": 10.2278}, "transactions": [], "price": "\u20ac\u20ac\u20ac", "location": {"address1": "Glinder Weg 25", "address2": null, "address3": null, "city": "Reinbek", "zip_code": "21465", "country": "DE", "state": "SH", "display_address": ["Glinder Weg 25", "21465 Reinbek", "Germany"]}, "phone": "+494072811257", "display_phone": "+49 40 72811257", "distance": 3929.4943740216804}, {"id": "ZZZQ923szOGq3s-8Po7SxA", "alias": "krabbenfischer-hamburg", "name": "Krabbenfischer", "image_url": "", "is_closed": false, "url": "https://www.yelp.com/biz/krabbenfischer-hamburg?adjust_creative=hBJOknVQJ58S5goQyjmwRw&utm_campaign=yelp_api_v3&utm_medium=api_v3_business_search&utm_source=hBJOknVQJ58S5goQyjmwRw", "review_count": 2, "categories": [{"alias": "fishnchips", "title": "Fish & Chips"}], "rating": 5.0, "coordinates": {"latitude": 53.4923, "longitude": 10.2073}, "transactions": [], "price": "\u20ac", "location": {"address1": "Alte Holstenstra\u00dfe 30 - 32", "address2": "", "address3": null, "city": "Hamburg", "zip_code": "21031", "country": "DE", "state": "HH", "display_address": ["Alte Holstenstra\u00dfe 30 - 32", "21031 Hamburg", "Germany"]}, "phone": "+494072542418", "display_phone": "+49 40 72542418", "distance": 1152.8097687367454}, {"id": "2Qg2-LgGVjSclZT_TRpo0Q", "alias": "city-d\u00f6ner-hamburg-2", "name": "City D\u00f6ner", "image_url": "https://s3-media2.fl.yelpcdn.com/bphoto/Y4QcMGHqb73zdl87tMOuoQ/o.jpg", "is_closed": false, "url": "https://www.yelp.com/biz/city-d%C3%B6ner-hamburg-2?adjust_creative=hBJOknVQJ58S5goQyjmwRw&utm_campaign=yelp_api_v3&utm_medium=api_v3_business_search&utm_source=hBJOknVQJ58S5goQyjmwRw", "review_count": 10, "categories": [{"alias": "kebab", "title": "Kebab"}], "rating": 3.5, "coordinates": {"latitude": 53.4899, "longitude": 10.2091}, "transactions": [], "price": "\u20ac\u20ac", "location": {"address1": "Ecke Dresdner Kult", "address2": null, "address3": null, "city": "Hamburg", "zip_code": "21029", "country": "DE", "state": "HH", "display_address": ["Ecke Dresdner Kult", "21029 Hamburg", "Germany"]}, "phone": "", "display_phone": "", "distance": 890.1025523441876}, {"id": "3iOc8w6sYCVtqP43tMLrag", "alias": "holstenhof-hamburg-2", "name": "Holstenhof", "image_url": "https://s3-media3.fl.yelpcdn.com/bphoto/Wlpmq6ruvqigkmtGEf1tcA/o.jpg", "is_closed": false, "url": "https://www.yelp.com/biz/holstenhof-hamburg-2?adjust_creative=hBJOknVQJ58S5goQyjmwRw&utm_campaign=yelp_api_v3&utm_medium=api_v3_business_search&utm_source=hBJOknVQJ58S5goQyjmwRw", "review_count": 8, "categories": [{"alias": "german", "title": "German"}], "rating": 4.0, "coordinates": {"latitude": 53.49846, "longitude": 10.20311}, "transactions": [], "price": "\u20ac\u20ac", "location": {"address1": "Lohbr\u00fcgger Landstr. 38", "address2": null, "address3": null, "city": "Hamburg", "zip_code": "21031", "country": "DE", "state": "HH", "display_address": ["Lohbr\u00fcgger Landstr. 38", "21031 Hamburg", "Germany"]}, "phone": "+49407399428", "display_phone": "+49 40 7399428", "distance": 1862.7936093370347}, {"id": "IDjcVVGyESwwvbvN1bLjuQ", "alias": "baris-grillhaus-hamburg-5", "name": "Baris Grillhaus", "image_url": "https://s3-media2.fl.yelpcdn.com/bphoto/pFuuUOxqNdHImZz6hAMR6g/o.jpg", "is_closed": false, "url": "https://www.yelp.com/biz/baris-grillhaus-hamburg-5?adjust_creative=hBJOknVQJ58S5goQyjmwRw&utm_campaign=yelp_api_v3&utm_medium=api_v3_business_search&utm_source=hBJOknVQJ58S5goQyjmwRw", "review_count": 1, "categories": [{"alias": "kebab", "title": "Kebab"}], "rating": 4.0, "coordinates": {"latitude": 53.4914, "longitude": 10.2078}, "transactions": [], "location": {"address1": "Alte Holstenstr.  47", "address2": null, "address3": null, "city": "Hamburg", "zip_code": "21031", "country": "DE", "state": "HH", "display_address": ["Alte Holstenstr.  47", "21031 Hamburg", "Germany"]}, "phone": "", "display_phone": "", "distance": 1052.3670037553206}, {"id": "a4PMQ5JQrr6kiNm88A2zCw", "alias": "restaurant-parga-hamburg", "name": "Restaurant Parga", "image_url": "https://s3-media3.fl.yelpcdn.com/bphoto/zxlO_j6Ie2ctSRBzg6BtNA/o.jpg", "is_closed": false, "url": "https://www.yelp.com/biz/restaurant-parga-hamburg?adjust_creative=hBJOknVQJ58S5goQyjmwRw&utm_campaign=yelp_api_v3&utm_medium=api_v3_business_search&utm_source=hBJOknVQJ58S5goQyjmwRw", "review_count": 12, "categories": [{"alias": "greek", "title": "Greek"}], "rating": 3.5, "coordinates": {"latitude": 53.4975104, "longitude": 10.2040032}, "transactions": [], "price": "\u20ac\u20ac", "location": {"address1": "Lohbr\u00fcgger Landstr.  32", "address2": null, "address3": null, "city": "Hamburg", "zip_code": "21031", "country": "DE", "state": "HH", "display_address": ["Lohbr\u00fcgger Landstr.  32", "21031 Hamburg", "Germany"]}, "phone": "+49407242382", "display_phone": "+49 40 7242382", "distance": 1749.3969488004445}, {"id": "fa8IxUKMS_g7Vb5OZM4nrQ", "alias": "bacchus-hamburg-4", "name": "Bacchus", "image_url": "https://s3-media3.fl.yelpcdn.com/bphoto/-I-BNlVpKhsuJNkmmW-tNA/o.jpg", "is_closed": false, "url": "https://www.yelp.com/biz/bacchus-hamburg-4?adjust_creative=hBJOknVQJ58S5goQyjmwRw&utm_campaign=yelp_api_v3&utm_medium=api_v3_business_search&utm_source=hBJOknVQJ58S5goQyjmwRw", "review_count": 4, "categories": [{"alias": "greek", "title": "Greek"}], "rating": 4.0, "coordinates": {"latitude": 53.50132, "longitude": 10.1976}, "transactions": [], "location": {"address1": "Lohbr\u00fcgger Landstr. 90", "address2": "", "address3": null, "city": "Hamburg", "zip_code": "21031", "country": "DE", "state": "HH", "display_address": ["Lohbr\u00fcgger Landstr. 90", "21031 Hamburg", "Germany"]}, "phone": "+49407398990", "display_phone": "+49 40 7398990", "distance": 2259.5677233417514}, {"id": "7EHpIWHvoW_oPx26KcXTRg", "alias": "hallo-pizza-hamburg-6", "name": "Hallo Pizza!", "image_url": "https://s3-media4.fl.yelpcdn.com/bphoto/qjHwhE3eheJPTrEzRdADEQ/o.jpg", "is_closed": false, "url": "https://www.yelp.com/biz/hallo-pizza-hamburg-6?adjust_creative=hBJOknVQJ58S5goQyjmwRw&utm_campaign=yelp_api_v3&utm_medium=api_v3_business_search&utm_source=hBJOknVQJ58S5goQyjmwRw", "review_count": 5, "categories": [{"alias": "pizza", "title": "Pizza"}], "rating": 3.0, "coordinates": {"latitude": 53.49397, "longitude": 10.2071}, "transactions": [], "location": {"address1": "Alte Holstenstr. 9", "address2": "", "address3": "", "city": "Hamburg", "zip_code": "21031", "country": "DE", "state": "HH", "display_address": ["Alte Holstenstr. 9", "21031 Hamburg", "Germany"]}, "phone": "+494081974880", "display_phone": "+49 40 81974880", "distance": 1350.0088148049178}, {"id": "p0Bm5o6fbrknwGEVtzikRA", "alias": "bax-cafe-creme-hamburg", "name": "Bax Cafe Creme", "image_url": "https://s3-media1.fl.yelpcdn.com/bphoto/-0hGdxwUbHc8kKRghDaiIA/o.jpg", "is_closed": false, "url": "https://www.yelp.com/biz/bax-cafe-creme-hamburg?adjust_creative=hBJOknVQJ58S5goQyjmwRw&utm_campaign=yelp_api_v3&utm_medium=api_v3_business_search&utm_source=hBJOknVQJ58S5goQyjmwRw", "review_count": 6, "categories": [{"alias": "cakeshop", "title": "Patisserie/Cake Shop"}, {"alias": "cafes", "title": "Cafes"}], "rating": 4.0, "coordinates": {"latitude": 53.4923, "longitude": 10.20734}, "transactions": [], "price": "\u20ac\u20ac", "location": {"address1": "Alte Holstenstr. 30 - 32", "address2": null, "address3": null, "city": "Hamburg", "zip_code": "21031", "country": "DE", "state": "HH", "display_address": ["Alte Holstenstr. 30 - 32", "21031 Hamburg", "Germany"]}, "phone": "+49407217101", "display_phone": "+49 40 7217101", "distance": 1101.943718986327}, {"id": "Rrh0HV26K299ffOtiycYKw", "alias": "caf\u00e9-greco-hamburg-2", "name": "Caf\u00e9 Greco", "image_url": "https://s3-media2.fl.yelpcdn.com/bphoto/MQ6PZ8bsIdb3kDh4K578mQ/o.jpg", "is_closed": false, "url": "https://www.yelp.com/biz/caf%C3%A9-greco-hamburg-2?adjust_creative=hBJOknVQJ58S5goQyjmwRw&utm_campaign=yelp_api_v3&utm_medium=api_v3_business_search&utm_source=hBJOknVQJ58S5goQyjmwRw", "review_count": 26, "categories": [{"alias": "cafes", "title": "Cafes"}, {"alias": "coffee", "title": "Coffee & Tea"}], "rating": 3.0, "coordinates": {"latitude": 53.4888543, "longitude": 10.2115911}, "transactions": [], "price": "\u20ac\u20ac", "location": {"address1": "Bergedorfer Schlo\u00dfstr. 5", "address2": null, "address3": null, "city": "Hamburg", "zip_code": "21029", "country": "DE", "state": "HH", "display_address": ["Bergedorfer Schlo\u00dfstr. 5", "21029 Hamburg", "Germany"]}, "phone": "+49407247730", "display_phone": "+49 40 7247730", "distance": 810.3127206574301}, {"id": "wpL3fJmVfD9BxMKKEUnTlg", "alias": "masala-indian-food-express-hamburg", "name": "Masala - Indian Food Express", "image_url": "", "is_closed": false, "url": "https://www.yelp.com/biz/masala-indian-food-express-hamburg?adjust_creative=hBJOknVQJ58S5goQyjmwRw&utm_campaign=yelp_api_v3&utm_medium=api_v3_business_search&utm_source=hBJOknVQJ58S5goQyjmwRw", "review_count": 1, "categories": [{"alias": "indpak", "title": "Indian"}, {"alias": "fooddeliveryservices", "title": "Food Delivery Services"}], "rating": 4.0, "coordinates": {"latitude": 53.50882, "longitude": 10.18629}, "transactions": [], "location": {"address1": "Mendelstra\u00dfe 26D", "address2": "", "address3": null, "city": "Hamburg", "zip_code": "21031", "country": "DE", "state": "HH", "display_address": ["Mendelstra\u00dfe 26D", "21031 Hamburg", "Germany"]}, "phone": "", "display_phone": "", "distance": 3316.4189670533174}, {"id": "YwskX4DDso1WQLrpsERCuw", "alias": "aldos-pizzeria-und-more-e-k-hamburg", "name": "Aldo's Pizzeria & More e.K.", "image_url": "https://s3-media2.fl.yelpcdn.com/bphoto/behwUs-gqFl_WC37C2AlfA/o.jpg", "is_closed": false, "url": "https://www.yelp.com/biz/aldos-pizzeria-und-more-e-k-hamburg?adjust_creative=hBJOknVQJ58S5goQyjmwRw&utm_campaign=yelp_api_v3&utm_medium=api_v3_business_search&utm_source=hBJOknVQJ58S5goQyjmwRw", "review_count": 2, "categories": [{"alias": "pizza", "title": "Pizza"}, {"alias": "italian", "title": "Italian"}], "rating": 4.0, "coordinates": {"latitude": 53.5009, "longitude": 10.1984}, "transactions": [], "price": "\u20ac", "location": {"address1": "Lohbr\u00fcgger Landstr. 80", "address2": null, "address3": null, "city": "Hamburg", "zip_code": "21031", "country": "DE", "state": "HH", "display_address": ["Lohbr\u00fcgger Landstr. 80", "21031 Hamburg", "Germany"]}, "phone": "+494089725548", "display_phone": "+49 40 89725548", "distance": 2197.4426594725933}, {"id": "edje85kZBoKiccEv6Wo4mQ", "alias": "grill-shop-hamburg-2", "name": "Grill Shop", "image_url": "https://s3-media4.fl.yelpcdn.com/bphoto/ODHOBZBuD4fTiVATuCUGAA/o.jpg", "is_closed": false, "url": "https://www.yelp.com/biz/grill-shop-hamburg-2?adjust_creative=hBJOknVQJ58S5goQyjmwRw&utm_campaign=yelp_api_v3&utm_medium=api_v3_business_search&utm_source=hBJOknVQJ58S5goQyjmwRw", "review_count": 6, "categories": [{"alias": "currysausage", "title": "Curry Sausage"}, {"alias": "german", "title": "German"}], "rating": 4.5, "coordinates": {"latitude": 53.48713, "longitude": 10.21846}, "transactions": [], "price": "\u20ac\u20ac", "location": {"address1": "Wentorfer Str. 20", "address2": null, "address3": null, "city": "Hamburg", "zip_code": "21029", "country": "DE", "state": "HH", "display_address": ["Wentorfer Str. 20", "21029 Hamburg", "Germany"]}, "phone": "+49407247337", "display_phone": "+49 40 7247337", "distance": 914.5010550884549}, {"id": "HzyLYlgBFOHtKIWnc6QkfA", "alias": "frascati-grill-hamburg", "name": "Frascati Grill", "image_url": "https://s3-media4.fl.yelpcdn.com/bphoto/cZ5BVRDntqr5uho2d-bABw/o.jpg", "is_closed": false, "url": "https://www.yelp.com/biz/frascati-grill-hamburg?adjust_creative=hBJOknVQJ58S5goQyjmwRw&utm_campaign=yelp_api_v3&utm_medium=api_v3_business_search&utm_source=hBJOknVQJ58S5goQyjmwRw", "review_count": 3, "categories": [{"alias": "hotdogs", "title": "Fast Food"}], "rating": 3.5, "coordinates": {"latitude": 53.48198, "longitude": 10.20929}, "transactions": [], "price": "\u20ac\u20ac\u20ac", "location": {"address1": "Curslacker Neuer Deich 31", "address2": null, "address3": null, "city": "Hamburg", "zip_code": "21029", "country": "DE", "state": "HH", "display_address": ["Curslacker Neuer Deich 31", "21029 Hamburg", "Germany"]}, "phone": "+49407218324", "display_phone": "+49 40 7218324", "distance": 102.42801313834377}, {"id": "U8ZdmizPZNi-wSW6nyMr5A", "alias": "croque-und-co-hamburg", "name": "Croque & Co.", "image_url": "https://s3-media4.fl.yelpcdn.com/bphoto/PHAgCtgXFSk8DFOajWt9fw/o.jpg", "is_closed": false, "url": "https://www.yelp.com/biz/croque-und-co-hamburg?adjust_creative=hBJOknVQJ58S5goQyjmwRw&utm_campaign=yelp_api_v3&utm_medium=api_v3_business_search&utm_source=hBJOknVQJ58S5goQyjmwRw", "review_count": 2, "categories": [{"alias": "italian", "title": "Italian"}], "rating": 2.0, "coordinates": {"latitude": 53.5008366509923, "longitude": 10.1987437158823}, "transactions": [], "price": "\u20ac\u20ac", "location": {"address1": "Lohbr\u00fcgger Landstr.80", "address2": "", "address3": "", "city": "Hamburg", "zip_code": "21031", "country": "DE", "state": "HH", "display_address": ["Lohbr\u00fcgger Landstr.80", "21031 Hamburg", "Germany"]}, "phone": "+491115x2230", "display_phone": "+49 1115 ext. 2230", "distance": 2184.376969902551}, {"id": "9S37wxwpvOG8JMS2LNEH3A", "alias": "mcdonalds-hamburg-25", "name": "McDonald's", "image_url": "https://s3-media3.fl.yelpcdn.com/bphoto/L2POYkhCXoxfOOVpE-by7g/o.jpg", "is_closed": false, "url": "https://www.yelp.com/biz/mcdonalds-hamburg-25?adjust_creative=hBJOknVQJ58S5goQyjmwRw&utm_campaign=yelp_api_v3&utm_medium=api_v3_business_search&utm_source=hBJOknVQJ58S5goQyjmwRw", "review_count": 10, "categories": [{"alias": "hotdogs", "title": "Fast Food"}, {"alias": "burgers", "title": "Burgers"}], "rating": 2.5, "coordinates": {"latitude": 53.4806, "longitude": 10.2069}, "transactions": [], "price": "\u20ac\u20ac", "location": {"address1": "Lehfeld 2", "address2": null, "address3": null, "city": "Hamburg", "zip_code": "21029", "country": "DE", "state": "HH", "display_address": ["Lehfeld 2", "21029 Hamburg", "Germany"]}, "phone": "+49407217676", "display_phone": "+49 40 7217676", "distance": 158.69063797816713}, {"id": "QOgAHBJ-mrD0tRC3rLOEvg", "alias": "mckumpir-hamburg", "name": "McKumpir", "image_url": "https://s3-media1.fl.yelpcdn.com/bphoto/SREBizanG3oyB-ieR9shXA/o.jpg", "is_closed": false, "url": "https://www.yelp.com/biz/mckumpir-hamburg?adjust_creative=hBJOknVQJ58S5goQyjmwRw&utm_campaign=yelp_api_v3&utm_medium=api_v3_business_search&utm_source=hBJOknVQJ58S5goQyjmwRw", "review_count": 1, "categories": [{"alias": "potatoes", "title": "Potatoes"}], "rating": 5.0, "coordinates": {"latitude": 53.4868849099982, "longitude": 10.2133054286242}, "transactions": [], "location": {"address1": "Bergedorfer Str. 133", "address2": "", "address3": "", "city": "Hamburg", "zip_code": "21029", "country": "DE", "state": "HH", "display_address": ["Bergedorfer Str. 133", "21029 Hamburg", "Germany"]}, "phone": "+494055898666", "display_phone": "+49 40 55898666", "distance": 662.0055675958372}, {"id": "OakpPP3OESsTSLAoX0AXCg", "alias": "kumpir-first-hamburg", "name": "Kumpir First", "image_url": "", "is_closed": false, "url": "https://www.yelp.com/biz/kumpir-first-hamburg?adjust_creative=hBJOknVQJ58S5goQyjmwRw&utm_campaign=yelp_api_v3&utm_medium=api_v3_business_search&utm_source=hBJOknVQJ58S5goQyjmwRw", "review_count": 2, "categories": [{"alias": "potatoes", "title": "Potatoes"}], "rating": 3.5, "coordinates": {"latitude": 53.493, "longitude": 10.2071}, "transactions": [], "price": "\u20ac\u20ac", "location": {"address1": "Ale Holstenstr. 22", "address2": null, "address3": null, "city": "Hamburg", "zip_code": "21031", "country": "DE", "state": "HH", "display_address": ["Ale Holstenstr. 22", "21031 Hamburg", "Germany"]}, "phone": "", "display_phone": "", "distance": 1231.0092671505952}, {"id": "7OmvdNUi9n4EcBLmZUtxMA", "alias": "mai-mai-asia-imbiss-hamburg", "name": "Mai Mai Asia Imbiss", "image_url": "", "is_closed": false, "url": "https://www.yelp.com/biz/mai-mai-asia-imbiss-hamburg?adjust_creative=hBJOknVQJ58S5goQyjmwRw&utm_campaign=yelp_api_v3&utm_medium=api_v3_business_search&utm_source=hBJOknVQJ58S5goQyjmwRw", "review_count": 4, "categories": [{"alias": "chinese", "title": "Chinese"}], "rating": 3.0, "coordinates": {"latitude": 53.4897, "longitude": 10.2073}, "transactions": [], "price": "\u20ac\u20ac", "location": {"address1": "Am Bahnhof", "address2": null, "address3": null, "city": "Hamburg", "zip_code": "21029", "country": "DE", "state": "HH", "display_address": ["Am Bahnhof", "21029 Hamburg", "Germany"]}, "phone": "", "display_phone": "", "distance": 863.8284932493791}, {"id": "uFh86dusfDcIqUPZlAPWjA", "alias": "panos-grill-spezialit\u00e4ten-hamburg", "name": "Panos Grill Spezialit\u00e4ten", "image_url": "https://s3-media4.fl.yelpcdn.com/bphoto/R0pc3flO-9MYTnple4DP0Q/o.jpg", "is_closed": false, "url": "https://www.yelp.com/biz/panos-grill-spezialit%C3%A4ten-hamburg?adjust_creative=hBJOknVQJ58S5goQyjmwRw&utm_campaign=yelp_api_v3&utm_medium=api_v3_business_search&utm_source=hBJOknVQJ58S5goQyjmwRw", "review_count": 3, "categories": [{"alias": "hotdogs", "title": "Fast Food"}, {"alias": "greek", "title": "Greek"}], "rating": 2.5, "coordinates": {"latitude": 53.4887605, "longitude": 10.1948387}, "transactions": [], "price": "\u20ac\u20ac", "location": {"address1": "Kurt-A.-K\u00f6rber-Chaussee 53", "address2": null, "address3": null, "city": "Hamburg", "zip_code": "21033", "country": "DE", "state": "HH", "display_address": ["Kurt-A.-K\u00f6rber-Chaussee 53", "21033 Hamburg", "Germany"]}, "phone": "+494072541187", "display_phone": "+49 40 72541187", "distance": 1142.339004363374}, {"id": "tGQv0AasqyralxGUsJIZqQ", "alias": "restaurant-ramada-hamburg", "name": "Restaurant Ramada", "image_url": "https://s3-media4.fl.yelpcdn.com/bphoto/-O_1gtKPX_JM93I6Y30oAA/o.jpg", "is_closed": false, "url": "https://www.yelp.com/biz/restaurant-ramada-hamburg?adjust_creative=hBJOknVQJ58S5goQyjmwRw&utm_campaign=yelp_api_v3&utm_medium=api_v3_business_search&utm_source=hBJOknVQJ58S5goQyjmwRw", "review_count": 2, "categories": [{"alias": "international", "title": "International"}, {"alias": "german", "title": "German"}], "rating": 3.0, "coordinates": {"latitude": 53.4865, "longitude": 10.2093}, "transactions": [], "location": {"address1": "Holzhude 2", "address2": null, "address3": null, "city": "Hamburg", "zip_code": "21029", "country": "DE", "state": "HH", "display_address": ["Holzhude 2", "21029 Hamburg", "Germany"]}, "phone": "+4940725950", "display_phone": "+49 40 725950", "distance": 517.8459023704689}, {"id": "JayE4rK3kl3b6_gNXpqqQw", "alias": "bla-bla-gastst\u00e4tte-hamburg-2", "name": "Bla bla Gastst\u00e4tte", "image_url": "https://s3-media4.fl.yelpcdn.com/bphoto/ZAPXKJ0xunxGQhSXkkFZAw/o.jpg", "is_closed": false, "url": "https://www.yelp.com/biz/bla-bla-gastst%C3%A4tte-hamburg-2?adjust_creative=hBJOknVQJ58S5goQyjmwRw&utm_campaign=yelp_api_v3&utm_medium=api_v3_business_search&utm_source=hBJOknVQJ58S5goQyjmwRw", "review_count": 1, "categories": [{"alias": "german", "title": "German"}], "rating": 4.0, "coordinates": {"latitude": 53.48488, "longitude": 10.2184414}, "transactions": [], "price": "\u20ac", "location": {"address1": "Holtenklinker Str.22", "address2": "", "address3": "", "city": "Hamburg", "zip_code": "21029", "country": "DE", "state": "HH", "display_address": ["Holtenklinker Str.22", "21029 Hamburg", "Germany"]}, "phone": "+49407243714", "display_phone": "+49 40 7243714", "distance": 779.8669315381126}, {"id": "-FGEmzXxd6vzetcdQNksdg", "alias": "taverna-dimi-hamburg", "name": "Taverna Dimi", "image_url": "https://s3-media2.fl.yelpcdn.com/bphoto/T6j4KRaz6NhKa49FCqLpmA/o.jpg", "is_closed": false, "url": "https://www.yelp.com/biz/taverna-dimi-hamburg?adjust_creative=hBJOknVQJ58S5goQyjmwRw&utm_campaign=yelp_api_v3&utm_medium=api_v3_business_search&utm_source=hBJOknVQJ58S5goQyjmwRw", "review_count": 1, "categories": [{"alias": "greek", "title": "Greek"}], "rating": 1.0, "coordinates": {"latitude": 53.48597, "longitude": 10.2134}, "transactions": [], "location": {"address1": "Neuer Weg 19", "address2": null, "address3": null, "city": "Hamburg", "zip_code": "21029", "country": "DE", "state": "HH", "display_address": ["Neuer Weg 19", "21029 Hamburg", "Germany"]}, "phone": "", "display_phone": "", "distance": 594.9276145024077}, {"id": "DzijpgyXpN0nj83FU0wc_g", "alias": "schlemmershop-preuhs-hamburg", "name": "Schlemmershop Preuhs", "image_url": "", "is_closed": false, "url": "https://www.yelp.com/biz/schlemmershop-preuhs-hamburg?adjust_creative=hBJOknVQJ58S5goQyjmwRw&utm_campaign=yelp_api_v3&utm_medium=api_v3_business_search&utm_source=hBJOknVQJ58S5goQyjmwRw", "review_count": 1, "categories": [{"alias": "food", "title": "Food"}, {"alias": "delis", "title": "Delis"}], "rating": 5.0, "coordinates": {"latitude": 53.48803, "longitude": 10.20917}, "transactions": [], "location": {"address1": "Bergedorfer Str. 105", "address2": null, "address3": null, "city": "Hamburg", "zip_code": "21029", "country": "DE", "state": "HH", "display_address": ["Bergedorfer Str. 105", "21029 Hamburg", "Germany"]}, "phone": "+49407246603", "display_phone": "+49 40 7246603", "distance": 757.6471748767378}, {"id": "lASijVWpxLOBPX-oEzxx7g", "alias": "mcdonalds-glinde", "name": "McDonald's", "image_url": "https://s3-media2.fl.yelpcdn.com/bphoto/gAKejvk11mFZv12fuhgtew/o.jpg", "is_closed": false, "url": "https://www.yelp.com/biz/mcdonalds-glinde?adjust_creative=hBJOknVQJ58S5goQyjmwRw&utm_campaign=yelp_api_v3&utm_medium=api_v3_business_search&utm_source=hBJOknVQJ58S5goQyjmwRw", "review_count": 6, "categories": [{"alias": "hotdogs", "title": "Fast Food"}, {"alias": "burgers", "title": "Burgers"}], "rating": 4.0, "coordinates": {"latitude": 53.5236945069808, "longitude": 10.2284587453782}, "transactions": [], "price": "\u20ac", "location": {"address1": "Gutenbergstr. 1 a", "address2": null, "address3": null, "city": "Glinde", "zip_code": "21509", "country": "DE", "state": "SH", "display_address": ["Gutenbergstr. 1 a", "21509 Glinde", "Germany"]}, "phone": "+494072813081", "display_phone": "+49 40 72813081", "distance": 4841.237119333173}, {"id": "ssnLRo5BRqn2epOzxnHryg", "alias": "smileys-hamburg-8", "name": "Smiley's", "image_url": "https://s3-media3.fl.yelpcdn.com/bphoto/sOMzVXvslVgd4uQ3GF2pdg/o.jpg", "is_closed": false, "url": "https://www.yelp.com/biz/smileys-hamburg-8?adjust_creative=hBJOknVQJ58S5goQyjmwRw&utm_campaign=yelp_api_v3&utm_medium=api_v3_business_search&utm_source=hBJOknVQJ58S5goQyjmwRw", "review_count": 5, "categories": [{"alias": "pizza", "title": "Pizza"}], "rating": 2.0, "coordinates": {"latitude": 53.504, "longitude": 10.2147}, "transactions": [], "price": "\u20ac\u20ac", "location": {"address1": "Binnenfeldredder 40", "address2": null, "address3": null, "city": "Hamburg", "zip_code": "21031", "country": "DE", "state": "HH", "display_address": ["Binnenfeldredder 40", "21031 Hamburg", "Germany"]}, "phone": "+4940751150303", "display_phone": "+49 40 751150303", "distance": 2496.1968631501345}, {"id": "XF9HfsuWnwXbZhb73aoGXw", "alias": "nordsee-hamburg-13", "name": "Nordsee", "image_url": "https://s3-media3.fl.yelpcdn.com/bphoto/9sQl-z4MHyvvEYe8pf1q-g/o.jpg", "is_closed": false, "url": "https://www.yelp.com/biz/nordsee-hamburg-13?adjust_creative=hBJOknVQJ58S5goQyjmwRw&utm_campaign=yelp_api_v3&utm_medium=api_v3_business_search&utm_source=hBJOknVQJ58S5goQyjmwRw", "review_count": 4, "categories": [{"alias": "fischbroetchen", "title": "Fischbroetchen"}, {"alias": "seafood", "title": "Seafood"}], "rating": 3.0, "coordinates": {"latitude": 53.4885394888607, "longitude": 10.2072608079345}, "transactions": [], "price": "\u20ac\u20ac", "location": {"address1": "Weidenbaumsweg 21", "address2": "", "address3": null, "city": "Hamburg", "zip_code": "21029", "country": "DE", "state": "HH", "display_address": ["Weidenbaumsweg 21", "21029 Hamburg", "Germany"]}, "phone": "+494072004985", "display_phone": "+49 40 72004985", "distance": 734.9815527517869}]