[{"id": "TXclbOdYrVsNM2uik_m2oA", "alias": "hanseloft-buxtehude-3", "name": "HanseLoft", "image_url": "https://s3-media1.fl.yelpcdn.com/bphoto/74lClCV4LCwG8fWbKUT0sw/o.jpg", "is_closed": false, "url": "https://www.yelp.com/biz/hanseloft-buxtehude-3?adjust_creative=hBJOknVQJ58S5goQyjmwRw&utm_campaign=yelp_api_v3&utm_medium=api_v3_business_search&utm_source=hBJOknVQJ58S5goQyjmwRw", "review_count": 3, "categories": [{"alias": "italian", "title": "Italian"}, {"alias": "mediterranean", "title": "Mediterranean"}], "rating": 5.0, "coordinates": {"latitude": 53.4791, "longitude": 9.70094}, "transactions": [], "price": "\u20ac\u20ac\u20ac", "location": {"address1": "Estebr\u00fcgger Str. 2", "address2": null, "address3": null, "city": "Buxtehude", "zip_code": "21614", "country": "DE", "state": "NI", "display_address": ["Estebr\u00fcgger Str. 2", "21614 Buxtehude", "Germany"]}, "phone": "+4941615563113", "display_phone": "+49 4161 5563113", "distance": 1794.0195825824314}, {"id": "r8UoBfthkmPIltjH6pnbew", "alias": "seabreeze-restaurant-buxtehude-2", "name": "Seabreeze Restaurant", "image_url": "https://s3-media2.fl.yelpcdn.com/bphoto/yAWCiAJmlyqNyo9WhxyrXw/o.jpg", "is_closed": false, "url": "https://www.yelp.com/biz/seabreeze-restaurant-buxtehude-2?adjust_creative=hBJOknVQJ58S5goQyjmwRw&utm_campaign=yelp_api_v3&utm_medium=api_v3_business_search&utm_source=hBJOknVQJ58S5goQyjmwRw", "review_count": 11, "categories": [{"alias": "german", "title": "German"}], "rating": 4.5, "coordinates": {"latitude": 53.4775, "longitude": 9.70395}, "transactions": [], "price": "\u20ac\u20ac\u20ac", "location": {"address1": "Harburger Str. 4", "address2": "", "address3": null, "city": "Buxtehude", "zip_code": "21614", "country": "DE", "state": "NI", "display_address": ["Harburger Str. 4", "21614 Buxtehude", "Germany"]}, "phone": "+49416174900", "display_phone": "+49 4161 74900", "distance": 1705.0089766882004}, {"id": "CfKNEwv5DBnLcnBHYcu5-g", "alias": "restaurant-jogi-buxtehude", "name": "Restaurant Jogi", "image_url": "https://s3-media3.fl.yelpcdn.com/bphoto/O4rQNbdNCd4UpkcYIAdD3Q/o.jpg", "is_closed": false, "url": "https://www.yelp.com/biz/restaurant-jogi-buxtehude?adjust_creative=hBJOknVQJ58S5goQyjmwRw&utm_campaign=yelp_api_v3&utm_medium=api_v3_business_search&utm_source=hBJOknVQJ58S5goQyjmwRw", "review_count": 22, "categories": [{"alias": "indpak", "title": "Indian"}], "rating": 3.5, "coordinates": {"latitude": 53.47761, "longitude": 9.70044}, "transactions": [], "price": "\u20ac\u20ac", "location": {"address1": "Fischerstr. 1", "address2": "", "address3": null, "city": "Buxtehude", "zip_code": "21614", "country": "DE", "state": "NI", "display_address": ["Fischerstr. 1", "21614 Buxtehude", "Germany"]}, "phone": "+4941613347", "display_phone": "+49 4161 3347", "distance": 1898.2106842865562}, {"id": "ah62ICfGdGvCYSQISOj4Vg", "alias": "der-primus-buxtehude", "name": "Der Primus", "image_url": "https://s3-media2.fl.yelpcdn.com/bphoto/vmawCp2TjCXeghNsRgZbYQ/o.jpg", "is_closed": false, "url": "https://www.yelp.com/biz/der-primus-buxtehude?adjust_creative=hBJOknVQJ58S5goQyjmwRw&utm_campaign=yelp_api_v3&utm_medium=api_v3_business_search&utm_source=hBJOknVQJ58S5goQyjmwRw", "review_count": 14, "categories": [{"alias": "german", "title": "German"}], "rating": 4.5, "coordinates": {"latitude": 53.4774513, "longitude": 9.70123}, "transactions": [], "price": "\u20ac\u20ac", "location": {"address1": "Abtstr. 8", "address2": "", "address3": "", "city": "Buxtehude", "zip_code": "21614", "country": "DE", "state": "NI", "display_address": ["Abtstr. 8", "21614 Buxtehude", "Germany"]}, "phone": "+494161558281", "display_phone": "+49 4161 558281", "distance": 1859.7128578470713}, {"id": "K-c1L2ANYPM90Le7fmIAYg", "alias": "haus-fischerstra\u00dfe-3-buxtehude", "name": "Haus Fischerstra\u00dfe 3", "image_url": "https://s3-media4.fl.yelpcdn.com/bphoto/wnXiq2ywjO-T3JyAoSXVYg/o.jpg", "is_closed": false, "url": "https://www.yelp.com/biz/haus-fischerstra%C3%9Fe-3-buxtehude?adjust_creative=hBJOknVQJ58S5goQyjmwRw&utm_campaign=yelp_api_v3&utm_medium=api_v3_business_search&utm_source=hBJOknVQJ58S5goQyjmwRw", "review_count": 5, "categories": [{"alias": "german", "title": "German"}], "rating": 3.0, "coordinates": {"latitude": 53.477652, "longitude": 9.700343}, "transactions": [], "location": {"address1": "Fischerstr. 3", "address2": "", "address3": "", "city": "Buxtehude", "zip_code": "21614", "country": "DE", "state": "NI", "display_address": ["Fischerstr. 3", "21614 Buxtehude", "Germany"]}, "phone": "+4941615971442", "display_phone": "+49 4161 5971442", "distance": 1902.6265500193297}, {"id": "id08Do4Ptgy242hN7U_aDQ", "alias": "restaurant-stemmann-buxtehude", "name": "Restaurant Stemmann", "image_url": "https://s3-media4.fl.yelpcdn.com/bphoto/FCMPddHeVFhahr0aZGvmQQ/o.jpg", "is_closed": false, "url": "https://www.yelp.com/biz/restaurant-stemmann-buxtehude?adjust_creative=hBJOknVQJ58S5goQyjmwRw&utm_campaign=yelp_api_v3&utm_medium=api_v3_business_search&utm_source=hBJOknVQJ58S5goQyjmwRw", "review_count": 1, "categories": [{"alias": "german", "title": "German"}], "rating": 4.0, "coordinates": {"latitude": 53.468249, "longitude": 9.71961}, "transactions": [], "price": "\u20ac\u20ac", "location": {"address1": "Harburger Str. 110", "address2": null, "address3": null, "city": "Buxtehude", "zip_code": "21614", "country": "DE", "state": "NI", "display_address": ["Harburger Str. 110", "21614 Buxtehude", "Germany"]}, "phone": "+4941617260", "display_phone": "+49 4161 7260", "distance": 1995.0419883982606}, {"id": "WAqkN36-uj_n7w8koAT-Sg", "alias": "ratskeller-buxtehude", "name": "Ratskeller", "image_url": "https://s3-media3.fl.yelpcdn.com/bphoto/xrftAow0S1-0NQocLYPH7A/o.jpg", "is_closed": false, "url": "https://www.yelp.com/biz/ratskeller-buxtehude?adjust_creative=hBJOknVQJ58S5goQyjmwRw&utm_campaign=yelp_api_v3&utm_medium=api_v3_business_search&utm_source=hBJOknVQJ58S5goQyjmwRw", "review_count": 8, "categories": [{"alias": "german", "title": "German"}], "rating": 2.5, "coordinates": {"latitude": 53.4765299, "longitude": 9.70025}, "transactions": [], "price": "\u20ac\u20ac", "location": {"address1": "Breite Str. 2", "address2": null, "address3": null, "city": "Buxtehude", "zip_code": "21614", "country": "DE", "state": "NI", "display_address": ["Breite Str. 2", "21614 Buxtehude", "Germany"]}, "phone": "+4941617529967", "display_phone": "+49 4161 7529967", "distance": 1969.616551417594}, {"id": "G4kol3dhWtfrvPQFn7YDlA", "alias": "gastst\u00e4tte-holst-jork", "name": "Gastst\u00e4tte Holst", "image_url": "https://s3-media4.fl.yelpcdn.com/bphoto/TjxkyGaLwmlfq-dJjImKpg/o.jpg", "is_closed": false, "url": "https://www.yelp.com/biz/gastst%C3%A4tte-holst-jork?adjust_creative=hBJOknVQJ58S5goQyjmwRw&utm_campaign=yelp_api_v3&utm_medium=api_v3_business_search&utm_source=hBJOknVQJ58S5goQyjmwRw", "review_count": 1, "categories": [{"alias": "restaurants", "title": "Restaurants"}], "rating": 4.0, "coordinates": {"latitude": 53.5116, "longitude": 9.73004}, "transactions": [], "location": {"address1": "Estebr\u00fcgger Str. 93", "address2": null, "address3": null, "city": "Jork", "zip_code": "21635", "country": "DE", "state": "NI", "display_address": ["Estebr\u00fcgger Str. 93", "21635 Jork", "Germany"]}, "phone": "+494162255", "display_phone": "+49 4162 255", "distance": 2880.0012250915343}, {"id": "EjXjO4cViVs9srn6F7HDzg", "alias": "curry-23-buxtehude", "name": "Curry 23", "image_url": "https://s3-media2.fl.yelpcdn.com/bphoto/FfvN8JlM6sj9c-x9ikGSrg/o.jpg", "is_closed": false, "url": "https://www.yelp.com/biz/curry-23-buxtehude?adjust_creative=hBJOknVQJ58S5goQyjmwRw&utm_campaign=yelp_api_v3&utm_medium=api_v3_business_search&utm_source=hBJOknVQJ58S5goQyjmwRw", "review_count": 1, "categories": [{"alias": "foodstands", "title": "Food Stands"}], "rating": 5.0, "coordinates": {"latitude": 53.4668153021172, "longitude": 9.72115159034729}, "transactions": [], "location": {"address1": "Ostmoorweg 4", "address2": "", "address3": null, "city": "Buxtehude", "zip_code": "21614", "country": "DE", "state": "NI", "display_address": ["Ostmoorweg 4", "21614 Buxtehude", "Germany"]}, "phone": "", "display_phone": "", "distance": 2135.17319477338}, {"id": "7qdI-lUIZvIrz3zf2xmS4g", "alias": "dionysos-buxtehude", "name": "Dionysos", "image_url": "https://s3-media3.fl.yelpcdn.com/bphoto/U00AXZMRCWApOHIMRYCTsQ/o.jpg", "is_closed": false, "url": "https://www.yelp.com/biz/dionysos-buxtehude?adjust_creative=hBJOknVQJ58S5goQyjmwRw&utm_campaign=yelp_api_v3&utm_medium=api_v3_business_search&utm_source=hBJOknVQJ58S5goQyjmwRw", "review_count": 17, "categories": [{"alias": "greek", "title": "Greek"}], "rating": 4.0, "coordinates": {"latitude": 53.477332, "longitude": 9.701388}, "transactions": [], "price": "\u20ac\u20ac", "location": {"address1": "Abtstr. 4", "address2": "", "address3": null, "city": "Buxtehude", "zip_code": "21641", "country": "DE", "state": "NI", "display_address": ["Abtstr. 4", "21641 Buxtehude", "Germany"]}, "phone": "+494161747666", "display_phone": "+49 4161 747666", "distance": 1859.028419264686}, {"id": "Woiw_v3oAYHPbQTj5YlRcA", "alias": "restaurant-ovelg\u00f6nner-hof-buxtehude", "name": "Restaurant Ovelg\u00f6nner Hof", "image_url": "", "is_closed": false, "url": "https://www.yelp.com/biz/restaurant-ovelg%C3%B6nner-hof-buxtehude?adjust_creative=hBJOknVQJ58S5goQyjmwRw&utm_campaign=yelp_api_v3&utm_medium=api_v3_business_search&utm_source=hBJOknVQJ58S5goQyjmwRw", "review_count": 2, "categories": [{"alias": "german", "title": "German"}], "rating": 2.5, "coordinates": {"latitude": 53.45131, "longitude": 9.74717}, "transactions": [], "location": {"address1": "Hamburger Chaussee 81", "address2": "", "address3": null, "city": "Buxtehude", "zip_code": "21614", "country": "DE", "state": "NI", "display_address": ["Hamburger Chaussee 81", "21614 Buxtehude", "Germany"]}, "phone": "+4941617180", "display_phone": "+49 4161 7180", "distance": 4082.4904857809793}, {"id": "gkLi3qhDNfrIi8qVHEpKnQ", "alias": "pfeffert\u00f6rtchen-buxtehude", "name": "PfefferT\u00f6rtchen", "image_url": "https://s3-media2.fl.yelpcdn.com/bphoto/1Xy4XLhJeI6-5zwEws5cWw/o.jpg", "is_closed": false, "url": "https://www.yelp.com/biz/pfeffert%C3%B6rtchen-buxtehude?adjust_creative=hBJOknVQJ58S5goQyjmwRw&utm_campaign=yelp_api_v3&utm_medium=api_v3_business_search&utm_source=hBJOknVQJ58S5goQyjmwRw", "review_count": 6, "categories": [{"alias": "cafes", "title": "Cafes"}, {"alias": "bistros", "title": "Bistros"}], "rating": 3.5, "coordinates": {"latitude": 53.4771525, "longitude": 9.7017553}, "transactions": [], "location": {"address1": "St.-Petri-Platz 1 - 3", "address2": null, "address3": null, "city": "Buxtehude", "zip_code": "21614", "country": "DE", "state": "NI", "display_address": ["St.-Petri-Platz 1 - 3", "21614 Buxtehude", "Germany"]}, "phone": "+494161500888", "display_phone": "+49 4161 500888", "distance": 1848.4944670413176}, {"id": "9g3tkNR1Iq4Fpx4YX_x9MQ", "alias": "caf\u00e9-dammanns-jork", "name": "Caf\u00e9 Dammanns", "image_url": "", "is_closed": false, "url": "https://www.yelp.com/biz/caf%C3%A9-dammanns-jork?adjust_creative=hBJOknVQJ58S5goQyjmwRw&utm_campaign=yelp_api_v3&utm_medium=api_v3_business_search&utm_source=hBJOknVQJ58S5goQyjmwRw", "review_count": 3, "categories": [{"alias": "cafes", "title": "Cafes"}], "rating": 3.0, "coordinates": {"latitude": 53.5191, "longitude": 9.73069}, "transactions": [], "location": {"address1": "Gro\u00df Hove 2", "address2": null, "address3": null, "city": "Jork", "zip_code": "21635", "country": "DE", "state": "NI", "display_address": ["Gro\u00df Hove 2", "21635 Jork", "Germany"]}, "phone": "+4941629131989", "display_phone": "+49 4162 9131989", "distance": 3714.219402310642}, {"id": "VwHQYAFAJY4CNPEj9u-YPA", "alias": "gasthaus-k\u00f6nigreich-jork", "name": "Gasthaus K\u00f6nigreich", "image_url": "", "is_closed": false, "url": "https://www.yelp.com/biz/gasthaus-k%C3%B6nigreich-jork?adjust_creative=hBJOknVQJ58S5goQyjmwRw&utm_campaign=yelp_api_v3&utm_medium=api_v3_business_search&utm_source=hBJOknVQJ58S5goQyjmwRw", "review_count": 4, "categories": [{"alias": "hotels", "title": "Hotels"}, {"alias": "german", "title": "German"}], "rating": 3.0, "coordinates": {"latitude": 53.5205, "longitude": 9.72545}, "transactions": [], "price": "\u20ac", "location": {"address1": "Obstmarschenweg 1", "address2": null, "address3": null, "city": "Jork", "zip_code": "21635", "country": "DE", "state": "NI", "display_address": ["Obstmarschenweg 1", "21635 Jork", "Germany"]}, "phone": "+4941627675", "display_phone": "+49 4162 7675", "distance": 3854.474574711227}]