[{"id": "P60dbmGnbgDrqUFTDPUIoQ", "alias": "hansekai-hamburg", "name": "Hansekai", "image_url": "https://s3-media2.fl.yelpcdn.com/bphoto/-ott8KJ1eH4hxUNkGNpW-Q/o.jpg", "is_closed": false, "url": "https://www.yelp.com/biz/hansekai-hamburg?adjust_creative=hBJOknVQJ58S5goQyjmwRw&utm_campaign=yelp_api_v3&utm_medium=api_v3_business_search&utm_source=hBJOknVQJ58S5goQyjmwRw", "review_count": 22, "categories": [{"alias": "international", "title": "International"}, {"alias": "burgers", "title": "Burgers"}, {"alias": "beachbars", "title": "Beach Bars"}], "rating": 4.5, "coordinates": {"latitude": 53.5080361720089, "longitude": 10.0018857781181}, "transactions": [], "price": "\u20ac\u20ac", "location": {"address1": "Jaffestr. 12", "address2": "", "address3": "", "city": "Hamburg", "zip_code": "21109", "country": "DE", "state": "HH", "display_address": ["Jaffestr. 12", "21109 Hamburg", "Germany"]}, "phone": "+494033396262", "display_phone": "+49 40 33396262", "distance": 3180.369784046674}, {"id": "yFKrFeN3B3-AZh6FClPM0A", "alias": "mr-kebab-s\u00fcdland-hamburg", "name": "Mr. Kebab S\u00fcdland", "image_url": "https://s3-media1.fl.yelpcdn.com/bphoto/MtJMIdh9ExNJLIlWLPdfew/o.jpg", "is_closed": false, "url": "https://www.yelp.com/biz/mr-kebab-s%C3%BCdland-hamburg?adjust_creative=hBJOknVQJ58S5goQyjmwRw&utm_campaign=yelp_api_v3&utm_medium=api_v3_business_search&utm_source=hBJOknVQJ58S5goQyjmwRw", "review_count": 9, "categories": [{"alias": "turkish", "title": "Turkish"}, {"alias": "kebab", "title": "Kebab"}], "rating": 5.0, "coordinates": {"latitude": 53.4972749534473, "longitude": 10.0043760985136}, "transactions": [], "price": "\u20ac\u20ac", "location": {"address1": "Neuenfelder Str. 31", "address2": "", "address3": "", "city": "Hamburg", "zip_code": "21109", "country": "DE", "state": "HH", "display_address": ["Neuenfelder Str. 31", "21109 Hamburg", "Germany"]}, "phone": "+4915209060666", "display_phone": "+49 1520 9060666", "distance": 2128.9629626036126}, {"id": "HruG03Njlxgm3x31iY6q_Q", "alias": "pizzeria-piccola-hamburg", "name": "Pizzeria Piccola", "image_url": "https://s3-media2.fl.yelpcdn.com/bphoto/3DypNNz208QleNj_ydOb-Q/o.jpg", "is_closed": false, "url": "https://www.yelp.com/biz/pizzeria-piccola-hamburg?adjust_creative=hBJOknVQJ58S5goQyjmwRw&utm_campaign=yelp_api_v3&utm_medium=api_v3_business_search&utm_source=hBJOknVQJ58S5goQyjmwRw", "review_count": 29, "categories": [{"alias": "pizza", "title": "Pizza"}, {"alias": "italian", "title": "Italian"}], "rating": 5.0, "coordinates": {"latitude": 53.52375, "longitude": 10.01573}, "transactions": [], "price": "\u20ac", "location": {"address1": "Wilhelmsburger Platz 14", "address2": "", "address3": "", "city": "Hamburg", "zip_code": "20539", "country": "DE", "state": "HH", "display_address": ["Wilhelmsburger Platz 14", "20539 Hamburg", "Germany"]}, "phone": "+494079008490", "display_phone": "+49 40 79008490", "distance": 4522.774305629306}, {"id": "EgKKnh3rXM6vvU8ChA_Cag", "alias": "tortuga-beach-hamburg", "name": "Tortuga Beach", "image_url": "https://s3-media1.fl.yelpcdn.com/bphoto/BwMra9jGdoe_Q7uTRITDug/o.jpg", "is_closed": false, "url": "https://www.yelp.com/biz/tortuga-beach-hamburg?adjust_creative=hBJOknVQJ58S5goQyjmwRw&utm_campaign=yelp_api_v3&utm_medium=api_v3_business_search&utm_source=hBJOknVQJ58S5goQyjmwRw", "review_count": 5, "categories": [{"alias": "bars", "title": "Bars"}, {"alias": "italian", "title": "Italian"}, {"alias": "burgers", "title": "Burgers"}], "rating": 4.5, "coordinates": {"latitude": 53.4590968, "longitude": 10.0138964}, "transactions": [], "price": "\u20ac\u20ac", "location": {"address1": "Am Neul\u00e4nder Baggerteich 3", "address2": "", "address3": "", "city": "Hamburg", "zip_code": "21079", "country": "DE", "state": "HH", "display_address": ["Am Neul\u00e4nder Baggerteich 3", "21079 Hamburg", "Germany"]}, "phone": "+494915231713404", "display_phone": "+49 491 5231713404", "distance": 2861.010536046006}, {"id": "tsMbmtFE7c8oI4BpbBWfkQ", "alias": "refugium-hamburg", "name": "Refugium", "image_url": "https://s3-media2.fl.yelpcdn.com/bphoto/bHZfzE7ViTgSRY7PhswAtw/o.jpg", "is_closed": false, "url": "https://www.yelp.com/biz/refugium-hamburg?adjust_creative=hBJOknVQJ58S5goQyjmwRw&utm_campaign=yelp_api_v3&utm_medium=api_v3_business_search&utm_source=hBJOknVQJ58S5goQyjmwRw", "review_count": 1, "categories": [{"alias": "mediterranean", "title": "Mediterranean"}, {"alias": "bistros", "title": "Bistros"}], "rating": 4.0, "coordinates": {"latitude": 53.4945412, "longitude": 10.0030804}, "transactions": [], "price": "\u20ac\u20ac", "location": {"address1": "Inselpark 20", "address2": "", "address3": "", "city": "Hamburg", "zip_code": "21109", "country": "DE", "state": "HH", "display_address": ["Inselpark 20", "21109 Hamburg", "Germany"]}, "phone": "+494033442688", "display_phone": "+49 40 33442688", "distance": 1984.0841253373603}, {"id": "O3_9LrM2z7eyznSAP9KrsA", "alias": "ufuk-imbiss-hamburg", "name": "Ufuk Imbiss", "image_url": "https://s3-media2.fl.yelpcdn.com/bphoto/goYm_dAQrCE9-1hW9ORJxw/o.jpg", "is_closed": false, "url": "https://www.yelp.com/biz/ufuk-imbiss-hamburg?adjust_creative=hBJOknVQJ58S5goQyjmwRw&utm_campaign=yelp_api_v3&utm_medium=api_v3_business_search&utm_source=hBJOknVQJ58S5goQyjmwRw", "review_count": 7, "categories": [{"alias": "kebab", "title": "Kebab"}], "rating": 4.5, "coordinates": {"latitude": 53.4930679366908, "longitude": 10.0133583998035}, "transactions": [], "price": "\u20ac", "location": {"address1": "Neuenfelder Str. 96", "address2": null, "address3": null, "city": "Hamburg", "zip_code": "21109", "country": "DE", "state": "HH", "display_address": ["Neuenfelder Str. 96", "21109 Hamburg", "Germany"]}, "phone": "+491734556070", "display_phone": "+49 173 4556070", "distance": 1382.083543933529}, {"id": "SFUK2wwcdACH-1iYf5-y4Q", "alias": "juventude-do-minho-hamburg", "name": "Juventude do Minho", "image_url": "", "is_closed": false, "url": "https://www.yelp.com/biz/juventude-do-minho-hamburg?adjust_creative=hBJOknVQJ58S5goQyjmwRw&utm_campaign=yelp_api_v3&utm_medium=api_v3_business_search&utm_source=hBJOknVQJ58S5goQyjmwRw", "review_count": 2, "categories": [{"alias": "portuguese", "title": "Portuguese"}], "rating": 4.5, "coordinates": {"latitude": 53.5169, "longitude": 10.0035}, "transactions": [], "price": "\u20ac", "location": {"address1": "Stenzelring 24", "address2": null, "address3": null, "city": "Hamburg", "zip_code": "21107", "country": "DE", "state": "HH", "display_address": ["Stenzelring 24", "21107 Hamburg", "Germany"]}, "phone": "+49407521101", "display_phone": "+49 40 7521101", "distance": 4011.6687889280115}, {"id": "svMvWfP_oj_T5ol1u3gH0A", "alias": "gasthof-sohre-hamburg", "name": "Gasthof Sohre", "image_url": "https://s3-media2.fl.yelpcdn.com/bphoto/JLMLC6GhAnw8WCg0KW-btw/o.jpg", "is_closed": false, "url": "https://www.yelp.com/biz/gasthof-sohre-hamburg?adjust_creative=hBJOknVQJ58S5goQyjmwRw&utm_campaign=yelp_api_v3&utm_medium=api_v3_business_search&utm_source=hBJOknVQJ58S5goQyjmwRw", "review_count": 20, "categories": [{"alias": "hotels", "title": "Hotels"}, {"alias": "german", "title": "German"}], "rating": 3.5, "coordinates": {"latitude": 53.4869, "longitude": 10.0163}, "transactions": [], "price": "\u20ac\u20ac", "location": {"address1": "Kirchdorfer Str. 169", "address2": null, "address3": null, "city": "Hamburg", "zip_code": "21109", "country": "DE", "state": "HH", "display_address": ["Kirchdorfer Str. 169", "21109 Hamburg", "Germany"]}, "phone": "+494031976742", "display_phone": "+49 40 31976742", "distance": 792.8071066717466}, {"id": "bV7QqSWeT214eEYNKFHfUQ", "alias": "schweinske-hamburg-14", "name": "Schweinske", "image_url": "https://s3-media2.fl.yelpcdn.com/bphoto/EP1I_Xr6BSXui6fd3YbgDQ/o.jpg", "is_closed": false, "url": "https://www.yelp.com/biz/schweinske-hamburg-14?adjust_creative=hBJOknVQJ58S5goQyjmwRw&utm_campaign=yelp_api_v3&utm_medium=api_v3_business_search&utm_source=hBJOknVQJ58S5goQyjmwRw", "review_count": 7, "categories": [{"alias": "german", "title": "German"}], "rating": 3.0, "coordinates": {"latitude": 53.4982, "longitude": 10.011}, "transactions": [], "price": "\u20ac\u20ac\u20ac", "location": {"address1": "Berta-Kr\u00f6ger-Platz", "address2": "Krieterstr. 18", "address3": null, "city": "Hamburg", "zip_code": "21109", "country": "DE", "state": "HH", "display_address": ["Berta-Kr\u00f6ger-Platz", "Krieterstr. 18", "21109 Hamburg", "Germany"]}, "phone": "+494023936965", "display_phone": "+49 40 23936965", "distance": 1933.581856122924}, {"id": "gd_YrUKvO5wVpw5Z7zPQWQ", "alias": "taverna-knossos-palace-hamburg", "name": "Taverna Knossos Palace", "image_url": "https://s3-media1.fl.yelpcdn.com/bphoto/8Fn_uEiBAwvYU7RLA4nwmg/o.jpg", "is_closed": false, "url": "https://www.yelp.com/biz/taverna-knossos-palace-hamburg?adjust_creative=hBJOknVQJ58S5goQyjmwRw&utm_campaign=yelp_api_v3&utm_medium=api_v3_business_search&utm_source=hBJOknVQJ58S5goQyjmwRw", "review_count": 12, "categories": [{"alias": "greek", "title": "Greek"}], "rating": 4.0, "coordinates": {"latitude": 53.49909, "longitude": 10.02473}, "transactions": [], "price": "\u20ac\u20ac", "location": {"address1": "Kirchdorfer Str. 48", "address2": "", "address3": "", "city": "Hamburg", "zip_code": "21109", "country": "DE", "state": "HH", "display_address": ["Kirchdorfer Str. 48", "21109 Hamburg", "Germany"]}, "phone": "+494023936053", "display_phone": "+49 40 23936053", "distance": 1727.5302371222317}, {"id": "w-uxLCNAf06QBlfzC83DAQ", "alias": "sallis-imbiss-b\u00e4ckerei-kiosk-hamburg", "name": "Salli's Imbiss B\u00e4ckerei Kiosk", "image_url": "https://s3-media3.fl.yelpcdn.com/bphoto/diHMMAd18aWy_LL3XHbbDQ/o.jpg", "is_closed": false, "url": "https://www.yelp.com/biz/sallis-imbiss-b%C3%A4ckerei-kiosk-hamburg?adjust_creative=hBJOknVQJ58S5goQyjmwRw&utm_campaign=yelp_api_v3&utm_medium=api_v3_business_search&utm_source=hBJOknVQJ58S5goQyjmwRw", "review_count": 5, "categories": [{"alias": "hotdogs", "title": "Fast Food"}, {"alias": "kebab", "title": "Kebab"}], "rating": 2.5, "coordinates": {"latitude": 53.5229472, "longitude": 10.014432}, "transactions": [], "price": "\u20ac\u20ac", "location": {"address1": "Wilhelmsburger Platz   Hamburg 10", "address2": null, "address3": null, "city": "Hamburg", "zip_code": "20539", "country": "DE", "state": "HH", "display_address": ["Wilhelmsburger Platz   Hamburg 10", "20539 Hamburg", "Germany"]}, "phone": "+494078089429", "display_phone": "+49 40 78089429", "distance": 4449.9031166357745}, {"id": "r86H2RdbCSvuBXG4NPe-9Q", "alias": "imbi\u00df-kutscherstube-hamburg", "name": "Imbi\u00df Kutscherstube", "image_url": "https://s3-media2.fl.yelpcdn.com/bphoto/cEabUhISIkK9plp6NE4cYw/o.jpg", "is_closed": false, "url": "https://www.yelp.com/biz/imbi%C3%9F-kutscherstube-hamburg?adjust_creative=hBJOknVQJ58S5goQyjmwRw&utm_campaign=yelp_api_v3&utm_medium=api_v3_business_search&utm_source=hBJOknVQJ58S5goQyjmwRw", "review_count": 3, "categories": [{"alias": "hotdogs", "title": "Fast Food"}], "rating": 4.5, "coordinates": {"latitude": 53.45736, "longitude": 10.01091}, "transactions": [], "price": "\u20ac", "location": {"address1": "Grossmoorbogen 11 a", "address2": "", "address3": "", "city": "Hamburg", "zip_code": "21079", "country": "DE", "state": "HH", "display_address": ["Grossmoorbogen 11 a", "21079 Hamburg", "Germany"]}, "phone": "+494033319762", "display_phone": "+49 40 33319762", "distance": 3106.537584219028}, {"id": "_lnuho27eVj0Mo9uaUwKjw", "alias": "mina-restaurant-hamburg", "name": "Mina Restaurant", "image_url": "https://s3-media3.fl.yelpcdn.com/bphoto/sQklcxFb_JpubEyocZAv0g/o.jpg", "is_closed": false, "url": "https://www.yelp.com/biz/mina-restaurant-hamburg?adjust_creative=hBJOknVQJ58S5goQyjmwRw&utm_campaign=yelp_api_v3&utm_medium=api_v3_business_search&utm_source=hBJOknVQJ58S5goQyjmwRw", "review_count": 9, "categories": [{"alias": "hotdogs", "title": "Fast Food"}], "rating": 3.5, "coordinates": {"latitude": 53.49804, "longitude": 10.00861}, "transactions": [], "price": "\u20ac", "location": {"address1": "Wilhelm-Strau\u00df-Weg 8", "address2": "", "address3": "", "city": "Hamburg", "zip_code": "21109", "country": "DE", "state": "HH", "display_address": ["Wilhelm-Strau\u00df-Weg 8", "21109 Hamburg", "Germany"]}, "phone": "+494030236968", "display_phone": "+49 40 30236968", "distance": 2009.9648131072743}, {"id": "sdAZwPKxjK9G_tgdBTQm_Q", "alias": "hallo-pizza-hamburg-16", "name": "Hallo Pizza", "image_url": "https://s3-media1.fl.yelpcdn.com/bphoto/Ws_ObNA3I4z-EMXMgWO2-g/o.jpg", "is_closed": false, "url": "https://www.yelp.com/biz/hallo-pizza-hamburg-16?adjust_creative=hBJOknVQJ58S5goQyjmwRw&utm_campaign=yelp_api_v3&utm_medium=api_v3_business_search&utm_source=hBJOknVQJ58S5goQyjmwRw", "review_count": 1, "categories": [{"alias": "pizza", "title": "Pizza"}], "rating": 5.0, "coordinates": {"latitude": 53.4961847403054, "longitude": 10.0036735875583}, "transactions": [], "location": {"address1": "Neuenfelder Str. 31", "address2": "", "address3": null, "city": "Hamburg", "zip_code": "20457", "country": "DE", "state": "HH", "display_address": ["Neuenfelder Str. 31", "20457 Hamburg", "Germany"]}, "phone": "+494031807141", "display_phone": "+49 40 31807141", "distance": 2078.5141033934765}, {"id": "FY6Q336c3PrPp0L1hQW8xA", "alias": "kupferkrug-hamburg-2", "name": "Kupferkrug", "image_url": "https://s3-media2.fl.yelpcdn.com/bphoto/bcUnTUt1FY0jQRh_m4zz4A/o.jpg", "is_closed": false, "url": "https://www.yelp.com/biz/kupferkrug-hamburg-2?adjust_creative=hBJOknVQJ58S5goQyjmwRw&utm_campaign=yelp_api_v3&utm_medium=api_v3_business_search&utm_source=hBJOknVQJ58S5goQyjmwRw", "review_count": 13, "categories": [{"alias": "german", "title": "German"}], "rating": 4.0, "coordinates": {"latitude": 53.51124, "longitude": 10.02055}, "transactions": [], "price": "\u20ac\u20ac\u20ac", "location": {"address1": "Niedergeorgswerder Deich 75", "address2": null, "address3": null, "city": "Hamburg", "zip_code": "21109", "country": "DE", "state": "HH", "display_address": ["Niedergeorgswerder Deich 75", "21109 Hamburg", "Germany"]}, "phone": "+49407544901", "display_phone": "+49 40 7544901", "distance": 3099.49507589715}, {"id": "ceta9UkTZYUYM_fBq7G_hQ", "alias": "le-meridien-hamburg-stillhorn-hamburg", "name": "Le Meridien Hamburg-Stillhorn****", "image_url": "", "is_closed": false, "url": "https://www.yelp.com/biz/le-meridien-hamburg-stillhorn-hamburg?adjust_creative=hBJOknVQJ58S5goQyjmwRw&utm_campaign=yelp_api_v3&utm_medium=api_v3_business_search&utm_source=hBJOknVQJ58S5goQyjmwRw", "review_count": 1, "categories": [{"alias": "international", "title": "International"}, {"alias": "german", "title": "German"}], "rating": 1.0, "coordinates": {"latitude": 53.48, "longitude": 10.0248}, "transactions": [], "location": {"address1": "Stillhorner Weg 40", "address2": null, "address3": null, "city": "Hamburg", "zip_code": "21109", "country": "DE", "state": "HH", "display_address": ["Stillhorner Weg 40", "21109 Hamburg", "Germany"]}, "phone": "+4940750150", "display_phone": "+49 40 750150", "distance": 427.4714156604293}, {"id": "RsWynCVZqVoHY8nTdx89Zw", "alias": "vatandas-hamburg", "name": "Vatandas", "image_url": "https://s3-media3.fl.yelpcdn.com/bphoto/IgLXSWyxkYXi-93l1LUB0A/o.jpg", "is_closed": false, "url": "https://www.yelp.com/biz/vatandas-hamburg?adjust_creative=hBJOknVQJ58S5goQyjmwRw&utm_campaign=yelp_api_v3&utm_medium=api_v3_business_search&utm_source=hBJOknVQJ58S5goQyjmwRw", "review_count": 1, "categories": [{"alias": "hotdogs", "title": "Fast Food"}], "rating": 4.0, "coordinates": {"latitude": 53.5254, "longitude": 10.021}, "transactions": [], "location": {"address1": "Veddeler Br\u00fcckenstr. 132", "address2": null, "address3": null, "city": "Hamburg", "zip_code": "20539", "country": "DE", "state": "HH", "display_address": ["Veddeler Br\u00fcckenstr. 132", "20539 Hamburg", "Germany"]}, "phone": "+494041548862", "display_phone": "+49 40 41548862", "distance": 4661.624606344831}, {"id": "AlDUWW2NRY5iWci8qbBJag", "alias": "bistro-sharri-hamburg", "name": "Bistro Sharri", "image_url": "https://s3-media2.fl.yelpcdn.com/bphoto/A5vAJhLb8SG5ZTFUkN4Q7w/o.jpg", "is_closed": false, "url": "https://www.yelp.com/biz/bistro-sharri-hamburg?adjust_creative=hBJOknVQJ58S5goQyjmwRw&utm_campaign=yelp_api_v3&utm_medium=api_v3_business_search&utm_source=hBJOknVQJ58S5goQyjmwRw", "review_count": 1, "categories": [{"alias": "bistros", "title": "Bistros"}, {"alias": "modern_european", "title": "Modern European"}], "rating": 4.0, "coordinates": {"latitude": 53.5011180951635, "longitude": 10.0088192406728}, "transactions": [], "price": "\u20ac\u20ac", "location": {"address1": "Wittestra\u00dfe 7", "address2": "", "address3": null, "city": "Hamburg", "zip_code": "21109", "country": "DE", "state": "HH", "display_address": ["Wittestra\u00dfe 7", "21109 Hamburg", "Germany"]}, "phone": "+494031794321", "display_phone": "+49 40 31794321", "distance": 2284.893432479818}, {"id": "eiiSy1-2zbpcdvMmHzMtzg", "alias": "kotan-imbis-hamburg-3", "name": "Kotan \u0130mbis", "image_url": "https://s3-media2.fl.yelpcdn.com/bphoto/0MMBhvtM7pmASgdkjQzL0A/o.jpg", "is_closed": false, "url": "https://www.yelp.com/biz/kotan-imbis-hamburg-3?adjust_creative=hBJOknVQJ58S5goQyjmwRw&utm_campaign=yelp_api_v3&utm_medium=api_v3_business_search&utm_source=hBJOknVQJ58S5goQyjmwRw", "review_count": 1, "categories": [{"alias": "hotdogs", "title": "Fast Food"}], "rating": 5.0, "coordinates": {"latitude": 53.525, "longitude": 10.0208}, "transactions": [], "location": {"address1": "Veddeler Br\u00fcckenstr. 69", "address2": null, "address3": null, "city": "Hamburg", "zip_code": "20539", "country": "DE", "state": "HH", "display_address": ["Veddeler Br\u00fcckenstr. 69", "20539 Hamburg", "Germany"]}, "phone": "", "display_phone": "", "distance": 4618.451859873165}, {"id": "_jg-uq_jg1L9ASCZNd54Tg", "alias": "smileys-hamburg-19", "name": "Smileys", "image_url": "", "is_closed": false, "url": "https://www.yelp.com/biz/smileys-hamburg-19?adjust_creative=hBJOknVQJ58S5goQyjmwRw&utm_campaign=yelp_api_v3&utm_medium=api_v3_business_search&utm_source=hBJOknVQJ58S5goQyjmwRw", "review_count": 1, "categories": [{"alias": "pizza", "title": "Pizza"}], "rating": 4.0, "coordinates": {"latitude": 53.48524, "longitude": 10.01903}, "transactions": [], "price": "\u20ac\u20ac\u20ac", "location": {"address1": "Kirchdorfer Damm 3", "address2": "", "address3": "", "city": "Hamburg", "zip_code": "21109", "country": "DE", "state": "HH", "display_address": ["Kirchdorfer Damm 3", "21109 Hamburg", "Germany"]}, "phone": "+494075062232", "display_phone": "+49 40 75062232", "distance": 568.9206136438897}, {"id": "opZw8A9bdxiAtEaK9HsIpg", "alias": "cafe-kaltehofe-hamburg", "name": "Cafe Kaltehofe", "image_url": "https://s3-media1.fl.yelpcdn.com/bphoto/-SBPTxsjwRH5SJYThXwoYA/o.jpg", "is_closed": false, "url": "https://www.yelp.com/biz/cafe-kaltehofe-hamburg?adjust_creative=hBJOknVQJ58S5goQyjmwRw&utm_campaign=yelp_api_v3&utm_medium=api_v3_business_search&utm_source=hBJOknVQJ58S5goQyjmwRw", "review_count": 8, "categories": [{"alias": "cafes", "title": "Cafes"}], "rating": 3.0, "coordinates": {"latitude": 53.5247, "longitude": 10.0508}, "transactions": [], "price": "\u20ac\u20ac\u20ac", "location": {"address1": "Kaltehofe Hauptdeich 6-7", "address2": null, "address3": null, "city": "Hamburg", "zip_code": "20439", "country": "DE", "state": "HH", "display_address": ["Kaltehofe Hauptdeich 6-7", "20439 Hamburg", "Germany"]}, "phone": "+4940788849992", "display_phone": "+49 40 788849992", "distance": 4831.993123509814}, {"id": "Knjq3e0foO65SAwwNtr4mg", "alias": "kantine-stadtreinigung-hamburg", "name": "Kantine Stadtreinigung", "image_url": "", "is_closed": false, "url": "https://www.yelp.com/biz/kantine-stadtreinigung-hamburg?adjust_creative=hBJOknVQJ58S5goQyjmwRw&utm_campaign=yelp_api_v3&utm_medium=api_v3_business_search&utm_source=hBJOknVQJ58S5goQyjmwRw", "review_count": 4, "categories": [{"alias": "canteen", "title": "Canteen"}], "rating": 3.5, "coordinates": {"latitude": 53.4602, "longitude": 10.0021}, "transactions": [], "price": "\u20ac\u20ac", "location": {"address1": "Neul\u00e4nder Kamp 6", "address2": "", "address3": null, "city": "Hamburg", "zip_code": "21079", "country": "DE", "state": "HH", "display_address": ["Neul\u00e4nder Kamp 6", "21079 Hamburg", "Germany"]}, "phone": "", "display_phone": "", "distance": 3080.4704431113487}, {"id": "0N2WPiWN_kI_3TQlab_uAg", "alias": "mai-mai-hamburg-9", "name": "mai-mai", "image_url": "https://s3-media3.fl.yelpcdn.com/bphoto/v7jYJU4bpeRQl0ZjhMO9ng/o.jpg", "is_closed": false, "url": "https://www.yelp.com/biz/mai-mai-hamburg-9?adjust_creative=hBJOknVQJ58S5goQyjmwRw&utm_campaign=yelp_api_v3&utm_medium=api_v3_business_search&utm_source=hBJOknVQJ58S5goQyjmwRw", "review_count": 2, "categories": [{"alias": "panasian", "title": "Pan Asian"}], "rating": 3.0, "coordinates": {"latitude": 53.49866, "longitude": 10.00908}, "transactions": [], "location": {"address1": "Wilhelm-Strau\u00df-Weg 2 b", "address2": "", "address3": "", "city": "Hamburg", "zip_code": "21109", "country": "DE", "state": "HH", "display_address": ["Wilhelm-Strau\u00df-Weg 2 b", "21109 Hamburg", "Germany"]}, "phone": "+494036919568", "display_phone": "+49 40 36919568", "distance": 2045.7093454729584}, {"id": "gBH3d24lctwqqCQkiAyNWw", "alias": "mina-hamburg", "name": "Mina", "image_url": "https://s3-media4.fl.yelpcdn.com/bphoto/pAnAfcHsKmFEjdELLPcLDA/o.jpg", "is_closed": false, "url": "https://www.yelp.com/biz/mina-hamburg?adjust_creative=hBJOknVQJ58S5goQyjmwRw&utm_campaign=yelp_api_v3&utm_medium=api_v3_business_search&utm_source=hBJOknVQJ58S5goQyjmwRw", "review_count": 1, "categories": [{"alias": "kebab", "title": "Kebab"}], "rating": 1.0, "coordinates": {"latitude": 53.4978479484476, "longitude": 10.0068896636367}, "transactions": [], "location": {"address1": "Wilhelm-Strau\u00df-Weg 1 b", "address2": "", "address3": "S-Bahnhof Wilhelmsburg", "city": "Hamburg", "zip_code": "21109", "country": "DE", "state": "HH", "display_address": ["Wilhelm-Strau\u00df-Weg 1 b", "S-Bahnhof Wilhelmsburg", "21109 Hamburg", "Germany"]}, "phone": "", "display_phone": "", "distance": 2064.221697598103}]