[{"id": "GWc6M7-6bwt3Y3-QP6HpvA", "alias": "long-xuan-buxtehude", "name": "Long Xuan", "image_url": "https://s3-media2.fl.yelpcdn.com/bphoto/FMkLFTd8NePGvgqVtLV3rw/o.jpg", "is_closed": false, "url": "https://www.yelp.com/biz/long-xuan-buxtehude?adjust_creative=hBJOknVQJ58S5goQyjmwRw&utm_campaign=yelp_api_v3&utm_medium=api_v3_business_search&utm_source=hBJOknVQJ58S5goQyjmwRw", "review_count": 6, "categories": [{"alias": "mongolian", "title": "Mongolian"}, {"alias": "chinese", "title": "Chinese"}, {"alias": "sushi", "title": "Sushi Bars"}], "rating": 3.5, "coordinates": {"latitude": 53.45146, "longitude": 9.75572}, "transactions": [], "location": {"address1": "Hamburger Chaussee 125", "address2": "", "address3": "", "city": "Buxtehude", "zip_code": "21614", "country": "DE", "state": "NI", "display_address": ["Hamburger Chaussee 125", "21614 Buxtehude", "Germany"]}, "phone": "+4941615409381", "display_phone": "+49 4161 5409381", "distance": 3804.997281088182}, {"id": "QVDVdmM_wjuaBKrF3H6SOg", "alias": "imbiss-zum-kleinen-grafen-neu-wulmstorf", "name": "Imbiss Zum kleinen Grafen", "image_url": "https://s3-media3.fl.yelpcdn.com/bphoto/3YU9-rrqU1fU_mrbGwFMOA/o.jpg", "is_closed": false, "url": "https://www.yelp.com/biz/imbiss-zum-kleinen-grafen-neu-wulmstorf?adjust_creative=hBJOknVQJ58S5goQyjmwRw&utm_campaign=yelp_api_v3&utm_medium=api_v3_business_search&utm_source=hBJOknVQJ58S5goQyjmwRw", "review_count": 1, "categories": [{"alias": "hotdogs", "title": "Fast Food"}, {"alias": "foodstands", "title": "Food Stands"}], "rating": 5.0, "coordinates": {"latitude": 53.4596, "longitude": 9.78043}, "transactions": [], "location": {"address1": "Graf-Luckner-Weg 1", "address2": null, "address3": null, "city": "Neu Wulmstorf", "zip_code": "21629", "country": "DE", "state": "NI", "display_address": ["Graf-Luckner-Weg 1", "21629 Neu Wulmstorf", "Germany"]}, "phone": "+4917655073432", "display_phone": "+49 176 55073432", "distance": 3326.4754407071614}, {"id": "Woiw_v3oAYHPbQTj5YlRcA", "alias": "restaurant-ovelg\u00f6nner-hof-buxtehude", "name": "Restaurant Ovelg\u00f6nner Hof", "image_url": "", "is_closed": false, "url": "https://www.yelp.com/biz/restaurant-ovelg%C3%B6nner-hof-buxtehude?adjust_creative=hBJOknVQJ58S5goQyjmwRw&utm_campaign=yelp_api_v3&utm_medium=api_v3_business_search&utm_source=hBJOknVQJ58S5goQyjmwRw", "review_count": 2, "categories": [{"alias": "german", "title": "German"}], "rating": 2.5, "coordinates": {"latitude": 53.45131, "longitude": 9.74717}, "transactions": [], "location": {"address1": "Hamburger Chaussee 81", "address2": "", "address3": null, "city": "Buxtehude", "zip_code": "21614", "country": "DE", "state": "NI", "display_address": ["Hamburger Chaussee 81", "21614 Buxtehude", "Germany"]}, "phone": "+4941617180", "display_phone": "+49 4161 7180", "distance": 3840.7379388187196}, {"id": "9g3tkNR1Iq4Fpx4YX_x9MQ", "alias": "caf\u00e9-dammanns-jork", "name": "Caf\u00e9 Dammanns", "image_url": "", "is_closed": false, "url": "https://www.yelp.com/biz/caf%C3%A9-dammanns-jork?adjust_creative=hBJOknVQJ58S5goQyjmwRw&utm_campaign=yelp_api_v3&utm_medium=api_v3_business_search&utm_source=hBJOknVQJ58S5goQyjmwRw", "review_count": 3, "categories": [{"alias": "cafes", "title": "Cafes"}], "rating": 3.0, "coordinates": {"latitude": 53.5191, "longitude": 9.73069}, "transactions": [], "location": {"address1": "Gro\u00df Hove 2", "address2": null, "address3": null, "city": "Jork", "zip_code": "21635", "country": "DE", "state": "NI", "display_address": ["Gro\u00df Hove 2", "21635 Jork", "Germany"]}, "phone": "+4941629131989", "display_phone": "+49 4162 9131989", "distance": 4071.1833971592864}]