[{"id": "dpRmaAsro244woCbG-KXsQ", "alias": "zum-eichbaum-hamburg", "name": "Zum Eichbaum", "image_url": "https://s3-media3.fl.yelpcdn.com/bphoto/7sVtbVfEtQKroT84_5DbYA/o.jpg", "is_closed": false, "url": "https://www.yelp.com/biz/zum-eichbaum-hamburg?adjust_creative=hBJOknVQJ58S5goQyjmwRw&utm_campaign=yelp_api_v3&utm_medium=api_v3_business_search&utm_source=hBJOknVQJ58S5goQyjmwRw", "review_count": 46, "categories": [{"alias": "german", "title": "German"}, {"alias": "hotels", "title": "Hotels"}], "rating": 4.0, "coordinates": {"latitude": 53.4881351625541, "longitude": 10.1045254522435}, "transactions": [], "price": "\u20ac\u20ac", "location": {"address1": "Moorfleeter Deich 477", "address2": "", "address3": "", "city": "Hamburg", "zip_code": "21037", "country": "DE", "state": "HH", "display_address": ["Moorfleeter Deich 477", "21037 Hamburg", "Germany"]}, "phone": "+49407372655", "display_phone": "+49 40 7372655", "distance": 1034.1777761793458}, {"id": "cENV4e-uYI6n9rz-djMLpg", "alias": "fresh-factory-hamburg", "name": "Fresh Factory", "image_url": "", "is_closed": false, "url": "https://www.yelp.com/biz/fresh-factory-hamburg?adjust_creative=hBJOknVQJ58S5goQyjmwRw&utm_campaign=yelp_api_v3&utm_medium=api_v3_business_search&utm_source=hBJOknVQJ58S5goQyjmwRw", "review_count": 1, "categories": [{"alias": "salad", "title": "Salad"}, {"alias": "juicebars", "title": "Juice Bars & Smoothies"}], "rating": 4.0, "coordinates": {"latitude": 53.52276, "longitude": 10.09576}, "transactions": [], "location": {"address1": "Porgesring 11", "address2": "", "address3": "", "city": "Hamburg", "zip_code": "22113", "country": "DE", "state": "HH", "display_address": ["Porgesring 11", "22113 Hamburg", "Germany"]}, "phone": "+494054750750", "display_phone": "+49 40 54750750", "distance": 4666.591516183891}, {"id": "HOF5OiBdvdlwq1KVzE9ZWw", "alias": "landhaus-voigt-hamburg", "name": "Landhaus Voigt", "image_url": "https://s3-media2.fl.yelpcdn.com/bphoto/iLXdjMtQuNu03XFhRfD6cQ/o.jpg", "is_closed": false, "url": "https://www.yelp.com/biz/landhaus-voigt-hamburg?adjust_creative=hBJOknVQJ58S5goQyjmwRw&utm_campaign=yelp_api_v3&utm_medium=api_v3_business_search&utm_source=hBJOknVQJ58S5goQyjmwRw", "review_count": 11, "categories": [{"alias": "german", "title": "German"}], "rating": 3.0, "coordinates": {"latitude": 53.4752032, "longitude": 10.1021493}, "transactions": [], "price": "\u20ac\u20ac", "location": {"address1": "Ochsenwerder Norderdeich  113", "address2": null, "address3": null, "city": "Hamburg", "zip_code": "21037", "country": "DE", "state": "HH", "display_address": ["Ochsenwerder Norderdeich  113", "21037 Hamburg", "Germany"]}, "phone": "+49407372440", "display_phone": "+49 40 7372440", "distance": 1314.453693878506}, {"id": "HVhu33lr5QK50I8F2s9Wlw", "alias": "surf-station-elke-vollstedt-hamburg", "name": "Surf-Station Elke Vollstedt", "image_url": "https://s3-media2.fl.yelpcdn.com/bphoto/ZGud6jsBYkleQU6yHmWvFQ/o.jpg", "is_closed": false, "url": "https://www.yelp.com/biz/surf-station-elke-vollstedt-hamburg?adjust_creative=hBJOknVQJ58S5goQyjmwRw&utm_campaign=yelp_api_v3&utm_medium=api_v3_business_search&utm_source=hBJOknVQJ58S5goQyjmwRw", "review_count": 2, "categories": [{"alias": "hotdogs", "title": "Fast Food"}], "rating": 4.5, "coordinates": {"latitude": 53.4401, "longitude": 10.1015}, "transactions": [], "location": {"address1": "Overwerder Hauptdeich 1", "address2": null, "address3": null, "city": "Hamburg", "zip_code": "21037", "country": "DE", "state": "HH", "display_address": ["Overwerder Hauptdeich 1", "21037 Hamburg", "Germany"]}, "phone": "+49407374397", "display_phone": "+49 40 7374397", "distance": 4864.190218831156}, {"id": "0Dq2u8WaFJlQnWTVpIHsDw", "alias": "bermudadreieck-hamburg", "name": "Bermudadreieck", "image_url": "https://s3-media1.fl.yelpcdn.com/bphoto/Il20waVhS8IK9_oTX9TOLw/o.jpg", "is_closed": false, "url": "https://www.yelp.com/biz/bermudadreieck-hamburg?adjust_creative=hBJOknVQJ58S5goQyjmwRw&utm_campaign=yelp_api_v3&utm_medium=api_v3_business_search&utm_source=hBJOknVQJ58S5goQyjmwRw", "review_count": 2, "categories": [{"alias": "restaurants", "title": "Restaurants"}], "rating": 3.0, "coordinates": {"latitude": 53.52567, "longitude": 10.11074}, "transactions": [], "price": "\u20ac", "location": {"address1": "Billwerder Billdeich 1", "address2": "", "address3": "", "city": "Hamburg", "zip_code": "22113", "country": "DE", "state": "HH", "display_address": ["Billwerder Billdeich 1", "22113 Hamburg", "Germany"]}, "phone": "", "display_phone": "", "distance": 4779.899073610637}]