[{"id": "T9OQgG47wDgC2KS81vg0oQ", "alias": "restaurant-raman-reinbek", "name": "Restaurant Raman", "image_url": "https://s3-media2.fl.yelpcdn.com/bphoto/tWShxHdufHOvurg21hgGKw/o.jpg", "is_closed": false, "url": "https://www.yelp.com/biz/restaurant-raman-reinbek?adjust_creative=hBJOknVQJ58S5goQyjmwRw&utm_campaign=yelp_api_v3&utm_medium=api_v3_business_search&utm_source=hBJOknVQJ58S5goQyjmwRw", "review_count": 18, "categories": [{"alias": "indpak", "title": "Indian"}], "rating": 4.5, "coordinates": {"latitude": 53.50894, "longitude": 10.25133}, "transactions": [], "price": "\u20ac\u20ac", "location": {"address1": "Bahnhofstr. 4", "address2": "", "address3": "", "city": "Reinbek", "zip_code": "21465", "country": "DE", "state": "SH", "display_address": ["Bahnhofstr. 4", "21465 Reinbek", "Germany"]}, "phone": "+494078877166", "display_phone": "+49 40 78877166", "distance": 1555.6575266745494}, {"id": "AMbkic_af-ke7ZA4--xJ3g", "alias": "baitong-reinbek-2", "name": "Baitong", "image_url": "https://s3-media4.fl.yelpcdn.com/bphoto/MfrH2VPnSs931-I4gGgMbg/o.jpg", "is_closed": false, "url": "https://www.yelp.com/biz/baitong-reinbek-2?adjust_creative=hBJOknVQJ58S5goQyjmwRw&utm_campaign=yelp_api_v3&utm_medium=api_v3_business_search&utm_source=hBJOknVQJ58S5goQyjmwRw", "review_count": 2, "categories": [{"alias": "thai", "title": "Thai"}], "rating": 5.0, "coordinates": {"latitude": 53.5088070620295, "longitude": 10.2539520550026}, "transactions": [], "location": {"address1": "Sophienstr. 7", "address2": "", "address3": null, "city": "Reinbek", "zip_code": "21465", "country": "DE", "state": "SH", "display_address": ["Sophienstr. 7", "21465 Reinbek", "Germany"]}, "phone": "+494078017878", "display_phone": "+49 40 78017878", "distance": 1432.5583402494253}, {"id": "y19OFck2j0sD_cLTGHwciQ", "alias": "zur-alten-16-wentorf", "name": "Zur Alten 16", "image_url": "", "is_closed": false, "url": "https://www.yelp.com/biz/zur-alten-16-wentorf?adjust_creative=hBJOknVQJ58S5goQyjmwRw&utm_campaign=yelp_api_v3&utm_medium=api_v3_business_search&utm_source=hBJOknVQJ58S5goQyjmwRw", "review_count": 2, "categories": [{"alias": "german", "title": "German"}], "rating": 4.5, "coordinates": {"latitude": 53.489, "longitude": 10.2473}, "transactions": [], "price": "\u20ac\u20ac", "location": {"address1": "Hamburger Landstr. 28b", "address2": null, "address3": null, "city": "Wentorf", "zip_code": "21465", "country": "DE", "state": "SH", "display_address": ["Hamburger Landstr. 28b", "21465 Wentorf", "Germany"]}, "phone": "+49407204316", "display_phone": "+49 40 7204316", "distance": 1811.7218202659426}, {"id": "GJMSfLc1PhadJ8Th8yeu7w", "alias": "great-asia-house-reinbek", "name": "Great Asia House", "image_url": "https://s3-media4.fl.yelpcdn.com/bphoto/69fVut01cEqueFfdbp_ebw/o.jpg", "is_closed": false, "url": "https://www.yelp.com/biz/great-asia-house-reinbek?adjust_creative=hBJOknVQJ58S5goQyjmwRw&utm_campaign=yelp_api_v3&utm_medium=api_v3_business_search&utm_source=hBJOknVQJ58S5goQyjmwRw", "review_count": 11, "categories": [{"alias": "mongolian", "title": "Mongolian"}, {"alias": "chinese", "title": "Chinese"}, {"alias": "panasian", "title": "Pan Asian"}], "rating": 4.0, "coordinates": {"latitude": 53.5111209958541, "longitude": 10.2512080594897}, "transactions": [], "price": "\u20ac\u20ac", "location": {"address1": "Bergstr. 1-9", "address2": "", "address3": "", "city": "Reinbek", "zip_code": "21465", "country": "DE", "state": "SH", "display_address": ["Bergstr. 1-9", "21465 Reinbek", "Germany"]}, "phone": "+494038652100", "display_phone": "+49 40 38652100", "distance": 1745.3877226974926}, {"id": "XkWCRoKT9xo3WGnYi7Fceg", "alias": "mongolei-wentorf-bei-hamburg", "name": "Mongolei", "image_url": "https://s3-media2.fl.yelpcdn.com/bphoto/v_o-gDSFYB1fz4apBLXm5Q/o.jpg", "is_closed": false, "url": "https://www.yelp.com/biz/mongolei-wentorf-bei-hamburg?adjust_creative=hBJOknVQJ58S5goQyjmwRw&utm_campaign=yelp_api_v3&utm_medium=api_v3_business_search&utm_source=hBJOknVQJ58S5goQyjmwRw", "review_count": 42, "categories": [{"alias": "mongolian", "title": "Mongolian"}, {"alias": "buffets", "title": "Buffets"}], "rating": 3.0, "coordinates": {"latitude": 53.4909, "longitude": 10.25127}, "transactions": [], "price": "\u20ac\u20ac", "location": {"address1": "Hamburger Landstr. 41", "address2": "", "address3": "", "city": "Wentorf bei Hamburg", "zip_code": "21465", "country": "DE", "state": "SH", "display_address": ["Hamburger Landstr. 41", "21465 Wentorf bei Hamburg", "Germany"]}, "phone": "+494063678388", "display_phone": "+49 40 63678388", "distance": 1471.2610269965812}, {"id": "zyNzT7I7tYdCjmDSiILDBA", "alias": "thai-asia-wok-wentorf-bei-hamburg", "name": "Thai Asia Wok", "image_url": "https://s3-media4.fl.yelpcdn.com/bphoto/eHVf5_O6xDN6kEx1zMB77Q/o.jpg", "is_closed": false, "url": "https://www.yelp.com/biz/thai-asia-wok-wentorf-bei-hamburg?adjust_creative=hBJOknVQJ58S5goQyjmwRw&utm_campaign=yelp_api_v3&utm_medium=api_v3_business_search&utm_source=hBJOknVQJ58S5goQyjmwRw", "review_count": 2, "categories": [{"alias": "thai", "title": "Thai"}], "rating": 4.5, "coordinates": {"latitude": 53.487743, "longitude": 10.26275}, "transactions": [], "location": {"address1": "S\u00fcdring 46", "address2": "", "address3": "", "city": "Wentorf bei Hamburg", "zip_code": "21465", "country": "DE", "state": "SH", "display_address": ["S\u00fcdring 46", "21465 Wentorf bei Hamburg", "Germany"]}, "phone": "+494071189181", "display_phone": "+49 40 71189181", "distance": 1345.3397859960955}, {"id": "Be6vXJcIpF4-MrEtYj0OnQ", "alias": "helena-reinbek", "name": "Helena", "image_url": "https://s3-media1.fl.yelpcdn.com/bphoto/W0YpWSIDNMTsC8_N51CJCw/o.jpg", "is_closed": false, "url": "https://www.yelp.com/biz/helena-reinbek?adjust_creative=hBJOknVQJ58S5goQyjmwRw&utm_campaign=yelp_api_v3&utm_medium=api_v3_business_search&utm_source=hBJOknVQJ58S5goQyjmwRw", "review_count": 23, "categories": [{"alias": "greek", "title": "Greek"}], "rating": 4.5, "coordinates": {"latitude": 53.512, "longitude": 10.2508}, "transactions": [], "price": "\u20ac\u20ac", "location": {"address1": "Am Rosenplatz  5", "address2": null, "address3": null, "city": "Reinbek", "zip_code": "21465", "country": "DE", "state": "SH", "display_address": ["Am Rosenplatz  5", "21465 Reinbek", "Germany"]}, "phone": "+49407228824", "display_phone": "+49 40 7228824", "distance": 1837.3309276140994}, {"id": "UySKD0bPtb6YhtC5Fp_9dA", "alias": "il-posto-reinbek", "name": "Il Posto", "image_url": "https://s3-media1.fl.yelpcdn.com/bphoto/_0nAdKO7ZjwAI2YGjbCNog/o.jpg", "is_closed": false, "url": "https://www.yelp.com/biz/il-posto-reinbek?adjust_creative=hBJOknVQJ58S5goQyjmwRw&utm_campaign=yelp_api_v3&utm_medium=api_v3_business_search&utm_source=hBJOknVQJ58S5goQyjmwRw", "review_count": 2, "categories": [{"alias": "pizza", "title": "Pizza"}, {"alias": "italian", "title": "Italian"}], "rating": 4.5, "coordinates": {"latitude": 53.51269, "longitude": 10.2531199}, "transactions": [], "price": "\u20ac\u20ac", "location": {"address1": "Sch\u00f6nningstedter Str. 2", "address2": null, "address3": "", "city": "Reinbek", "zip_code": "21465", "country": "DE", "state": "SH", "display_address": ["Sch\u00f6nningstedter Str. 2", "21465 Reinbek", "Germany"]}, "phone": "+494046654698", "display_phone": "+49 40 46654698", "distance": 1802.4053859721726}, {"id": "GEcvvuBMISOIxHyec8Xs7Q", "alias": "athena-grill-wentorf", "name": "Athena Grill", "image_url": "https://s3-media1.fl.yelpcdn.com/bphoto/SxIR5JAz7TVlLHVPkfpJ4w/o.jpg", "is_closed": false, "url": "https://www.yelp.com/biz/athena-grill-wentorf?adjust_creative=hBJOknVQJ58S5goQyjmwRw&utm_campaign=yelp_api_v3&utm_medium=api_v3_business_search&utm_source=hBJOknVQJ58S5goQyjmwRw", "review_count": 5, "categories": [{"alias": "greek", "title": "Greek"}], "rating": 4.0, "coordinates": {"latitude": 53.4913, "longitude": 10.2572}, "transactions": [], "price": "\u20ac\u20ac", "location": {"address1": "Am Grotensahl 6 - 10", "address2": null, "address3": null, "city": "Wentorf", "zip_code": "21465", "country": "DE", "state": "SH", "display_address": ["Am Grotensahl 6 - 10", "21465 Wentorf", "Germany"]}, "phone": "+494023959787", "display_phone": "+49 40 23959787", "distance": 1162.4013243504671}, {"id": "j9QQrXFns_0mtAj6EEPxUg", "alias": "bistro-lorenzino-reinbek-2", "name": "Bistro Lorenzino", "image_url": "https://s3-media4.fl.yelpcdn.com/bphoto/ylzAWXm3iZ2nms-I8by4MQ/o.jpg", "is_closed": false, "url": "https://www.yelp.com/biz/bistro-lorenzino-reinbek-2?adjust_creative=hBJOknVQJ58S5goQyjmwRw&utm_campaign=yelp_api_v3&utm_medium=api_v3_business_search&utm_source=hBJOknVQJ58S5goQyjmwRw", "review_count": 15, "categories": [{"alias": "bistros", "title": "Bistros"}, {"alias": "italian", "title": "Italian"}, {"alias": "pizza", "title": "Pizza"}], "rating": 4.0, "coordinates": {"latitude": 53.5216113, "longitude": 10.2452981}, "transactions": [], "price": "\u20ac\u20ac", "location": {"address1": "Hermann-K\u00f6rner-Str. 48 - 50", "address2": "", "address3": "", "city": "Reinbek", "zip_code": "21465", "country": "DE", "state": "SH", "display_address": ["Hermann-K\u00f6rner-Str. 48 - 50", "21465 Reinbek", "Germany"]}, "phone": "+4940797507150", "display_phone": "+49 40 797507150", "distance": 2919.892734488381}, {"id": "s6gX18cAQY-K43VoMJK6bQ", "alias": "restaurant-schlo\u00df-reinbek-reinbek-2", "name": "Restaurant Schlo\u00df Reinbek", "image_url": "https://s3-media2.fl.yelpcdn.com/bphoto/5CGGd8g8MRbfXasicFTsoA/o.jpg", "is_closed": false, "url": "https://www.yelp.com/biz/restaurant-schlo%C3%9F-reinbek-reinbek-2?adjust_creative=hBJOknVQJ58S5goQyjmwRw&utm_campaign=yelp_api_v3&utm_medium=api_v3_business_search&utm_source=hBJOknVQJ58S5goQyjmwRw", "review_count": 5, "categories": [{"alias": "international", "title": "International"}], "rating": 4.5, "coordinates": {"latitude": 53.50732, "longitude": 10.25405}, "transactions": [], "location": {"address1": "Schlo\u00dfstr. 5", "address2": null, "address3": null, "city": "Reinbek", "zip_code": "21465", "country": "DE", "state": "SH", "display_address": ["Schlo\u00dfstr. 5", "21465 Reinbek", "Germany"]}, "phone": "+494073093030", "display_phone": "+49 40 73093030", "distance": 1300.7023728374265}, {"id": "JF4a1Vg18qepoYsWyhEaJQ", "alias": "ristorante-pizzeria-luce-wentorf", "name": "Ristorante Pizzeria Luce", "image_url": "", "is_closed": false, "url": "https://www.yelp.com/biz/ristorante-pizzeria-luce-wentorf?adjust_creative=hBJOknVQJ58S5goQyjmwRw&utm_campaign=yelp_api_v3&utm_medium=api_v3_business_search&utm_source=hBJOknVQJ58S5goQyjmwRw", "review_count": 11, "categories": [{"alias": "italian", "title": "Italian"}, {"alias": "pizza", "title": "Pizza"}], "rating": 4.5, "coordinates": {"latitude": 53.4941, "longitude": 10.2557}, "transactions": [], "price": "\u20ac\u20ac\u20ac", "location": {"address1": "Hauptstr. 18", "address2": null, "address3": null, "city": "Wentorf", "zip_code": "21465", "country": "DE", "state": "SH", "display_address": ["Hauptstr. 18", "21465 Wentorf", "Germany"]}, "phone": "+49407247569", "display_phone": "+49 40 7247569", "distance": 1026.6177154761913}, {"id": "oSS5B6u4qsV56NW_fXM8oA", "alias": "najis-mittelmeer-bahnhof-b\u00f6rnsen", "name": "Naji's Mittelmeer Bahnhof", "image_url": "https://s3-media4.fl.yelpcdn.com/bphoto/0g8ty0MCZOy8QBss3LMIrw/o.jpg", "is_closed": false, "url": "https://www.yelp.com/biz/najis-mittelmeer-bahnhof-b%C3%B6rnsen?adjust_creative=hBJOknVQJ58S5goQyjmwRw&utm_campaign=yelp_api_v3&utm_medium=api_v3_business_search&utm_source=hBJOknVQJ58S5goQyjmwRw", "review_count": 18, "categories": [{"alias": "mideastern", "title": "Middle Eastern"}, {"alias": "syrian", "title": "Syrian"}, {"alias": "oriental", "title": "Oriental"}], "rating": 4.5, "coordinates": {"latitude": 53.46908, "longitude": 10.27777}, "transactions": [], "price": "\u20ac\u20ac", "location": {"address1": "Lauenburger Landstr. 18a", "address2": null, "address3": null, "city": "B\u00f6rnsen", "zip_code": "21039", "country": "DE", "state": "SH", "display_address": ["Lauenburger Landstr. 18a", "21039 B\u00f6rnsen", "Germany"]}, "phone": "+49407204740", "display_phone": "+49 40 7204740", "distance": 3414.2293510483164}, {"id": "nnKZ3Jbk_tbJ-Q4rjD6TWQ", "alias": "bringezu-reinbek-4", "name": "Bringezu", "image_url": "https://s3-media4.fl.yelpcdn.com/bphoto/0Nqh6ZMpw5pu-bzQMZ221g/o.jpg", "is_closed": false, "url": "https://www.yelp.com/biz/bringezu-reinbek-4?adjust_creative=hBJOknVQJ58S5goQyjmwRw&utm_campaign=yelp_api_v3&utm_medium=api_v3_business_search&utm_source=hBJOknVQJ58S5goQyjmwRw", "review_count": 1, "categories": [{"alias": "german", "title": "German"}], "rating": 4.0, "coordinates": {"latitude": 53.50732, "longitude": 10.25405}, "transactions": [], "location": {"address1": "Schlo\u00dfstr. 5", "address2": "", "address3": null, "city": "Reinbek", "zip_code": "21465", "country": "DE", "state": "SH", "display_address": ["Schlo\u00dfstr. 5", "21465 Reinbek", "Germany"]}, "phone": "+494073093030", "display_phone": "+49 40 73093030", "distance": 1300.7023728374265}, {"id": "F48sWGuWLddqnpnMIp_oEQ", "alias": "ristorante-lino-reinbek", "name": "Ristorante Lino", "image_url": "https://s3-media2.fl.yelpcdn.com/bphoto/_27bzcmU_QRW2qhvn68_4Q/o.jpg", "is_closed": false, "url": "https://www.yelp.com/biz/ristorante-lino-reinbek?adjust_creative=hBJOknVQJ58S5goQyjmwRw&utm_campaign=yelp_api_v3&utm_medium=api_v3_business_search&utm_source=hBJOknVQJ58S5goQyjmwRw", "review_count": 19, "categories": [{"alias": "italian", "title": "Italian"}], "rating": 3.5, "coordinates": {"latitude": 53.5089, "longitude": 10.2505}, "transactions": [], "price": "\u20ac\u20ac", "location": {"address1": "Bahnhofstr. 11", "address2": null, "address3": null, "city": "Reinbek", "zip_code": "21465", "country": "DE", "state": "SH", "display_address": ["Bahnhofstr. 11", "21465 Reinbek", "Germany"]}, "phone": "+494038649412", "display_phone": "+49 40 38649412", "distance": 1602.1601059426755}, {"id": "xWpwRMkPP_zh11Z25vDO5Q", "alias": "zur-m\u00fchle-reinbek", "name": "Zur M\u00fchle", "image_url": "https://s3-media3.fl.yelpcdn.com/bphoto/jXfdNPFjAn4mAPBWBLaL-Q/o.jpg", "is_closed": false, "url": "https://www.yelp.com/biz/zur-m%C3%BChle-reinbek?adjust_creative=hBJOknVQJ58S5goQyjmwRw&utm_campaign=yelp_api_v3&utm_medium=api_v3_business_search&utm_source=hBJOknVQJ58S5goQyjmwRw", "review_count": 43, "categories": [{"alias": "breakfast_brunch", "title": "Breakfast & Brunch"}, {"alias": "bars", "title": "Bars"}, {"alias": "steak", "title": "Steakhouses"}], "rating": 3.5, "coordinates": {"latitude": 53.5269019595082, "longitude": 10.2600353415857}, "transactions": [], "price": "\u20ac\u20ac", "location": {"address1": "M\u00fchlenweg 1", "address2": "", "address3": "", "city": "Reinbek", "zip_code": "21465", "country": "DE", "state": "SH", "display_address": ["M\u00fchlenweg 1", "21465 Reinbek", "Germany"]}, "phone": "+494072810538", "display_phone": "+49 40 72810538", "distance": 3121.9940893713137}, {"id": "md5-xaqZKpJkJ3NSouQ6SA", "alias": "restaurant-spark-s-reinbek", "name": "Restaurant Spark\u00b4s", "image_url": "https://s3-media3.fl.yelpcdn.com/bphoto/snI-nqbOcEeqM-_qIjYYxQ/o.jpg", "is_closed": false, "url": "https://www.yelp.com/biz/restaurant-spark-s-reinbek?adjust_creative=hBJOknVQJ58S5goQyjmwRw&utm_campaign=yelp_api_v3&utm_medium=api_v3_business_search&utm_source=hBJOknVQJ58S5goQyjmwRw", "review_count": 11, "categories": [{"alias": "international", "title": "International"}], "rating": 4.0, "coordinates": {"latitude": 53.5215416, "longitude": 10.2434998}, "transactions": [], "price": "\u20ac\u20ac\u20ac", "location": {"address1": "Hermann-K\u00f6rner-Str. 49", "address2": "", "address3": "", "city": "Reinbek", "zip_code": "21465", "country": "DE", "state": "SH", "display_address": ["Hermann-K\u00f6rner-Str. 49", "21465 Reinbek", "Germany"]}, "phone": "+494073601116", "display_phone": "+49 40 73601116", "distance": 2985.153096971385}, {"id": "afWOLrr2PZLyeDsXZeojKg", "alias": "mundfein-pizzawerkstatt-wentorf-bei-hamburg", "name": "Mundfein Pizzawerkstatt", "image_url": "", "is_closed": false, "url": "https://www.yelp.com/biz/mundfein-pizzawerkstatt-wentorf-bei-hamburg?adjust_creative=hBJOknVQJ58S5goQyjmwRw&utm_campaign=yelp_api_v3&utm_medium=api_v3_business_search&utm_source=hBJOknVQJ58S5goQyjmwRw", "review_count": 3, "categories": [{"alias": "pizza", "title": "Pizza"}], "rating": 4.5, "coordinates": {"latitude": 53.49121, "longitude": 10.25412}, "transactions": [], "price": "\u20ac\u20ac", "location": {"address1": "Berliner Landstr. 9 a", "address2": "", "address3": "", "city": "Wentorf bei Hamburg", "zip_code": "21465", "country": "DE", "state": "SH", "display_address": ["Berliner Landstr. 9 a", "21465 Wentorf bei Hamburg", "Germany"]}, "phone": "+494076500807", "display_phone": "+49 40 76500807", "distance": 1305.3670489498636}, {"id": "u8si7Xkz7hyfba47Ybq6IQ", "alias": "berlin-d\u00f6ner-reinbek", "name": "Berlin D\u00f6ner", "image_url": "https://s3-media1.fl.yelpcdn.com/bphoto/W2uka2ZO2Afd635E3A1pdw/o.jpg", "is_closed": false, "url": "https://www.yelp.com/biz/berlin-d%C3%B6ner-reinbek?adjust_creative=hBJOknVQJ58S5goQyjmwRw&utm_campaign=yelp_api_v3&utm_medium=api_v3_business_search&utm_source=hBJOknVQJ58S5goQyjmwRw", "review_count": 5, "categories": [{"alias": "kebab", "title": "Kebab"}], "rating": 2.0, "coordinates": {"latitude": 53.508062, "longitude": 10.25115}, "transactions": [], "price": "\u20ac", "location": {"address1": "Sophienstr. 2 B", "address2": null, "address3": null, "city": "Reinbek", "zip_code": "21465", "country": "DE", "state": "SH", "display_address": ["Sophienstr. 2 B", "21465 Reinbek", "Germany"]}, "phone": "", "display_phone": "", "distance": 1508.5195775912866}, {"id": "qcFFOWpkEkG3ITFD8BlJmw", "alias": "china-restaurant-westsee-palast-wohltorf", "name": "China-Restaurant Westsee Palast", "image_url": "https://s3-media3.fl.yelpcdn.com/bphoto/50P8TIzmFR2J2zlzheGI9Q/o.jpg", "is_closed": false, "url": "https://www.yelp.com/biz/china-restaurant-westsee-palast-wohltorf?adjust_creative=hBJOknVQJ58S5goQyjmwRw&utm_campaign=yelp_api_v3&utm_medium=api_v3_business_search&utm_source=hBJOknVQJ58S5goQyjmwRw", "review_count": 14, "categories": [{"alias": "chinese", "title": "Chinese"}], "rating": 4.0, "coordinates": {"latitude": 53.5203, "longitude": 10.2763}, "transactions": [], "price": "\u20ac\u20ac", "location": {"address1": "Kastanienallee 1", "address2": null, "address3": null, "city": "Wohltorf", "zip_code": "21521", "country": "DE", "state": "SH", "display_address": ["Kastanienallee 1", "21521 Wohltorf", "Germany"]}, "phone": "+4941045202", "display_phone": "+49 4104 5202", "distance": 2392.447745278829}, {"id": "faKURxONbe2INqK5BXHdag", "alias": "imbiss-oase-wentorf-bei-hamburg", "name": "Imbiss Oase", "image_url": "https://s3-media3.fl.yelpcdn.com/bphoto/END3LKvUozXKb3ONNRhsyA/o.jpg", "is_closed": false, "url": "https://www.yelp.com/biz/imbiss-oase-wentorf-bei-hamburg?adjust_creative=hBJOknVQJ58S5goQyjmwRw&utm_campaign=yelp_api_v3&utm_medium=api_v3_business_search&utm_source=hBJOknVQJ58S5goQyjmwRw", "review_count": 10, "categories": [{"alias": "currysausage", "title": "Curry Sausage"}, {"alias": "hotdogs", "title": "Fast Food"}], "rating": 5.0, "coordinates": {"latitude": 53.4909899, "longitude": 10.25225}, "transactions": [], "price": "\u20ac", "location": {"address1": "Berliner Landstr. 2", "address2": "", "address3": "", "city": "Wentorf bei Hamburg", "zip_code": "21465", "country": "DE", "state": "SH", "display_address": ["Berliner Landstr. 2", "21465 Wentorf bei Hamburg", "Germany"]}, "phone": "+49407208687", "display_phone": "+49 40 7208687", "distance": 1422.9579856785329}, {"id": "DqwNoshewJ0Xi90cnmvt5Q", "alias": "ristorante-la-stella-reinbek", "name": "Ristorante La Stella", "image_url": "https://s3-media2.fl.yelpcdn.com/bphoto/Gbv9caQYgdbV_cIgUSCPuA/o.jpg", "is_closed": false, "url": "https://www.yelp.com/biz/ristorante-la-stella-reinbek?adjust_creative=hBJOknVQJ58S5goQyjmwRw&utm_campaign=yelp_api_v3&utm_medium=api_v3_business_search&utm_source=hBJOknVQJ58S5goQyjmwRw", "review_count": 11, "categories": [{"alias": "italian", "title": "Italian"}], "rating": 3.5, "coordinates": {"latitude": 53.5115, "longitude": 10.2516}, "transactions": [], "price": "\u20ac\u20ac\u20ac", "location": {"address1": "Am Rosenplatz 2", "address2": null, "address3": null, "city": "Reinbek", "zip_code": "21465", "country": "DE", "state": "SH", "display_address": ["Am Rosenplatz 2", "21465 Reinbek", "Germany"]}, "phone": "+49407229902", "display_phone": "+49 40 7229902", "distance": 1760.77270149222}, {"id": "DVKffPJvyr_9UHWSfp5hDg", "alias": "china-restaurant-lotos-wentorf", "name": "China Restaurant Lotos", "image_url": "https://s3-media4.fl.yelpcdn.com/bphoto/yEfMH5OUPFMPgsRGQyhpxw/o.jpg", "is_closed": false, "url": "https://www.yelp.com/biz/china-restaurant-lotos-wentorf?adjust_creative=hBJOknVQJ58S5goQyjmwRw&utm_campaign=yelp_api_v3&utm_medium=api_v3_business_search&utm_source=hBJOknVQJ58S5goQyjmwRw", "review_count": 8, "categories": [{"alias": "chinese", "title": "Chinese"}], "rating": 3.5, "coordinates": {"latitude": 53.4908, "longitude": 10.2515}, "transactions": [], "price": "\u20ac\u20ac", "location": {"address1": "Hamburger Landstr. 38", "address2": null, "address3": null, "city": "Wentorf", "zip_code": "21465", "country": "DE", "state": "SH", "display_address": ["Hamburger Landstr. 38", "21465 Wentorf", "Germany"]}, "phone": "+49407203782", "display_phone": "+49 40 7203782", "distance": 1470.0151636871633}, {"id": "l6PcEyzNyDJnCKs74Ox7GQ", "alias": "restaurant-niemanns-gasthof-reinbek", "name": "Restaurant Niemann's Gasthof", "image_url": "https://s3-media3.fl.yelpcdn.com/bphoto/WZdTCXcgl6WRGT8wxomqAw/o.jpg", "is_closed": false, "url": "https://www.yelp.com/biz/restaurant-niemanns-gasthof-reinbek?adjust_creative=hBJOknVQJ58S5goQyjmwRw&utm_campaign=yelp_api_v3&utm_medium=api_v3_business_search&utm_source=hBJOknVQJ58S5goQyjmwRw", "review_count": 21, "categories": [{"alias": "german", "title": "German"}], "rating": 3.5, "coordinates": {"latitude": 53.53, "longitude": 10.2778}, "transactions": [], "price": "\u20ac\u20ac\u20ac", "location": {"address1": "Silk 5", "address2": null, "address3": null, "city": "Reinbek", "zip_code": "21465", "country": "DE", "state": "SH", "display_address": ["Silk 5", "21465 Reinbek", "Germany"]}, "phone": "+4941042391", "display_phone": "+49 4104 2391", "distance": 3469.8100890834676}, {"id": "mBSBEhOSnrE3CFiHrgv2Tw", "alias": "lee-peking-ente-reinbek", "name": "Lee Peking-Ente", "image_url": "https://s3-media4.fl.yelpcdn.com/bphoto/0zVFnqtRcr-qlqt8bFFcCw/o.jpg", "is_closed": false, "url": "https://www.yelp.com/biz/lee-peking-ente-reinbek?adjust_creative=hBJOknVQJ58S5goQyjmwRw&utm_campaign=yelp_api_v3&utm_medium=api_v3_business_search&utm_source=hBJOknVQJ58S5goQyjmwRw", "review_count": 1, "categories": [{"alias": "chinese", "title": "Chinese"}], "rating": 4.0, "coordinates": {"latitude": 53.5086019848471, "longitude": 10.2527466416359}, "transactions": [], "price": "\u20ac", "location": {"address1": "Sophienstr. 7", "address2": "", "address3": null, "city": "Reinbek", "zip_code": "21465", "country": "DE", "state": "SH", "display_address": ["Sophienstr. 7", "21465 Reinbek", "Germany"]}, "phone": "+494032519529", "display_phone": "+49 40 32519529", "distance": 1471.278098118202}, {"id": "3u574SDNjwdASl_386l5Mg", "alias": "da-lauretta-reinbek", "name": "Da Lauretta", "image_url": "", "is_closed": false, "url": "https://www.yelp.com/biz/da-lauretta-reinbek?adjust_creative=hBJOknVQJ58S5goQyjmwRw&utm_campaign=yelp_api_v3&utm_medium=api_v3_business_search&utm_source=hBJOknVQJ58S5goQyjmwRw", "review_count": 10, "categories": [{"alias": "italian", "title": "Italian"}], "rating": 3.0, "coordinates": {"latitude": 53.5104, "longitude": 10.2512}, "transactions": [], "price": "\u20ac\u20ac", "location": {"address1": "Hamburger Str. 2", "address2": null, "address3": null, "city": "Reinbek", "zip_code": "21465", "country": "DE", "state": "SH", "display_address": ["Hamburger Str. 2", "21465 Reinbek", "Germany"]}, "phone": "+494078073367", "display_phone": "+49 40 78073367", "distance": 1686.1248746768526}, {"id": "u3ub5f0MS4qY67Q8XF9ZoA", "alias": "sodemanns-fisch-kutter-nr-1-hamburg", "name": "Sodemann's Fisch-Kutter Nr. 1", "image_url": "https://s3-media3.fl.yelpcdn.com/bphoto/BlysP6fVPaL0eEjKvEbByw/o.jpg", "is_closed": false, "url": "https://www.yelp.com/biz/sodemanns-fisch-kutter-nr-1-hamburg?adjust_creative=hBJOknVQJ58S5goQyjmwRw&utm_campaign=yelp_api_v3&utm_medium=api_v3_business_search&utm_source=hBJOknVQJ58S5goQyjmwRw", "review_count": 3, "categories": [{"alias": "foodtrucks", "title": "Food Trucks"}, {"alias": "fischbroetchen", "title": "Fischbroetchen"}], "rating": 5.0, "coordinates": {"latitude": 53.5537490844727, "longitude": 9.99182987213135}, "transactions": [], "price": "\u20ac\u20ac", "location": {"address1": "", "address2": null, "address3": "", "city": "Hamburg", "zip_code": "", "country": "DE", "state": "HH", "display_address": ["Hamburg", "Germany"]}, "phone": "+491773606663", "display_phone": "+49 177 3606663", "distance": 19059.923830537155}, {"id": "Aqg4ecEucY40Icgg_yfHZw", "alias": "mcdonalds-wentorf", "name": "McDonald's", "image_url": "https://s3-media1.fl.yelpcdn.com/bphoto/liJFsyjPkIKGS7Q9L1E82A/o.jpg", "is_closed": false, "url": "https://www.yelp.com/biz/mcdonalds-wentorf?adjust_creative=hBJOknVQJ58S5goQyjmwRw&utm_campaign=yelp_api_v3&utm_medium=api_v3_business_search&utm_source=hBJOknVQJ58S5goQyjmwRw", "review_count": 7, "categories": [{"alias": "hotdogs", "title": "Fast Food"}, {"alias": "burgers", "title": "Burgers"}], "rating": 2.5, "coordinates": {"latitude": 53.4888791803109, "longitude": 10.2711432427168}, "transactions": [], "price": "\u20ac", "location": {"address1": "Immenberg 2", "address2": null, "address3": null, "city": "Wentorf", "zip_code": "21465", "country": "DE", "state": "SH", "display_address": ["Immenberg 2", "21465 Wentorf", "Germany"]}, "phone": "+494072919856", "display_phone": "+49 40 72919856", "distance": 1169.752944309263}, {"id": "7GylVDv9_w5jVAflo42zsQ", "alias": "pierro-reinbek", "name": "Pierro", "image_url": "https://s3-media2.fl.yelpcdn.com/bphoto/nfYJ365A5iCOlKp3fGyeIA/o.jpg", "is_closed": false, "url": "https://www.yelp.com/biz/pierro-reinbek?adjust_creative=hBJOknVQJ58S5goQyjmwRw&utm_campaign=yelp_api_v3&utm_medium=api_v3_business_search&utm_source=hBJOknVQJ58S5goQyjmwRw", "review_count": 13, "categories": [{"alias": "bistros", "title": "Bistros"}, {"alias": "pizza", "title": "Pizza"}, {"alias": "sandwiches", "title": "Sandwiches"}], "rating": 4.0, "coordinates": {"latitude": 53.5159, "longitude": 10.2475}, "transactions": [], "price": "\u20ac", "location": {"address1": "Schulstr. 36", "address2": null, "address3": null, "city": "Reinbek", "zip_code": "21465", "country": "DE", "state": "SH", "display_address": ["Schulstr. 36", "21465 Reinbek", "Germany"]}, "phone": "+494022623126", "display_phone": "+49 40 22623126", "distance": 2312.9450650208123}, {"id": "j9CSlwrurexEeVwEKGMonQ", "alias": "feuer-und-flamme-reinbek-2", "name": "Feuer & Flamme", "image_url": "", "is_closed": false, "url": "https://www.yelp.com/biz/feuer-und-flamme-reinbek-2?adjust_creative=hBJOknVQJ58S5goQyjmwRw&utm_campaign=yelp_api_v3&utm_medium=api_v3_business_search&utm_source=hBJOknVQJ58S5goQyjmwRw", "review_count": 6, "categories": [{"alias": "pizza", "title": "Pizza"}, {"alias": "italian", "title": "Italian"}], "rating": 4.0, "coordinates": {"latitude": 53.5176, "longitude": 10.247}, "transactions": [], "price": "\u20ac\u20ac", "location": {"address1": "Schulstr. 56", "address2": null, "address3": null, "city": "Reinbek", "zip_code": "21465", "country": "DE", "state": "SH", "display_address": ["Schulstr. 56", "21465 Reinbek", "Germany"]}, "phone": "+49407228041", "display_phone": "+49 40 7228041", "distance": 2485.3503245287525}, {"id": "SSmt7U3dGAV6o0_8WTF-yQ", "alias": "kleiner-rasthof-reinbek", "name": "Kleiner Rasthof", "image_url": "", "is_closed": false, "url": "https://www.yelp.com/biz/kleiner-rasthof-reinbek?adjust_creative=hBJOknVQJ58S5goQyjmwRw&utm_campaign=yelp_api_v3&utm_medium=api_v3_business_search&utm_source=hBJOknVQJ58S5goQyjmwRw", "review_count": 1, "categories": [{"alias": "restaurants", "title": "Restaurants"}], "rating": 2.0, "coordinates": {"latitude": 53.5306, "longitude": 10.2518}, "transactions": [], "location": {"address1": "Dorfstr. 36", "address2": null, "address3": null, "city": "Reinbek", "zip_code": "21465", "country": "DE", "state": "SH", "display_address": ["Dorfstr. 36", "21465 Reinbek", "Germany"]}, "phone": "+494073597973", "display_phone": "+49 40 73597973", "distance": 3653.8253252131085}, {"id": "APvIA_7ssxgC0atmQEFMcg", "alias": "burgerkultour-food-truck-hamburg-2", "name": "BurgerKultour Food Truck", "image_url": "https://s3-media4.fl.yelpcdn.com/bphoto/KoAuwalMnlAO8139MmdYBQ/o.jpg", "is_closed": false, "url": "https://www.yelp.com/biz/burgerkultour-food-truck-hamburg-2?adjust_creative=hBJOknVQJ58S5goQyjmwRw&utm_campaign=yelp_api_v3&utm_medium=api_v3_business_search&utm_source=hBJOknVQJ58S5goQyjmwRw", "review_count": 3, "categories": [{"alias": "foodtrucks", "title": "Food Trucks"}, {"alias": "burgers", "title": "Burgers"}], "rating": 4.5, "coordinates": {"latitude": 53.57154, "longitude": 9.95575}, "transactions": [], "price": "\u20ac\u20ac", "location": {"address1": "", "address2": "", "address3": "", "city": "Hamburg", "zip_code": "20259", "country": "DE", "state": "HH", "display_address": ["20259 Hamburg", "Germany"]}, "phone": "+4917626055122", "display_phone": "+49 176 26055122", "distance": 22116.64723189507}, {"id": "EI4g_NGuRAqEDO0rWRIBkQ", "alias": "fifty-fifty-reinbek", "name": "Fifty Fifty", "image_url": "", "is_closed": false, "url": "https://www.yelp.com/biz/fifty-fifty-reinbek?adjust_creative=hBJOknVQJ58S5goQyjmwRw&utm_campaign=yelp_api_v3&utm_medium=api_v3_business_search&utm_source=hBJOknVQJ58S5goQyjmwRw", "review_count": 5, "categories": [{"alias": "pizza", "title": "Pizza"}], "rating": 2.5, "coordinates": {"latitude": 53.51599, "longitude": 10.24695}, "transactions": [], "price": "\u20ac\u20ac", "location": {"address1": "Schulstr. 33", "address2": null, "address3": null, "city": "Reinbek", "zip_code": "21465", "country": "DE", "state": "SH", "display_address": ["Schulstr. 33", "21465 Reinbek", "Germany"]}, "phone": "+49407229999", "display_phone": "+49 40 7229999", "distance": 2347.332721761254}, {"id": "g9ylvGdAVIch-Y52TLGCww", "alias": "zur-sternwarte-wentorf-bei-hamburg", "name": "Zur Sternwarte", "image_url": "", "is_closed": false, "url": "https://www.yelp.com/biz/zur-sternwarte-wentorf-bei-hamburg?adjust_creative=hBJOknVQJ58S5goQyjmwRw&utm_campaign=yelp_api_v3&utm_medium=api_v3_business_search&utm_source=hBJOknVQJ58S5goQyjmwRw", "review_count": 6, "categories": [{"alias": "international", "title": "International"}, {"alias": "italian", "title": "Italian"}, {"alias": "cakeshop", "title": "Patisserie/Cake Shop"}], "rating": 3.0, "coordinates": {"latitude": 53.481107, "longitude": 10.2438929}, "transactions": [], "price": "\u20ac\u20ac", "location": {"address1": "August-Bebel-Str. 201", "address2": null, "address3": null, "city": "Wentorf bei Hamburg", "zip_code": "21029", "country": "DE", "state": "HH", "display_address": ["August-Bebel-Str. 201", "21029 Wentorf bei Hamburg", "Germany"]}, "phone": "+49407205669", "display_phone": "+49 40 7205669", "distance": 2597.0545457583744}, {"id": "cGIKCcR0wZszz8VldC2-7g", "alias": "currywerk-hamburg", "name": "curryWERK", "image_url": "https://s3-media4.fl.yelpcdn.com/bphoto/j_ZPQAB6JrAru84VDuLiRA/o.jpg", "is_closed": false, "url": "https://www.yelp.com/biz/currywerk-hamburg?adjust_creative=hBJOknVQJ58S5goQyjmwRw&utm_campaign=yelp_api_v3&utm_medium=api_v3_business_search&utm_source=hBJOknVQJ58S5goQyjmwRw", "review_count": 1, "categories": [{"alias": "foodtrucks", "title": "Food Trucks"}, {"alias": "currysausage", "title": "Curry Sausage"}], "rating": 4.0, "coordinates": {"latitude": 53.5498886108398, "longitude": 9.94732189178467}, "transactions": [], "price": "\u20ac\u20ac", "location": {"address1": "", "address2": "", "address3": "", "city": "Hamburg", "zip_code": "22767", "country": "DE", "state": "HH", "display_address": ["22767 Hamburg", "Germany"]}, "phone": "+4917632443433", "display_phone": "+49 176 32443433", "distance": 22240.266622830706}]