[{"id": "LqO9oPYXKNQxbKlkmyKReg", "alias": "wasserturm-hamburg", "name": "Wasserturm", "image_url": "https://s3-media4.fl.yelpcdn.com/bphoto/BvzyILpjqUODGP785QymbQ/o.jpg", "is_closed": false, "url": "https://www.yelp.com/biz/wasserturm-hamburg?adjust_creative=hBJOknVQJ58S5goQyjmwRw&utm_campaign=yelp_api_v3&utm_medium=api_v3_business_search&utm_source=hBJOknVQJ58S5goQyjmwRw", "review_count": 30, "categories": [{"alias": "german", "title": "German"}], "rating": 4.5, "coordinates": {"latitude": 53.4897384, "longitude": 9.9364869}, "transactions": [], "price": "\u20ac\u20ac", "location": {"address1": "Moorburger Elbdeich 161", "address2": null, "address3": null, "city": "Hamburg", "zip_code": "21079", "country": "DE", "state": "HH", "display_address": ["Moorburger Elbdeich 161", "21079 Hamburg", "Germany"]}, "phone": "+494043188959", "display_phone": "+49 40 43188959", "distance": 1401.9830792988262}, {"id": "Iu61_gH0miU4f0EhI35IbA", "alias": "hummer-pedersen-hamburg", "name": "Hummer Pedersen", "image_url": "https://s3-media3.fl.yelpcdn.com/bphoto/_w5AtHxGu3BsiA2VkVF4kg/o.jpg", "is_closed": false, "url": "https://www.yelp.com/biz/hummer-pedersen-hamburg?adjust_creative=hBJOknVQJ58S5goQyjmwRw&utm_campaign=yelp_api_v3&utm_medium=api_v3_business_search&utm_source=hBJOknVQJ58S5goQyjmwRw", "review_count": 77, "categories": [{"alias": "fishmonger", "title": "Fishmonger"}, {"alias": "seafood", "title": "Seafood"}, {"alias": "bistros", "title": "Bistros"}], "rating": 4.5, "coordinates": {"latitude": 53.5445758, "longitude": 9.943637}, "transactions": [], "price": "\u20ac\u20ac", "location": {"address1": "Gro\u00dfe Elbstr. 152", "address2": null, "address3": null, "city": "Hamburg", "zip_code": "22767", "country": "DE", "state": "HH", "display_address": ["Gro\u00dfe Elbstr. 152", "22767 Hamburg", "Germany"]}, "phone": "+4940522993926", "display_phone": "+49 40 522993926", "distance": 4716.817571075096}, {"id": "8XSZziK-2FuaItksHhgwUw", "alias": "duckdalben-international-seamens-club-hamburg", "name": "Duckdalben International Seamen's Club", "image_url": "https://s3-media1.fl.yelpcdn.com/bphoto/ilV-Z3ZAV0trBqoRpUoz7w/o.jpg", "is_closed": false, "url": "https://www.yelp.com/biz/duckdalben-international-seamens-club-hamburg?adjust_creative=hBJOknVQJ58S5goQyjmwRw&utm_campaign=yelp_api_v3&utm_medium=api_v3_business_search&utm_source=hBJOknVQJ58S5goQyjmwRw", "review_count": 12, "categories": [{"alias": "cafes", "title": "Cafes"}, {"alias": "religiousorgs", "title": "Religious Organizations"}, {"alias": "social_clubs", "title": "Social Clubs"}], "rating": 5.0, "coordinates": {"latitude": 53.52042, "longitude": 9.9213799}, "transactions": [], "price": "\u20ac", "location": {"address1": "Terminal Waltershof-Freihafen", "address2": "Zellmannstr. 16", "address3": null, "city": "Hamburg", "zip_code": "21129", "country": "DE", "state": "HH", "display_address": ["Terminal Waltershof-Freihafen", "Zellmannstr. 16", "21129 Hamburg", "Germany"]}, "phone": "+49407401661", "display_phone": "+49 40 7401661", "distance": 2265.7478134262647}, {"id": "Jn8c0IIuvpXFrfGRpyRYSQ", "alias": "atlantik-fisch-hamburg", "name": "Atlantik Fisch", "image_url": "https://s3-media2.fl.yelpcdn.com/bphoto/UyVltyHBbt7As8FO-o_Plg/o.jpg", "is_closed": false, "url": "https://www.yelp.com/biz/atlantik-fisch-hamburg?adjust_creative=hBJOknVQJ58S5goQyjmwRw&utm_campaign=yelp_api_v3&utm_medium=api_v3_business_search&utm_source=hBJOknVQJ58S5goQyjmwRw", "review_count": 63, "categories": [{"alias": "seafood", "title": "Seafood"}, {"alias": "fishmonger", "title": "Fishmonger"}, {"alias": "fischbroetchen", "title": "Fischbroetchen"}], "rating": 4.5, "coordinates": {"latitude": 53.54458, "longitude": 9.93666}, "transactions": [], "price": "\u20ac", "location": {"address1": "Gro\u00dfe Elbstr. 139", "address2": null, "address3": null, "city": "Hamburg", "zip_code": "22767", "country": "DE", "state": "HH", "display_address": ["Gro\u00dfe Elbstr. 139", "22767 Hamburg", "Germany"]}, "phone": "+4940391123", "display_phone": "+49 40 391123", "distance": 4690.4946488816895}, {"id": "xdf2da8iOMf51ugJ-gJjgA", "alias": "mash-hamburg-2", "name": "MASH", "image_url": "https://s3-media4.fl.yelpcdn.com/bphoto/l2uzUHcrj51JK6oJblJ4cA/o.jpg", "is_closed": false, "url": "https://www.yelp.com/biz/mash-hamburg-2?adjust_creative=hBJOknVQJ58S5goQyjmwRw&utm_campaign=yelp_api_v3&utm_medium=api_v3_business_search&utm_source=hBJOknVQJ58S5goQyjmwRw", "review_count": 48, "categories": [{"alias": "steak", "title": "Steakhouses"}, {"alias": "cocktailbars", "title": "Cocktail Bars"}], "rating": 4.0, "coordinates": {"latitude": 53.544649, "longitude": 9.944133}, "transactions": [], "price": "\u20ac\u20ac\u20ac\u20ac", "location": {"address1": "Gro\u00dfe Elbstr. 148 - 150", "address2": "", "address3": "", "city": "Hamburg", "zip_code": "22767", "country": "DE", "state": "HH", "display_address": ["Gro\u00dfe Elbstr. 148 - 150", "22767 Hamburg", "Germany"]}, "phone": "+4940809008111", "display_phone": "+49 40 809008111", "distance": 4719.022815353494}, {"id": "gmU8_qjS5m4hKHl3g2M7wA", "alias": "lindenhof-hamburg", "name": "Lindenhof", "image_url": "https://s3-media2.fl.yelpcdn.com/bphoto/Q_1KHRQcbF6q5k7VqrLJCg/o.jpg", "is_closed": false, "url": "https://www.yelp.com/biz/lindenhof-hamburg?adjust_creative=hBJOknVQJ58S5goQyjmwRw&utm_campaign=yelp_api_v3&utm_medium=api_v3_business_search&utm_source=hBJOknVQJ58S5goQyjmwRw", "review_count": 17, "categories": [{"alias": "greek", "title": "Greek"}], "rating": 3.5, "coordinates": {"latitude": 53.46411, "longitude": 9.955298}, "transactions": [], "price": "\u20ac\u20ac", "location": {"address1": "Heimfelder Str. 44", "address2": null, "address3": null, "city": "Hamburg", "zip_code": "21075", "country": "DE", "state": "HH", "display_address": ["Heimfelder Str. 44", "21075 Hamburg", "Germany"]}, "phone": "+49407924111", "display_phone": "+49 40 7924111", "distance": 4421.63605394207}, {"id": "Rz9pedAL47bEi_OHSbKK7w", "alias": "fisch-und-so-hamburg", "name": "Fisch & So", "image_url": "https://s3-media3.fl.yelpcdn.com/bphoto/A4keIomuLQCBLCoR4X_dEQ/o.jpg", "is_closed": false, "url": "https://www.yelp.com/biz/fisch-und-so-hamburg?adjust_creative=hBJOknVQJ58S5goQyjmwRw&utm_campaign=yelp_api_v3&utm_medium=api_v3_business_search&utm_source=hBJOknVQJ58S5goQyjmwRw", "review_count": 29, "categories": [{"alias": "seafood", "title": "Seafood"}, {"alias": "fishnchips", "title": "Fish & Chips"}, {"alias": "fischbroetchen", "title": "Fischbroetchen"}], "rating": 4.0, "coordinates": {"latitude": 53.5444, "longitude": 9.94135}, "transactions": [], "price": "\u20ac", "location": {"address1": "Gro\u00dfe Elbstr. 117", "address2": null, "address3": null, "city": "Hamburg", "zip_code": "22767", "country": "DE", "state": "HH", "display_address": ["Gro\u00dfe Elbstr. 117", "22767 Hamburg", "Germany"]}, "phone": "+49403893109", "display_phone": "+49 40 3893109", "distance": 4685.515067732626}, {"id": "H6kuNqWoasB2MdS9XWWVNg", "alias": "fischereihafen-restaurant-hamburg", "name": "Fischereihafen Restaurant", "image_url": "https://s3-media1.fl.yelpcdn.com/bphoto/dLWQDokMg1eoNCDTVKQOBw/o.jpg", "is_closed": false, "url": "https://www.yelp.com/biz/fischereihafen-restaurant-hamburg?adjust_creative=hBJOknVQJ58S5goQyjmwRw&utm_campaign=yelp_api_v3&utm_medium=api_v3_business_search&utm_source=hBJOknVQJ58S5goQyjmwRw", "review_count": 215, "categories": [{"alias": "seafood", "title": "Seafood"}], "rating": 4.5, "coordinates": {"latitude": 53.54457, "longitude": 9.93542}, "transactions": [], "price": "\u20ac\u20ac\u20ac", "location": {"address1": "Gro\u00dfe Elbstr. 143", "address2": null, "address3": null, "city": "Hamburg", "zip_code": "22767", "country": "DE", "state": "HH", "display_address": ["Gro\u00dfe Elbstr. 143", "22767 Hamburg", "Germany"]}, "phone": "+4940381816", "display_phone": "+49 40 381816", "distance": 4683.731373272115}, {"id": "agbaBEb4rmoaZ3h09UTdIg", "alias": "taverna-olympiade-hamburg", "name": "Taverna Olympiade", "image_url": "https://s3-media2.fl.yelpcdn.com/bphoto/l3RqEs4VVt2PVK03nqKtEg/o.jpg", "is_closed": false, "url": "https://www.yelp.com/biz/taverna-olympiade-hamburg?adjust_creative=hBJOknVQJ58S5goQyjmwRw&utm_campaign=yelp_api_v3&utm_medium=api_v3_business_search&utm_source=hBJOknVQJ58S5goQyjmwRw", "review_count": 15, "categories": [{"alias": "greek", "title": "Greek"}], "rating": 4.5, "coordinates": {"latitude": 53.4602, "longitude": 9.93516}, "transactions": [], "price": "\u20ac\u20ac", "location": {"address1": "Heimfelder Str. 145", "address2": null, "address3": null, "city": "Hamburg", "zip_code": "21075", "country": "DE", "state": "HH", "display_address": ["Heimfelder Str. 145", "21075 Hamburg", "Germany"]}, "phone": "+49407924901", "display_phone": "+49 40 7924901", "distance": 4687.657891550855}, {"id": "MINkorrgtdLXu6FSxOml9Q", "alias": "elbperle-hamburg", "name": "Elbperle", "image_url": "https://s3-media2.fl.yelpcdn.com/bphoto/1pc49IZBYux4WSVhyyszLA/o.jpg", "is_closed": false, "url": "https://www.yelp.com/biz/elbperle-hamburg?adjust_creative=hBJOknVQJ58S5goQyjmwRw&utm_campaign=yelp_api_v3&utm_medium=api_v3_business_search&utm_source=hBJOknVQJ58S5goQyjmwRw", "review_count": 34, "categories": [{"alias": "tapas", "title": "Tapas Bars"}], "rating": 4.0, "coordinates": {"latitude": 53.5452623, "longitude": 9.9519312}, "transactions": [], "price": "\u20ac\u20ac", "location": {"address1": "Gro\u00dfe Elbstr. 6 - 8", "address2": "", "address3": "", "city": "Hamburg", "zip_code": "22767", "country": "DE", "state": "HH", "display_address": ["Gro\u00dfe Elbstr. 6 - 8", "22767 Hamburg", "Germany"]}, "phone": "+494033398981", "display_phone": "+49 40 33398981", "distance": 4874.173024510134}, {"id": "uaVxT9mBmSD7t3K3GxcCaA", "alias": "nuggis-elbkate-hamburg-3", "name": "Nuggi's Elbkate", "image_url": "https://s3-media3.fl.yelpcdn.com/bphoto/PRHiPw15p8Ek7t9SjXBVaQ/o.jpg", "is_closed": false, "url": "https://www.yelp.com/biz/nuggis-elbkate-hamburg-3?adjust_creative=hBJOknVQJ58S5goQyjmwRw&utm_campaign=yelp_api_v3&utm_medium=api_v3_business_search&utm_source=hBJOknVQJ58S5goQyjmwRw", "review_count": 1, "categories": [{"alias": "fischbroetchen", "title": "Fischbroetchen"}], "rating": 5.0, "coordinates": {"latitude": 53.5439821263843, "longitude": 9.91457478959806}, "transactions": [], "price": "\u20ac", "location": {"address1": "Neum\u00fchlen", "address2": "", "address3": null, "city": "Hamburg", "zip_code": "22605", "country": "DE", "state": "HH", "display_address": ["Neum\u00fchlen", "22605 Hamburg", "Germany"]}, "phone": "", "display_phone": "", "distance": 4860.169245258804}, {"id": "O35GQaMVT-mEtGfo-fOkaw", "alias": "rado-am-hafen-hamburg-2", "name": "Rado am Hafen", "image_url": "https://s3-media2.fl.yelpcdn.com/bphoto/ncHg1Prm-QDUoed9X9odIA/o.jpg", "is_closed": false, "url": "https://www.yelp.com/biz/rado-am-hafen-hamburg-2?adjust_creative=hBJOknVQJ58S5goQyjmwRw&utm_campaign=yelp_api_v3&utm_medium=api_v3_business_search&utm_source=hBJOknVQJ58S5goQyjmwRw", "review_count": 91, "categories": [{"alias": "mediterranean", "title": "Mediterranean"}, {"alias": "seafood", "title": "Seafood"}, {"alias": "steak", "title": "Steakhouses"}], "rating": 3.5, "coordinates": {"latitude": 53.54505, "longitude": 9.95067}, "transactions": [], "price": "\u20ac\u20ac", "location": {"address1": "Gro\u00dfe Elbstr. 38", "address2": null, "address3": null, "city": "Hamburg", "zip_code": "22767", "country": "DE", "state": "HH", "display_address": ["Gro\u00dfe Elbstr. 38", "22767 Hamburg", "Germany"]}, "phone": "+494058960213", "display_phone": "+49 40 58960213", "distance": 4839.059144239661}, {"id": "0iPBDkclx3wNqCNb-Xjw3Q", "alias": "fischmarkt-bistro-hamburg", "name": "Fischmarkt Bistro", "image_url": "https://s3-media1.fl.yelpcdn.com/bphoto/UL1MnTB7srhrgjhDWZ4s3Q/o.jpg", "is_closed": false, "url": "https://www.yelp.com/biz/fischmarkt-bistro-hamburg?adjust_creative=hBJOknVQJ58S5goQyjmwRw&utm_campaign=yelp_api_v3&utm_medium=api_v3_business_search&utm_source=hBJOknVQJ58S5goQyjmwRw", "review_count": 17, "categories": [{"alias": "bistros", "title": "Bistros"}, {"alias": "fischbroetchen", "title": "Fischbroetchen"}], "rating": 4.5, "coordinates": {"latitude": 53.5444031874375, "longitude": 9.93952589480595}, "transactions": [], "price": "\u20ac", "location": {"address1": "Grosse Elbstr. 133", "address2": "", "address3": "", "city": "Hamburg", "zip_code": "22767", "country": "DE", "state": "HH", "display_address": ["Grosse Elbstr. 133", "22767 Hamburg", "Germany"]}, "phone": "+491729770860", "display_phone": "+49 172 9770860", "distance": 4679.905839546453}, {"id": "EhCaathCawGw6kxvD_8Pog", "alias": "au-quai-hamburg", "name": "Au Quai", "image_url": "https://s3-media2.fl.yelpcdn.com/bphoto/jHsTDgkrRsCe4YemKJZkrg/o.jpg", "is_closed": false, "url": "https://www.yelp.com/biz/au-quai-hamburg?adjust_creative=hBJOknVQJ58S5goQyjmwRw&utm_campaign=yelp_api_v3&utm_medium=api_v3_business_search&utm_source=hBJOknVQJ58S5goQyjmwRw", "review_count": 133, "categories": [{"alias": "seafood", "title": "Seafood"}, {"alias": "mediterranean", "title": "Mediterranean"}], "rating": 4.0, "coordinates": {"latitude": 53.54456, "longitude": 9.93474}, "transactions": [], "price": "\u20ac\u20ac\u20ac", "location": {"address1": "Grosse Elbstr. 145 B-D", "address2": null, "address3": null, "city": "Hamburg", "zip_code": "22767", "country": "DE", "state": "HH", "display_address": ["Grosse Elbstr. 145 B-D", "22767 Hamburg", "Germany"]}, "phone": "+494038037730", "display_phone": "+49 40 38037730", "distance": 4690.010645810673}, {"id": "dfXIY7GDktyg21SNPdFBBA", "alias": "bistro-sommelier-hamburg-3", "name": "Bistro Sommelier", "image_url": "https://s3-media1.fl.yelpcdn.com/bphoto/fSa90IEuACUqCnx_6aq95Q/o.jpg", "is_closed": false, "url": "https://www.yelp.com/biz/bistro-sommelier-hamburg-3?adjust_creative=hBJOknVQJ58S5goQyjmwRw&utm_campaign=yelp_api_v3&utm_medium=api_v3_business_search&utm_source=hBJOknVQJ58S5goQyjmwRw", "review_count": 3, "categories": [{"alias": "french", "title": "French"}], "rating": 4.5, "coordinates": {"latitude": 53.544763, "longitude": 9.944055}, "transactions": [], "location": {"address1": "Gro\u00dfe Elbstr. 148", "address2": "", "address3": null, "city": "Hamburg", "zip_code": "22767", "country": "DE", "state": "HH", "display_address": ["Gro\u00dfe Elbstr. 148", "22767 Hamburg", "Germany"]}, "phone": "+4932221850018", "display_phone": "+49 32 221850018", "distance": 4740.20541754086}, {"id": "r-BglUksU-tLQOugfb3ZSw", "alias": "fugu-by-sushi-factory-hamburg", "name": "Fugu by Sushi Factory", "image_url": "https://s3-media1.fl.yelpcdn.com/bphoto/PHKCM1hqEmLrZW3IzdKQKw/o.jpg", "is_closed": false, "url": "https://www.yelp.com/biz/fugu-by-sushi-factory-hamburg?adjust_creative=hBJOknVQJ58S5goQyjmwRw&utm_campaign=yelp_api_v3&utm_medium=api_v3_business_search&utm_source=hBJOknVQJ58S5goQyjmwRw", "review_count": 55, "categories": [{"alias": "sushi", "title": "Sushi Bars"}], "rating": 4.0, "coordinates": {"latitude": 53.5448, "longitude": 9.94032}, "transactions": [], "price": "\u20ac\u20ac", "location": {"address1": "Gro\u00dfe Elbstr. 212", "address2": "", "address3": "", "city": "Hamburg", "zip_code": "22767", "country": "DE", "state": "HH", "display_address": ["Gro\u00dfe Elbstr. 212", "22767 Hamburg", "Germany"]}, "phone": "+49405556560", "display_phone": "+49 40 5556560", "distance": 4726.19450733409}, {"id": "gna0_EG2hZyNk9kh33p3pw", "alias": "l-osteria-hamburg-5", "name": "L'Osteria", "image_url": "https://s3-media2.fl.yelpcdn.com/bphoto/53THTcrHZXOkzerjFXQ7BQ/o.jpg", "is_closed": false, "url": "https://www.yelp.com/biz/l-osteria-hamburg-5?adjust_creative=hBJOknVQJ58S5goQyjmwRw&utm_campaign=yelp_api_v3&utm_medium=api_v3_business_search&utm_source=hBJOknVQJ58S5goQyjmwRw", "review_count": 22, "categories": [{"alias": "pizza", "title": "Pizza"}, {"alias": "italian", "title": "Italian"}], "rating": 3.0, "coordinates": {"latitude": 53.5441999, "longitude": 9.94705}, "transactions": [], "price": "\u20ac\u20ac", "location": {"address1": "Gro\u00dfe Elbstr. 49", "address2": "", "address3": null, "city": "Hamburg", "zip_code": "22767", "country": "DE", "state": "HH", "display_address": ["Gro\u00dfe Elbstr. 49", "22767 Hamburg", "Germany"]}, "phone": "", "display_phone": "", "distance": 4693.918067698065}, {"id": "xyHfgWdxDePbpM-Pqj1YrA", "alias": "henssler-und-henssler-hamburg", "name": "Henssler & Henssler", "image_url": "https://s3-media3.fl.yelpcdn.com/bphoto/xaubUSAecPXCQecIZ9zeVw/o.jpg", "is_closed": false, "url": "https://www.yelp.com/biz/henssler-und-henssler-hamburg?adjust_creative=hBJOknVQJ58S5goQyjmwRw&utm_campaign=yelp_api_v3&utm_medium=api_v3_business_search&utm_source=hBJOknVQJ58S5goQyjmwRw", "review_count": 403, "categories": [{"alias": "modern_european", "title": "Modern European"}, {"alias": "sushi", "title": "Sushi Bars"}, {"alias": "japanese", "title": "Japanese"}], "rating": 4.0, "coordinates": {"latitude": 53.544601, "longitude": 9.942983}, "transactions": [], "price": "\u20ac\u20ac\u20ac", "location": {"address1": "Gro\u00dfe Elbstr. 160", "address2": null, "address3": null, "city": "Hamburg", "zip_code": "22767", "country": "DE", "state": "HH", "display_address": ["Gro\u00dfe Elbstr. 160", "22767 Hamburg", "Germany"]}, "phone": "+494038699000", "display_phone": "+49 40 38699000", "distance": 4715.966632141267}, {"id": "78h7aGzQe_bBwkSdLrF4aQ", "alias": "hamburger-elbspeicher-hamburg", "name": "Hamburger Elbspeicher", "image_url": "https://s3-media3.fl.yelpcdn.com/bphoto/4v5rTvFUDZdUTtPPCKEjZw/o.jpg", "is_closed": false, "url": "https://www.yelp.com/biz/hamburger-elbspeicher-hamburg?adjust_creative=hBJOknVQJ58S5goQyjmwRw&utm_campaign=yelp_api_v3&utm_medium=api_v3_business_search&utm_source=hBJOknVQJ58S5goQyjmwRw", "review_count": 55, "categories": [{"alias": "pubs", "title": "Pubs"}, {"alias": "seafood", "title": "Seafood"}], "rating": 4.0, "coordinates": {"latitude": 53.5444, "longitude": 9.94885}, "transactions": [], "price": "\u20ac\u20ac\u20ac", "location": {"address1": "Gro\u00dfe Elbstr. 39", "address2": null, "address3": null, "city": "Hamburg", "zip_code": "22767", "country": "DE", "state": "HH", "display_address": ["Gro\u00dfe Elbstr. 39", "22767 Hamburg", "Germany"]}, "phone": "+4940382242", "display_phone": "+49 40 382242", "distance": 4713.949907782588}, {"id": "xWPaFWRxkCkBE2Ht-ggMkg", "alias": "astra-eck-hamburg", "name": "Astra Eck", "image_url": "https://s3-media2.fl.yelpcdn.com/bphoto/qu4GABfDEI1xHzWVcqjTPg/o.jpg", "is_closed": false, "url": "https://www.yelp.com/biz/astra-eck-hamburg?adjust_creative=hBJOknVQJ58S5goQyjmwRw&utm_campaign=yelp_api_v3&utm_medium=api_v3_business_search&utm_source=hBJOknVQJ58S5goQyjmwRw", "review_count": 2, "categories": [{"alias": "restaurants", "title": "Restaurants"}], "rating": 4.5, "coordinates": {"latitude": 53.465, "longitude": 9.96203}, "transactions": [], "location": {"address1": "Heimfelder Str. 7", "address2": null, "address3": null, "city": "Hamburg", "zip_code": "21075", "country": "DE", "state": "HH", "display_address": ["Heimfelder Str. 7", "21075 Hamburg", "Germany"]}, "phone": "+494079141589", "display_phone": "+49 40 79141589", "distance": 4472.136515654911}, {"id": "OjiJ_8pv3PQJbH1Rbxd6Vw", "alias": "hatay-imbiss-hamburg", "name": "Hatay Imbiss", "image_url": "", "is_closed": false, "url": "https://www.yelp.com/biz/hatay-imbiss-hamburg?adjust_creative=hBJOknVQJ58S5goQyjmwRw&utm_campaign=yelp_api_v3&utm_medium=api_v3_business_search&utm_source=hBJOknVQJ58S5goQyjmwRw", "review_count": 1, "categories": [{"alias": "hotdogs", "title": "Fast Food"}], "rating": 4.0, "coordinates": {"latitude": 53.4628, "longitude": 9.94953}, "transactions": [], "location": {"address1": "Heimfelder Str. 4", "address2": null, "address3": null, "city": "Hamburg", "zip_code": "21075", "country": "DE", "state": "HH", "display_address": ["Heimfelder Str. 4", "21075 Hamburg", "Germany"]}, "phone": "+494079140646", "display_phone": "+49 40 79140646", "distance": 4475.363467287326}, {"id": "k10-KGJ3Lku_JEVXoZzzLw", "alias": "zum-elbblick-hamburg", "name": "Zum Elbblick", "image_url": "https://s3-media4.fl.yelpcdn.com/bphoto/J2Wd7bGJhP9BzGiOQJEs-w/o.jpg", "is_closed": false, "url": "https://www.yelp.com/biz/zum-elbblick-hamburg?adjust_creative=hBJOknVQJ58S5goQyjmwRw&utm_campaign=yelp_api_v3&utm_medium=api_v3_business_search&utm_source=hBJOknVQJ58S5goQyjmwRw", "review_count": 20, "categories": [{"alias": "divebars", "title": "Dive Bars"}, {"alias": "seafood", "title": "Seafood"}], "rating": 4.0, "coordinates": {"latitude": 53.54512, "longitude": 9.94216}, "transactions": [], "price": "\u20ac\u20ac", "location": {"address1": "Olbersweg 49", "address2": "", "address3": "", "city": "Hamburg", "zip_code": "22767", "country": "DE", "state": "HH", "display_address": ["Olbersweg 49", "22767 Hamburg", "Germany"]}, "phone": "+49403806298", "display_phone": "+49 40 3806298", "distance": 4772.130071086074}, {"id": "cmBkM8WkNzC1oO4piY3dvg", "alias": "elbraum-hamburg", "name": "Elbraum", "image_url": "https://s3-media2.fl.yelpcdn.com/bphoto/uF2tMqtXyI8y7dQVrndBRw/o.jpg", "is_closed": false, "url": "https://www.yelp.com/biz/elbraum-hamburg?adjust_creative=hBJOknVQJ58S5goQyjmwRw&utm_campaign=yelp_api_v3&utm_medium=api_v3_business_search&utm_source=hBJOknVQJ58S5goQyjmwRw", "review_count": 1, "categories": [{"alias": "german", "title": "German"}], "rating": 5.0, "coordinates": {"latitude": 53.5443, "longitude": 9.92091}, "transactions": [], "location": {"address1": "Neum\u00fchlen 17", "address2": null, "address3": null, "city": "Hamburg", "zip_code": "22763", "country": "DE", "state": "HH", "display_address": ["Neum\u00fchlen 17", "22763 Hamburg", "Germany"]}, "phone": "+494089724945", "display_phone": "+49 40 89724945", "distance": 4784.050369096086}, {"id": "AV-RVcpCmZ2SwVyd6RZR9Q", "alias": "sutsche-hamburg", "name": "Sutsche", "image_url": "https://s3-media1.fl.yelpcdn.com/bphoto/cmrX1tRJGn4GXHyajG4FhA/o.jpg", "is_closed": false, "url": "https://www.yelp.com/biz/sutsche-hamburg?adjust_creative=hBJOknVQJ58S5goQyjmwRw&utm_campaign=yelp_api_v3&utm_medium=api_v3_business_search&utm_source=hBJOknVQJ58S5goQyjmwRw", "review_count": 30, "categories": [{"alias": "cafes", "title": "Cafes"}, {"alias": "bars", "title": "Bars"}], "rating": 4.0, "coordinates": {"latitude": 53.5443808225352, "longitude": 9.91282150625148}, "transactions": [], "price": "\u20ac\u20ac", "location": {"address1": "\u00d6velg\u00f6nne 2 - 3", "address2": "", "address3": "", "city": "Hamburg", "zip_code": "22605", "country": "DE", "state": "HH", "display_address": ["\u00d6velg\u00f6nne 2 - 3", "22605 Hamburg", "Germany"]}, "phone": "+494071663319", "display_phone": "+49 40 71663319", "distance": 4938.599631291096}, {"id": "UNFhFB9DfyQ7hNFPDN2uiQ", "alias": "bistrocean-hamburg", "name": "BistrOceaN", "image_url": "https://s3-media1.fl.yelpcdn.com/bphoto/9Zrf1V80eS6RQKhalKcYpg/o.jpg", "is_closed": false, "url": "https://www.yelp.com/biz/bistrocean-hamburg?adjust_creative=hBJOknVQJ58S5goQyjmwRw&utm_campaign=yelp_api_v3&utm_medium=api_v3_business_search&utm_source=hBJOknVQJ58S5goQyjmwRw", "review_count": 9, "categories": [{"alias": "bistros", "title": "Bistros"}], "rating": 5.0, "coordinates": {"latitude": 53.5445482065766, "longitude": 9.93711668998003}, "transactions": [], "price": "\u20ac\u20ac\u20ac", "location": {"address1": "Gro\u00dfe Elbstr. 139", "address2": "", "address3": "", "city": "Hamburg", "zip_code": "22767", "country": "DE", "state": "HH", "display_address": ["Gro\u00dfe Elbstr. 139", "22767 Hamburg", "Germany"]}, "phone": "+4940391123", "display_phone": "+49 40 391123", "distance": 4692.911044457106}, {"id": "fpSDNX3zQ3-e1dISc5DB9Q", "alias": "maritimo-hamburg", "name": "Maritimo", "image_url": "https://s3-media4.fl.yelpcdn.com/bphoto/9SynoSMzUU-U97gyPPF0Ew/o.jpg", "is_closed": false, "url": "https://www.yelp.com/biz/maritimo-hamburg?adjust_creative=hBJOknVQJ58S5goQyjmwRw&utm_campaign=yelp_api_v3&utm_medium=api_v3_business_search&utm_source=hBJOknVQJ58S5goQyjmwRw", "review_count": 33, "categories": [{"alias": "spanish", "title": "Spanish"}, {"alias": "portuguese", "title": "Portuguese"}], "rating": 4.0, "coordinates": {"latitude": 53.54445, "longitude": 9.93901}, "transactions": [], "price": "\u20ac\u20ac", "location": {"address1": "Gro\u00dfe Elbstr. 133", "address2": null, "address3": null, "city": "Hamburg", "zip_code": "22767", "country": "DE", "state": "HH", "display_address": ["Gro\u00dfe Elbstr. 133", "22767 Hamburg", "Germany"]}, "phone": "+494038109993", "display_phone": "+49 40 38109993", "distance": 4668.143489517595}, {"id": "x20LyxbXaoRj447H6hmgOw", "alias": "fischbeisl-hamburg", "name": "Fischbeisl", "image_url": "https://s3-media1.fl.yelpcdn.com/bphoto/IZYVxkSdPvGWKI_w46SKYA/o.jpg", "is_closed": false, "url": "https://www.yelp.com/biz/fischbeisl-hamburg?adjust_creative=hBJOknVQJ58S5goQyjmwRw&utm_campaign=yelp_api_v3&utm_medium=api_v3_business_search&utm_source=hBJOknVQJ58S5goQyjmwRw", "review_count": 51, "categories": [{"alias": "seafood", "title": "Seafood"}], "rating": 3.5, "coordinates": {"latitude": 53.54443, "longitude": 9.93949}, "transactions": [], "price": "\u20ac\u20ac", "location": {"address1": "Gro\u00dfe Elbstr. 131", "address2": null, "address3": null, "city": "Hamburg", "zip_code": "22767", "country": "DE", "state": "HH", "display_address": ["Gro\u00dfe Elbstr. 131", "22767 Hamburg", "Germany"]}, "phone": "+49403907275", "display_phone": "+49 40 3907275", "distance": 4685.028161139283}, {"id": "OjuVO3sB_a8CQRKX21ctNg", "alias": "hafenbahnhof-hamburg", "name": "Hafenbahnhof", "image_url": "https://s3-media2.fl.yelpcdn.com/bphoto/GkyYOyTRpSJYwCGBqxow2Q/o.jpg", "is_closed": false, "url": "https://www.yelp.com/biz/hafenbahnhof-hamburg?adjust_creative=hBJOknVQJ58S5goQyjmwRw&utm_campaign=yelp_api_v3&utm_medium=api_v3_business_search&utm_source=hBJOknVQJ58S5goQyjmwRw", "review_count": 35, "categories": [{"alias": "bars", "title": "Bars"}, {"alias": "cafes", "title": "Cafes"}, {"alias": "jazzandblues", "title": "Jazz & Blues"}], "rating": 4.5, "coordinates": {"latitude": 53.54479, "longitude": 9.92846}, "transactions": [], "price": "\u20ac\u20ac", "location": {"address1": "Gro\u00dfe Elbstr. 276", "address2": null, "address3": null, "city": "Hamburg", "zip_code": "22767", "country": "DE", "state": "HH", "display_address": ["Gro\u00dfe Elbstr. 276", "22767 Hamburg", "Germany"]}, "phone": "+494025482501", "display_phone": "+49 40 25482501", "distance": 4753.738070331342}, {"id": "s6U3uDUPKiGu9SDVeFte7w", "alias": "caf\u00e9-elbterrassen-hamburg", "name": "Caf\u00e9 Elbterrassen", "image_url": "https://s3-media3.fl.yelpcdn.com/bphoto/Y53Hlup19k5oRx8-9bE5gA/o.jpg", "is_closed": false, "url": "https://www.yelp.com/biz/caf%C3%A9-elbterrassen-hamburg?adjust_creative=hBJOknVQJ58S5goQyjmwRw&utm_campaign=yelp_api_v3&utm_medium=api_v3_business_search&utm_source=hBJOknVQJ58S5goQyjmwRw", "review_count": 51, "categories": [{"alias": "german", "title": "German"}, {"alias": "cafes", "title": "Cafes"}], "rating": 3.5, "coordinates": {"latitude": 53.54479, "longitude": 9.91462}, "transactions": [], "price": "\u20ac\u20ac", "location": {"address1": "\u00d6velg\u00f6nne 1", "address2": null, "address3": null, "city": "Hamburg", "zip_code": "22605", "country": "DE", "state": "HH", "display_address": ["\u00d6velg\u00f6nne 1", "22605 Hamburg", "Germany"]}, "phone": "+49403903443", "display_phone": "+49 40 3903443", "distance": 4941.527894149019}, {"id": "UdI7a-jOuz2ycEIJo-04Pg", "alias": "meeres-kost-hamburg", "name": "Meeres-Kost", "image_url": "https://s3-media2.fl.yelpcdn.com/bphoto/jmM7G2O-esda89x5ixXEgA/o.jpg", "is_closed": false, "url": "https://www.yelp.com/biz/meeres-kost-hamburg?adjust_creative=hBJOknVQJ58S5goQyjmwRw&utm_campaign=yelp_api_v3&utm_medium=api_v3_business_search&utm_source=hBJOknVQJ58S5goQyjmwRw", "review_count": 12, "categories": [{"alias": "fishnchips", "title": "Fish & Chips"}, {"alias": "fischbroetchen", "title": "Fischbroetchen"}], "rating": 4.0, "coordinates": {"latitude": 53.5446, "longitude": 9.93755}, "transactions": [], "price": "\u20ac\u20ac", "location": {"address1": "Gro\u00dfe Elbstr. 135", "address2": null, "address3": null, "city": "Hamburg", "zip_code": "22767", "country": "DE", "state": "HH", "display_address": ["Gro\u00dfe Elbstr. 135", "22767 Hamburg", "Germany"]}, "phone": "+49403805621", "display_phone": "+49 40 3805621", "distance": 4698.830798119103}, {"id": "pAULuFrzubYmxMVrEd_bog", "alias": "zum-alten-lotsenhaus-hamburg", "name": "Zum Alten Lotsenhaus", "image_url": "https://s3-media2.fl.yelpcdn.com/bphoto/-dJPTEX3O3ZwYtfKY_CR5Q/o.jpg", "is_closed": false, "url": "https://www.yelp.com/biz/zum-alten-lotsenhaus-hamburg?adjust_creative=hBJOknVQJ58S5goQyjmwRw&utm_campaign=yelp_api_v3&utm_medium=api_v3_business_search&utm_source=hBJOknVQJ58S5goQyjmwRw", "review_count": 55, "categories": [{"alias": "seafood", "title": "Seafood"}], "rating": 4.0, "coordinates": {"latitude": 53.54489, "longitude": 9.91201}, "transactions": [], "price": "\u20ac\u20ac\u20ac", "location": {"address1": "\u00d6velg\u00f6nne 13", "address2": null, "address3": null, "city": "Hamburg", "zip_code": "22605", "country": "DE", "state": "HH", "display_address": ["\u00d6velg\u00f6nne 13", "22605 Hamburg", "Germany"]}, "phone": "+49408800196", "display_phone": "+49 40 8800196", "distance": 5018.930243470153}, {"id": "Sh_VQ0pI_KLQWz32wVbgaA", "alias": "vincenzo-hamburg-2", "name": "Vincenzo", "image_url": "https://s3-media2.fl.yelpcdn.com/bphoto/2KlvBObysXe00p7phB45_A/o.jpg", "is_closed": false, "url": "https://www.yelp.com/biz/vincenzo-hamburg-2?adjust_creative=hBJOknVQJ58S5goQyjmwRw&utm_campaign=yelp_api_v3&utm_medium=api_v3_business_search&utm_source=hBJOknVQJ58S5goQyjmwRw", "review_count": 9, "categories": [{"alias": "cafes", "title": "Cafes"}, {"alias": "italian", "title": "Italian"}], "rating": 4.0, "coordinates": {"latitude": 53.5447599, "longitude": 9.94925}, "transactions": [], "price": "\u20ac\u20ac\u20ac", "location": {"address1": "stilwerk", "address2": "Gro\u00dfe Elbstr. 68", "address3": "", "city": "Hamburg", "zip_code": "22767", "country": "DE", "state": "HH", "display_address": ["stilwerk", "Gro\u00dfe Elbstr. 68", "22767 Hamburg", "Germany"]}, "phone": "+494087500559", "display_phone": "+49 40 87500559", "distance": 4788.775728091015}, {"id": "fo62bhOp3fWZzzdZb-7D8w", "alias": "ratsherrn-eck-hamburg-2", "name": "Ratsherrn-Eck", "image_url": "https://s3-media4.fl.yelpcdn.com/bphoto/vSW0pxkdjPzKqkI-s_vEpQ/o.jpg", "is_closed": false, "url": "https://www.yelp.com/biz/ratsherrn-eck-hamburg-2?adjust_creative=hBJOknVQJ58S5goQyjmwRw&utm_campaign=yelp_api_v3&utm_medium=api_v3_business_search&utm_source=hBJOknVQJ58S5goQyjmwRw", "review_count": 9, "categories": [{"alias": "german", "title": "German"}], "rating": 3.5, "coordinates": {"latitude": 53.5444712192644, "longitude": 9.94609706604376}, "transactions": [], "price": "\u20ac", "location": {"address1": "Gro\u00dfe Elbstr. 126", "address2": "", "address3": "", "city": "Hamburg", "zip_code": "22767", "country": "DE", "state": "HH", "display_address": ["Gro\u00dfe Elbstr. 126", "22767 Hamburg", "Germany"]}, "phone": "+494038907944", "display_phone": "+49 40 38907944", "distance": 4723.328386273738}, {"id": "os2NoRdZCOMtd-eDmWZNKw", "alias": "lobsterhouse-hamburg", "name": "Lobsterhouse", "image_url": "https://s3-media2.fl.yelpcdn.com/bphoto/hvmv8H55oWcWcYQZCYZcew/o.jpg", "is_closed": false, "url": "https://www.yelp.com/biz/lobsterhouse-hamburg?adjust_creative=hBJOknVQJ58S5goQyjmwRw&utm_campaign=yelp_api_v3&utm_medium=api_v3_business_search&utm_source=hBJOknVQJ58S5goQyjmwRw", "review_count": 36, "categories": [{"alias": "seafood", "title": "Seafood"}], "rating": 3.5, "coordinates": {"latitude": 53.54445, "longitude": 9.94744}, "transactions": [], "price": "\u20ac\u20ac\u20ac", "location": {"address1": "Gro\u00dfe Elbstr. 96", "address2": "", "address3": "", "city": "Hamburg", "zip_code": "22767", "country": "DE", "state": "HH", "display_address": ["Gro\u00dfe Elbstr. 96", "22767 Hamburg", "Germany"]}, "phone": "+49403895888", "display_phone": "+49 40 3895888", "distance": 4706.726127709498}, {"id": "NmY2EK9PPGhHLten68sjEA", "alias": "marseille-hamburg", "name": "Marseille", "image_url": "https://s3-media2.fl.yelpcdn.com/bphoto/urEHZCtB_ZvjVXTDwWoHZg/o.jpg", "is_closed": false, "url": "https://www.yelp.com/biz/marseille-hamburg?adjust_creative=hBJOknVQJ58S5goQyjmwRw&utm_campaign=yelp_api_v3&utm_medium=api_v3_business_search&utm_source=hBJOknVQJ58S5goQyjmwRw", "review_count": 64, "categories": [{"alias": "french", "title": "French"}], "rating": 4.0, "coordinates": {"latitude": 53.54457, "longitude": 9.9423999}, "transactions": [], "price": "\u20ac\u20ac\u20ac", "location": {"address1": "Gro\u00dfe Elbstr. 164", "address2": "", "address3": null, "city": "Hamburg", "zip_code": "22767", "country": "DE", "state": "HH", "display_address": ["Gro\u00dfe Elbstr. 164", "22767 Hamburg", "Germany"]}, "phone": "+494041307221", "display_phone": "+49 40 41307221", "distance": 4716.683298828527}, {"id": "zjU8sl3PNnw59FuUDcTxmw", "alias": "kleinhuis-restaurantschiff-hamburg-2", "name": "Kleinhuis' Restaurantschiff", "image_url": "https://s3-media4.fl.yelpcdn.com/bphoto/6AudSBZuSNa-fdLYizyrzQ/o.jpg", "is_closed": false, "url": "https://www.yelp.com/biz/kleinhuis-restaurantschiff-hamburg-2?adjust_creative=hBJOknVQJ58S5goQyjmwRw&utm_campaign=yelp_api_v3&utm_medium=api_v3_business_search&utm_source=hBJOknVQJ58S5goQyjmwRw", "review_count": 33, "categories": [{"alias": "german", "title": "German"}, {"alias": "cafes", "title": "Cafes"}], "rating": 4.0, "coordinates": {"latitude": 53.5436497362334, "longitude": 9.91471823936467}, "transactions": [], "price": "\u20ac\u20ac", "location": {"address1": "Ponton Neum\u00fchlen", "address2": "", "address3": "", "city": "Hamburg", "zip_code": "22763", "country": "DE", "state": "HH", "display_address": ["Ponton Neum\u00fchlen", "22763 Hamburg", "Germany"]}, "phone": "+4940397383", "display_phone": "+49 40 397383", "distance": 4822.078229512669}, {"id": "Y3Bsu-Fkjhsw8VEaYylimw", "alias": "gastst\u00e4tte-lilium-hamburg", "name": "Gastst\u00e4tte Lilium", "image_url": "https://s3-media4.fl.yelpcdn.com/bphoto/hydPM-3cO8eXzQjdgjrqOg/o.jpg", "is_closed": false, "url": "https://www.yelp.com/biz/gastst%C3%A4tte-lilium-hamburg?adjust_creative=hBJOknVQJ58S5goQyjmwRw&utm_campaign=yelp_api_v3&utm_medium=api_v3_business_search&utm_source=hBJOknVQJ58S5goQyjmwRw", "review_count": 1, "categories": [{"alias": "german", "title": "German"}], "rating": 5.0, "coordinates": {"latitude": 53.4609, "longitude": 9.94004}, "transactions": [], "location": {"address1": "Heimfelder Str. 123", "address2": null, "address3": null, "city": "Hamburg", "zip_code": "21075", "country": "DE", "state": "HH", "display_address": ["Heimfelder Str. 123", "21075 Hamburg", "Germany"]}, "phone": "+4940790090", "display_phone": "+49 40 790090", "distance": 4612.928650133286}, {"id": "kfGyGne8Qn3mxvhXHzMIyQ", "alias": "burger-king-hamburg-3", "name": "Burger King", "image_url": "https://s3-media2.fl.yelpcdn.com/bphoto/vlyYJMsm8pyi6cVRGoOL9g/o.jpg", "is_closed": false, "url": "https://www.yelp.com/biz/burger-king-hamburg-3?adjust_creative=hBJOknVQJ58S5goQyjmwRw&utm_campaign=yelp_api_v3&utm_medium=api_v3_business_search&utm_source=hBJOknVQJ58S5goQyjmwRw", "review_count": 14, "categories": [{"alias": "hotdogs", "title": "Fast Food"}, {"alias": "burgers", "title": "Burgers"}], "rating": 3.0, "coordinates": {"latitude": 53.471143, "longitude": 9.922511}, "transactions": [], "price": "\u20ac\u20ac", "location": {"address1": "Stader Str. 302", "address2": "", "address3": null, "city": "Hamburg", "zip_code": "21075", "country": "DE", "state": "HH", "display_address": ["Stader Str. 302", "21075 Hamburg", "Germany"]}, "phone": "+494079143649", "display_phone": "+49 40 79143649", "distance": 3598.2366636431084}, {"id": "xsZHnSCWIgqF8i1isIPxSQ", "alias": "fischrestaurant-hoppe-hamburg", "name": "Fischrestaurant Hoppe", "image_url": "https://s3-media2.fl.yelpcdn.com/bphoto/MdKg88A-bPH_zFnadaMtvg/o.jpg", "is_closed": false, "url": "https://www.yelp.com/biz/fischrestaurant-hoppe-hamburg?adjust_creative=hBJOknVQJ58S5goQyjmwRw&utm_campaign=yelp_api_v3&utm_medium=api_v3_business_search&utm_source=hBJOknVQJ58S5goQyjmwRw", "review_count": 27, "categories": [{"alias": "seafood", "title": "Seafood"}, {"alias": "german", "title": "German"}], "rating": 3.0, "coordinates": {"latitude": 53.54468, "longitude": 9.91329}, "transactions": [], "price": "\u20ac\u20ac\u20ac", "location": {"address1": "\u00d6velg\u00f6nne 6", "address2": null, "address3": null, "city": "Hamburg", "zip_code": "22605", "country": "DE", "state": "HH", "display_address": ["\u00d6velg\u00f6nne 6", "22605 Hamburg", "Germany"]}, "phone": "+49408800445", "display_phone": "+49 40 8800445", "distance": 4968.485020106163}, {"id": "7v0u6Xs6eJeHsFx_JPt8SQ", "alias": "elbwarte-hamburg", "name": "Elbwarte", "image_url": "https://s3-media4.fl.yelpcdn.com/bphoto/IdqcqgmiD3sm4CD8jkuejg/o.jpg", "is_closed": false, "url": "https://www.yelp.com/biz/elbwarte-hamburg?adjust_creative=hBJOknVQJ58S5goQyjmwRw&utm_campaign=yelp_api_v3&utm_medium=api_v3_business_search&utm_source=hBJOknVQJ58S5goQyjmwRw", "review_count": 4, "categories": [{"alias": "cafes", "title": "Cafes"}, {"alias": "international", "title": "International"}], "rating": 5.0, "coordinates": {"latitude": 53.54392, "longitude": 9.91661}, "transactions": [], "location": {"address1": "Augustinum Hamburg", "address2": "Neum\u00fchlen 37", "address3": "", "city": "Hamburg", "zip_code": "22763", "country": "DE", "state": "HH", "display_address": ["Augustinum Hamburg", "Neum\u00fchlen 37", "22763 Hamburg", "Germany"]}, "phone": "+494039194999", "display_phone": "+49 40 39194999", "distance": 4814.322873089456}, {"id": "uO_w76dX7M_VFvuavXib3A", "alias": "goedekens-komb\u00fcse-hamburg", "name": "Goedekens Komb\u00fcse", "image_url": "https://s3-media2.fl.yelpcdn.com/bphoto/Pf-aI55ryApU0G3TWUTkOw/o.jpg", "is_closed": false, "url": "https://www.yelp.com/biz/goedekens-komb%C3%BCse-hamburg?adjust_creative=hBJOknVQJ58S5goQyjmwRw&utm_campaign=yelp_api_v3&utm_medium=api_v3_business_search&utm_source=hBJOknVQJ58S5goQyjmwRw", "review_count": 15, "categories": [{"alias": "salad", "title": "Salad"}, {"alias": "fischbroetchen", "title": "Fischbroetchen"}], "rating": 4.5, "coordinates": {"latitude": 53.54445, "longitude": 9.93627}, "transactions": [], "price": "\u20ac", "location": {"address1": "Gro\u00dfe Elbstr. 141 b", "address2": null, "address3": null, "city": "Hamburg", "zip_code": "22767", "country": "DE", "state": "HH", "display_address": ["Gro\u00dfe Elbstr. 141 b", "22767 Hamburg", "Germany"]}, "phone": "+4940380237635", "display_phone": "+49 40 380237635", "distance": 4693.053031374835}, {"id": "2Wp3h1UFDqgk88847omfgQ", "alias": "la-vela-hamburg", "name": "La Vela", "image_url": "https://s3-media2.fl.yelpcdn.com/bphoto/v7k7YExWDDpNPmEctmSQpw/o.jpg", "is_closed": false, "url": "https://www.yelp.com/biz/la-vela-hamburg?adjust_creative=hBJOknVQJ58S5goQyjmwRw&utm_campaign=yelp_api_v3&utm_medium=api_v3_business_search&utm_source=hBJOknVQJ58S5goQyjmwRw", "review_count": 89, "categories": [{"alias": "bars", "title": "Bars"}, {"alias": "italian", "title": "Italian"}], "rating": 3.5, "coordinates": {"latitude": 53.54446, "longitude": 9.94992}, "transactions": [], "price": "\u20ac\u20ac\u20ac", "location": {"address1": "Gro\u00dfe Elbstr. 27", "address2": null, "address3": null, "city": "Hamburg", "zip_code": "22767", "country": "DE", "state": "HH", "display_address": ["Gro\u00dfe Elbstr. 27", "22767 Hamburg", "Germany"]}, "phone": "+494038699393", "display_phone": "+49 40 38699393", "distance": 4734.24841237328}, {"id": "Jk8Bn-8ocxpZJFm12orGIw", "alias": "rive-hamburg", "name": "RIVE", "image_url": "https://s3-media1.fl.yelpcdn.com/bphoto/xc-ivxl6nShOBRZvkm-rAg/o.jpg", "is_closed": false, "url": "https://www.yelp.com/biz/rive-hamburg?adjust_creative=hBJOknVQJ58S5goQyjmwRw&utm_campaign=yelp_api_v3&utm_medium=api_v3_business_search&utm_source=hBJOknVQJ58S5goQyjmwRw", "review_count": 158, "categories": [{"alias": "seafood", "title": "Seafood"}], "rating": 3.5, "coordinates": {"latitude": 53.54357, "longitude": 9.94185}, "transactions": [], "price": "\u20ac\u20ac\u20ac", "location": {"address1": "Van-der-Smissen-Str. 1", "address2": "", "address3": "", "city": "Hamburg", "zip_code": "22767", "country": "DE", "state": "HH", "display_address": ["Van-der-Smissen-Str. 1", "22767 Hamburg", "Germany"]}, "phone": "+49403805919", "display_phone": "+49 40 3805919", "distance": 4581.622686062113}, {"id": "1ur4VWH_EnVK3cyHH_p7jQ", "alias": "das-weisse-haus-hamburg", "name": "Das Weisse Haus", "image_url": "https://s3-media4.fl.yelpcdn.com/bphoto/8yRIxbPRADExLIhO9G-siA/o.jpg", "is_closed": false, "url": "https://www.yelp.com/biz/das-weisse-haus-hamburg?adjust_creative=hBJOknVQJ58S5goQyjmwRw&utm_campaign=yelp_api_v3&utm_medium=api_v3_business_search&utm_source=hBJOknVQJ58S5goQyjmwRw", "review_count": 103, "categories": [{"alias": "german", "title": "German"}, {"alias": "international", "title": "International"}], "rating": 4.0, "coordinates": {"latitude": 53.5445512344073, "longitude": 9.91472614285271}, "transactions": [], "price": "\u20ac\u20ac\u20ac", "location": {"address1": "Neum\u00fchlen 50", "address2": "", "address3": null, "city": "Hamburg", "zip_code": "22763", "country": "DE", "state": "HH", "display_address": ["Neum\u00fchlen 50", "22763 Hamburg", "Germany"]}, "phone": "+49403909016", "display_phone": "+49 40 3909016", "distance": 4917.491936134012}, {"id": "cMw6pwHFr5nsff9zLFRcAw", "alias": "oh-its-fresh-hamburg-6", "name": "Oh it's fresh!", "image_url": "https://s3-media2.fl.yelpcdn.com/bphoto/Hxgqqq90WnTP8hGYkyJQyg/o.jpg", "is_closed": false, "url": "https://www.yelp.com/biz/oh-its-fresh-hamburg-6?adjust_creative=hBJOknVQJ58S5goQyjmwRw&utm_campaign=yelp_api_v3&utm_medium=api_v3_business_search&utm_source=hBJOknVQJ58S5goQyjmwRw", "review_count": 47, "categories": [{"alias": "bagels", "title": "Bagels"}, {"alias": "cafes", "title": "Cafes"}], "rating": 3.0, "coordinates": {"latitude": 53.544411635107, "longitude": 9.9466131201114}, "transactions": [], "price": "\u20ac\u20ac", "location": {"address1": "Gro\u00dfe Elbstr. 71", "address2": "", "address3": "", "city": "Hamburg", "zip_code": "22767", "country": "DE", "state": "HH", "display_address": ["Gro\u00dfe Elbstr. 71", "22767 Hamburg", "Germany"]}, "phone": "+494038037861", "display_phone": "+49 40 38037861", "distance": 4721.259446659022}, {"id": "xktqnVMW4oqaAy0w-KPPQQ", "alias": "caf\u00e9-schmidt-hamburg-2", "name": "Caf\u00e9 Schmidt", "image_url": "https://s3-media4.fl.yelpcdn.com/bphoto/EpSyZB6TfnOqRvaFIRmgDQ/o.jpg", "is_closed": false, "url": "https://www.yelp.com/biz/caf%C3%A9-schmidt-hamburg-2?adjust_creative=hBJOknVQJ58S5goQyjmwRw&utm_campaign=yelp_api_v3&utm_medium=api_v3_business_search&utm_source=hBJOknVQJ58S5goQyjmwRw", "review_count": 91, "categories": [{"alias": "cafes", "title": "Cafes"}], "rating": 4.0, "coordinates": {"latitude": 53.544859, "longitude": 9.939719}, "transactions": [], "price": "\u20ac\u20ac", "location": {"address1": "Gro\u00dfe Elbstr. 212", "address2": "", "address3": "", "city": "Hamburg", "zip_code": "22767", "country": "DE", "state": "HH", "display_address": ["Gro\u00dfe Elbstr. 212", "22767 Hamburg", "Germany"]}, "phone": "+49404130671013", "display_phone": "+49 40 4130671013", "distance": 4731.035597087282}, {"id": "JqMC608vO708M-83lqNlWA", "alias": "kfc-hamburg-14", "name": "KFC", "image_url": "https://s3-media3.fl.yelpcdn.com/bphoto/ofONpb_sd7M69vVfPLYcdA/o.jpg", "is_closed": false, "url": "https://www.yelp.com/biz/kfc-hamburg-14?adjust_creative=hBJOknVQJ58S5goQyjmwRw&utm_campaign=yelp_api_v3&utm_medium=api_v3_business_search&utm_source=hBJOknVQJ58S5goQyjmwRw", "review_count": 21, "categories": [{"alias": "hotdogs", "title": "Fast Food"}, {"alias": "chicken_wings", "title": "Chicken Wings"}, {"alias": "chickenshop", "title": "Chicken Shop"}], "rating": 2.5, "coordinates": {"latitude": 53.4713017, "longitude": 9.936842}, "transactions": [], "price": "\u20ac\u20ac\u20ac", "location": {"address1": "Stader Str. 200", "address2": null, "address3": null, "city": "Hamburg", "zip_code": "21075", "country": "DE", "state": "HH", "display_address": ["Stader Str. 200", "21075 Hamburg", "Germany"]}, "phone": "+494079140500", "display_phone": "+49 40 79140500", "distance": 3451.7407129889243}, {"id": "ij6Okm29FBykGgPzdZC7kg", "alias": "lust-auf-italien-hamburg", "name": "Lust auf Italien", "image_url": "https://s3-media4.fl.yelpcdn.com/bphoto/AnMFHd1KcMLxANNpJRMCgQ/o.jpg", "is_closed": false, "url": "https://www.yelp.com/biz/lust-auf-italien-hamburg?adjust_creative=hBJOknVQJ58S5goQyjmwRw&utm_campaign=yelp_api_v3&utm_medium=api_v3_business_search&utm_source=hBJOknVQJ58S5goQyjmwRw", "review_count": 101, "categories": [{"alias": "italian", "title": "Italian"}], "rating": 3.0, "coordinates": {"latitude": 53.54445, "longitude": 9.93901}, "transactions": [], "price": "\u20ac\u20ac", "location": {"address1": "Gro\u00dfe Elbstr. 133", "address2": null, "address3": null, "city": "Hamburg", "zip_code": "22767", "country": "DE", "state": "HH", "display_address": ["Gro\u00dfe Elbstr. 133", "22767 Hamburg", "Germany"]}, "phone": "+4940382811", "display_phone": "+49 40 382811", "distance": 4668.143489517595}, {"id": "8ZO7CMqWxsFAQ1Js8KlXXw", "alias": "henssler-at-home-hamburg", "name": "Henssler At Home", "image_url": "https://s3-media1.fl.yelpcdn.com/bphoto/Ljwigg3lA63Q27ZtfVifJQ/o.jpg", "is_closed": false, "url": "https://www.yelp.com/biz/henssler-at-home-hamburg?adjust_creative=hBJOknVQJ58S5goQyjmwRw&utm_campaign=yelp_api_v3&utm_medium=api_v3_business_search&utm_source=hBJOknVQJ58S5goQyjmwRw", "review_count": 11, "categories": [{"alias": "sushi", "title": "Sushi Bars"}], "rating": 3.5, "coordinates": {"latitude": 53.54453, "longitude": 9.93765}, "transactions": [], "location": {"address1": "Gro\u00dfe Elbstr. 137", "address2": "", "address3": "", "city": "Hamburg", "zip_code": "22767", "country": "DE", "state": "HH", "display_address": ["Gro\u00dfe Elbstr. 137", "22767 Hamburg", "Germany"]}, "phone": "+4940607700030", "display_phone": "+49 40 607700030", "distance": 4688.7323199937255}, {"id": "RUvELTNuACC7Q89V3-0QbQ", "alias": "mcdonalds-hamburg-10", "name": "McDonald's", "image_url": "https://s3-media2.fl.yelpcdn.com/bphoto/fM32vOY4bl5EwLtw0hyMVw/o.jpg", "is_closed": false, "url": "https://www.yelp.com/biz/mcdonalds-hamburg-10?adjust_creative=hBJOknVQJ58S5goQyjmwRw&utm_campaign=yelp_api_v3&utm_medium=api_v3_business_search&utm_source=hBJOknVQJ58S5goQyjmwRw", "review_count": 7, "categories": [{"alias": "hotdogs", "title": "Fast Food"}, {"alias": "burgers", "title": "Burgers"}], "rating": 2.5, "coordinates": {"latitude": 53.4709864343674, "longitude": 9.92870281507347}, "transactions": [], "price": "\u20ac\u20ac", "location": {"address1": "Stader Str. 256", "address2": "", "address3": "", "city": "Hamburg", "zip_code": "21075", "country": "DE", "state": "HH", "display_address": ["Stader Str. 256", "21075 Hamburg", "Germany"]}, "phone": "+49407923009", "display_phone": "+49 40 7923009", "distance": 3529.0719285639725}, {"id": "DzU-1KdBTE0_5hWSP5N_9Q", "alias": "asia-quick-food-lounge-hamburg-2", "name": "Asia Quick Food Lounge", "image_url": "https://s3-media2.fl.yelpcdn.com/bphoto/zxE5Dmndn8okpcMjnbI47Q/o.jpg", "is_closed": false, "url": "https://www.yelp.com/biz/asia-quick-food-lounge-hamburg-2?adjust_creative=hBJOknVQJ58S5goQyjmwRw&utm_campaign=yelp_api_v3&utm_medium=api_v3_business_search&utm_source=hBJOknVQJ58S5goQyjmwRw", "review_count": 7, "categories": [{"alias": "panasian", "title": "Pan Asian"}], "rating": 3.5, "coordinates": {"latitude": 53.54445, "longitude": 9.93901}, "transactions": [], "price": "\u20ac\u20ac", "location": {"address1": "Gro\u00dfe Elbstr. 133", "address2": null, "address3": null, "city": "Hamburg", "zip_code": "22767", "country": "DE", "state": "HH", "display_address": ["Gro\u00dfe Elbstr. 133", "22767 Hamburg", "Germany"]}, "phone": "+4940255545", "display_phone": "+49 40 255545", "distance": 4668.143489517595}, {"id": "HGZAdxmEZja3-J06xwYzwQ", "alias": "imbiss-johann-b\u00f6ttcher-hamburg", "name": "Imbiss Johann B\u00f6ttcher", "image_url": "", "is_closed": false, "url": "https://www.yelp.com/biz/imbiss-johann-b%C3%B6ttcher-hamburg?adjust_creative=hBJOknVQJ58S5goQyjmwRw&utm_campaign=yelp_api_v3&utm_medium=api_v3_business_search&utm_source=hBJOknVQJ58S5goQyjmwRw", "review_count": 4, "categories": [{"alias": "food", "title": "Food"}, {"alias": "currysausage", "title": "Curry Sausage"}], "rating": 5.0, "coordinates": {"latitude": 53.4649, "longitude": 9.96122}, "transactions": [], "location": {"address1": "Heimfelder Str. 13", "address2": null, "address3": null, "city": "Hamburg", "zip_code": "21075", "country": "DE", "state": "HH", "display_address": ["Heimfelder Str. 13", "21075 Hamburg", "Germany"]}, "phone": "+49407906980", "display_phone": "+49 40 7906980", "distance": 4462.887843528265}, {"id": "cupMlCAc_FaP-kGtLEK-sw", "alias": "gourmet-hofladen-hamburg", "name": "Gourmet Hofladen", "image_url": "https://s3-media3.fl.yelpcdn.com/bphoto/qD8JDz07V8tegaAaJNsHfg/o.jpg", "is_closed": false, "url": "https://www.yelp.com/biz/gourmet-hofladen-hamburg?adjust_creative=hBJOknVQJ58S5goQyjmwRw&utm_campaign=yelp_api_v3&utm_medium=api_v3_business_search&utm_source=hBJOknVQJ58S5goQyjmwRw", "review_count": 3, "categories": [{"alias": "bistros", "title": "Bistros"}, {"alias": "delicatessen", "title": "Delicatessen"}, {"alias": "convenience", "title": "Convenience Stores"}], "rating": 3.5, "coordinates": {"latitude": 53.5445236398776, "longitude": 9.9406640928811}, "transactions": [], "price": "\u20ac", "location": {"address1": "Gro\u00dfe Elbstr. 133", "address2": "", "address3": "", "city": "Hamburg", "zip_code": "22767", "country": "DE", "state": "HH", "display_address": ["Gro\u00dfe Elbstr. 133", "22767 Hamburg", "Germany"]}, "phone": "+494038083003", "display_phone": "+49 40 38083003", "distance": 4696.6384182159045}, {"id": "D-4aYZZowKGqc2_TBModsw", "alias": "sun-sushi-hamburg-2", "name": "Sun Sushi", "image_url": "https://s3-media3.fl.yelpcdn.com/bphoto/I4WImSQVzz-sOmF8J5oeEw/o.jpg", "is_closed": false, "url": "https://www.yelp.com/biz/sun-sushi-hamburg-2?adjust_creative=hBJOknVQJ58S5goQyjmwRw&utm_campaign=yelp_api_v3&utm_medium=api_v3_business_search&utm_source=hBJOknVQJ58S5goQyjmwRw", "review_count": 6, "categories": [{"alias": "sushi", "title": "Sushi Bars"}, {"alias": "panasian", "title": "Pan Asian"}], "rating": 3.5, "coordinates": {"latitude": 53.54445, "longitude": 9.93901}, "transactions": [], "price": "\u20ac\u20ac", "location": {"address1": "Gro\u00dfe Elbstr. 133", "address2": "", "address3": "", "city": "Hamburg", "zip_code": "22767", "country": "DE", "state": "HH", "display_address": ["Gro\u00dfe Elbstr. 133", "22767 Hamburg", "Germany"]}, "phone": "+4940255545", "display_phone": "+49 40 255545", "distance": 4668.143489517595}, {"id": "wTiLLTZHoXKEw0V6jtYtjA", "alias": "schanzenb\u00e4ckerei-hamburg-34", "name": "Schanzenb\u00e4ckerei", "image_url": "https://s3-media4.fl.yelpcdn.com/bphoto/t9RO1FNqgK2llEQ3Gvlvuw/o.jpg", "is_closed": false, "url": "https://www.yelp.com/biz/schanzenb%C3%A4ckerei-hamburg-34?adjust_creative=hBJOknVQJ58S5goQyjmwRw&utm_campaign=yelp_api_v3&utm_medium=api_v3_business_search&utm_source=hBJOknVQJ58S5goQyjmwRw", "review_count": 10, "categories": [{"alias": "bakeries", "title": "Bakeries"}, {"alias": "cafes", "title": "Cafes"}], "rating": 2.5, "coordinates": {"latitude": 53.5447, "longitude": 9.94991}, "transactions": [], "price": "\u20ac", "location": {"address1": "Grosse Elbstr. 27", "address2": null, "address3": null, "city": "Hamburg", "zip_code": "22767", "country": "DE", "state": "HH", "display_address": ["Grosse Elbstr. 27", "22767 Hamburg", "Germany"]}, "phone": "+494025305988", "display_phone": "+49 40 25305988", "distance": 4787.239093632856}]