[{"id": "k2VcY6vDQSyLZBkdegOzew", "alias": "wat-dat-pho-hamburg-7", "name": "WAT DAT PHO", "image_url": "https://s3-media3.fl.yelpcdn.com/bphoto/D03gVTWJ47v2HYytktD9qQ/o.jpg", "is_closed": false, "url": "https://www.yelp.com/biz/wat-dat-pho-hamburg-7?adjust_creative=hBJOknVQJ58S5goQyjmwRw&utm_campaign=yelp_api_v3&utm_medium=api_v3_business_search&utm_source=hBJOknVQJ58S5goQyjmwRw", "review_count": 9, "categories": [{"alias": "vietnamese", "title": "Vietnamese"}], "rating": 4.5, "coordinates": {"latitude": 53.505464, "longitude": 9.985858}, "transactions": [], "price": "\u20ac\u20ac", "location": {"address1": "Veringstr. 157", "address2": null, "address3": "", "city": "Hamburg", "zip_code": "21107", "country": "DE", "state": "HH", "display_address": ["Veringstr. 157", "21107 Hamburg", "Germany"]}, "phone": "+494030761822", "display_phone": "+49 40 30761822", "distance": 852.4840816488188}, {"id": "P60dbmGnbgDrqUFTDPUIoQ", "alias": "hansekai-hamburg", "name": "Hansekai", "image_url": "https://s3-media2.fl.yelpcdn.com/bphoto/-ott8KJ1eH4hxUNkGNpW-Q/o.jpg", "is_closed": false, "url": "https://www.yelp.com/biz/hansekai-hamburg?adjust_creative=hBJOknVQJ58S5goQyjmwRw&utm_campaign=yelp_api_v3&utm_medium=api_v3_business_search&utm_source=hBJOknVQJ58S5goQyjmwRw", "review_count": 22, "categories": [{"alias": "international", "title": "International"}, {"alias": "burgers", "title": "Burgers"}, {"alias": "beachbars", "title": "Beach Bars"}], "rating": 4.5, "coordinates": {"latitude": 53.5080361720089, "longitude": 10.0018857781181}, "transactions": [], "price": "\u20ac\u20ac", "location": {"address1": "Jaffestr. 12", "address2": "", "address3": "", "city": "Hamburg", "zip_code": "21109", "country": "DE", "state": "HH", "display_address": ["Jaffestr. 12", "21109 Hamburg", "Germany"]}, "phone": "+494033396262", "display_phone": "+49 40 33396262", "distance": 752.9794018041534}, {"id": "yFKrFeN3B3-AZh6FClPM0A", "alias": "mr-kebab-s\u00fcdland-hamburg", "name": "Mr. Kebab S\u00fcdland", "image_url": "https://s3-media1.fl.yelpcdn.com/bphoto/MtJMIdh9ExNJLIlWLPdfew/o.jpg", "is_closed": false, "url": "https://www.yelp.com/biz/mr-kebab-s%C3%BCdland-hamburg?adjust_creative=hBJOknVQJ58S5goQyjmwRw&utm_campaign=yelp_api_v3&utm_medium=api_v3_business_search&utm_source=hBJOknVQJ58S5goQyjmwRw", "review_count": 9, "categories": [{"alias": "turkish", "title": "Turkish"}, {"alias": "kebab", "title": "Kebab"}], "rating": 5.0, "coordinates": {"latitude": 53.4972749534473, "longitude": 10.0043760985136}, "transactions": [], "price": "\u20ac\u20ac", "location": {"address1": "Neuenfelder Str. 31", "address2": "", "address3": "", "city": "Hamburg", "zip_code": "21109", "country": "DE", "state": "HH", "display_address": ["Neuenfelder Str. 31", "21109 Hamburg", "Germany"]}, "phone": "+4915209060666", "display_phone": "+49 1520 9060666", "distance": 694.8412529130985}, {"id": "1sEExR-zu9DmbWGroM4bog", "alias": "flutlicht-hamburg-2", "name": "Flutlicht", "image_url": "https://s3-media2.fl.yelpcdn.com/bphoto/gu7ZEeIgiHWnhysPTFx5sQ/o.jpg", "is_closed": false, "url": "https://www.yelp.com/biz/flutlicht-hamburg-2?adjust_creative=hBJOknVQJ58S5goQyjmwRw&utm_campaign=yelp_api_v3&utm_medium=api_v3_business_search&utm_source=hBJOknVQJ58S5goQyjmwRw", "review_count": 13, "categories": [{"alias": "cocktailbars", "title": "Cocktail Bars"}, {"alias": "cafes", "title": "Cafes"}, {"alias": "international", "title": "International"}], "rating": 5.0, "coordinates": {"latitude": 53.5170288, "longitude": 9.9877195}, "transactions": [], "price": "\u20ac\u20ac", "location": {"address1": "Veringstr. 14", "address2": "", "address3": "", "city": "Hamburg", "zip_code": "21107", "country": "DE", "state": "HH", "display_address": ["Veringstr. 14", "21107 Hamburg", "Germany"]}, "phone": "+494065886699", "display_phone": "+49 40 65886699", "distance": 1807.1204406621707}, {"id": "83Aj0NzMKmvnm0yg9gtsoQ", "alias": "aomame-hamburg", "name": "Aomame", "image_url": "https://s3-media2.fl.yelpcdn.com/bphoto/QRWWfntUW489uX2CaCKaGw/o.jpg", "is_closed": false, "url": "https://www.yelp.com/biz/aomame-hamburg?adjust_creative=hBJOknVQJ58S5goQyjmwRw&utm_campaign=yelp_api_v3&utm_medium=api_v3_business_search&utm_source=hBJOknVQJ58S5goQyjmwRw", "review_count": 5, "categories": [{"alias": "ramen", "title": "Ramen"}], "rating": 4.0, "coordinates": {"latitude": 53.505699, "longitude": 9.985711}, "transactions": [], "location": {"address1": "Veringstr. 155", "address2": null, "address3": "", "city": "Hamburg", "zip_code": "20148", "country": "DE", "state": "HH", "display_address": ["Veringstr. 155", "20148 Hamburg", "Germany"]}, "phone": "+494030925084", "display_phone": "+49 40 30925084", "distance": 875.1826248517392}, {"id": "pSzgOFD0cfVQtC8A8IMI4w", "alias": "die-kochburg-hamburg", "name": "Die Kochburg", "image_url": "https://s3-media3.fl.yelpcdn.com/bphoto/AlW3hwFbpOwsk55U7CttYg/o.jpg", "is_closed": false, "url": "https://www.yelp.com/biz/die-kochburg-hamburg?adjust_creative=hBJOknVQJ58S5goQyjmwRw&utm_campaign=yelp_api_v3&utm_medium=api_v3_business_search&utm_source=hBJOknVQJ58S5goQyjmwRw", "review_count": 4, "categories": [{"alias": "international", "title": "International"}, {"alias": "german", "title": "German"}], "rating": 4.5, "coordinates": {"latitude": 53.500262, "longitude": 9.995971}, "transactions": [], "location": {"address1": "Mengestr. 20", "address2": "", "address3": "", "city": "Hamburg", "zip_code": "21107", "country": "DE", "state": "HH", "display_address": ["Mengestr. 20", "21107 Hamburg", "Germany"]}, "phone": "+4940883020915", "display_phone": "+49 40 883020915", "distance": 195.88088808757766}, {"id": "tsMbmtFE7c8oI4BpbBWfkQ", "alias": "refugium-hamburg", "name": "Refugium", "image_url": "https://s3-media2.fl.yelpcdn.com/bphoto/bHZfzE7ViTgSRY7PhswAtw/o.jpg", "is_closed": false, "url": "https://www.yelp.com/biz/refugium-hamburg?adjust_creative=hBJOknVQJ58S5goQyjmwRw&utm_campaign=yelp_api_v3&utm_medium=api_v3_business_search&utm_source=hBJOknVQJ58S5goQyjmwRw", "review_count": 1, "categories": [{"alias": "mediterranean", "title": "Mediterranean"}, {"alias": "bistros", "title": "Bistros"}], "rating": 4.0, "coordinates": {"latitude": 53.4945412, "longitude": 10.0030804}, "transactions": [], "price": "\u20ac\u20ac", "location": {"address1": "Inselpark 20", "address2": "", "address3": "", "city": "Hamburg", "zip_code": "21109", "country": "DE", "state": "HH", "display_address": ["Inselpark 20", "21109 Hamburg", "Germany"]}, "phone": "+494033442688", "display_phone": "+49 40 33442688", "distance": 904.7873569457523}, {"id": "SLgMERrjsI61LhQ6tlASig", "alias": "williamsburger-hamburg", "name": "Williamsburger", "image_url": "https://s3-media2.fl.yelpcdn.com/bphoto/Ww4SLQWJ4gyVHAK7w8U4LA/o.jpg", "is_closed": false, "url": "https://www.yelp.com/biz/williamsburger-hamburg?adjust_creative=hBJOknVQJ58S5goQyjmwRw&utm_campaign=yelp_api_v3&utm_medium=api_v3_business_search&utm_source=hBJOknVQJ58S5goQyjmwRw", "review_count": 10, "categories": [{"alias": "burgers", "title": "Burgers"}], "rating": 4.5, "coordinates": {"latitude": 53.515986, "longitude": 9.987578}, "transactions": [], "price": "\u20ac\u20ac", "location": {"address1": "Veringstr. 28", "address2": null, "address3": "", "city": "Hamburg", "zip_code": "21107", "country": "DE", "state": "HH", "display_address": ["Veringstr. 28", "21107 Hamburg", "Germany"]}, "phone": "+494094776077", "display_phone": "+49 40 94776077", "distance": 1693.5104257296118}, {"id": "PUy1Oh5ReFBoNmFzP-r6-w", "alias": "vollmundig-hamburg", "name": "Vollmundig", "image_url": "https://s3-media3.fl.yelpcdn.com/bphoto/bFV5mYg6FrucjkahZYQoNg/o.jpg", "is_closed": false, "url": "https://www.yelp.com/biz/vollmundig-hamburg?adjust_creative=hBJOknVQJ58S5goQyjmwRw&utm_campaign=yelp_api_v3&utm_medium=api_v3_business_search&utm_source=hBJOknVQJ58S5goQyjmwRw", "review_count": 3, "categories": [{"alias": "cafes", "title": "Cafes"}], "rating": 4.5, "coordinates": {"latitude": 53.51031, "longitude": 9.986489}, "transactions": [], "location": {"address1": "Veringstr. 97", "address2": "", "address3": null, "city": "Hamburg", "zip_code": "21107", "country": "DE", "state": "HH", "display_address": ["Veringstr. 97", "21107 Hamburg", "Germany"]}, "phone": "+49407522220", "display_phone": "+49 40 7522220", "distance": 1182.9619805914117}, {"id": "FhCSHnuquJbo8w4MAehEzg", "alias": "suchi-hamburg-2", "name": "SuChi", "image_url": "https://s3-media4.fl.yelpcdn.com/bphoto/7uyKpFCg_dU_IisNb5usAQ/o.jpg", "is_closed": false, "url": "https://www.yelp.com/biz/suchi-hamburg-2?adjust_creative=hBJOknVQJ58S5goQyjmwRw&utm_campaign=yelp_api_v3&utm_medium=api_v3_business_search&utm_source=hBJOknVQJ58S5goQyjmwRw", "review_count": 15, "categories": [{"alias": "sushi", "title": "Sushi Bars"}, {"alias": "panasian", "title": "Pan Asian"}], "rating": 4.5, "coordinates": {"latitude": 53.515986, "longitude": 9.987578}, "transactions": [], "price": "\u20ac\u20ac", "location": {"address1": "Veringstr. 28", "address2": "", "address3": "", "city": "Hamburg", "zip_code": "21107", "country": "DE", "state": "HH", "display_address": ["Veringstr. 28", "21107 Hamburg", "Germany"]}, "phone": "+494060859061", "display_phone": "+49 40 60859061", "distance": 1693.5104257296118}, {"id": "GOD5s7sB_XG6fF66T4bzrg", "alias": "pianola-hamburg", "name": "Pianola", "image_url": "https://s3-media3.fl.yelpcdn.com/bphoto/Mvg2vcbxybgxXiibW1EGQQ/o.jpg", "is_closed": false, "url": "https://www.yelp.com/biz/pianola-hamburg?adjust_creative=hBJOknVQJ58S5goQyjmwRw&utm_campaign=yelp_api_v3&utm_medium=api_v3_business_search&utm_source=hBJOknVQJ58S5goQyjmwRw", "review_count": 11, "categories": [{"alias": "northerngerman", "title": "Northern German"}, {"alias": "divebars", "title": "Dive Bars"}], "rating": 4.5, "coordinates": {"latitude": 53.517, "longitude": 9.98839}, "transactions": [], "price": "\u20ac\u20ac", "location": {"address1": "Vogelh\u00fcttendeich 62", "address2": null, "address3": null, "city": "Hamburg", "zip_code": "21107", "country": "DE", "state": "HH", "display_address": ["Vogelh\u00fcttendeich 62", "21107 Hamburg", "Germany"]}, "phone": "+4940758587", "display_phone": "+49 40 758587", "distance": 1782.529555438511}, {"id": "HruG03Njlxgm3x31iY6q_Q", "alias": "pizzeria-piccola-hamburg", "name": "Pizzeria Piccola", "image_url": "https://s3-media2.fl.yelpcdn.com/bphoto/3DypNNz208QleNj_ydOb-Q/o.jpg", "is_closed": false, "url": "https://www.yelp.com/biz/pizzeria-piccola-hamburg?adjust_creative=hBJOknVQJ58S5goQyjmwRw&utm_campaign=yelp_api_v3&utm_medium=api_v3_business_search&utm_source=hBJOknVQJ58S5goQyjmwRw", "review_count": 29, "categories": [{"alias": "pizza", "title": "Pizza"}, {"alias": "italian", "title": "Italian"}], "rating": 5.0, "coordinates": {"latitude": 53.52375, "longitude": 10.01573}, "transactions": [], "price": "\u20ac", "location": {"address1": "Wilhelmsburger Platz 14", "address2": "", "address3": "", "city": "Hamburg", "zip_code": "20539", "country": "DE", "state": "HH", "display_address": ["Wilhelmsburger Platz 14", "20539 Hamburg", "Germany"]}, "phone": "+494079008490", "display_phone": "+49 40 79008490", "distance": 2724.4853796261805}, {"id": "sStY2sKBeRk9-Na4Go7euw", "alias": "tadim-urfa-hamburg", "name": "Tadim Urfa", "image_url": "https://s3-media1.fl.yelpcdn.com/bphoto/oVwfaOMku_3HWeGF9Tz3Mw/o.jpg", "is_closed": false, "url": "https://www.yelp.com/biz/tadim-urfa-hamburg?adjust_creative=hBJOknVQJ58S5goQyjmwRw&utm_campaign=yelp_api_v3&utm_medium=api_v3_business_search&utm_source=hBJOknVQJ58S5goQyjmwRw", "review_count": 3, "categories": [{"alias": "kebab", "title": "Kebab"}], "rating": 4.5, "coordinates": {"latitude": 53.5150161, "longitude": 9.9873963}, "transactions": [], "price": "\u20ac", "location": {"address1": "Veringstr. 40", "address2": "", "address3": "", "city": "Hamburg", "zip_code": "21107", "country": "DE", "state": "HH", "display_address": ["Veringstr. 40", "21107 Hamburg", "Germany"]}, "phone": "+49407521035", "display_phone": "+49 40 7521035", "distance": 1601.344372070778}, {"id": "UEOWYJX6084Rmy0Qm3qQMw", "alias": "don-matteo-hamburg", "name": "Don Matteo", "image_url": "https://s3-media2.fl.yelpcdn.com/bphoto/tr8i7Sw4BwpmNmm20kqQfg/o.jpg", "is_closed": false, "url": "https://www.yelp.com/biz/don-matteo-hamburg?adjust_creative=hBJOknVQJ58S5goQyjmwRw&utm_campaign=yelp_api_v3&utm_medium=api_v3_business_search&utm_source=hBJOknVQJ58S5goQyjmwRw", "review_count": 48, "categories": [{"alias": "italian", "title": "Italian"}, {"alias": "pizza", "title": "Pizza"}], "rating": 4.5, "coordinates": {"latitude": 53.5124251203616, "longitude": 9.98677324189011}, "transactions": [], "price": "\u20ac\u20ac", "location": {"address1": "Veringstr. 69", "address2": "", "address3": "", "city": "Hamburg", "zip_code": "21107", "country": "DE", "state": "HH", "display_address": ["Veringstr. 69", "21107 Hamburg", "Germany"]}, "phone": "+494051908281", "display_phone": "+49 40 51908281", "distance": 1363.6167538111788}, {"id": "EO701oyc8GLd4ACHiMFJMg", "alias": "zum-anleger-hamburg-2", "name": "Zum Anleger", "image_url": "https://s3-media2.fl.yelpcdn.com/bphoto/dABziWGbAuwk1Pje0V9lbQ/o.jpg", "is_closed": false, "url": "https://www.yelp.com/biz/zum-anleger-hamburg-2?adjust_creative=hBJOknVQJ58S5goQyjmwRw&utm_campaign=yelp_api_v3&utm_medium=api_v3_business_search&utm_source=hBJOknVQJ58S5goQyjmwRw", "review_count": 38, "categories": [{"alias": "beergarden", "title": "Beer Garden"}], "rating": 4.0, "coordinates": {"latitude": 53.51563, "longitude": 9.99821}, "transactions": [], "price": "\u20ac\u20ac", "location": {"address1": "Vogelh\u00fcttendeich 123", "address2": "", "address3": "", "city": "Hamburg", "zip_code": "21107", "country": "DE", "state": "HH", "display_address": ["Vogelh\u00fcttendeich 123", "21107 Hamburg", "Germany"]}, "phone": "+494086687781", "display_phone": "+49 40 86687781", "distance": 1538.4113587103293}, {"id": "nBgzcYJxYY3TAhfP-L0H3Q", "alias": "veddeler-fischgastst\u00e4tte-hamburg", "name": "Veddeler Fischgastst\u00e4tte", "image_url": "https://s3-media3.fl.yelpcdn.com/bphoto/v2zqQ0t4NcdVYHFJgGTleg/o.jpg", "is_closed": false, "url": "https://www.yelp.com/biz/veddeler-fischgastst%C3%A4tte-hamburg?adjust_creative=hBJOknVQJ58S5goQyjmwRw&utm_campaign=yelp_api_v3&utm_medium=api_v3_business_search&utm_source=hBJOknVQJ58S5goQyjmwRw", "review_count": 122, "categories": [{"alias": "fishnchips", "title": "Fish & Chips"}, {"alias": "seafood", "title": "Seafood"}, {"alias": "northerngerman", "title": "Northern German"}], "rating": 4.5, "coordinates": {"latitude": 53.529258, "longitude": 10.0204}, "transactions": [], "price": "\u20ac\u20ac", "location": {"address1": "Tunnelstr. 70", "address2": "", "address3": "", "city": "Hamburg", "zip_code": "20539", "country": "DE", "state": "HH", "display_address": ["Tunnelstr. 70", "20539 Hamburg", "Germany"]}, "phone": "+4940786389", "display_phone": "+49 40 786389", "distance": 3410.339020857974}, {"id": "ajSQj7KiiYSqsHQzd09_oQ", "alias": "ricks-cafe-hamburg", "name": "Ricks Cafe", "image_url": "https://s3-media2.fl.yelpcdn.com/bphoto/VuBd7ImZXRXcvJgV3n8tJw/o.jpg", "is_closed": false, "url": "https://www.yelp.com/biz/ricks-cafe-hamburg?adjust_creative=hBJOknVQJ58S5goQyjmwRw&utm_campaign=yelp_api_v3&utm_medium=api_v3_business_search&utm_source=hBJOknVQJ58S5goQyjmwRw", "review_count": 6, "categories": [{"alias": "sportsbars", "title": "Sports Bars"}, {"alias": "pizza", "title": "Pizza"}], "rating": 3.5, "coordinates": {"latitude": 53.51663, "longitude": 9.98438}, "transactions": [], "price": "\u20ac", "location": {"address1": "Otterhaken 9", "address2": "", "address3": "", "city": "Hamburg", "zip_code": "21107", "country": "DE", "state": "HH", "display_address": ["Otterhaken 9", "21107 Hamburg", "Germany"]}, "phone": "+49407532742", "display_phone": "+49 40 7532742", "distance": 1853.3692067082438}, {"id": "PabtlNDCBg9wYhM6OmcHGw", "alias": "victoria-vook-hamburg", "name": "Victoria Vook", "image_url": "https://s3-media1.fl.yelpcdn.com/bphoto/-An8OObnLqzErpFybUxR_A/o.jpg", "is_closed": false, "url": "https://www.yelp.com/biz/victoria-vook-hamburg?adjust_creative=hBJOknVQJ58S5goQyjmwRw&utm_campaign=yelp_api_v3&utm_medium=api_v3_business_search&utm_source=hBJOknVQJ58S5goQyjmwRw", "review_count": 1, "categories": [{"alias": "panasian", "title": "Pan Asian"}], "rating": 5.0, "coordinates": {"latitude": 53.51579, "longitude": 9.99316}, "transactions": [], "price": "\u20ac\u20ac", "location": {"address1": "Georg-Wilhelm-Str. 7 b", "address2": null, "address3": null, "city": "Hamburg", "zip_code": "21107", "country": "DE", "state": "HH", "display_address": ["Georg-Wilhelm-Str. 7 b", "21107 Hamburg", "Germany"]}, "phone": "+494032519600", "display_phone": "+49 40 32519600", "distance": 1576.6247111869495}, {"id": "ILqK9rW4j1b3Ja6fDxDDnA", "alias": "bootshaus-grill-und-bar-hamburg", "name": "Bootshaus Grill & Bar", "image_url": "https://s3-media4.fl.yelpcdn.com/bphoto/JvcoSf_LmAQaStUlcZ5-9Q/o.jpg", "is_closed": false, "url": "https://www.yelp.com/biz/bootshaus-grill-und-bar-hamburg?adjust_creative=hBJOknVQJ58S5goQyjmwRw&utm_campaign=yelp_api_v3&utm_medium=api_v3_business_search&utm_source=hBJOknVQJ58S5goQyjmwRw", "review_count": 12, "categories": [{"alias": "bars", "title": "Bars"}, {"alias": "steak", "title": "Steakhouses"}], "rating": 5.0, "coordinates": {"latitude": 53.541368, "longitude": 9.990977}, "transactions": [], "price": "\u20ac\u20ac\u20ac", "location": {"address1": "Am Kaiserkai 19", "address2": "", "address3": null, "city": "Hamburg", "zip_code": "20457", "country": "DE", "state": "HH", "display_address": ["Am Kaiserkai 19", "20457 Hamburg", "Germany"]}, "phone": "+494033473744", "display_phone": "+49 40 33473744", "distance": 4412.929274806703}, {"id": "D0QJeA5CeKN13iI5UUvI-g", "alias": "vlet-in-der-speicherstadt-hamburg-6", "name": "VLET in der Speicherstadt", "image_url": "https://s3-media2.fl.yelpcdn.com/bphoto/XDm5jJKrrGMDNfIkN-Z97A/o.jpg", "is_closed": false, "url": "https://www.yelp.com/biz/vlet-in-der-speicherstadt-hamburg-6?adjust_creative=hBJOknVQJ58S5goQyjmwRw&utm_campaign=yelp_api_v3&utm_medium=api_v3_business_search&utm_source=hBJOknVQJ58S5goQyjmwRw", "review_count": 144, "categories": [{"alias": "northerngerman", "title": "Northern German"}], "rating": 4.5, "coordinates": {"latitude": 53.5433995641781, "longitude": 9.99326111170046}, "transactions": [], "price": "\u20ac\u20ac\u20ac", "location": {"address1": "Am Sandtorkai 23/24", "address2": "", "address3": null, "city": "Hamburg", "zip_code": "20457", "country": "DE", "state": "HH", "display_address": ["Am Sandtorkai 23/24", "20457 Hamburg", "Germany"]}, "phone": "+4940334753750", "display_phone": "+49 40 334753750", "distance": 4626.86656254259}, {"id": "O3_9LrM2z7eyznSAP9KrsA", "alias": "ufuk-imbiss-hamburg", "name": "Ufuk Imbiss", "image_url": "https://s3-media2.fl.yelpcdn.com/bphoto/goYm_dAQrCE9-1hW9ORJxw/o.jpg", "is_closed": false, "url": "https://www.yelp.com/biz/ufuk-imbiss-hamburg?adjust_creative=hBJOknVQJ58S5goQyjmwRw&utm_campaign=yelp_api_v3&utm_medium=api_v3_business_search&utm_source=hBJOknVQJ58S5goQyjmwRw", "review_count": 7, "categories": [{"alias": "kebab", "title": "Kebab"}], "rating": 4.5, "coordinates": {"latitude": 53.4930679366908, "longitude": 10.0133583998035}, "transactions": [], "price": "\u20ac", "location": {"address1": "Neuenfelder Str. 96", "address2": null, "address3": null, "city": "Hamburg", "zip_code": "21109", "country": "DE", "state": "HH", "display_address": ["Neuenfelder Str. 96", "21109 Hamburg", "Germany"]}, "phone": "+491734556070", "display_phone": "+49 173 4556070", "distance": 1446.6559021784806}, {"id": "Ky-jJxTL7hzwNMsLq0x77g", "alias": "coast-by-east-hamburg", "name": "COAST by east", "image_url": "https://s3-media1.fl.yelpcdn.com/bphoto/KqUdBK0UDMWrgn_t2u_bGg/o.jpg", "is_closed": false, "url": "https://www.yelp.com/biz/coast-by-east-hamburg?adjust_creative=hBJOknVQJ58S5goQyjmwRw&utm_campaign=yelp_api_v3&utm_medium=api_v3_business_search&utm_source=hBJOknVQJ58S5goQyjmwRw", "review_count": 105, "categories": [{"alias": "lounges", "title": "Lounges"}, {"alias": "seafood", "title": "Seafood"}, {"alias": "panasian", "title": "Pan Asian"}], "rating": 4.0, "coordinates": {"latitude": 53.5399843600016, "longitude": 9.9927248452301}, "transactions": [], "price": "\u20ac\u20ac\u20ac\u20ac", "location": {"address1": "Gro\u00dfer Grasbrook 14", "address2": "", "address3": "", "city": "Hamburg", "zip_code": "20457", "country": "DE", "state": "HH", "display_address": ["Gro\u00dfer Grasbrook 14", "20457 Hamburg", "Germany"]}, "phone": "+494030993230", "display_phone": "+49 40 30993230", "distance": 4250.118221704352}, {"id": "eFE5SnsanlNihnFs1fORDw", "alias": "willi-villa-hamburg", "name": "Willi Villa", "image_url": "https://s3-media4.fl.yelpcdn.com/bphoto/48pXxWCV6HKm1VDPnZF5XA/o.jpg", "is_closed": false, "url": "https://www.yelp.com/biz/willi-villa-hamburg?adjust_creative=hBJOknVQJ58S5goQyjmwRw&utm_campaign=yelp_api_v3&utm_medium=api_v3_business_search&utm_source=hBJOknVQJ58S5goQyjmwRw", "review_count": 7, "categories": [{"alias": "boatcharters", "title": "Boat Charters"}, {"alias": "cafes", "title": "Cafes"}, {"alias": "kiosk", "title": "Kiosk"}], "rating": 3.5, "coordinates": {"latitude": 53.490407693867, "longitude": 10.00002330531}, "transactions": [], "price": "\u20ac\u20ac", "location": {"address1": "Hauland 81", "address2": "", "address3": "", "city": "Hamburg", "zip_code": "21109", "country": "DE", "state": "HH", "display_address": ["Hauland 81", "21109 Hamburg", "Germany"]}, "phone": "+494086687781", "display_phone": "+49 40 86687781", "distance": 1286.3298884285364}, {"id": "SFUK2wwcdACH-1iYf5-y4Q", "alias": "juventude-do-minho-hamburg", "name": "Juventude do Minho", "image_url": "", "is_closed": false, "url": "https://www.yelp.com/biz/juventude-do-minho-hamburg?adjust_creative=hBJOknVQJ58S5goQyjmwRw&utm_campaign=yelp_api_v3&utm_medium=api_v3_business_search&utm_source=hBJOknVQJ58S5goQyjmwRw", "review_count": 2, "categories": [{"alias": "portuguese", "title": "Portuguese"}], "rating": 4.5, "coordinates": {"latitude": 53.5169, "longitude": 10.0035}, "transactions": [], "price": "\u20ac", "location": {"address1": "Stenzelring 24", "address2": null, "address3": null, "city": "Hamburg", "zip_code": "21107", "country": "DE", "state": "HH", "display_address": ["Stenzelring 24", "21107 Hamburg", "Germany"]}, "phone": "+49407521101", "display_phone": "+49 40 7521101", "distance": 1723.3964870659179}, {"id": "1Cn3SKMTlIm8ATXNpkekyg", "alias": "wilhelms-hamburg-2", "name": "Wilhelms", "image_url": "https://s3-media4.fl.yelpcdn.com/bphoto/QLs4XKkB5hSLb8vD-iiSCQ/o.jpg", "is_closed": false, "url": "https://www.yelp.com/biz/wilhelms-hamburg-2?adjust_creative=hBJOknVQJ58S5goQyjmwRw&utm_campaign=yelp_api_v3&utm_medium=api_v3_business_search&utm_source=hBJOknVQJ58S5goQyjmwRw", "review_count": 8, "categories": [{"alias": "german", "title": "German"}], "rating": 3.5, "coordinates": {"latitude": 53.4983, "longitude": 10.0004}, "transactions": [], "location": {"address1": "W\u00e4lderhaus", "address2": "Am Inselpark 19", "address3": null, "city": "Hamburg", "zip_code": "21109", "country": "DE", "state": "HH", "display_address": ["W\u00e4lderhaus", "Am Inselpark 19", "21109 Hamburg", "Germany"]}, "phone": "+4940302156600", "display_phone": "+49 40 302156600", "distance": 447.5249328842687}, {"id": "SW6EzuoNeoPTfpWySBiXXQ", "alias": "bei-fernando-hamburg", "name": "Bei Fernando", "image_url": "https://s3-media1.fl.yelpcdn.com/bphoto/BJnblbsN53uNoYjIC6oCBg/o.jpg", "is_closed": false, "url": "https://www.yelp.com/biz/bei-fernando-hamburg?adjust_creative=hBJOknVQJ58S5goQyjmwRw&utm_campaign=yelp_api_v3&utm_medium=api_v3_business_search&utm_source=hBJOknVQJ58S5goQyjmwRw", "review_count": 20, "categories": [{"alias": "portuguese", "title": "Portuguese"}], "rating": 4.5, "coordinates": {"latitude": 53.463421, "longitude": 9.9815204}, "transactions": [], "price": "\u20ac\u20ac", "location": {"address1": "Schlo\u00dfm\u00fchlendamm 29", "address2": null, "address3": null, "city": "Hamburg", "zip_code": "21073", "country": "DE", "state": "HH", "display_address": ["Schlo\u00dfm\u00fchlendamm 29", "21073 Hamburg", "Germany"]}, "phone": "+494032506758", "display_phone": "+49 40 32506758", "distance": 4398.401912417348}, {"id": "0uPXrKkisF8npCRH6GwN9Q", "alias": "thai-asia-wok-hamburg", "name": "Thai Asia Wok", "image_url": "https://s3-media3.fl.yelpcdn.com/bphoto/BDnY0bnnumKG2RevNLDp4A/o.jpg", "is_closed": false, "url": "https://www.yelp.com/biz/thai-asia-wok-hamburg?adjust_creative=hBJOknVQJ58S5goQyjmwRw&utm_campaign=yelp_api_v3&utm_medium=api_v3_business_search&utm_source=hBJOknVQJ58S5goQyjmwRw", "review_count": 10, "categories": [{"alias": "panasian", "title": "Pan Asian"}], "rating": 4.5, "coordinates": {"latitude": 53.4601808, "longitude": 9.9757091}, "transactions": [], "price": "\u20ac", "location": {"address1": "Wilhelmstr. 1", "address2": null, "address3": null, "city": "Hamburg", "zip_code": "21073", "country": "DE", "state": "HH", "display_address": ["Wilhelmstr. 1", "21073 Hamburg", "Germany"]}, "phone": "+494032873806", "display_phone": "+49 40 32873806", "distance": 4847.976470082324}, {"id": "jfNuFmyWQfl-dUt-SPQ7OA", "alias": "der-grieche-hamburg-3", "name": "Der Grieche", "image_url": "https://s3-media1.fl.yelpcdn.com/bphoto/VlvOP7MZxhr_qgMJ8TRNcA/o.jpg", "is_closed": false, "url": "https://www.yelp.com/biz/der-grieche-hamburg-3?adjust_creative=hBJOknVQJ58S5goQyjmwRw&utm_campaign=yelp_api_v3&utm_medium=api_v3_business_search&utm_source=hBJOknVQJ58S5goQyjmwRw", "review_count": 4, "categories": [{"alias": "greek", "title": "Greek"}], "rating": 3.5, "coordinates": {"latitude": 53.5054, "longitude": 9.986}, "transactions": [], "price": "\u20ac\u20ac", "location": {"address1": "Veringstr. 159", "address2": null, "address3": null, "city": "Hamburg", "zip_code": "21107", "country": "DE", "state": "HH", "display_address": ["Veringstr. 159", "21107 Hamburg", "Germany"]}, "phone": "+494075662581", "display_phone": "+49 40 75662581", "distance": 840.8512949869172}, {"id": "RSKSnNrCD7ir_zYgoqPtQA", "alias": "schwester-kumpir-hamburg", "name": "Schwester Kumpir", "image_url": "https://s3-media3.fl.yelpcdn.com/bphoto/tI_js3xcVgBBXzBfarVqQw/o.jpg", "is_closed": false, "url": "https://www.yelp.com/biz/schwester-kumpir-hamburg?adjust_creative=hBJOknVQJ58S5goQyjmwRw&utm_campaign=yelp_api_v3&utm_medium=api_v3_business_search&utm_source=hBJOknVQJ58S5goQyjmwRw", "review_count": 5, "categories": [{"alias": "waffles", "title": "Waffles"}, {"alias": "potatoes", "title": "Potatoes"}], "rating": 4.5, "coordinates": {"latitude": 53.51607, "longitude": 9.98724}, "transactions": [], "location": {"address1": "Veringstr. 27", "address2": "", "address3": null, "city": "Hamburg", "zip_code": "21107", "country": "DE", "state": "HH", "display_address": ["Veringstr. 27", "21107 Hamburg", "Germany"]}, "phone": "+4917632884359", "display_phone": "+49 176 32884359", "distance": 1716.449043588796}, {"id": "Mht3cgKJjA_rrfxla8x6rA", "alias": "the-table-hamburg", "name": "The Table", "image_url": "https://s3-media2.fl.yelpcdn.com/bphoto/hEQnX6xYCz2buBeR53DDug/o.jpg", "is_closed": false, "url": "https://www.yelp.com/biz/the-table-hamburg?adjust_creative=hBJOknVQJ58S5goQyjmwRw&utm_campaign=yelp_api_v3&utm_medium=api_v3_business_search&utm_source=hBJOknVQJ58S5goQyjmwRw", "review_count": 12, "categories": [{"alias": "modern_european", "title": "Modern European"}], "rating": 5.0, "coordinates": {"latitude": 53.54261, "longitude": 10.00305}, "transactions": [], "price": "\u20ac\u20ac\u20ac\u20ac", "location": {"address1": "Shanghaiallee 15", "address2": "", "address3": "", "city": "Hamburg", "zip_code": "20457", "country": "DE", "state": "HH", "display_address": ["Shanghaiallee 15", "20457 Hamburg", "Germany"]}, "phone": "+494022867422", "display_phone": "+49 40 22867422", "distance": 4549.746697586416}, {"id": "UBgt4GnMhJZkpRtoPsQXaQ", "alias": "speisegastst\u00e4tte-zum-wilhelmsburger-hamburg", "name": "Speisegastst\u00e4tte zum Wilhelmsburger", "image_url": "https://s3-media1.fl.yelpcdn.com/bphoto/aezaxajYnXUFTJHJUpZtqQ/o.jpg", "is_closed": false, "url": "https://www.yelp.com/biz/speisegastst%C3%A4tte-zum-wilhelmsburger-hamburg?adjust_creative=hBJOknVQJ58S5goQyjmwRw&utm_campaign=yelp_api_v3&utm_medium=api_v3_business_search&utm_source=hBJOknVQJ58S5goQyjmwRw", "review_count": 3, "categories": [{"alias": "german", "title": "German"}], "rating": 4.5, "coordinates": {"latitude": 53.51538, "longitude": 9.98836}, "transactions": [], "location": {"address1": "Weimarer Str. 1", "address2": null, "address3": null, "city": "Hamburg", "zip_code": "21107", "country": "DE", "state": "HH", "display_address": ["Weimarer Str. 1", "21107 Hamburg", "Germany"]}, "phone": "+4940758860", "display_phone": "+49 40 758860", "distance": 1627.25385026876}, {"id": "rDQmTfBfVsgdKXBm_LDGdQ", "alias": "uschis-imbiss-hamburg", "name": "Uschi's Imbiss", "image_url": "https://s3-media1.fl.yelpcdn.com/bphoto/zCHOjg_AyGkTFK6guAm_RQ/o.jpg", "is_closed": false, "url": "https://www.yelp.com/biz/uschis-imbiss-hamburg?adjust_creative=hBJOknVQJ58S5goQyjmwRw&utm_campaign=yelp_api_v3&utm_medium=api_v3_business_search&utm_source=hBJOknVQJ58S5goQyjmwRw", "review_count": 1, "categories": [{"alias": "foodstands", "title": "Food Stands"}], "rating": 5.0, "coordinates": {"latitude": 53.51796, "longitude": 10.00062}, "transactions": [], "location": {"address1": "Schlenzigstr. 7", "address2": "", "address3": null, "city": "Hamburg", "zip_code": "21107", "country": "DE", "state": "HH", "display_address": ["Schlenzigstr. 7", "21107 Hamburg", "Germany"]}, "phone": "+49407534410", "display_phone": "+49 40 7534410", "distance": 1799.2827986364605}, {"id": "WTdi4SEP0NIl8LF4LIyqVA", "alias": "weinbistro-zum-anleger-hamburg-2", "name": "Weinbistro Zum Anleger", "image_url": "https://s3-media3.fl.yelpcdn.com/bphoto/wN3X8OeZCL83Ven7xf7Mug/o.jpg", "is_closed": false, "url": "https://www.yelp.com/biz/weinbistro-zum-anleger-hamburg-2?adjust_creative=hBJOknVQJ58S5goQyjmwRw&utm_campaign=yelp_api_v3&utm_medium=api_v3_business_search&utm_source=hBJOknVQJ58S5goQyjmwRw", "review_count": 3, "categories": [{"alias": "international", "title": "International"}, {"alias": "wine_bars", "title": "Wine Bars"}], "rating": 5.0, "coordinates": {"latitude": 53.51565, "longitude": 9.9981}, "transactions": [], "price": "\u20ac\u20ac\u20ac", "location": {"address1": "Vogelh\u00fcttendeich 123", "address2": "", "address3": "", "city": "Hamburg", "zip_code": "21107", "country": "DE", "state": "HH", "display_address": ["Vogelh\u00fcttendeich 123", "21107 Hamburg", "Germany"]}, "phone": "+494086687781", "display_phone": "+49 40 86687781", "distance": 1534.8842135780212}, {"id": "nKLMEm0RFcMCqr-hHCFnRA", "alias": "musica-\u00e9-hamburg-2", "name": "Musica \u00c9", "image_url": "https://s3-media1.fl.yelpcdn.com/bphoto/LiyIj5ikdpfDU2b7zGzbqw/o.jpg", "is_closed": false, "url": "https://www.yelp.com/biz/musica-%C3%A9-hamburg-2?adjust_creative=hBJOknVQJ58S5goQyjmwRw&utm_campaign=yelp_api_v3&utm_medium=api_v3_business_search&utm_source=hBJOknVQJ58S5goQyjmwRw", "review_count": 12, "categories": [{"alias": "italian", "title": "Italian"}], "rating": 4.5, "coordinates": {"latitude": 53.5418124791937, "longitude": 9.99400204852759}, "transactions": [], "price": "\u20ac\u20ac", "location": {"address1": "Grosser Grasbrook 9", "address2": "", "address3": "", "city": "Hamburg", "zip_code": "20457", "country": "DE", "state": "HH", "display_address": ["Grosser Grasbrook 9", "20457 Hamburg", "Germany"]}, "phone": "+494030066222", "display_phone": "+49 40 30066222", "distance": 4448.066905871849}, {"id": "0QBLQfkJszKCPFLzn_Ap4A", "alias": "kaffeeliebe-hamburg-2", "name": "Kaffeeliebe", "image_url": "https://s3-media2.fl.yelpcdn.com/bphoto/v6S4ciTv7wCGRiNbV1hHqQ/o.jpg", "is_closed": false, "url": "https://www.yelp.com/biz/kaffeeliebe-hamburg-2?adjust_creative=hBJOknVQJ58S5goQyjmwRw&utm_campaign=yelp_api_v3&utm_medium=api_v3_business_search&utm_source=hBJOknVQJ58S5goQyjmwRw", "review_count": 7, "categories": [{"alias": "cafes", "title": "Cafes"}, {"alias": "breakfast_brunch", "title": "Breakfast & Brunch"}], "rating": 4.0, "coordinates": {"latitude": 53.5147155813548, "longitude": 9.98380689014135}, "transactions": [], "price": "\u20ac\u20ac", "location": {"address1": "Am Veringhof 23 A", "address2": "", "address3": "", "city": "Hamburg", "zip_code": "21107", "country": "DE", "state": "HH", "display_address": ["Am Veringhof 23 A", "21107 Hamburg", "Germany"]}, "phone": "+494031181711", "display_phone": "+49 40 31181711", "distance": 1683.0676747878827}, {"id": "n2AqiJRJbqLfn3yjuYkWhA", "alias": "o-atlantico-hamburg", "name": "O Atlantico", "image_url": "https://s3-media3.fl.yelpcdn.com/bphoto/PGkb8aCIBS1WIOt_tk-uZg/o.jpg", "is_closed": false, "url": "https://www.yelp.com/biz/o-atlantico-hamburg?adjust_creative=hBJOknVQJ58S5goQyjmwRw&utm_campaign=yelp_api_v3&utm_medium=api_v3_business_search&utm_source=hBJOknVQJ58S5goQyjmwRw", "review_count": 20, "categories": [{"alias": "portuguese", "title": "Portuguese"}], "rating": 3.5, "coordinates": {"latitude": 53.5161, "longitude": 9.98744}, "transactions": [], "price": "\u20ac\u20ac", "location": {"address1": "Veringstr. 26", "address2": null, "address3": null, "city": "Hamburg", "zip_code": "21107", "country": "DE", "state": "HH", "display_address": ["Veringstr. 26", "21107 Hamburg", "Germany"]}, "phone": "+494075662727", "display_phone": "+49 40 75662727", "distance": 1711.0814483101883}, {"id": "VZCKntP0-sBz93HOjjYieA", "alias": "feinkost-hafencity-hamburg", "name": "Feinkost Hafencity", "image_url": "https://s3-media2.fl.yelpcdn.com/bphoto/8up_4bRdco4f3dzf9tqHXQ/o.jpg", "is_closed": false, "url": "https://www.yelp.com/biz/feinkost-hafencity-hamburg?adjust_creative=hBJOknVQJ58S5goQyjmwRw&utm_campaign=yelp_api_v3&utm_medium=api_v3_business_search&utm_source=hBJOknVQJ58S5goQyjmwRw", "review_count": 33, "categories": [{"alias": "delicatessen", "title": "Delicatessen"}, {"alias": "german", "title": "German"}], "rating": 4.0, "coordinates": {"latitude": 53.5413849462088, "longitude": 9.99018193575137}, "transactions": [], "price": "\u20ac\u20ac", "location": {"address1": "Am Kaiserkai 27", "address2": "", "address3": null, "city": "Hamburg", "zip_code": "20457", "country": "DE", "state": "HH", "display_address": ["Am Kaiserkai 27", "20457 Hamburg", "Germany"]}, "phone": "+494036122587", "display_phone": "+49 40 36122587", "distance": 4420.037499124299}, {"id": "a9AX85x8HAAA98RM1K4jRA", "alias": "olafs-currywurst-bude-hamburg-2", "name": "Olafs Currywurst Bude", "image_url": "https://s3-media2.fl.yelpcdn.com/bphoto/krUJ7sl1MWoSVxcZE1B0uw/o.jpg", "is_closed": false, "url": "https://www.yelp.com/biz/olafs-currywurst-bude-hamburg-2?adjust_creative=hBJOknVQJ58S5goQyjmwRw&utm_campaign=yelp_api_v3&utm_medium=api_v3_business_search&utm_source=hBJOknVQJ58S5goQyjmwRw", "review_count": 1, "categories": [{"alias": "currysausage", "title": "Curry Sausage"}], "rating": 5.0, "coordinates": {"latitude": 53.53405, "longitude": 9.98225}, "transactions": [], "location": {"address1": "", "address2": "", "address3": "", "city": "Hamburg", "zip_code": "20457", "country": "DE", "state": "HH", "display_address": ["20457 Hamburg", "Germany"]}, "phone": "+491724517705", "display_phone": "+49 172 4517705", "distance": 3406.028484297743}, {"id": "WONM0UT7TO0WPNlaPYamOg", "alias": "von-bis-schnell-restaurant-hamburg", "name": "von-BIS Schnell-Restaurant", "image_url": "https://s3-media1.fl.yelpcdn.com/bphoto/OCI6KRiZ-PKCvebxeR9c9g/o.jpg", "is_closed": false, "url": "https://www.yelp.com/biz/von-bis-schnell-restaurant-hamburg?adjust_creative=hBJOknVQJ58S5goQyjmwRw&utm_campaign=yelp_api_v3&utm_medium=api_v3_business_search&utm_source=hBJOknVQJ58S5goQyjmwRw", "review_count": 8, "categories": [{"alias": "hotdogs", "title": "Fast Food"}, {"alias": "german", "title": "German"}], "rating": 4.0, "coordinates": {"latitude": 53.4667462, "longitude": 9.9840558}, "transactions": [], "price": "\u20ac\u20ac", "location": {"address1": "Kanalplatz 8a", "address2": null, "address3": null, "city": "Hamburg", "zip_code": "21079", "country": "DE", "state": "HH", "display_address": ["Kanalplatz 8a", "21079 Hamburg", "Germany"]}, "phone": "+4940777434", "display_phone": "+49 40 777434", "distance": 4000.1890056548095}, {"id": "EMH0Ina8IUcx1tKR9AnNZA", "alias": "nikos-hamburg", "name": "Nikos", "image_url": "https://s3-media3.fl.yelpcdn.com/bphoto/W1qqsthP9BhoSez-ngq9og/o.jpg", "is_closed": false, "url": "https://www.yelp.com/biz/nikos-hamburg?adjust_creative=hBJOknVQJ58S5goQyjmwRw&utm_campaign=yelp_api_v3&utm_medium=api_v3_business_search&utm_source=hBJOknVQJ58S5goQyjmwRw", "review_count": 1, "categories": [{"alias": "mediterranean", "title": "Mediterranean"}, {"alias": "greek", "title": "Greek"}], "rating": 5.0, "coordinates": {"latitude": 53.4635617722027, "longitude": 9.98064033742283}, "transactions": [], "location": {"address1": "L\u00e4mmertwiete 9", "address2": "", "address3": null, "city": "Hamburg", "zip_code": "21073", "country": "DE", "state": "HH", "display_address": ["L\u00e4mmertwiete 9", "21073 Hamburg", "Germany"]}, "phone": "", "display_phone": "", "distance": 4397.368325430464}, {"id": "EgKKnh3rXM6vvU8ChA_Cag", "alias": "tortuga-beach-hamburg", "name": "Tortuga Beach", "image_url": "https://s3-media1.fl.yelpcdn.com/bphoto/BwMra9jGdoe_Q7uTRITDug/o.jpg", "is_closed": false, "url": "https://www.yelp.com/biz/tortuga-beach-hamburg?adjust_creative=hBJOknVQJ58S5goQyjmwRw&utm_campaign=yelp_api_v3&utm_medium=api_v3_business_search&utm_source=hBJOknVQJ58S5goQyjmwRw", "review_count": 5, "categories": [{"alias": "bars", "title": "Bars"}, {"alias": "italian", "title": "Italian"}, {"alias": "burgers", "title": "Burgers"}], "rating": 4.5, "coordinates": {"latitude": 53.4590968, "longitude": 10.0138964}, "transactions": [], "price": "\u20ac\u20ac", "location": {"address1": "Am Neul\u00e4nder Baggerteich 3", "address2": "", "address3": "", "city": "Hamburg", "zip_code": "21079", "country": "DE", "state": "HH", "display_address": ["Am Neul\u00e4nder Baggerteich 3", "21079 Hamburg", "Germany"]}, "phone": "+494915231713404", "display_phone": "+49 491 5231713404", "distance": 4880.819501312514}, {"id": "sQpyn6ZKAhvf-4qVLta4vA", "alias": "best-chicken-hamburg", "name": "Best Chicken", "image_url": "https://s3-media4.fl.yelpcdn.com/bphoto/st-Kwut9XUwz4eWIOCTEqg/o.jpg", "is_closed": false, "url": "https://www.yelp.com/biz/best-chicken-hamburg?adjust_creative=hBJOknVQJ58S5goQyjmwRw&utm_campaign=yelp_api_v3&utm_medium=api_v3_business_search&utm_source=hBJOknVQJ58S5goQyjmwRw", "review_count": 5, "categories": [{"alias": "foodstands", "title": "Food Stands"}, {"alias": "chickenshop", "title": "Chicken Shop"}], "rating": 4.0, "coordinates": {"latitude": 53.51506, "longitude": 9.99349}, "transactions": [], "price": "\u20ac", "location": {"address1": "Georg-Wilhelm-Str. 28", "address2": "", "address3": "", "city": "Hamburg", "zip_code": "21107", "country": "DE", "state": "HH", "display_address": ["Georg-Wilhelm-Str. 28", "21107 Hamburg", "Germany"]}, "phone": "+494046093123", "display_phone": "+49 40 46093123", "distance": 1488.9044800497093}, {"id": "JzOAhg3YkiIpBkWfy-cIPg", "alias": "deichdiele-hamburg", "name": "Deichdiele", "image_url": "https://s3-media4.fl.yelpcdn.com/bphoto/7JuQrGXIHWW3dPjfJxTGyw/o.jpg", "is_closed": false, "url": "https://www.yelp.com/biz/deichdiele-hamburg?adjust_creative=hBJOknVQJ58S5goQyjmwRw&utm_campaign=yelp_api_v3&utm_medium=api_v3_business_search&utm_source=hBJOknVQJ58S5goQyjmwRw", "review_count": 13, "categories": [{"alias": "cafes", "title": "Cafes"}, {"alias": "breakfast_brunch", "title": "Breakfast & Brunch"}], "rating": 3.5, "coordinates": {"latitude": 53.50542, "longitude": 9.98639}, "transactions": [], "price": "\u20ac\u20ac", "location": {"address1": "Veringstr. 156", "address2": "", "address3": "", "city": "Hamburg", "zip_code": "21107", "country": "DE", "state": "HH", "display_address": ["Veringstr. 156", "21107 Hamburg", "Germany"]}, "phone": "+494065864514", "display_phone": "+49 40 65864514", "distance": 819.2288572519534}, {"id": "DkicI_gGtegHuEU5wnUH7Q", "alias": "scharf-hamburg-2", "name": "Scharf", "image_url": "https://s3-media2.fl.yelpcdn.com/bphoto/7eKwqJALMAiEnuXgIt52XQ/o.jpg", "is_closed": false, "url": "https://www.yelp.com/biz/scharf-hamburg-2?adjust_creative=hBJOknVQJ58S5goQyjmwRw&utm_campaign=yelp_api_v3&utm_medium=api_v3_business_search&utm_source=hBJOknVQJ58S5goQyjmwRw", "review_count": 45, "categories": [{"alias": "german", "title": "German"}], "rating": 4.0, "coordinates": {"latitude": 53.463973633028, "longitude": 9.98237585146832}, "transactions": [], "price": "\u20ac\u20ac", "location": {"address1": "Harburger Schlo\u00dfstr. 2", "address2": "", "address3": "", "city": "Hamburg", "zip_code": "21079", "country": "DE", "state": "HH", "display_address": ["Harburger Schlo\u00dfstr. 2", "21079 Hamburg", "Germany"]}, "phone": "+4940774422", "display_phone": "+49 40 774422", "distance": 4325.50254310773}, {"id": "LkwAO7QWzdgDfDTSlXdoVg", "alias": "bistro-hanseatic-hamburg", "name": "Bistro Hanseatic", "image_url": "https://s3-media1.fl.yelpcdn.com/bphoto/7Xgz55DODDvPRqZI1xITxQ/o.jpg", "is_closed": false, "url": "https://www.yelp.com/biz/bistro-hanseatic-hamburg?adjust_creative=hBJOknVQJ58S5goQyjmwRw&utm_campaign=yelp_api_v3&utm_medium=api_v3_business_search&utm_source=hBJOknVQJ58S5goQyjmwRw", "review_count": 16, "categories": [{"alias": "bistros", "title": "Bistros"}], "rating": 3.5, "coordinates": {"latitude": 53.54387, "longitude": 9.98578}, "transactions": [], "price": "\u20ac\u20ac", "location": {"address1": "Kehrwieder 9a", "address2": "", "address3": "", "city": "Hamburg", "zip_code": "20457", "country": "DE", "state": "HH", "display_address": ["Kehrwieder 9a", "20457 Hamburg", "Germany"]}, "phone": "+494037503273", "display_phone": "+49 40 37503273", "distance": 4705.285110711946}, {"id": "Q2NllTqb4o3rJmsdv_V5MQ", "alias": "oberhafen-kantine-hamburg", "name": "Oberhafen Kantine", "image_url": "https://s3-media2.fl.yelpcdn.com/bphoto/uB8u7dLThhnuv5vZ081GrQ/o.jpg", "is_closed": false, "url": "https://www.yelp.com/biz/oberhafen-kantine-hamburg?adjust_creative=hBJOknVQJ58S5goQyjmwRw&utm_campaign=yelp_api_v3&utm_medium=api_v3_business_search&utm_source=hBJOknVQJ58S5goQyjmwRw", "review_count": 116, "categories": [{"alias": "northerngerman", "title": "Northern German"}], "rating": 3.5, "coordinates": {"latitude": 53.544622, "longitude": 10.00687}, "transactions": [], "price": "\u20ac\u20ac", "location": {"address1": "Stockmeyerstr. 39", "address2": null, "address3": null, "city": "Hamburg", "zip_code": "20457", "country": "DE", "state": "HH", "display_address": ["Stockmeyerstr. 39", "20457 Hamburg", "Germany"]}, "phone": "+494032809984", "display_phone": "+49 40 32809984", "distance": 4806.962980140725}, {"id": "RsWynCVZqVoHY8nTdx89Zw", "alias": "vatandas-hamburg", "name": "Vatandas", "image_url": "https://s3-media3.fl.yelpcdn.com/bphoto/IgLXSWyxkYXi-93l1LUB0A/o.jpg", "is_closed": false, "url": "https://www.yelp.com/biz/vatandas-hamburg?adjust_creative=hBJOknVQJ58S5goQyjmwRw&utm_campaign=yelp_api_v3&utm_medium=api_v3_business_search&utm_source=hBJOknVQJ58S5goQyjmwRw", "review_count": 1, "categories": [{"alias": "hotdogs", "title": "Fast Food"}], "rating": 4.0, "coordinates": {"latitude": 53.5254, "longitude": 10.021}, "transactions": [], "location": {"address1": "Veddeler Br\u00fcckenstr. 132", "address2": null, "address3": null, "city": "Hamburg", "zip_code": "20539", "country": "DE", "state": "HH", "display_address": ["Veddeler Br\u00fcckenstr. 132", "20539 Hamburg", "Germany"]}, "phone": "+494041548862", "display_phone": "+49 40 41548862", "distance": 3053.450752233788}, {"id": "wKIubYNmrW-KDSEdmW48ww", "alias": "vju-hamburg-2", "name": "Vju", "image_url": "https://s3-media4.fl.yelpcdn.com/bphoto/_GvNwoFHN-W_B030oJ2EGw/o.jpg", "is_closed": false, "url": "https://www.yelp.com/biz/vju-hamburg-2?adjust_creative=hBJOknVQJ58S5goQyjmwRw&utm_campaign=yelp_api_v3&utm_medium=api_v3_business_search&utm_source=hBJOknVQJ58S5goQyjmwRw", "review_count": 26, "categories": [{"alias": "cafes", "title": "Cafes"}, {"alias": "musicvenues", "title": "Music Venues"}], "rating": 3.5, "coordinates": {"latitude": 53.51, "longitude": 9.98956}, "transactions": [], "price": "\u20ac\u20ac", "location": {"address1": "Neuh\u00f6fer Str. 7", "address2": "", "address3": "", "city": "Hamburg", "zip_code": "21107", "country": "DE", "state": "HH", "display_address": ["Neuh\u00f6fer Str. 7", "21107 Hamburg", "Germany"]}, "phone": "+4915233738337", "display_phone": "+49 1523 3738337", "distance": 1037.9863682060954}, {"id": "_lnuho27eVj0Mo9uaUwKjw", "alias": "mina-restaurant-hamburg", "name": "Mina Restaurant", "image_url": "https://s3-media3.fl.yelpcdn.com/bphoto/sQklcxFb_JpubEyocZAv0g/o.jpg", "is_closed": false, "url": "https://www.yelp.com/biz/mina-restaurant-hamburg?adjust_creative=hBJOknVQJ58S5goQyjmwRw&utm_campaign=yelp_api_v3&utm_medium=api_v3_business_search&utm_source=hBJOknVQJ58S5goQyjmwRw", "review_count": 9, "categories": [{"alias": "hotdogs", "title": "Fast Food"}], "rating": 3.5, "coordinates": {"latitude": 53.49804, "longitude": 10.00861}, "transactions": [], "price": "\u20ac", "location": {"address1": "Wilhelm-Strau\u00df-Weg 8", "address2": "", "address3": "", "city": "Hamburg", "zip_code": "21109", "country": "DE", "state": "HH", "display_address": ["Wilhelm-Strau\u00df-Weg 8", "21109 Hamburg", "Germany"]}, "phone": "+494030236968", "display_phone": "+49 40 30236968", "distance": 863.976222586214}, {"id": "3H3LA7zHDQMKxhbKZ_uXXA", "alias": "weltcaf\u00e9-elbfaire-hamburg", "name": "Weltcaf\u00e9 ElbFaire", "image_url": "https://s3-media3.fl.yelpcdn.com/bphoto/M3fR1UtCWWFDDOmBfbcdOw/o.jpg", "is_closed": false, "url": "https://www.yelp.com/biz/weltcaf%C3%A9-elbfaire-hamburg?adjust_creative=hBJOknVQJ58S5goQyjmwRw&utm_campaign=yelp_api_v3&utm_medium=api_v3_business_search&utm_source=hBJOknVQJ58S5goQyjmwRw", "review_count": 3, "categories": [{"alias": "cafes", "title": "Cafes"}], "rating": 4.5, "coordinates": {"latitude": 53.5430102, "longitude": 10.0025401}, "transactions": [], "price": "\u20ac\u20ac", "location": {"address1": "Shanghaiallee 12", "address2": null, "address3": null, "city": "Hamburg", "zip_code": "20457", "country": "DE", "state": "HH", "display_address": ["Shanghaiallee 12", "20457 Hamburg", "Germany"]}, "phone": "", "display_phone": "", "distance": 4589.55792573695}, {"id": "zCZISyTZ-_-ntKnzXaUePA", "alias": "der-fisch-hamburg-2", "name": "Der Fisch", "image_url": "https://s3-media3.fl.yelpcdn.com/bphoto/MMSdukzJ9fJNKJC_ocmumw/o.jpg", "is_closed": false, "url": "https://www.yelp.com/biz/der-fisch-hamburg-2?adjust_creative=hBJOknVQJ58S5goQyjmwRw&utm_campaign=yelp_api_v3&utm_medium=api_v3_business_search&utm_source=hBJOknVQJ58S5goQyjmwRw", "review_count": 2, "categories": [{"alias": "fishnchips", "title": "Fish & Chips"}], "rating": 4.0, "coordinates": {"latitude": 53.5415, "longitude": 9.99097}, "transactions": [], "price": "\u20ac\u20ac", "location": {"address1": "Am Kaiserkai 21", "address2": "", "address3": null, "city": "Hamburg", "zip_code": "20457", "country": "DE", "state": "HH", "display_address": ["Am Kaiserkai 21", "20457 Hamburg", "Germany"]}, "phone": "", "display_phone": "", "distance": 4427.585813693509}, {"id": "OGi20UaonbGvjXaPL6rLXw", "alias": "coast-enoteca-hamburg", "name": "coast enoteca", "image_url": "https://s3-media2.fl.yelpcdn.com/bphoto/L0a0YxBxhUsTbFmziyPGoQ/o.jpg", "is_closed": false, "url": "https://www.yelp.com/biz/coast-enoteca-hamburg?adjust_creative=hBJOknVQJ58S5goQyjmwRw&utm_campaign=yelp_api_v3&utm_medium=api_v3_business_search&utm_source=hBJOknVQJ58S5goQyjmwRw", "review_count": 6, "categories": [{"alias": "german", "title": "German"}], "rating": 4.5, "coordinates": {"latitude": 53.5408387, "longitude": 9.993787}, "transactions": [], "price": "\u20ac\u20ac\u20ac", "location": {"address1": "Gro\u00dfer Grasbrook 14", "address2": null, "address3": "", "city": "Hamburg", "zip_code": "20457", "country": "DE", "state": "HH", "display_address": ["Gro\u00dfer Grasbrook 14", "20457 Hamburg", "Germany"]}, "phone": "+494030993230", "display_phone": "+49 40 30993230", "distance": 4340.6382848606145}, {"id": "30Xz3mel8TbRRX3IAlLVcQ", "alias": "klein-und-kaiserlich-hamburg", "name": "Klein und Kaiserlich", "image_url": "https://s3-media2.fl.yelpcdn.com/bphoto/joyF9IQ3Z3PaeXKJnV-sew/o.jpg", "is_closed": false, "url": "https://www.yelp.com/biz/klein-und-kaiserlich-hamburg?adjust_creative=hBJOknVQJ58S5goQyjmwRw&utm_campaign=yelp_api_v3&utm_medium=api_v3_business_search&utm_source=hBJOknVQJ58S5goQyjmwRw", "review_count": 63, "categories": [{"alias": "cafes", "title": "Cafes"}, {"alias": "austrian", "title": "Austrian"}], "rating": 4.5, "coordinates": {"latitude": 53.54162, "longitude": 9.98991}, "transactions": [], "price": "\u20ac\u20ac", "location": {"address1": "Am Kaiserkai 26", "address2": "", "address3": "", "city": "Hamburg", "zip_code": "20457", "country": "DE", "state": "HH", "display_address": ["Am Kaiserkai 26", "20457 Hamburg", "Germany"]}, "phone": "+494036122480", "display_phone": "+49 40 36122480", "distance": 4457.45738691269}, {"id": "Fe56g1X4Gl_BMEqZmB-cjw", "alias": "bordrestaurant-rickmer-rickmers-hamburg-2", "name": "Bordrestaurant Rickmer Rickmers", "image_url": "https://s3-media3.fl.yelpcdn.com/bphoto/JBuZ8gp7Q2p0wIT0s6_Wng/o.jpg", "is_closed": false, "url": "https://www.yelp.com/biz/bordrestaurant-rickmer-rickmers-hamburg-2?adjust_creative=hBJOknVQJ58S5goQyjmwRw&utm_campaign=yelp_api_v3&utm_medium=api_v3_business_search&utm_source=hBJOknVQJ58S5goQyjmwRw", "review_count": 11, "categories": [{"alias": "german", "title": "German"}, {"alias": "seafood", "title": "Seafood"}], "rating": 4.5, "coordinates": {"latitude": 53.5446463129526, "longitude": 9.97257977050015}, "transactions": [], "price": "\u20ac\u20ac", "location": {"address1": "Museumsschiff Rickmer Rickmers", "address2": "Ponton 1 a", "address3": null, "city": "Hamburg", "zip_code": "22767", "country": "DE", "state": "HH", "display_address": ["Museumsschiff Rickmer Rickmers", "Ponton 1 a", "22767 Hamburg", "Germany"]}, "phone": "+49403196373", "display_phone": "+49 40 3196373", "distance": 5029.374218447298}, {"id": "Bf1L9FKNttL_7sYlWzxrfA", "alias": "mama-marta-hamburg", "name": "Mama Marta", "image_url": "https://s3-media1.fl.yelpcdn.com/bphoto/Q862SklLSVYQa4XNcHgneg/o.jpg", "is_closed": false, "url": "https://www.yelp.com/biz/mama-marta-hamburg?adjust_creative=hBJOknVQJ58S5goQyjmwRw&utm_campaign=yelp_api_v3&utm_medium=api_v3_business_search&utm_source=hBJOknVQJ58S5goQyjmwRw", "review_count": 1, "categories": [{"alias": "salad", "title": "Salad"}, {"alias": "cafes", "title": "Cafes"}, {"alias": "icecream", "title": "Ice Cream & Frozen Yogurt"}], "rating": 5.0, "coordinates": {"latitude": 53.5404590130426, "longitude": 9.99640591442585}, "transactions": [], "location": {"address1": "Am Grasbrookpark 1", "address2": "", "address3": null, "city": "Hamburg", "zip_code": "20457", "country": "DE", "state": "HH", "display_address": ["Am Grasbrookpark 1", "20457 Hamburg", "Germany"]}, "phone": "+494088361510", "display_phone": "+49 40 88361510", "distance": 4292.789369946356}, {"id": "4GpEvb2Vk75StnYaC4qeaA", "alias": "bistro-westminster-hamburg", "name": "Bistro Westminster", "image_url": "https://s3-media4.fl.yelpcdn.com/bphoto/EZcXBRktzqegnh1hLpl1bw/o.jpg", "is_closed": false, "url": "https://www.yelp.com/biz/bistro-westminster-hamburg?adjust_creative=hBJOknVQJ58S5goQyjmwRw&utm_campaign=yelp_api_v3&utm_medium=api_v3_business_search&utm_source=hBJOknVQJ58S5goQyjmwRw", "review_count": 21, "categories": [{"alias": "german", "title": "German"}, {"alias": "seafood", "title": "Seafood"}], "rating": 4.0, "coordinates": {"latitude": 53.54478, "longitude": 9.98269}, "transactions": [], "price": "\u20ac\u20ac", "location": {"address1": "Steinh\u00f6ft 17", "address2": null, "address3": null, "city": "Hamburg", "zip_code": "20459", "country": "DE", "state": "HH", "display_address": ["Steinh\u00f6ft 17", "20459 Hamburg", "Germany"]}, "phone": "+4940371404", "display_phone": "+49 40 371404", "distance": 4854.6175086899475}, {"id": "7qe6iEYAad9IO1AnoXMP_Q", "alias": "momento-di-hamburg-2", "name": "Momento Di", "image_url": "https://s3-media4.fl.yelpcdn.com/bphoto/xcT6e2iqkDQnKjAq1CXAAg/o.jpg", "is_closed": false, "url": "https://www.yelp.com/biz/momento-di-hamburg-2?adjust_creative=hBJOknVQJ58S5goQyjmwRw&utm_campaign=yelp_api_v3&utm_medium=api_v3_business_search&utm_source=hBJOknVQJ58S5goQyjmwRw", "review_count": 48, "categories": [{"alias": "italian", "title": "Italian"}], "rating": 4.5, "coordinates": {"latitude": 53.46634, "longitude": 9.98675}, "transactions": [], "price": "\u20ac\u20ac\u20ac", "location": {"address1": "Veritaskai 3", "address2": null, "address3": null, "city": "Hamburg", "zip_code": "21079", "country": "DE", "state": "HH", "display_address": ["Veritaskai 3", "21079 Hamburg", "Germany"]}, "phone": "+494076755594", "display_phone": "+49 40 76755594", "distance": 4001.9994133384866}, {"id": "ayF0e3tcGWWuwFJmjn8gvQ", "alias": "\u00f6z-g\u0171ven-hamburg", "name": "\u00d6z G\u0171ven", "image_url": "https://s3-media2.fl.yelpcdn.com/bphoto/UJnFYfpaCKrSdLlKwNaAZg/o.jpg", "is_closed": false, "url": "https://www.yelp.com/biz/%C3%B6z-g%C5%B1ven-hamburg?adjust_creative=hBJOknVQJ58S5goQyjmwRw&utm_campaign=yelp_api_v3&utm_medium=api_v3_business_search&utm_source=hBJOknVQJ58S5goQyjmwRw", "review_count": 1, "categories": [{"alias": "kebab", "title": "Kebab"}], "rating": 4.0, "coordinates": {"latitude": 53.4616135741349, "longitude": 9.978715069592}, "transactions": [], "location": {"address1": "Neue Stra\u00dfe 19", "address2": "", "address3": null, "city": "Hamburg", "zip_code": "21073", "country": "DE", "state": "HH", "display_address": ["Neue Stra\u00dfe 19", "21073 Hamburg", "Germany"]}, "phone": "", "display_phone": "", "distance": 4639.466416054344}, {"id": "6ZRX2gkzFIJR5FHdcFv3nQ", "alias": "rudolphs-hamburg", "name": "Rudolph's", "image_url": "https://s3-media4.fl.yelpcdn.com/bphoto/SepkNvmskWl0XSIIVeJfyw/o.jpg", "is_closed": false, "url": "https://www.yelp.com/biz/rudolphs-hamburg?adjust_creative=hBJOknVQJ58S5goQyjmwRw&utm_campaign=yelp_api_v3&utm_medium=api_v3_business_search&utm_source=hBJOknVQJ58S5goQyjmwRw", "review_count": 41, "categories": [{"alias": "gluten_free", "title": "Gluten-Free"}, {"alias": "italian", "title": "Italian"}, {"alias": "vegan", "title": "Vegan"}], "rating": 4.0, "coordinates": {"latitude": 53.544853, "longitude": 10.00275}, "transactions": [], "price": "\u20ac\u20ac", "location": {"address1": "Poggenm\u00fchle 5", "address2": "", "address3": "", "city": "Hamburg", "zip_code": "20457", "country": "DE", "state": "HH", "display_address": ["Poggenm\u00fchle 5", "20457 Hamburg", "Germany"]}, "phone": "+494018297789", "display_phone": "+49 40 18297789", "distance": 4794.92854044295}, {"id": "svMvWfP_oj_T5ol1u3gH0A", "alias": "gasthof-sohre-hamburg", "name": "Gasthof Sohre", "image_url": "https://s3-media2.fl.yelpcdn.com/bphoto/JLMLC6GhAnw8WCg0KW-btw/o.jpg", "is_closed": false, "url": "https://www.yelp.com/biz/gasthof-sohre-hamburg?adjust_creative=hBJOknVQJ58S5goQyjmwRw&utm_campaign=yelp_api_v3&utm_medium=api_v3_business_search&utm_source=hBJOknVQJ58S5goQyjmwRw", "review_count": 20, "categories": [{"alias": "hotels", "title": "Hotels"}, {"alias": "german", "title": "German"}], "rating": 3.5, "coordinates": {"latitude": 53.4869, "longitude": 10.0163}, "transactions": [], "price": "\u20ac\u20ac", "location": {"address1": "Kirchdorfer Str. 169", "address2": null, "address3": null, "city": "Hamburg", "zip_code": "21109", "country": "DE", "state": "HH", "display_address": ["Kirchdorfer Str. 169", "21109 Hamburg", "Germany"]}, "phone": "+494031976742", "display_phone": "+49 40 31976742", "distance": 2087.2953806445903}, {"id": "8khiPp6JzIhyCRPxoowd7g", "alias": "block-house-hamburg-17", "name": "Block House", "image_url": "https://s3-media3.fl.yelpcdn.com/bphoto/ZZHhlnEnlbVCeWm3pB7McQ/o.jpg", "is_closed": false, "url": "https://www.yelp.com/biz/block-house-hamburg-17?adjust_creative=hBJOknVQJ58S5goQyjmwRw&utm_campaign=yelp_api_v3&utm_medium=api_v3_business_search&utm_source=hBJOknVQJ58S5goQyjmwRw", "review_count": 54, "categories": [{"alias": "steak", "title": "Steakhouses"}], "rating": 4.0, "coordinates": {"latitude": 53.4621, "longitude": 9.98067}, "transactions": [], "price": "\u20ac\u20ac", "location": {"address1": "Sand 8", "address2": null, "address3": null, "city": "Hamburg", "zip_code": "21073", "country": "DE", "state": "HH", "display_address": ["Sand 8", "21073 Hamburg", "Germany"]}, "phone": "+4940772437", "display_phone": "+49 40 772437", "distance": 4554.475773869095}, {"id": "AlDUWW2NRY5iWci8qbBJag", "alias": "bistro-sharri-hamburg", "name": "Bistro Sharri", "image_url": "https://s3-media2.fl.yelpcdn.com/bphoto/A5vAJhLb8SG5ZTFUkN4Q7w/o.jpg", "is_closed": false, "url": "https://www.yelp.com/biz/bistro-sharri-hamburg?adjust_creative=hBJOknVQJ58S5goQyjmwRw&utm_campaign=yelp_api_v3&utm_medium=api_v3_business_search&utm_source=hBJOknVQJ58S5goQyjmwRw", "review_count": 1, "categories": [{"alias": "bistros", "title": "Bistros"}, {"alias": "modern_european", "title": "Modern European"}], "rating": 4.0, "coordinates": {"latitude": 53.5011180951635, "longitude": 10.0088192406728}, "transactions": [], "price": "\u20ac\u20ac", "location": {"address1": "Wittestra\u00dfe 7", "address2": "", "address3": null, "city": "Hamburg", "zip_code": "21109", "country": "DE", "state": "HH", "display_address": ["Wittestra\u00dfe 7", "21109 Hamburg", "Germany"]}, "phone": "+494031794321", "display_phone": "+49 40 31794321", "distance": 770.7866413041712}, {"id": "gZo-xc8Xc66o9s8exNh3fw", "alias": "viet-thai-gourmet-hamburg", "name": "Viet - Thai Gourmet", "image_url": "https://s3-media1.fl.yelpcdn.com/bphoto/L6AVY7NSwdaeGOB7o-Gk5w/o.jpg", "is_closed": false, "url": "https://www.yelp.com/biz/viet-thai-gourmet-hamburg?adjust_creative=hBJOknVQJ58S5goQyjmwRw&utm_campaign=yelp_api_v3&utm_medium=api_v3_business_search&utm_source=hBJOknVQJ58S5goQyjmwRw", "review_count": 1, "categories": [{"alias": "vietnamese", "title": "Vietnamese"}, {"alias": "thai", "title": "Thai"}, {"alias": "foodstands", "title": "Food Stands"}], "rating": 4.0, "coordinates": {"latitude": 53.46123, "longitude": 9.98232}, "transactions": [], "location": {"address1": "Schlo\u00dfm\u00fchlendamm 4", "address2": "", "address3": null, "city": "Hamburg", "zip_code": "21073", "country": "DE", "state": "HH", "display_address": ["Schlo\u00dfm\u00fchlendamm 4", "21073 Hamburg", "Germany"]}, "phone": "+494032872941", "display_phone": "+49 40 32872941", "distance": 4624.262849829826}, {"id": "43af3R-me622zfcTKlhQtg", "alias": "caf\u00e9-pause-hamburg-2", "name": "Caf\u00e9 Pause", "image_url": "https://s3-media1.fl.yelpcdn.com/bphoto/CtMkkmBZkXhKUovInl5K5g/o.jpg", "is_closed": false, "url": "https://www.yelp.com/biz/caf%C3%A9-pause-hamburg-2?adjust_creative=hBJOknVQJ58S5goQyjmwRw&utm_campaign=yelp_api_v3&utm_medium=api_v3_business_search&utm_source=hBJOknVQJ58S5goQyjmwRw", "review_count": 15, "categories": [{"alias": "cafes", "title": "Cafes"}, {"alias": "international", "title": "International"}], "rating": 4.0, "coordinates": {"latitude": 53.51576, "longitude": 9.98251}, "transactions": [], "price": "\u20ac\u20ac", "location": {"address1": "Industriestr. 125-131", "address2": "", "address3": "", "city": "Hamburg", "zip_code": "21107", "country": "DE", "state": "HH", "display_address": ["Industriestr. 125-131", "21107 Hamburg", "Germany"]}, "phone": "+49404210390", "display_phone": "+49 40 4210390", "distance": 1817.060327743952}, {"id": "0UgI_mU6LASLeUbTgEm6Yw", "alias": "chilli-club-hamburg", "name": "Chilli Club", "image_url": "https://s3-media2.fl.yelpcdn.com/bphoto/XbdGB_F6EydoagAqnngcAg/o.jpg", "is_closed": false, "url": "https://www.yelp.com/biz/chilli-club-hamburg?adjust_creative=hBJOknVQJ58S5goQyjmwRw&utm_campaign=yelp_api_v3&utm_medium=api_v3_business_search&utm_source=hBJOknVQJ58S5goQyjmwRw", "review_count": 161, "categories": [{"alias": "lounges", "title": "Lounges"}, {"alias": "panasian", "title": "Pan Asian"}], "rating": 3.5, "coordinates": {"latitude": 53.5430443, "longitude": 9.9929694}, "transactions": [], "price": "\u20ac\u20ac\u20ac", "location": {"address1": "Am Sandtorkai 54", "address2": "", "address3": null, "city": "Hamburg", "zip_code": "20457", "country": "DE", "state": "HH", "display_address": ["Am Sandtorkai 54", "20457 Hamburg", "Germany"]}, "phone": "+494035703580", "display_phone": "+49 40 35703580", "distance": 4588.570936280732}, {"id": "KNW9dbqLCDJNtGL2o-0biw", "alias": "das-feuerschiff-hamburg", "name": "Das Feuerschiff", "image_url": "https://s3-media4.fl.yelpcdn.com/bphoto/MwLpugnUGNoP9m8HRrZc6Q/o.jpg", "is_closed": false, "url": "https://www.yelp.com/biz/das-feuerschiff-hamburg?adjust_creative=hBJOknVQJ58S5goQyjmwRw&utm_campaign=yelp_api_v3&utm_medium=api_v3_business_search&utm_source=hBJOknVQJ58S5goQyjmwRw", "review_count": 103, "categories": [{"alias": "german", "title": "German"}, {"alias": "seafood", "title": "Seafood"}, {"alias": "breakfast_brunch", "title": "Breakfast & Brunch"}], "rating": 4.0, "coordinates": {"latitude": 53.543488, "longitude": 9.978744}, "transactions": [], "price": "\u20ac\u20ac", "location": {"address1": "City Sporthafen", "address2": "Vorsetzen", "address3": null, "city": "Hamburg", "zip_code": "20459", "country": "DE", "state": "HH", "display_address": ["City Sporthafen", "Vorsetzen", "20459 Hamburg", "Germany"]}, "phone": "+4940362554", "display_phone": "+49 40 362554", "distance": 4787.85421070772}, {"id": "8JD3bvU8lD13oJi9lZbNGw", "alias": "asia-joker-hamburg", "name": "Asia Joker", "image_url": "https://s3-media4.fl.yelpcdn.com/bphoto/YAUwLIaLSsHXoWIpnvTAKg/o.jpg", "is_closed": false, "url": "https://www.yelp.com/biz/asia-joker-hamburg?adjust_creative=hBJOknVQJ58S5goQyjmwRw&utm_campaign=yelp_api_v3&utm_medium=api_v3_business_search&utm_source=hBJOknVQJ58S5goQyjmwRw", "review_count": 7, "categories": [{"alias": "chinese", "title": "Chinese"}, {"alias": "panasian", "title": "Pan Asian"}], "rating": 3.5, "coordinates": {"latitude": 53.5139, "longitude": 9.98732}, "transactions": [], "price": "\u20ac\u20ac", "location": {"address1": "Veringsta\u00dfe 46", "address2": null, "address3": null, "city": "Hamburg", "zip_code": "21107", "country": "DE", "state": "HH", "display_address": ["Veringsta\u00dfe 46", "21107 Hamburg", "Germany"]}, "phone": "+494074200348", "display_phone": "+49 40 74200348", "distance": 1491.0048987524065}, {"id": "CKQRmTkIuz3E0H9Lxv4Nzw", "alias": "asia-quick-hamburg-5", "name": "Asia Quick", "image_url": "https://s3-media3.fl.yelpcdn.com/bphoto/q9DwD9BZz8-KE4dC_UsQ9Q/o.jpg", "is_closed": false, "url": "https://www.yelp.com/biz/asia-quick-hamburg-5?adjust_creative=hBJOknVQJ58S5goQyjmwRw&utm_campaign=yelp_api_v3&utm_medium=api_v3_business_search&utm_source=hBJOknVQJ58S5goQyjmwRw", "review_count": 21, "categories": [{"alias": "panasian", "title": "Pan Asian"}], "rating": 3.5, "coordinates": {"latitude": 53.4599674, "longitude": 9.9822394}, "transactions": [], "price": "\u20ac\u20ac", "location": {"address1": "L\u00fcneburger Str. 39", "address2": "", "address3": "", "city": "Hamburg", "zip_code": "21073", "country": "DE", "state": "HH", "display_address": ["L\u00fcneburger Str. 39", "21073 Hamburg", "Germany"]}, "phone": "+494076755145", "display_phone": "+49 40 76755145", "distance": 4762.2786960356725}, {"id": "u6Kx4YhAz6zg2cRsOXZ-uQ", "alias": "wilhelmsburger-grill-shop-hamburg", "name": "Wilhelmsburger Grill-Shop", "image_url": "https://s3-media4.fl.yelpcdn.com/bphoto/fdFHP3h54YVJbH8zrxGR3Q/o.jpg", "is_closed": false, "url": "https://www.yelp.com/biz/wilhelmsburger-grill-shop-hamburg?adjust_creative=hBJOknVQJ58S5goQyjmwRw&utm_campaign=yelp_api_v3&utm_medium=api_v3_business_search&utm_source=hBJOknVQJ58S5goQyjmwRw", "review_count": 2, "categories": [{"alias": "hotdogs", "title": "Fast Food"}], "rating": 2.0, "coordinates": {"latitude": 53.5156, "longitude": 9.9879}, "transactions": [], "price": "\u20ac", "location": {"address1": "F\u00e4hrstr. 63", "address2": null, "address3": null, "city": "Hamburg", "zip_code": "21107", "country": "DE", "state": "HH", "display_address": ["F\u00e4hrstr. 63", "21107 Hamburg", "Germany"]}, "phone": "+494075662362", "display_phone": "+49 40 75662362", "distance": 1648.124494135599}, {"id": "RaL2lJI6SZ65do6cTfIBzg", "alias": "cantinetta-ristorante-und-bar-hamburg-7", "name": "cantinetta ristorante & bar", "image_url": "https://s3-media2.fl.yelpcdn.com/bphoto/B2Pgldntf7bFVq5PpmjR4Q/o.jpg", "is_closed": false, "url": "https://www.yelp.com/biz/cantinetta-ristorante-und-bar-hamburg-7?adjust_creative=hBJOknVQJ58S5goQyjmwRw&utm_campaign=yelp_api_v3&utm_medium=api_v3_business_search&utm_source=hBJOknVQJ58S5goQyjmwRw", "review_count": 17, "categories": [{"alias": "italian", "title": "Italian"}], "rating": 4.0, "coordinates": {"latitude": 53.544181, "longitude": 9.994628}, "transactions": [], "price": "\u20ac\u20ac\u20ac", "location": {"address1": "Pickhuben 3", "address2": "", "address3": "", "city": "Hamburg", "zip_code": "20457", "country": "DE", "state": "HH", "display_address": ["Pickhuben 3", "20457 Hamburg", "Germany"]}, "phone": "+4940638589900", "display_phone": "+49 40 638589900", "distance": 4709.453690905344}, {"id": "ILJdjVeC9EU0ZAyl2IZfkw", "alias": "harbour-grill-hamburg", "name": "Harbour Grill", "image_url": "https://s3-media3.fl.yelpcdn.com/bphoto/AY0u571SmrBj3Qlyqq6niw/o.jpg", "is_closed": false, "url": "https://www.yelp.com/biz/harbour-grill-hamburg?adjust_creative=hBJOknVQJ58S5goQyjmwRw&utm_campaign=yelp_api_v3&utm_medium=api_v3_business_search&utm_source=hBJOknVQJ58S5goQyjmwRw", "review_count": 2, "categories": [{"alias": "steak", "title": "Steakhouses"}, {"alias": "currysausage", "title": "Curry Sausage"}], "rating": 3.0, "coordinates": {"latitude": 53.5446, "longitude": 10.015}, "transactions": [], "price": "\u20ac\u20ac", "location": {"address1": "Banksstr. 28", "address2": null, "address3": null, "city": "Hamburg", "zip_code": "20097", "country": "DE", "state": "HH", "display_address": ["Banksstr. 28", "20097 Hamburg", "Germany"]}, "phone": "+4940324531", "display_phone": "+49 40 324531", "distance": 4895.887129456291}, {"id": "GzkdZKdjaoIzIz0SzaoKdg", "alias": "wilhelmsburger-hof-hamburg-2", "name": "Wilhelmsburger Hof", "image_url": "https://s3-media1.fl.yelpcdn.com/bphoto/CGnsfjYCBfgkRuQcwfQZAQ/o.jpg", "is_closed": false, "url": "https://www.yelp.com/biz/wilhelmsburger-hof-hamburg-2?adjust_creative=hBJOknVQJ58S5goQyjmwRw&utm_campaign=yelp_api_v3&utm_medium=api_v3_business_search&utm_source=hBJOknVQJ58S5goQyjmwRw", "review_count": 5, "categories": [{"alias": "german", "title": "German"}], "rating": 3.5, "coordinates": {"latitude": 53.48202, "longitude": 9.99189}, "transactions": [], "location": {"address1": "Hotel Wilhelmsburger Hof", "address2": "Georg-Wilhelm-Str. 329", "address3": null, "city": "Hamburg", "zip_code": "21107", "country": "DE", "state": "HH", "display_address": ["Hotel Wilhelmsburger Hof", "Georg-Wilhelm-Str. 329", "21107 Hamburg", "Germany"]}, "phone": "+4940758841", "display_phone": "+49 40 758841", "distance": 2236.0871092669363}, {"id": "mskhIdQ0AtU2zD6HQ3LHhA", "alias": "the-saffron-hamburg", "name": "The Saffron", "image_url": "https://s3-media2.fl.yelpcdn.com/bphoto/UqvUE3TBelXrnM8hMw2RgA/o.jpg", "is_closed": false, "url": "https://www.yelp.com/biz/the-saffron-hamburg?adjust_creative=hBJOknVQJ58S5goQyjmwRw&utm_campaign=yelp_api_v3&utm_medium=api_v3_business_search&utm_source=hBJOknVQJ58S5goQyjmwRw", "review_count": 7, "categories": [{"alias": "german", "title": "German"}], "rating": 3.5, "coordinates": {"latitude": 53.5412828782203, "longitude": 9.98437817116394}, "transactions": [], "price": "\u20ac\u20ac\u20ac\u20ac", "location": {"address1": "Platz der Deutschen Einheit 2", "address2": "", "address3": null, "city": "Hamburg", "zip_code": "20457", "country": "DE", "state": "HH", "display_address": ["Platz der Deutschen Einheit 2", "20457 Hamburg", "Germany"]}, "phone": "+49408000103117", "display_phone": "+49 40 8000103117", "distance": 4465.635013730842}, {"id": "FY6Q336c3PrPp0L1hQW8xA", "alias": "kupferkrug-hamburg-2", "name": "Kupferkrug", "image_url": "https://s3-media2.fl.yelpcdn.com/bphoto/bcUnTUt1FY0jQRh_m4zz4A/o.jpg", "is_closed": false, "url": "https://www.yelp.com/biz/kupferkrug-hamburg-2?adjust_creative=hBJOknVQJ58S5goQyjmwRw&utm_campaign=yelp_api_v3&utm_medium=api_v3_business_search&utm_source=hBJOknVQJ58S5goQyjmwRw", "review_count": 13, "categories": [{"alias": "german", "title": "German"}], "rating": 4.0, "coordinates": {"latitude": 53.51124, "longitude": 10.02055}, "transactions": [], "price": "\u20ac\u20ac\u20ac", "location": {"address1": "Niedergeorgswerder Deich 75", "address2": null, "address3": null, "city": "Hamburg", "zip_code": "21109", "country": "DE", "state": "HH", "display_address": ["Niedergeorgswerder Deich 75", "21109 Hamburg", "Germany"]}, "phone": "+49407544901", "display_phone": "+49 40 7544901", "distance": 1861.9292673303842}, {"id": "KXnX88Y_aVPlau75q7SLtA", "alias": "kinfelts-kitchen-und-wine-hamburg", "name": "Kinfelts Kitchen & Wine", "image_url": "https://s3-media2.fl.yelpcdn.com/bphoto/6oiuu_L7v0QctHv9-_E9uA/o.jpg", "is_closed": false, "url": "https://www.yelp.com/biz/kinfelts-kitchen-und-wine-hamburg?adjust_creative=hBJOknVQJ58S5goQyjmwRw&utm_campaign=yelp_api_v3&utm_medium=api_v3_business_search&utm_source=hBJOknVQJ58S5goQyjmwRw", "review_count": 3, "categories": [{"alias": "german", "title": "German"}, {"alias": "wine_bars", "title": "Wine Bars"}], "rating": 4.5, "coordinates": {"latitude": 53.54146, "longitude": 9.98681}, "transactions": [], "location": {"address1": "Am Kaiserkai 56", "address2": "", "address3": null, "city": "Hamburg", "zip_code": "20457", "country": "DE", "state": "HH", "display_address": ["Am Kaiserkai 56", "20457 Hamburg", "Germany"]}, "phone": "+494030068369", "display_phone": "+49 40 30068369", "distance": 4464.198925249252}, {"id": "sdAZwPKxjK9G_tgdBTQm_Q", "alias": "hallo-pizza-hamburg-16", "name": "Hallo Pizza", "image_url": "https://s3-media1.fl.yelpcdn.com/bphoto/Ws_ObNA3I4z-EMXMgWO2-g/o.jpg", "is_closed": false, "url": "https://www.yelp.com/biz/hallo-pizza-hamburg-16?adjust_creative=hBJOknVQJ58S5goQyjmwRw&utm_campaign=yelp_api_v3&utm_medium=api_v3_business_search&utm_source=hBJOknVQJ58S5goQyjmwRw", "review_count": 1, "categories": [{"alias": "pizza", "title": "Pizza"}], "rating": 5.0, "coordinates": {"latitude": 53.4961847403054, "longitude": 10.0036735875583}, "transactions": [], "location": {"address1": "Neuenfelder Str. 31", "address2": "", "address3": null, "city": "Hamburg", "zip_code": "20457", "country": "DE", "state": "HH", "display_address": ["Neuenfelder Str. 31", "20457 Hamburg", "Germany"]}, "phone": "+494031807141", "display_phone": "+49 40 31807141", "distance": 761.0869950673382}, {"id": "iL6n3MD2huvdcvuWpDlmlg", "alias": "carls-an-der-elbphilharmonie-hamburg-3", "name": "CARLS an der Elbphilharmonie", "image_url": "https://s3-media1.fl.yelpcdn.com/bphoto/e8gzhqvy7fkKSUm_6mnXtQ/o.jpg", "is_closed": false, "url": "https://www.yelp.com/biz/carls-an-der-elbphilharmonie-hamburg-3?adjust_creative=hBJOknVQJ58S5goQyjmwRw&utm_campaign=yelp_api_v3&utm_medium=api_v3_business_search&utm_source=hBJOknVQJ58S5goQyjmwRw", "review_count": 180, "categories": [{"alias": "bistros", "title": "Bistros"}, {"alias": "french", "title": "French"}, {"alias": "cafes", "title": "Cafes"}], "rating": 4.0, "coordinates": {"latitude": 53.5410899, "longitude": 9.98586}, "transactions": [], "price": "\u20ac\u20ac\u20ac", "location": {"address1": "Am Kaiserkai 69", "address2": null, "address3": null, "city": "Hamburg", "zip_code": "20457", "country": "DE", "state": "HH", "display_address": ["Am Kaiserkai 69", "20457 Hamburg", "Germany"]}, "phone": "+4940300322400", "display_phone": "+49 40 300322400", "distance": 4418.767102122808}, {"id": "SDX-cF25zG66QC8IBB3WeQ", "alias": "picnic-hamburg", "name": "picnic", "image_url": "https://s3-media1.fl.yelpcdn.com/bphoto/9bRQH8ZXJ7gryPc9GnFFsQ/o.jpg", "is_closed": false, "url": "https://www.yelp.com/biz/picnic-hamburg?adjust_creative=hBJOknVQJ58S5goQyjmwRw&utm_campaign=yelp_api_v3&utm_medium=api_v3_business_search&utm_source=hBJOknVQJ58S5goQyjmwRw", "review_count": 2, "categories": [{"alias": "mediterranean", "title": "Mediterranean"}, {"alias": "hotdogs", "title": "Fast Food"}, {"alias": "tapasmallplates", "title": "Tapas/Small Plates"}], "rating": 4.0, "coordinates": {"latitude": 53.54317, "longitude": 9.99422}, "transactions": [], "location": {"address1": "Am Sandtorkai 50", "address2": "Sandtorpark", "address3": "", "city": "Hamburg", "zip_code": "20457", "country": "DE", "state": "HH", "display_address": ["Am Sandtorkai 50", "Sandtorpark", "20457 Hamburg", "Germany"]}, "phone": "+494036945873", "display_phone": "+49 40 36945873", "distance": 4587.121338982341}, {"id": "T7nmJS0TcfCf8G57OUwwIg", "alias": "lezzet-k\u00f6z-hamburg", "name": "Lezzet K\u00d6Z", "image_url": "https://s3-media1.fl.yelpcdn.com/bphoto/vdJSvFuS5acEu4sVHEuZTA/o.jpg", "is_closed": false, "url": "https://www.yelp.com/biz/lezzet-k%C3%B6z-hamburg?adjust_creative=hBJOknVQJ58S5goQyjmwRw&utm_campaign=yelp_api_v3&utm_medium=api_v3_business_search&utm_source=hBJOknVQJ58S5goQyjmwRw", "review_count": 13, "categories": [{"alias": "turkish", "title": "Turkish"}], "rating": 3.5, "coordinates": {"latitude": 53.5177783, "longitude": 9.985866}, "transactions": [], "price": "\u20ac\u20ac", "location": {"address1": "Vogelh\u00fcttendeich 46", "address2": "", "address3": "", "city": "Hamburg", "zip_code": "21107", "country": "DE", "state": "HH", "display_address": ["Vogelh\u00fcttendeich 46", "21107 Hamburg", "Germany"]}, "phone": "+494041907241", "display_phone": "+49 40 41907241", "distance": 1923.3749782008683}, {"id": "rLl6tCwxKYOGXCihpf3mwA", "alias": "mamson-hamburg", "name": "Mamson", "image_url": "https://s3-media2.fl.yelpcdn.com/bphoto/S3c2M43zXd_p5zbt8UZNAQ/o.jpg", "is_closed": false, "url": "https://www.yelp.com/biz/mamson-hamburg?adjust_creative=hBJOknVQJ58S5goQyjmwRw&utm_campaign=yelp_api_v3&utm_medium=api_v3_business_search&utm_source=hBJOknVQJ58S5goQyjmwRw", "review_count": 10, "categories": [{"alias": "buffets", "title": "Buffets"}, {"alias": "mongolian", "title": "Mongolian"}, {"alias": "panasian", "title": "Pan Asian"}], "rating": 3.5, "coordinates": {"latitude": 53.5431276444085, "longitude": 9.9978183191039}, "transactions": [], "price": "\u20ac\u20ac", "location": {"address1": "Osakaallee 6", "address2": "", "address3": "", "city": "Hamburg", "zip_code": "20457", "country": "DE", "state": "HH", "display_address": ["Osakaallee 6", "20457 Hamburg", "Germany"]}, "phone": "+494032901860", "display_phone": "+49 40 32901860", "distance": 4589.34441574902}, {"id": "DNUCGQzRLQKR1slpNvQydQ", "alias": "india-house-hamburg", "name": "India House", "image_url": "https://s3-media3.fl.yelpcdn.com/bphoto/TUKHR61syb3zYXE58c6D0A/o.jpg", "is_closed": false, "url": "https://www.yelp.com/biz/india-house-hamburg?adjust_creative=hBJOknVQJ58S5goQyjmwRw&utm_campaign=yelp_api_v3&utm_medium=api_v3_business_search&utm_source=hBJOknVQJ58S5goQyjmwRw", "review_count": 22, "categories": [{"alias": "indpak", "title": "Indian"}], "rating": 4.5, "coordinates": {"latitude": 53.5415156, "longitude": 9.9876281}, "transactions": [], "price": "\u20ac\u20ac", "location": {"address1": "Am Kaiserkai 46", "address2": "", "address3": "", "city": "Hamburg", "zip_code": "20457", "country": "DE", "state": "HH", "display_address": ["Am Kaiserkai 46", "20457 Hamburg", "Germany"]}, "phone": "+494030069666", "display_phone": "+49 40 30069666", "distance": 4455.391368439981}, {"id": "8Q--FzMt-Yi2A2yOxcwBVg", "alias": "g\u00fcven-kebap-house-hamburg", "name": "G\u00fcven Kebap House", "image_url": "https://s3-media3.fl.yelpcdn.com/bphoto/8zVyJ8TEcBvY-Alles8jDg/o.jpg", "is_closed": false, "url": "https://www.yelp.com/biz/g%C3%BCven-kebap-house-hamburg?adjust_creative=hBJOknVQJ58S5goQyjmwRw&utm_campaign=yelp_api_v3&utm_medium=api_v3_business_search&utm_source=hBJOknVQJ58S5goQyjmwRw", "review_count": 24, "categories": [{"alias": "turkish", "title": "Turkish"}, {"alias": "kebab", "title": "Kebab"}], "rating": 3.5, "coordinates": {"latitude": 53.5178, "longitude": 9.98587}, "transactions": [], "price": "\u20ac\u20ac", "location": {"address1": "Vogelh\u00fcttendeich 50", "address2": null, "address3": null, "city": "Hamburg", "zip_code": "21107", "country": "DE", "state": "HH", "display_address": ["Vogelh\u00fcttendeich 50", "21107 Hamburg", "Germany"]}, "phone": "+494075665299", "display_phone": "+49 40 75665299", "distance": 1925.4930127633377}, {"id": "RfZJkJvcrG-4TU1ayVKoFA", "alias": "golden-city-hamburg", "name": "Golden City", "image_url": "https://s3-media2.fl.yelpcdn.com/bphoto/Lsabt_KuxKAI0ij0CjbVag/o.jpg", "is_closed": false, "url": "https://www.yelp.com/biz/golden-city-hamburg?adjust_creative=hBJOknVQJ58S5goQyjmwRw&utm_campaign=yelp_api_v3&utm_medium=api_v3_business_search&utm_source=hBJOknVQJ58S5goQyjmwRw", "review_count": 31, "categories": [{"alias": "chinese", "title": "Chinese"}], "rating": 3.5, "coordinates": {"latitude": 53.46012, "longitude": 9.97869}, "transactions": [], "price": "\u20ac\u20ac", "location": {"address1": "Am Centrumshaus 1", "address2": "", "address3": "", "city": "Hamburg", "zip_code": "21073", "country": "DE", "state": "HH", "display_address": ["Am Centrumshaus 1", "21073 Hamburg", "Germany"]}, "phone": "+4940774246", "display_phone": "+49 40 774246", "distance": 4802.617797705604}, {"id": "DnxzX3Ukf4Si0sxDFJ-cbQ", "alias": "bianc-hamburg", "name": "Bianc", "image_url": "https://s3-media3.fl.yelpcdn.com/bphoto/aLVoE95KhLTBdelIOj_4OQ/o.jpg", "is_closed": false, "url": "https://www.yelp.com/biz/bianc-hamburg?adjust_creative=hBJOknVQJ58S5goQyjmwRw&utm_campaign=yelp_api_v3&utm_medium=api_v3_business_search&utm_source=hBJOknVQJ58S5goQyjmwRw", "review_count": 3, "categories": [{"alias": "mediterranean", "title": "Mediterranean"}], "rating": 5.0, "coordinates": {"latitude": 53.54317, "longitude": 9.99422}, "transactions": [], "price": "\u20ac\u20ac\u20ac\u20ac", "location": {"address1": "Am Sandtorkai 50", "address2": "", "address3": null, "city": "Hamburg", "zip_code": "20457", "country": "DE", "state": "HH", "display_address": ["Am Sandtorkai 50", "20457 Hamburg", "Germany"]}, "phone": "+494018119797", "display_phone": "+49 40 18119797", "distance": 4586.91753563626}, {"id": "r--LFBLuAQoXxR6DNAq1fA", "alias": "la-patina-hamburg", "name": "La Patina", "image_url": "https://s3-media1.fl.yelpcdn.com/bphoto/PSo7lasUsh0HZ4CQbOac7g/o.jpg", "is_closed": false, "url": "https://www.yelp.com/biz/la-patina-hamburg?adjust_creative=hBJOknVQJ58S5goQyjmwRw&utm_campaign=yelp_api_v3&utm_medium=api_v3_business_search&utm_source=hBJOknVQJ58S5goQyjmwRw", "review_count": 2, "categories": [{"alias": "pizza", "title": "Pizza"}], "rating": 2.5, "coordinates": {"latitude": 53.516162356436, "longitude": 9.9874185025692}, "transactions": [], "location": {"address1": "Veringstr. 24", "address2": "", "address3": null, "city": "Hamburg", "zip_code": "21107", "country": "DE", "state": "HH", "display_address": ["Veringstr. 24", "21107 Hamburg", "Germany"]}, "phone": "+494034993322", "display_phone": "+49 40 34993322", "distance": 1718.0378171140987}, {"id": "EiRV0a-OAkBMUonaYf-jXw", "alias": "nusu-exotic-kitchen-hamburg", "name": "NUSU Exotic Kitchen", "image_url": "https://s3-media2.fl.yelpcdn.com/bphoto/ldJE62OezRdJryE40N0e0Q/o.jpg", "is_closed": false, "url": "https://www.yelp.com/biz/nusu-exotic-kitchen-hamburg?adjust_creative=hBJOknVQJ58S5goQyjmwRw&utm_campaign=yelp_api_v3&utm_medium=api_v3_business_search&utm_source=hBJOknVQJ58S5goQyjmwRw", "review_count": 6, "categories": [{"alias": "vietnamese", "title": "Vietnamese"}, {"alias": "thai", "title": "Thai"}, {"alias": "chinese", "title": "Chinese"}], "rating": 4.5, "coordinates": {"latitude": 53.465022, "longitude": 9.986041}, "transactions": [], "price": "\u20ac", "location": {"address1": "Schellerdamm 16", "address2": "", "address3": "", "city": "Hamburg", "zip_code": "21079", "country": "DE", "state": "HH", "display_address": ["Schellerdamm 16", "21079 Hamburg", "Germany"]}, "phone": "+494060867166", "display_phone": "+49 40 60867166", "distance": 4152.084176314177}, {"id": "1-bduZSZdqAGhv85_-H5QA", "alias": "wok-haus-hamburg-5", "name": "Wok-Haus", "image_url": "https://s3-media2.fl.yelpcdn.com/bphoto/0GDB4iv0-l_76h3SyrthVQ/o.jpg", "is_closed": false, "url": "https://www.yelp.com/biz/wok-haus-hamburg-5?adjust_creative=hBJOknVQJ58S5goQyjmwRw&utm_campaign=yelp_api_v3&utm_medium=api_v3_business_search&utm_source=hBJOknVQJ58S5goQyjmwRw", "review_count": 2, "categories": [{"alias": "thai", "title": "Thai"}], "rating": 4.5, "coordinates": {"latitude": 53.4615097, "longitude": 9.9786797}, "transactions": [], "price": "\u20ac\u20ac", "location": {"address1": "Neue Str. 17", "address2": null, "address3": "", "city": "Hamburg", "zip_code": "21073", "country": "DE", "state": "HH", "display_address": ["Neue Str. 17", "21073 Hamburg", "Germany"]}, "phone": "+494035989583", "display_phone": "+49 40 35989583", "distance": 4650.156231444788}, {"id": "bV7QqSWeT214eEYNKFHfUQ", "alias": "schweinske-hamburg-14", "name": "Schweinske", "image_url": "https://s3-media2.fl.yelpcdn.com/bphoto/EP1I_Xr6BSXui6fd3YbgDQ/o.jpg", "is_closed": false, "url": "https://www.yelp.com/biz/schweinske-hamburg-14?adjust_creative=hBJOknVQJ58S5goQyjmwRw&utm_campaign=yelp_api_v3&utm_medium=api_v3_business_search&utm_source=hBJOknVQJ58S5goQyjmwRw", "review_count": 7, "categories": [{"alias": "german", "title": "German"}], "rating": 3.0, "coordinates": {"latitude": 53.4982, "longitude": 10.011}, "transactions": [], "price": "\u20ac\u20ac\u20ac", "location": {"address1": "Berta-Kr\u00f6ger-Platz", "address2": "Krieterstr. 18", "address3": null, "city": "Hamburg", "zip_code": "21109", "country": "DE", "state": "HH", "display_address": ["Berta-Kr\u00f6ger-Platz", "Krieterstr. 18", "21109 Hamburg", "Germany"]}, "phone": "+494023936965", "display_phone": "+49 40 23936965", "distance": 997.293731730718}, {"id": "w-uxLCNAf06QBlfzC83DAQ", "alias": "sallis-imbiss-b\u00e4ckerei-kiosk-hamburg", "name": "Salli's Imbiss B\u00e4ckerei Kiosk", "image_url": "https://s3-media3.fl.yelpcdn.com/bphoto/diHMMAd18aWy_LL3XHbbDQ/o.jpg", "is_closed": false, "url": "https://www.yelp.com/biz/sallis-imbiss-b%C3%A4ckerei-kiosk-hamburg?adjust_creative=hBJOknVQJ58S5goQyjmwRw&utm_campaign=yelp_api_v3&utm_medium=api_v3_business_search&utm_source=hBJOknVQJ58S5goQyjmwRw", "review_count": 5, "categories": [{"alias": "hotdogs", "title": "Fast Food"}, {"alias": "kebab", "title": "Kebab"}], "rating": 2.5, "coordinates": {"latitude": 53.5229472, "longitude": 10.014432}, "transactions": [], "price": "\u20ac\u20ac", "location": {"address1": "Wilhelmsburger Platz   Hamburg 10", "address2": null, "address3": null, "city": "Hamburg", "zip_code": "20539", "country": "DE", "state": "HH", "display_address": ["Wilhelmsburger Platz   Hamburg 10", "20539 Hamburg", "Germany"]}, "phone": "+494078089429", "display_phone": "+49 40 78089429", "distance": 2606.450789354166}, {"id": "l-FS0muqbuROPAP_4R_Plg", "alias": "obst-und-gem\u00fcse-salat-bar-hamburg", "name": "Obst & Gem\u00fcse Salat Bar", "image_url": "https://s3-media1.fl.yelpcdn.com/bphoto/F26yBVqsfALi8vStM9MYjg/o.jpg", "is_closed": false, "url": "https://www.yelp.com/biz/obst-und-gem%C3%BCse-salat-bar-hamburg?adjust_creative=hBJOknVQJ58S5goQyjmwRw&utm_campaign=yelp_api_v3&utm_medium=api_v3_business_search&utm_source=hBJOknVQJ58S5goQyjmwRw", "review_count": 27, "categories": [{"alias": "salad", "title": "Salad"}, {"alias": "raw_food", "title": "Live/Raw Food"}], "rating": 4.5, "coordinates": {"latitude": 53.5446065780753, "longitude": 9.98141907155514}, "transactions": [], "price": "\u20ac", "location": {"address1": "Baumwall 5", "address2": "", "address3": "", "city": "Hamburg", "zip_code": "20459", "country": "DE", "state": "HH", "display_address": ["Baumwall 5", "20459 Hamburg", "Germany"]}, "phone": "", "display_phone": "", "distance": 4867.1961021329425}, {"id": "xL83_3wwHpUy8VlegrjYgQ", "alias": "panthera-rodizio-hamburg", "name": "Panthera Rodizio", "image_url": "https://s3-media3.fl.yelpcdn.com/bphoto/kQ2VrXh5x2c5QODDyYdnsg/o.jpg", "is_closed": false, "url": "https://www.yelp.com/biz/panthera-rodizio-hamburg?adjust_creative=hBJOknVQJ58S5goQyjmwRw&utm_campaign=yelp_api_v3&utm_medium=api_v3_business_search&utm_source=hBJOknVQJ58S5goQyjmwRw", "review_count": 102, "categories": [{"alias": "brazilian", "title": "Brazilian"}], "rating": 3.5, "coordinates": {"latitude": 53.46346, "longitude": 9.98094}, "transactions": [], "price": "\u20ac\u20ac\u20ac", "location": {"address1": "L\u00e4mmertwiete 5 - 7", "address2": null, "address3": null, "city": "Hamburg", "zip_code": "21073", "country": "DE", "state": "HH", "display_address": ["L\u00e4mmertwiete 5 - 7", "21073 Hamburg", "Germany"]}, "phone": "+49407650775", "display_phone": "+49 40 7650775", "distance": 4407.496324233542}, {"id": "Y47o8F3lu0e3uZ96elthMg", "alias": "catch-of-the-day-hamburg-4", "name": "Catch of the Day", "image_url": "https://s3-media2.fl.yelpcdn.com/bphoto/wvZRWQA2m3PU5ZyozkCRMg/o.jpg", "is_closed": false, "url": "https://www.yelp.com/biz/catch-of-the-day-hamburg-4?adjust_creative=hBJOknVQJ58S5goQyjmwRw&utm_campaign=yelp_api_v3&utm_medium=api_v3_business_search&utm_source=hBJOknVQJ58S5goQyjmwRw", "review_count": 18, "categories": [{"alias": "bistros", "title": "Bistros"}, {"alias": "seafood", "title": "Seafood"}, {"alias": "cafes", "title": "Cafes"}], "rating": 3.5, "coordinates": {"latitude": 53.5431786, "longitude": 9.9997797}, "transactions": [], "price": "\u20ac\u20ac", "location": {"address1": "Koreastr. 1", "address2": "", "address3": "", "city": "Hamburg", "zip_code": "20457", "country": "DE", "state": "HH", "display_address": ["Koreastr. 1", "20457 Hamburg", "Germany"]}, "phone": "+494076797235", "display_phone": "+49 40 76797235", "distance": 4594.846082422816}, {"id": "9lDR8fn7TqjOQKDTg0z7bA", "alias": "flammhus-hamburg", "name": "Flamm'hus", "image_url": "https://s3-media4.fl.yelpcdn.com/bphoto/buB8dDXp98dtKGfEKHIGzQ/o.jpg", "is_closed": false, "url": "https://www.yelp.com/biz/flammhus-hamburg?adjust_creative=hBJOknVQJ58S5goQyjmwRw&utm_campaign=yelp_api_v3&utm_medium=api_v3_business_search&utm_source=hBJOknVQJ58S5goQyjmwRw", "review_count": 2, "categories": [{"alias": "french", "title": "French"}], "rating": 4.5, "coordinates": {"latitude": 53.5434711188396, "longitude": 9.99269017442168}, "transactions": [], "price": "\u20ac", "location": {"address1": "Am Sandtorkai 23", "address2": "", "address3": "", "city": "Hamburg", "zip_code": "20457", "country": "DE", "state": "HH", "display_address": ["Am Sandtorkai 23", "20457 Hamburg", "Germany"]}, "phone": "+4915782278431", "display_phone": "+49 1578 2278431", "distance": 4637.100645643058}, {"id": "kT54kKJUkaNBsbtfQkmmsw", "alias": "southside-hamburg", "name": "Southside", "image_url": "https://s3-media3.fl.yelpcdn.com/bphoto/WyPJ6RcrhQpk_y99x7yuBA/o.jpg", "is_closed": false, "url": "https://www.yelp.com/biz/southside-hamburg?adjust_creative=hBJOknVQJ58S5goQyjmwRw&utm_campaign=yelp_api_v3&utm_medium=api_v3_business_search&utm_source=hBJOknVQJ58S5goQyjmwRw", "review_count": 6, "categories": [{"alias": "tex-mex", "title": "Tex-Mex"}, {"alias": "cocktailbars", "title": "Cocktail Bars"}], "rating": 4.5, "coordinates": {"latitude": 53.461716, "longitude": 9.979395}, "transactions": [], "price": "\u20ac\u20ac", "location": {"address1": "Neue Str. 24", "address2": "", "address3": null, "city": "Hamburg", "zip_code": "21073", "country": "DE", "state": "HH", "display_address": ["Neue Str. 24", "21073 Hamburg", "Germany"]}, "phone": "+494032507279", "display_phone": "+49 40 32507279", "distance": 4607.843440725277}, {"id": "G8vTrkjmYm7ymw8fYQ_-0A", "alias": "baakennest-hamburg", "name": "BaakenNest", "image_url": "https://s3-media3.fl.yelpcdn.com/bphoto/qeJrORu6lUhM5uLKtraHew/o.jpg", "is_closed": false, "url": "https://www.yelp.com/biz/baakennest-hamburg?adjust_creative=hBJOknVQJ58S5goQyjmwRw&utm_campaign=yelp_api_v3&utm_medium=api_v3_business_search&utm_source=hBJOknVQJ58S5goQyjmwRw", "review_count": 1, "categories": [{"alias": "bars", "title": "Bars"}, {"alias": "delis", "title": "Delis"}], "rating": 5.0, "coordinates": {"latitude": 53.5397197726081, "longitude": 10.0116428015394}, "transactions": [], "location": {"address1": "Versmannstr. 24", "address2": "", "address3": null, "city": "Hamburg", "zip_code": "20457", "country": "DE", "state": "HH", "display_address": ["Versmannstr. 24", "20457 Hamburg", "Germany"]}, "phone": "+494030094120", "display_phone": "+49 40 30094120", "distance": 4316.69054871902}, {"id": "ggJua_rmioTRlw7Qxkm4Sg", "alias": "crown-pizza-hamburg", "name": "Crown Pizza", "image_url": "https://s3-media3.fl.yelpcdn.com/bphoto/bjWPN1Rob_EJH0OBRERyAg/o.jpg", "is_closed": false, "url": "https://www.yelp.com/biz/crown-pizza-hamburg?adjust_creative=hBJOknVQJ58S5goQyjmwRw&utm_campaign=yelp_api_v3&utm_medium=api_v3_business_search&utm_source=hBJOknVQJ58S5goQyjmwRw", "review_count": 9, "categories": [{"alias": "pizza", "title": "Pizza"}], "rating": 4.0, "coordinates": {"latitude": 53.5165, "longitude": 9.99297}, "transactions": [], "price": "\u20ac\u20ac", "location": {"address1": "Georg-Wilhelm-Str. 5", "address2": null, "address3": null, "city": "Hamburg", "zip_code": "21107", "country": "DE", "state": "HH", "display_address": ["Georg-Wilhelm-Str. 5", "21107 Hamburg", "Germany"]}, "phone": "+4940751354", "display_phone": "+49 40 751354", "distance": 1652.5281941372752}, {"id": "DCjxHknq-_I-m8-e0yVJ_A", "alias": "caspari-hamburg", "name": "Caspari", "image_url": "https://s3-media3.fl.yelpcdn.com/bphoto/X6zbPziRxtnWameYQb55DQ/o.jpg", "is_closed": false, "url": "https://www.yelp.com/biz/caspari-hamburg?adjust_creative=hBJOknVQJ58S5goQyjmwRw&utm_campaign=yelp_api_v3&utm_medium=api_v3_business_search&utm_source=hBJOknVQJ58S5goQyjmwRw", "review_count": 87, "categories": [{"alias": "cocktailbars", "title": "Cocktail Bars"}, {"alias": "international", "title": "International"}], "rating": 3.0, "coordinates": {"latitude": 53.46351, "longitude": 9.98117}, "transactions": [], "price": "\u20ac\u20ac", "location": {"address1": "L\u00e4mmertwiete 6-10", "address2": null, "address3": null, "city": "Hamburg", "zip_code": "21073", "country": "DE", "state": "HH", "display_address": ["L\u00e4mmertwiete 6-10", "21073 Hamburg", "Germany"]}, "phone": "+49407665157", "display_phone": "+49 40 7665157", "distance": 4401.032387484734}, {"id": "6ODiCCP5oZwK8p_Jt9S5rw", "alias": "fleetschl\u00f6sschen-hamburg-3", "name": "Fleetschl\u00f6sschen", "image_url": "https://s3-media3.fl.yelpcdn.com/bphoto/AWun9Scd4hHjRr5-ONHrNA/o.jpg", "is_closed": false, "url": "https://www.yelp.com/biz/fleetschl%C3%B6sschen-hamburg-3?adjust_creative=hBJOknVQJ58S5goQyjmwRw&utm_campaign=yelp_api_v3&utm_medium=api_v3_business_search&utm_source=hBJOknVQJ58S5goQyjmwRw", "review_count": 4, "categories": [{"alias": "restaurants", "title": "Restaurants"}], "rating": 3.5, "coordinates": {"latitude": 53.5444567643743, "longitude": 9.99797198921442}, "transactions": [], "location": {"address1": "Brooktorkai 17", "address2": "", "address3": null, "city": "Hamburg", "zip_code": "20457", "country": "DE", "state": "HH", "display_address": ["Brooktorkai 17", "20457 Hamburg", "Germany"]}, "phone": "+494030393210", "display_phone": "+49 40 30393210", "distance": 4737.2246156237425}, {"id": "QGOwUn9HwVf3cOEbLJBGsw", "alias": "neni-hamburg-3", "name": "NENI", "image_url": "https://s3-media1.fl.yelpcdn.com/bphoto/haznNhhXiaerTNPRd6whmg/o.jpg", "is_closed": false, "url": "https://www.yelp.com/biz/neni-hamburg-3?adjust_creative=hBJOknVQJ58S5goQyjmwRw&utm_campaign=yelp_api_v3&utm_medium=api_v3_business_search&utm_source=hBJOknVQJ58S5goQyjmwRw", "review_count": 20, "categories": [{"alias": "northerngerman", "title": "Northern German"}, {"alias": "seafood", "title": "Seafood"}, {"alias": "mediterranean", "title": "Mediterranean"}], "rating": 3.5, "coordinates": {"latitude": 53.542332, "longitude": 9.998594}, "transactions": [], "price": "\u20ac\u20ac", "location": {"address1": "Osakaallee 12", "address2": "", "address3": null, "city": "Hamburg", "zip_code": "20457", "country": "DE", "state": "HH", "display_address": ["Osakaallee 12", "20457 Hamburg", "Germany"]}, "phone": "+4940555575442", "display_phone": "+49 40 555575442", "distance": 4495.405577030829}, {"id": "2Tvu5vs9Y9pYG5iTcKdHTg", "alias": "soup-city-hamburg-8", "name": "Soup City", "image_url": "", "is_closed": false, "url": "https://www.yelp.com/biz/soup-city-hamburg-8?adjust_creative=hBJOknVQJ58S5goQyjmwRw&utm_campaign=yelp_api_v3&utm_medium=api_v3_business_search&utm_source=hBJOknVQJ58S5goQyjmwRw", "review_count": 2, "categories": [{"alias": "soup", "title": "Soup"}], "rating": 4.5, "coordinates": {"latitude": 53.543342607881, "longitude": 9.9903232041696}, "transactions": [], "price": "\u20ac\u20ac\u20ac", "location": {"address1": "Sandtorkai 30", "address2": "", "address3": null, "city": "Hamburg", "zip_code": "20457", "country": "DE", "state": "HH", "display_address": ["Sandtorkai 30", "20457 Hamburg", "Germany"]}, "phone": "+494028410490", "display_phone": "+49 40 28410490", "distance": 4635.632424854805}, {"id": "RQqMIo4Ek0FJqJ2P5D3DDA", "alias": "cigk\u00f6ftem-hamburg", "name": "Cigk\u00f6ftem", "image_url": "https://s3-media1.fl.yelpcdn.com/bphoto/HZ4mOGonGYiPp1iilXzUmQ/o.jpg", "is_closed": false, "url": "https://www.yelp.com/biz/cigk%C3%B6ftem-hamburg?adjust_creative=hBJOknVQJ58S5goQyjmwRw&utm_campaign=yelp_api_v3&utm_medium=api_v3_business_search&utm_source=hBJOknVQJ58S5goQyjmwRw", "review_count": 10, "categories": [{"alias": "vegetarian", "title": "Vegetarian"}, {"alias": "turkish", "title": "Turkish"}], "rating": 4.0, "coordinates": {"latitude": 53.46156, "longitude": 9.98088}, "transactions": [], "price": "\u20ac", "location": {"address1": "Sand 11", "address2": "", "address3": "", "city": "Hamburg", "zip_code": "21073", "country": "DE", "state": "HH", "display_address": ["Sand 11", "21073 Hamburg", "Germany"]}, "phone": "+494046636520", "display_phone": "+49 40 46636520", "distance": 4582.263276255202}, {"id": "xij6Y-VVbGhK4jQZpuZWDA", "alias": "shukria-hamburg-4", "name": "Shukria", "image_url": "https://s3-media3.fl.yelpcdn.com/bphoto/ifDN3ZTbP4fRtdhEEO0aHA/o.jpg", "is_closed": false, "url": "https://www.yelp.com/biz/shukria-hamburg-4?adjust_creative=hBJOknVQJ58S5goQyjmwRw&utm_campaign=yelp_api_v3&utm_medium=api_v3_business_search&utm_source=hBJOknVQJ58S5goQyjmwRw", "review_count": 6, "categories": [{"alias": "indpak", "title": "Indian"}], "rating": 4.0, "coordinates": {"latitude": 53.46345, "longitude": 9.98142}, "transactions": [], "price": "\u20ac\u20ac", "location": {"address1": "L\u00e4mmertwiete 2", "address2": "", "address3": "", "city": "Hamburg", "zip_code": "21073", "country": "DE", "state": "HH", "display_address": ["L\u00e4mmertwiete 2", "21073 Hamburg", "Germany"]}, "phone": "+494032527895", "display_phone": "+49 40 32527895", "distance": 4395.032485156539}, {"id": "K1AwSdC8Sd0SEZumdNh9Pw", "alias": "schwerelos-das-achterbahnrestaurant-hamburg-2", "name": "Schwerelos - Das Achterbahnrestaurant", "image_url": "https://s3-media1.fl.yelpcdn.com/bphoto/J-JIcWoSR3VuP_E5SbtR9w/o.jpg", "is_closed": false, "url": "https://www.yelp.com/biz/schwerelos-das-achterbahnrestaurant-hamburg-2?adjust_creative=hBJOknVQJ58S5goQyjmwRw&utm_campaign=yelp_api_v3&utm_medium=api_v3_business_search&utm_source=hBJOknVQJ58S5goQyjmwRw", "review_count": 275, "categories": [{"alias": "international", "title": "International"}, {"alias": "eatertainment", "title": "Eatertainment"}], "rating": 3.0, "coordinates": {"latitude": 53.464467, "longitude": 9.984774}, "transactions": [], "price": "\u20ac\u20ac", "location": {"address1": "Harburger Schlo\u00dfstr. 22", "address2": "", "address3": "", "city": "Hamburg", "zip_code": "21079", "country": "DE", "state": "HH", "display_address": ["Harburger Schlo\u00dfstr. 22", "21079 Hamburg", "Germany"]}, "phone": "+494089721310", "display_phone": "+49 40 89721310", "distance": 4238.398793316803}, {"id": "RtMCxMcwlDl3ZtQSklVR-Q", "alias": "steakhammer-hamburg", "name": "Steakhammer", "image_url": "https://s3-media1.fl.yelpcdn.com/bphoto/EOXF8gOwEgjnQv5g59x0_A/o.jpg", "is_closed": false, "url": "https://www.yelp.com/biz/steakhammer-hamburg?adjust_creative=hBJOknVQJ58S5goQyjmwRw&utm_campaign=yelp_api_v3&utm_medium=api_v3_business_search&utm_source=hBJOknVQJ58S5goQyjmwRw", "review_count": 43, "categories": [{"alias": "steak", "title": "Steakhouses"}], "rating": 3.5, "coordinates": {"latitude": 53.4613, "longitude": 9.98481}, "transactions": [], "price": "\u20ac", "location": {"address1": "Gro\u00dfer Schippsee 34", "address2": null, "address3": null, "city": "Hamburg", "zip_code": "21073", "country": "DE", "state": "HH", "display_address": ["Gro\u00dfer Schippsee 34", "21073 Hamburg", "Germany"]}, "phone": "+494032508965", "display_phone": "+49 40 32508965", "distance": 4583.91840628285}, {"id": "m9nHi2Gyoyi6kxQDz_Ijsw", "alias": "silo-16-hamburg-3", "name": "Silo 16", "image_url": "https://s3-media2.fl.yelpcdn.com/bphoto/qvYDd7yT1O9kw2PZtoWo9Q/o.jpg", "is_closed": false, "url": "https://www.yelp.com/biz/silo-16-hamburg-3?adjust_creative=hBJOknVQJ58S5goQyjmwRw&utm_campaign=yelp_api_v3&utm_medium=api_v3_business_search&utm_source=hBJOknVQJ58S5goQyjmwRw", "review_count": 76, "categories": [{"alias": "italian", "title": "Italian"}], "rating": 4.0, "coordinates": {"latitude": 53.4651, "longitude": 9.98633}, "transactions": [], "price": "\u20ac\u20ac\u20ac", "location": {"address1": "Schellerdamm 16", "address2": null, "address3": null, "city": "Hamburg", "zip_code": "21079", "country": "DE", "state": "HH", "display_address": ["Schellerdamm 16", "21079 Hamburg", "Germany"]}, "phone": "+494041541494", "display_phone": "+49 40 41541494", "distance": 4150.250967211755}, {"id": "2VkAB3DkyJ_2RQSYKksLhw", "alias": "al-limone-hamburg", "name": "Al Limone", "image_url": "https://s3-media1.fl.yelpcdn.com/bphoto/LsS6_KuUzvjONAhto1pvIA/o.jpg", "is_closed": false, "url": "https://www.yelp.com/biz/al-limone-hamburg?adjust_creative=hBJOknVQJ58S5goQyjmwRw&utm_campaign=yelp_api_v3&utm_medium=api_v3_business_search&utm_source=hBJOknVQJ58S5goQyjmwRw", "review_count": 62, "categories": [{"alias": "italian", "title": "Italian"}], "rating": 4.0, "coordinates": {"latitude": 53.46362, "longitude": 9.98079}, "transactions": [], "price": "\u20ac\u20ac\u20ac", "location": {"address1": "L\u00e4mmertwiete 12", "address2": null, "address3": null, "city": "Hamburg", "zip_code": "21073", "country": "DE", "state": "HH", "display_address": ["L\u00e4mmertwiete 12", "21073 Hamburg", "Germany"]}, "phone": "+49407679032", "display_phone": "+49 40 7679032", "distance": 4388.760022568754}, {"id": "FLs5M08YQIGFx65y_yjCSw", "alias": "asia-bistro-tung-hamburg", "name": "Asia Bistro Tung", "image_url": "https://s3-media3.fl.yelpcdn.com/bphoto/M5bM4E4G093z-_o_N0zviQ/o.jpg", "is_closed": false, "url": "https://www.yelp.com/biz/asia-bistro-tung-hamburg?adjust_creative=hBJOknVQJ58S5goQyjmwRw&utm_campaign=yelp_api_v3&utm_medium=api_v3_business_search&utm_source=hBJOknVQJ58S5goQyjmwRw", "review_count": 14, "categories": [{"alias": "restaurants", "title": "Restaurants"}], "rating": 4.0, "coordinates": {"latitude": 53.4597043, "longitude": 9.9820942}, "transactions": [], "price": "\u20ac\u20ac", "location": {"address1": "Deichhausweg 3", "address2": null, "address3": null, "city": "Hamburg", "zip_code": "21073", "country": "DE", "state": "HH", "display_address": ["Deichhausweg 3", "21073 Hamburg", "Germany"]}, "phone": "+494041450841", "display_phone": "+49 40 41450841", "distance": 4792.8955084973895}, {"id": "sJHyZAcqZ7M1Ffy2PEyxKA", "alias": "limerick-hamburg-2", "name": "Limerick", "image_url": "https://s3-media1.fl.yelpcdn.com/bphoto/I-nie7D9-Fxk3qtsA86EBA/o.jpg", "is_closed": false, "url": "https://www.yelp.com/biz/limerick-hamburg-2?adjust_creative=hBJOknVQJ58S5goQyjmwRw&utm_campaign=yelp_api_v3&utm_medium=api_v3_business_search&utm_source=hBJOknVQJ58S5goQyjmwRw", "review_count": 3, "categories": [{"alias": "international", "title": "International"}], "rating": 3.0, "coordinates": {"latitude": 53.52812, "longitude": 10.02182}, "transactions": [], "location": {"address1": "Hotel Gresham Carat", "address2": "Sieldeich 5 - 7", "address3": null, "city": "Hamburg", "zip_code": "20539", "country": "DE", "state": "HH", "display_address": ["Hotel Gresham Carat", "Sieldeich 5 - 7", "20539 Hamburg", "Germany"]}, "phone": "+4940789660", "display_phone": "+49 40 789660", "distance": 3311.1874254792697}, {"id": "WPiIa5Gb52GoC8GkrZ5PIA", "alias": "sala-thai-hamburg", "name": "Sala Thai", "image_url": "https://s3-media2.fl.yelpcdn.com/bphoto/G7IjuyKq9kDALfU5uBYueA/o.jpg", "is_closed": false, "url": "https://www.yelp.com/biz/sala-thai-hamburg?adjust_creative=hBJOknVQJ58S5goQyjmwRw&utm_campaign=yelp_api_v3&utm_medium=api_v3_business_search&utm_source=hBJOknVQJ58S5goQyjmwRw", "review_count": 77, "categories": [{"alias": "thai", "title": "Thai"}], "rating": 3.5, "coordinates": {"latitude": 53.5412255436235, "longitude": 9.99319486827117}, "transactions": [], "price": "\u20ac\u20ac\u20ac", "location": {"address1": "Am Kaiserkai 1", "address2": "", "address3": null, "city": "Hamburg", "zip_code": "20457", "country": "DE", "state": "HH", "display_address": ["Am Kaiserkai 1", "20457 Hamburg", "Germany"]}, "phone": "+4940323909", "display_phone": "+49 40 323909", "distance": 4385.8021267972745}, {"id": "qiZUn38af9PeS3si8Fvn5Q", "alias": "heimat-restaurant-hamburg-2", "name": "Heimat Restaurant", "image_url": "https://s3-media3.fl.yelpcdn.com/bphoto/6gnPM5IspaACiV_5unCUnA/o.jpg", "is_closed": false, "url": "https://www.yelp.com/biz/heimat-restaurant-hamburg-2?adjust_creative=hBJOknVQJ58S5goQyjmwRw&utm_campaign=yelp_api_v3&utm_medium=api_v3_business_search&utm_source=hBJOknVQJ58S5goQyjmwRw", "review_count": 1, "categories": [{"alias": "german", "title": "German"}], "rating": 2.0, "coordinates": {"latitude": 53.54143, "longitude": 9.99893}, "transactions": [], "location": {"address1": "\u00dcberseeallee 5", "address2": "", "address3": null, "city": "Hamburg", "zip_code": "20457", "country": "DE", "state": "HH", "display_address": ["\u00dcberseeallee 5", "20457 Hamburg", "Germany"]}, "phone": "+4940257777840", "display_phone": "+49 40 257777840", "distance": 4403.686190592011}, {"id": "eiiSy1-2zbpcdvMmHzMtzg", "alias": "kotan-imbis-hamburg-3", "name": "Kotan \u0130mbis", "image_url": "https://s3-media2.fl.yelpcdn.com/bphoto/0MMBhvtM7pmASgdkjQzL0A/o.jpg", "is_closed": false, "url": "https://www.yelp.com/biz/kotan-imbis-hamburg-3?adjust_creative=hBJOknVQJ58S5goQyjmwRw&utm_campaign=yelp_api_v3&utm_medium=api_v3_business_search&utm_source=hBJOknVQJ58S5goQyjmwRw", "review_count": 1, "categories": [{"alias": "hotdogs", "title": "Fast Food"}], "rating": 5.0, "coordinates": {"latitude": 53.525, "longitude": 10.0208}, "transactions": [], "location": {"address1": "Veddeler Br\u00fcckenstr. 69", "address2": null, "address3": null, "city": "Hamburg", "zip_code": "20539", "country": "DE", "state": "HH", "display_address": ["Veddeler Br\u00fcckenstr. 69", "20539 Hamburg", "Germany"]}, "phone": "", "display_phone": "", "distance": 3008.536163951152}, {"id": "J4PDMBd_zrm2T-ygf5dq2A", "alias": "di-candele-hamburg-2", "name": "Di Candele", "image_url": "https://s3-media2.fl.yelpcdn.com/bphoto/sixzZ-99rw-NBfoM865qqg/o.jpg", "is_closed": false, "url": "https://www.yelp.com/biz/di-candele-hamburg-2?adjust_creative=hBJOknVQJ58S5goQyjmwRw&utm_campaign=yelp_api_v3&utm_medium=api_v3_business_search&utm_source=hBJOknVQJ58S5goQyjmwRw", "review_count": 31, "categories": [{"alias": "italian", "title": "Italian"}, {"alias": "pizza", "title": "Pizza"}], "rating": 4.0, "coordinates": {"latitude": 53.4634, "longitude": 9.98117}, "transactions": [], "price": "\u20ac\u20ac", "location": {"address1": "Kleine Gasse 6", "address2": null, "address3": null, "city": "Hamburg", "zip_code": "21073", "country": "DE", "state": "HH", "display_address": ["Kleine Gasse 6", "21073 Hamburg", "Germany"]}, "phone": "+494069647790", "display_phone": "+49 40 69647790", "distance": 4406.205619999067}, {"id": "0ctlczN1ARO0HjF1xO3JVg", "alias": "gasthaus-heimathafen-hamburg", "name": "Gasthaus Heimathafen", "image_url": "https://s3-media2.fl.yelpcdn.com/bphoto/vfCH0cmoWVkfQ4o9jg2S0Q/o.jpg", "is_closed": false, "url": "https://www.yelp.com/biz/gasthaus-heimathafen-hamburg?adjust_creative=hBJOknVQJ58S5goQyjmwRw&utm_campaign=yelp_api_v3&utm_medium=api_v3_business_search&utm_source=hBJOknVQJ58S5goQyjmwRw", "review_count": 30, "categories": [{"alias": "cocktailbars", "title": "Cocktail Bars"}, {"alias": "northerngerman", "title": "Northern German"}], "rating": 3.5, "coordinates": {"latitude": 53.5445276868839, "longitude": 9.98240411281586}, "transactions": [], "price": "\u20ac\u20ac", "location": {"address1": "Baumwall 7", "address2": "", "address3": "", "city": "Hamburg", "zip_code": "20459", "country": "DE", "state": "HH", "display_address": ["Baumwall 7", "20459 Hamburg", "Germany"]}, "phone": "+494037503730", "display_phone": "+49 40 37503730", "distance": 4845.037454570511}, {"id": "BownMhxWBdMjS-dCtx04Pw", "alias": "ciao-mamma-hamburg-2", "name": "Ciao Mamma!", "image_url": "https://s3-media2.fl.yelpcdn.com/bphoto/0fq62k9kQiRUNSTc8gn2dQ/o.jpg", "is_closed": false, "url": "https://www.yelp.com/biz/ciao-mamma-hamburg-2?adjust_creative=hBJOknVQJ58S5goQyjmwRw&utm_campaign=yelp_api_v3&utm_medium=api_v3_business_search&utm_source=hBJOknVQJ58S5goQyjmwRw", "review_count": 31, "categories": [{"alias": "italian", "title": "Italian"}], "rating": 3.5, "coordinates": {"latitude": 53.543201, "longitude": 9.986796}, "transactions": [], "price": "\u20ac\u20ac", "location": {"address1": "Am Sandtorkai 38-40", "address2": "", "address3": "", "city": "Hamburg", "zip_code": "20457", "country": "DE", "state": "HH", "display_address": ["Am Sandtorkai 38-40", "20457 Hamburg", "Germany"]}, "phone": "+494032513764", "display_phone": "+49 40 32513764", "distance": 4644.848558502509}, {"id": "ddKdcdS5gQ1ctU_K_i2HTA", "alias": "maredo-hamburg-4", "name": "Maredo", "image_url": "https://s3-media4.fl.yelpcdn.com/bphoto/O47iavZYOu141DTLWekiQw/o.jpg", "is_closed": false, "url": "https://www.yelp.com/biz/maredo-hamburg-4?adjust_creative=hBJOknVQJ58S5goQyjmwRw&utm_campaign=yelp_api_v3&utm_medium=api_v3_business_search&utm_source=hBJOknVQJ58S5goQyjmwRw", "review_count": 55, "categories": [{"alias": "steak", "title": "Steakhouses"}], "rating": 3.5, "coordinates": {"latitude": 53.5424584403399, "longitude": 9.99466936137192}, "transactions": [], "price": "\u20ac\u20ac", "location": {"address1": "Am Sandtorpark 4", "address2": "", "address3": "", "city": "Hamburg", "zip_code": "20457", "country": "DE", "state": "HH", "display_address": ["Am Sandtorpark 4", "20457 Hamburg", "Germany"]}, "phone": "+494022601528", "display_phone": "+49 40 22601528", "distance": 4517.94417129475}, {"id": "ZYzMjE-TO_m3pcbC3gVFSg", "alias": "a-la-fisch-hamburg", "name": "A la Fisch", "image_url": "https://s3-media2.fl.yelpcdn.com/bphoto/2RulBT1N6hZwxnQiXt_w4A/o.jpg", "is_closed": false, "url": "https://www.yelp.com/biz/a-la-fisch-hamburg?adjust_creative=hBJOknVQJ58S5goQyjmwRw&utm_campaign=yelp_api_v3&utm_medium=api_v3_business_search&utm_source=hBJOknVQJ58S5goQyjmwRw", "review_count": 1, "categories": [{"alias": "seafood", "title": "Seafood"}], "rating": 3.0, "coordinates": {"latitude": 53.46314, "longitude": 9.98105}, "transactions": [], "location": {"address1": "Kleine Gasse 2", "address2": "", "address3": null, "city": "Hamburg", "zip_code": "21073", "country": "DE", "state": "HH", "display_address": ["Kleine Gasse 2", "21073 Hamburg", "Germany"]}, "phone": "+494036911551", "display_phone": "+49 40 36911551", "distance": 4439.40173180529}, {"id": "dzh-C65f2F1ACj7kQjTzAw", "alias": "kaiser-perle-hamburg", "name": "Kaiser Perle", "image_url": "https://s3-media2.fl.yelpcdn.com/bphoto/Enyuk6ds6ynu0ff24H-aWg/o.jpg", "is_closed": false, "url": "https://www.yelp.com/biz/kaiser-perle-hamburg?adjust_creative=hBJOknVQJ58S5goQyjmwRw&utm_campaign=yelp_api_v3&utm_medium=api_v3_business_search&utm_source=hBJOknVQJ58S5goQyjmwRw", "review_count": 37, "categories": [{"alias": "bistros", "title": "Bistros"}, {"alias": "cafes", "title": "Cafes"}, {"alias": "seafood", "title": "Seafood"}], "rating": 4.0, "coordinates": {"latitude": 53.54095, "longitude": 9.9879}, "transactions": [], "price": "\u20ac\u20ac", "location": {"address1": "Am Kaiserkai 47", "address2": null, "address3": null, "city": "Hamburg", "zip_code": "20457", "country": "DE", "state": "HH", "display_address": ["Am Kaiserkai 47", "20457 Hamburg", "Germany"]}, "phone": "+494022601572", "display_phone": "+49 40 22601572", "distance": 4420.473317369152}, {"id": "rWLMSvU75oNyUAq9aR2I1g", "alias": "harburger-stube-hamburg", "name": "Harburger Stube", "image_url": "https://s3-media4.fl.yelpcdn.com/bphoto/VNW1bxRoxBTqRDw3DPOptw/o.jpg", "is_closed": false, "url": "https://www.yelp.com/biz/harburger-stube-hamburg?adjust_creative=hBJOknVQJ58S5goQyjmwRw&utm_campaign=yelp_api_v3&utm_medium=api_v3_business_search&utm_source=hBJOknVQJ58S5goQyjmwRw", "review_count": 3, "categories": [{"alias": "german", "title": "German"}], "rating": 3.5, "coordinates": {"latitude": 53.46079, "longitude": 9.98138}, "transactions": [], "location": {"address1": "Harburger Ring 20", "address2": null, "address3": null, "city": "Hamburg", "zip_code": "21073", "country": "DE", "state": "HH", "display_address": ["Harburger Ring 20", "21073 Hamburg", "Germany"]}, "phone": "+494076621606", "display_phone": "+49 40 76621606", "distance": 4689.12652903807}, {"id": "5FEovvh1FpVlKsafCYE6Yw", "alias": "louis-hamburg-7", "name": "LOUIS", "image_url": "https://s3-media1.fl.yelpcdn.com/bphoto/cNYKPCHSV9ZiJ24pK8LCxA/o.jpg", "is_closed": false, "url": "https://www.yelp.com/biz/louis-hamburg-7?adjust_creative=hBJOknVQJ58S5goQyjmwRw&utm_campaign=yelp_api_v3&utm_medium=api_v3_business_search&utm_source=hBJOknVQJ58S5goQyjmwRw", "review_count": 2, "categories": [{"alias": "popuprestaurants", "title": "Pop-Up Restaurants"}], "rating": 3.0, "coordinates": {"latitude": 53.5410899, "longitude": 9.98586}, "transactions": [], "location": {"address1": "Am Kaiserkai 69", "address2": "", "address3": null, "city": "Hamburg", "zip_code": "20457", "country": "DE", "state": "HH", "display_address": ["Am Kaiserkai 69", "20457 Hamburg", "Germany"]}, "phone": "+494082255128", "display_phone": "+49 40 82255128", "distance": 4418.725786765525}, {"id": "2PA9Iq2hPmGYsO7cu6cZMQ", "alias": "the-greek-hamburg", "name": "The Greek", "image_url": "https://s3-media3.fl.yelpcdn.com/bphoto/2U08GBQsQ30K-xsdmFaQpw/o.jpg", "is_closed": false, "url": "https://www.yelp.com/biz/the-greek-hamburg?adjust_creative=hBJOknVQJ58S5goQyjmwRw&utm_campaign=yelp_api_v3&utm_medium=api_v3_business_search&utm_source=hBJOknVQJ58S5goQyjmwRw", "review_count": 12, "categories": [{"alias": "greek", "title": "Greek"}], "rating": 3.5, "coordinates": {"latitude": 53.54465, "longitude": 9.97603}, "transactions": [], "price": "\u20ac\u20ac\u20ac", "location": {"address1": "Vorsetzen 53", "address2": "", "address3": null, "city": "Hamburg", "zip_code": "20459", "country": "DE", "state": "HH", "display_address": ["Vorsetzen 53", "20459 Hamburg", "Germany"]}, "phone": "+494031807370", "display_phone": "+49 40 31807370", "distance": 4971.39608001506}, {"id": "gctmNj9kDBcvTq5MyyyfRw", "alias": "pasta-pasta-hamburg", "name": "Pasta Pasta", "image_url": "https://s3-media4.fl.yelpcdn.com/bphoto/BKvHKpqc1tFf5C78OEwVCg/o.jpg", "is_closed": false, "url": "https://www.yelp.com/biz/pasta-pasta-hamburg?adjust_creative=hBJOknVQJ58S5goQyjmwRw&utm_campaign=yelp_api_v3&utm_medium=api_v3_business_search&utm_source=hBJOknVQJ58S5goQyjmwRw", "review_count": 22, "categories": [{"alias": "italian", "title": "Italian"}, {"alias": "salad", "title": "Salad"}, {"alias": "pizza", "title": "Pizza"}], "rating": 3.0, "coordinates": {"latitude": 53.5410603490672, "longitude": 9.99126967858273}, "transactions": [], "price": "\u20ac\u20ac", "location": {"address1": "Am Kaiserkai 19", "address2": "", "address3": "", "city": "Hamburg", "zip_code": "20457", "country": "DE", "state": "HH", "display_address": ["Am Kaiserkai 19", "20457 Hamburg", "Germany"]}, "phone": "+494018109930", "display_phone": "+49 40 18109930", "distance": 4377.087349523785}, {"id": "gyezVlqRrOVwzDiFzbpP6A", "alias": "mcdonalds-hamburg-35", "name": "McDonald's", "image_url": "https://s3-media1.fl.yelpcdn.com/bphoto/tB3bG0dIoyfIJ-wA8Zz2mg/o.jpg", "is_closed": false, "url": "https://www.yelp.com/biz/mcdonalds-hamburg-35?adjust_creative=hBJOknVQJ58S5goQyjmwRw&utm_campaign=yelp_api_v3&utm_medium=api_v3_business_search&utm_source=hBJOknVQJ58S5goQyjmwRw", "review_count": 11, "categories": [{"alias": "hotdogs", "title": "Fast Food"}, {"alias": "burgers", "title": "Burgers"}], "rating": 2.0, "coordinates": {"latitude": 53.4996933, "longitude": 9.9996645}, "transactions": [], "price": "\u20ac", "location": {"address1": "Dratelnstr. 31", "address2": "", "address3": null, "city": "Hamburg", "zip_code": "21109", "country": "DE", "state": "HH", "display_address": ["Dratelnstr. 31", "21109 Hamburg", "Germany"]}, "phone": "+494068873372", "display_phone": "+49 40 68873372", "distance": 290.51052592599325}, {"id": "G_bKcShBqhkMyTjZAALNLg", "alias": "mensa-hcu-hamburg", "name": "Mensa HCU", "image_url": "https://s3-media4.fl.yelpcdn.com/bphoto/Zug2F4de_gaB3NAj4RuHWw/o.jpg", "is_closed": false, "url": "https://www.yelp.com/biz/mensa-hcu-hamburg?adjust_creative=hBJOknVQJ58S5goQyjmwRw&utm_campaign=yelp_api_v3&utm_medium=api_v3_business_search&utm_source=hBJOknVQJ58S5goQyjmwRw", "review_count": 1, "categories": [{"alias": "canteen", "title": "Canteen"}], "rating": 4.0, "coordinates": {"latitude": 53.540228, "longitude": 10.005366}, "transactions": [], "location": {"address1": "\u00dcberseeallee 16", "address2": "", "address3": "", "city": "Hamburg", "zip_code": "20457", "country": "DE", "state": "HH", "display_address": ["\u00dcberseeallee 16", "20457 Hamburg", "Germany"]}, "phone": "+494028472722", "display_phone": "+49 40 28472722", "distance": 4300.510263760145}, {"id": "dijCqK6CmPhlUPC17sKHgg", "alias": "me-like-falafel-hamburg", "name": "Me Like Falafel", "image_url": "", "is_closed": false, "url": "https://www.yelp.com/biz/me-like-falafel-hamburg?adjust_creative=hBJOknVQJ58S5goQyjmwRw&utm_campaign=yelp_api_v3&utm_medium=api_v3_business_search&utm_source=hBJOknVQJ58S5goQyjmwRw", "review_count": 1, "categories": [{"alias": "arabian", "title": "Arabian"}, {"alias": "falafel", "title": "Falafel"}], "rating": 4.0, "coordinates": {"latitude": 53.50535, "longitude": 9.9862}, "transactions": [], "location": {"address1": "Veringstr. 156 a", "address2": "", "address3": "", "city": "Hamburg", "zip_code": "21107", "country": "DE", "state": "HH", "display_address": ["Veringstr. 156 a", "21107 Hamburg", "Germany"]}, "phone": "+494074128730", "display_phone": "+49 40 74128730", "distance": 819.2288572519534}, {"id": "xmU6uVUEbYDgtmppRidtYg", "alias": "zur-b\u00fcrste-hamburg", "name": "Zur B\u00fcrste", "image_url": "", "is_closed": false, "url": "https://www.yelp.com/biz/zur-b%C3%BCrste-hamburg?adjust_creative=hBJOknVQJ58S5goQyjmwRw&utm_campaign=yelp_api_v3&utm_medium=api_v3_business_search&utm_source=hBJOknVQJ58S5goQyjmwRw", "review_count": 1, "categories": [{"alias": "german", "title": "German"}, {"alias": "burgers", "title": "Burgers"}], "rating": 4.0, "coordinates": {"latitude": 53.4869, "longitude": 9.99042}, "transactions": [], "location": {"address1": "Pollhornbogen 2", "address2": null, "address3": null, "city": "Hamburg", "zip_code": "21107", "country": "DE", "state": "HH", "display_address": ["Pollhornbogen 2", "21107 Hamburg", "Germany"]}, "phone": "+494032840887", "display_phone": "+49 40 32840887", "distance": 1722.9987609995492}, {"id": "lH8Ymod4RdsXjlYX6UpcLQ", "alias": "wandrahm-hamburg", "name": "Wandrahm", "image_url": "https://s3-media3.fl.yelpcdn.com/bphoto/Tic9jaa_TKTTwKcY5ejvyA/o.jpg", "is_closed": false, "url": "https://www.yelp.com/biz/wandrahm-hamburg?adjust_creative=hBJOknVQJ58S5goQyjmwRw&utm_campaign=yelp_api_v3&utm_medium=api_v3_business_search&utm_source=hBJOknVQJ58S5goQyjmwRw", "review_count": 64, "categories": [{"alias": "german", "title": "German"}], "rating": 3.5, "coordinates": {"latitude": 53.54151, "longitude": 9.99151}, "transactions": [], "price": "\u20ac\u20ac\u20ac", "location": {"address1": "Am Kaiserkai 13", "address2": null, "address3": null, "city": "Hamburg", "zip_code": "20457", "country": "DE", "state": "HH", "display_address": ["Am Kaiserkai 13", "20457 Hamburg", "Germany"]}, "phone": "+494031812200", "display_phone": "+49 40 31812200", "distance": 4427.832037247942}, {"id": "15RG_V8ydT4v-Dq62f71-Q", "alias": "h\u00fcnkar-hamburg", "name": "H\u00fcnkar", "image_url": "https://s3-media1.fl.yelpcdn.com/bphoto/WnJuaGEug87V99nYZ4f47w/o.jpg", "is_closed": false, "url": "https://www.yelp.com/biz/h%C3%BCnkar-hamburg?adjust_creative=hBJOknVQJ58S5goQyjmwRw&utm_campaign=yelp_api_v3&utm_medium=api_v3_business_search&utm_source=hBJOknVQJ58S5goQyjmwRw", "review_count": 47, "categories": [{"alias": "turkish", "title": "Turkish"}, {"alias": "kebab", "title": "Kebab"}], "rating": 4.0, "coordinates": {"latitude": 53.46081, "longitude": 9.98318}, "transactions": [], "price": "\u20ac\u20ac", "location": {"address1": "Schlossm\u00fchlendamm 14", "address2": null, "address3": null, "city": "Hamburg", "zip_code": "21073", "country": "DE", "state": "HH", "display_address": ["Schlossm\u00fchlendamm 14", "21073 Hamburg", "Germany"]}, "phone": "+49407658203", "display_phone": "+49 40 7658203", "distance": 4657.857724608482}, {"id": "heVmE06Lcd3KKrlHVNZYSA", "alias": "skyline-restaurant-hamburg", "name": "Skyline Restaurant", "image_url": "https://s3-media3.fl.yelpcdn.com/bphoto/m2mkD39XNTrsOhpcdcU-AQ/o.jpg", "is_closed": false, "url": "https://www.yelp.com/biz/skyline-restaurant-hamburg?adjust_creative=hBJOknVQJ58S5goQyjmwRw&utm_campaign=yelp_api_v3&utm_medium=api_v3_business_search&utm_source=hBJOknVQJ58S5goQyjmwRw", "review_count": 8, "categories": [{"alias": "international", "title": "International"}], "rating": 3.0, "coordinates": {"latitude": 53.5394, "longitude": 9.97327}, "transactions": [], "price": "\u20ac\u20ac", "location": {"address1": "K\u00f6nig der L\u00f6wen Musical B\u00fchne", "address2": "Norderelbstr. 6", "address3": null, "city": "Hamburg", "zip_code": "20457", "country": "DE", "state": "HH", "display_address": ["K\u00f6nig der L\u00f6wen Musical B\u00fchne", "Norderelbstr. 6", "20457 Hamburg", "Germany"]}, "phone": "+4940431794612", "display_phone": "+49 40 431794612", "distance": 4465.116421074053}, {"id": "lI3WCd2uVB1Bgoy_Gu4fxQ", "alias": "dubara-hamburg-2", "name": "Dubara", "image_url": "https://s3-media3.fl.yelpcdn.com/bphoto/EJvCso5qM_sbWwzkdYxN0Q/o.jpg", "is_closed": false, "url": "https://www.yelp.com/biz/dubara-hamburg-2?adjust_creative=hBJOknVQJ58S5goQyjmwRw&utm_campaign=yelp_api_v3&utm_medium=api_v3_business_search&utm_source=hBJOknVQJ58S5goQyjmwRw", "review_count": 18, "categories": [{"alias": "hotdogs", "title": "Fast Food"}], "rating": 4.0, "coordinates": {"latitude": 53.46096, "longitude": 9.98246}, "transactions": [], "price": "\u20ac", "location": {"address1": "Schlo\u00dfm\u00fchlendamm 2", "address2": "", "address3": "", "city": "Hamburg", "zip_code": "21073", "country": "DE", "state": "HH", "display_address": ["Schlo\u00dfm\u00fchlendamm 2", "21073 Hamburg", "Germany"]}, "phone": "", "display_phone": "", "distance": 4632.599198120662}, {"id": "6KSU6b22N9H9HKQC8ZuIGQ", "alias": "maigl\u00fcckchen-hamburg", "name": "Maigl\u00fcckchen", "image_url": "https://s3-media3.fl.yelpcdn.com/bphoto/9-zy6yryZ8xKB4M5hoSm2w/o.jpg", "is_closed": false, "url": "https://www.yelp.com/biz/maigl%C3%BCckchen-hamburg?adjust_creative=hBJOknVQJ58S5goQyjmwRw&utm_campaign=yelp_api_v3&utm_medium=api_v3_business_search&utm_source=hBJOknVQJ58S5goQyjmwRw", "review_count": 33, "categories": [{"alias": "chinese", "title": "Chinese"}, {"alias": "sushi", "title": "Sushi Bars"}, {"alias": "panasian", "title": "Pan Asian"}], "rating": 3.5, "coordinates": {"latitude": 53.5421240249254, "longitude": 9.99419778585434}, "transactions": [], "price": "\u20ac\u20ac", "location": {"address1": "Gro\u00dfer Grasbrook 9", "address2": "", "address3": "", "city": "Hamburg", "zip_code": "20457", "country": "DE", "state": "HH", "display_address": ["Gro\u00dfer Grasbrook 9", "20457 Hamburg", "Germany"]}, "phone": "+494050031288", "display_phone": "+49 40 50031288", "distance": 4482.07191935397}, {"id": "kVRS_McR3zw0Ql4wcQIqfQ", "alias": "mimi-kirchner-hamburg", "name": "Mimi Kirchner", "image_url": "https://s3-media2.fl.yelpcdn.com/bphoto/rxzQzyJMhYCV6ClvliphVQ/o.jpg", "is_closed": false, "url": "https://www.yelp.com/biz/mimi-kirchner-hamburg?adjust_creative=hBJOknVQJ58S5goQyjmwRw&utm_campaign=yelp_api_v3&utm_medium=api_v3_business_search&utm_source=hBJOknVQJ58S5goQyjmwRw", "review_count": 15, "categories": [{"alias": "delicatessen", "title": "Delicatessen"}, {"alias": "seafood", "title": "Seafood"}], "rating": 4.0, "coordinates": {"latitude": 53.46112, "longitude": 9.98021}, "transactions": [], "price": "\u20ac\u20ac", "location": {"address1": "Sand 25", "address2": null, "address3": null, "city": "Hamburg", "zip_code": "21073", "country": "DE", "state": "HH", "display_address": ["Sand 25", "21073 Hamburg", "Germany"]}, "phone": "+4940773263", "display_phone": "+49 40 773263", "distance": 4669.036331384462}, {"id": "IXtkTDyPslFKFzjZouTG1Q", "alias": "eat-brazil-hamburg", "name": "EAT Brazil", "image_url": "https://s3-media2.fl.yelpcdn.com/bphoto/99loJJz5AmyQlu4TwJ0CmA/o.jpg", "is_closed": false, "url": "https://www.yelp.com/biz/eat-brazil-hamburg?adjust_creative=hBJOknVQJ58S5goQyjmwRw&utm_campaign=yelp_api_v3&utm_medium=api_v3_business_search&utm_source=hBJOknVQJ58S5goQyjmwRw", "review_count": 1, "categories": [{"alias": "brazilian", "title": "Brazilian"}, {"alias": "cafes", "title": "Cafes"}], "rating": 2.0, "coordinates": {"latitude": 53.5398, "longitude": 10.01088}, "transactions": [], "location": {"address1": "Versmannstr. 24", "address2": "", "address3": null, "city": "Hamburg", "zip_code": "20457", "country": "DE", "state": "HH", "display_address": ["Versmannstr. 24", "20457 Hamburg", "Germany"]}, "phone": "+491719544987", "display_phone": "+49 171 9544987", "distance": 4319.885334352682}, {"id": "cSI2UCecXVP1wVbIMYc8yg", "alias": "cucina-italiana-hamburg", "name": "Cucina Italiana", "image_url": "https://s3-media3.fl.yelpcdn.com/bphoto/y8gSQphdpgQGxItiBHm3-A/o.jpg", "is_closed": false, "url": "https://www.yelp.com/biz/cucina-italiana-hamburg?adjust_creative=hBJOknVQJ58S5goQyjmwRw&utm_campaign=yelp_api_v3&utm_medium=api_v3_business_search&utm_source=hBJOknVQJ58S5goQyjmwRw", "review_count": 1, "categories": [{"alias": "italian", "title": "Italian"}], "rating": 4.0, "coordinates": {"latitude": 53.5433779712506, "longitude": 9.99295292299335}, "transactions": [], "price": "\u20ac\u20ac", "location": {"address1": "Am Sandtorkai 23", "address2": "", "address3": "", "city": "Hamburg", "zip_code": "20457", "country": "DE", "state": "HH", "display_address": ["Am Sandtorkai 23", "20457 Hamburg", "Germany"]}, "phone": "", "display_phone": "", "distance": 4625.6704039230435}, {"id": "p76Svbc_v51GIchEWfqz_Q", "alias": "lieblingsplatz-hamburg-2", "name": "Lieblingsplatz", "image_url": "https://s3-media2.fl.yelpcdn.com/bphoto/5JxAm_VBYQXVjWHHzdIC8w/o.jpg", "is_closed": false, "url": "https://www.yelp.com/biz/lieblingsplatz-hamburg-2?adjust_creative=hBJOknVQJ58S5goQyjmwRw&utm_campaign=yelp_api_v3&utm_medium=api_v3_business_search&utm_source=hBJOknVQJ58S5goQyjmwRw", "review_count": 84, "categories": [{"alias": "coffee", "title": "Coffee & Tea"}, {"alias": "breakfast_brunch", "title": "Breakfast & Brunch"}, {"alias": "bistros", "title": "Bistros"}], "rating": 4.0, "coordinates": {"latitude": 53.5428799, "longitude": 9.99828}, "transactions": [], "price": "\u20ac\u20ac", "location": {"address1": "Osakaallee 8", "address2": "", "address3": "", "city": "Hamburg", "zip_code": "20457", "country": "DE", "state": "HH", "display_address": ["Osakaallee 8", "20457 Hamburg", "Germany"]}, "phone": "+494030085788", "display_phone": "+49 40 30085788", "distance": 4564.305250194518}, {"id": "zLWXj2mdGALwr_sXD893Qw", "alias": "momo-hamburg", "name": "momo", "image_url": "https://s3-media3.fl.yelpcdn.com/bphoto/BKiTnL8_zBIVweja8GTfQQ/o.jpg", "is_closed": false, "url": "https://www.yelp.com/biz/momo-hamburg?adjust_creative=hBJOknVQJ58S5goQyjmwRw&utm_campaign=yelp_api_v3&utm_medium=api_v3_business_search&utm_source=hBJOknVQJ58S5goQyjmwRw", "review_count": 4, "categories": [{"alias": "panasian", "title": "Pan Asian"}], "rating": 3.0, "coordinates": {"latitude": 53.54356, "longitude": 9.99312}, "transactions": [], "price": "\u20ac", "location": {"address1": "Am Sandtorkai 23", "address2": "", "address3": "", "city": "Hamburg", "zip_code": "20457", "country": "DE", "state": "HH", "display_address": ["Am Sandtorkai 23", "20457 Hamburg", "Germany"]}, "phone": "", "display_phone": "", "distance": 4645.2281532385205}, {"id": "uTckTjCn1s5a_bMEKwD-Ug", "alias": "strickers-kehr-wieder-spitze-hamburg", "name": "Stricker's Kehr Wieder Spitze", "image_url": "https://s3-media2.fl.yelpcdn.com/bphoto/wtF6-dAg8ucD65ViB9_uCw/o.jpg", "is_closed": false, "url": "https://www.yelp.com/biz/strickers-kehr-wieder-spitze-hamburg?adjust_creative=hBJOknVQJ58S5goQyjmwRw&utm_campaign=yelp_api_v3&utm_medium=api_v3_business_search&utm_source=hBJOknVQJ58S5goQyjmwRw", "review_count": 29, "categories": [{"alias": "german", "title": "German"}, {"alias": "cafes", "title": "Cafes"}, {"alias": "international", "title": "International"}], "rating": 4.0, "coordinates": {"latitude": 53.54229, "longitude": 9.98272}, "transactions": [], "price": "\u20ac\u20ac\u20ac", "location": {"address1": "Am Sandtorkai 77", "address2": "", "address3": "", "city": "Hamburg", "zip_code": "20457", "country": "DE", "state": "HH", "display_address": ["Am Sandtorkai 77", "20457 Hamburg", "Germany"]}, "phone": "+494051903061", "display_phone": "+49 40 51903061", "distance": 4594.127171333531}, {"id": "yhosiYiOI9xISvFwMonfjg", "alias": "schmidtchen-wilhelmsburg-hamburg-2", "name": "Schmidtchen Wilhelmsburg", "image_url": "https://s3-media4.fl.yelpcdn.com/bphoto/QdWRGyl-DTEv66POc_UXBw/o.jpg", "is_closed": false, "url": "https://www.yelp.com/biz/schmidtchen-wilhelmsburg-hamburg-2?adjust_creative=hBJOknVQJ58S5goQyjmwRw&utm_campaign=yelp_api_v3&utm_medium=api_v3_business_search&utm_source=hBJOknVQJ58S5goQyjmwRw", "review_count": 2, "categories": [{"alias": "cafes", "title": "Cafes"}, {"alias": "bakeries", "title": "Bakeries"}, {"alias": "breakfast_brunch", "title": "Breakfast & Brunch"}], "rating": 2.5, "coordinates": {"latitude": 53.49538, "longitude": 9.99518}, "transactions": [], "location": {"address1": "Kurdamm 24", "address2": "", "address3": "Wasserwerk", "city": "Hamburg", "zip_code": "21107", "country": "DE", "state": "HH", "display_address": ["Kurdamm 24", "Wasserwerk", "21107 Hamburg", "Germany"]}, "phone": "+494041926042", "display_phone": "+49 40 41926042", "distance": 714.3597081684521}, {"id": "Nu_jP17T-c_gSG-zV7lhQQ", "alias": "strauchs-falco-hamburg", "name": "Strauchs Falco", "image_url": "https://s3-media1.fl.yelpcdn.com/bphoto/K6tnNATGqezXEEI74ZyNKA/o.jpg", "is_closed": false, "url": "https://www.yelp.com/biz/strauchs-falco-hamburg?adjust_creative=hBJOknVQJ58S5goQyjmwRw&utm_campaign=yelp_api_v3&utm_medium=api_v3_business_search&utm_source=hBJOknVQJ58S5goQyjmwRw", "review_count": 23, "categories": [{"alias": "northerngerman", "title": "Northern German"}, {"alias": "mediterranean", "title": "Mediterranean"}], "rating": 3.5, "coordinates": {"latitude": 53.5429387276499, "longitude": 10.0003442924706}, "transactions": [], "price": "\u20ac\u20ac\u20ac", "location": {"address1": "Koreastr. 2", "address2": "", "address3": "", "city": "Hamburg", "zip_code": "20354", "country": "DE", "state": "HH", "display_address": ["Koreastr. 2", "20354 Hamburg", "Germany"]}, "phone": "+4940226161511", "display_phone": "+49 40 226161511", "distance": 4572.806357410326}, {"id": "aUpUwcXH49H6mXw1kuMw9Q", "alias": "hamburg-im-s\u00fcden-hamburg", "name": "Hamburg im S\u00fcden", "image_url": "https://s3-media3.fl.yelpcdn.com/bphoto/_jWfnDmeoM090OwKGsO4ZA/o.jpg", "is_closed": false, "url": "https://www.yelp.com/biz/hamburg-im-s%C3%BCden-hamburg?adjust_creative=hBJOknVQJ58S5goQyjmwRw&utm_campaign=yelp_api_v3&utm_medium=api_v3_business_search&utm_source=hBJOknVQJ58S5goQyjmwRw", "review_count": 12, "categories": [{"alias": "wine_bars", "title": "Wine Bars"}, {"alias": "tapas", "title": "Tapas Bars"}, {"alias": "seafood", "title": "Seafood"}], "rating": 4.0, "coordinates": {"latitude": 53.5429832312882, "longitude": 10.0004207404741}, "transactions": [], "price": "\u20ac\u20ac\u20ac", "location": {"address1": "Koreastr. 2", "address2": "", "address3": "", "city": "Hamburg", "zip_code": "20354", "country": "DE", "state": "HH", "display_address": ["Koreastr. 2", "20354 Hamburg", "Germany"]}, "phone": "+4940226161511", "display_phone": "+49 40 226161511", "distance": 4577.9798767754255}, {"id": "stc7YthQ_jis4ZAxtKCOew", "alias": "dubrovnik-kupferkanne-hamburg-2", "name": "Dubrovnik - Kupferkanne", "image_url": "https://s3-media2.fl.yelpcdn.com/bphoto/_N1rRn8pgKtVxvTtsNMiIg/o.jpg", "is_closed": false, "url": "https://www.yelp.com/biz/dubrovnik-kupferkanne-hamburg-2?adjust_creative=hBJOknVQJ58S5goQyjmwRw&utm_campaign=yelp_api_v3&utm_medium=api_v3_business_search&utm_source=hBJOknVQJ58S5goQyjmwRw", "review_count": 11, "categories": [{"alias": "serbocroatian", "title": "Serbo Croatian"}], "rating": 4.0, "coordinates": {"latitude": 53.46032, "longitude": 9.97982}, "transactions": [], "price": "\u20ac\u20ac", "location": {"address1": "Julius-Ludowieg-Str. 8", "address2": null, "address3": null, "city": "Hamburg", "zip_code": "21073", "country": "DE", "state": "HH", "display_address": ["Julius-Ludowieg-Str. 8", "21073 Hamburg", "Germany"]}, "phone": "+494076755115", "display_phone": "+49 40 76755115", "distance": 4760.131609174846}, {"id": "8giRBBJSnmq09hRMN1l38g", "alias": "kaisers-hamburg", "name": "Kaisers", "image_url": "https://s3-media3.fl.yelpcdn.com/bphoto/k_2_ys9C7M_mlJ37GWBKrw/o.jpg", "is_closed": false, "url": "https://www.yelp.com/biz/kaisers-hamburg?adjust_creative=hBJOknVQJ58S5goQyjmwRw&utm_campaign=yelp_api_v3&utm_medium=api_v3_business_search&utm_source=hBJOknVQJ58S5goQyjmwRw", "review_count": 116, "categories": [{"alias": "bars", "title": "Bars"}, {"alias": "german", "title": "German"}], "rating": 3.5, "coordinates": {"latitude": 53.54143, "longitude": 9.9899}, "transactions": [], "price": "\u20ac\u20ac", "location": {"address1": "Am Kaiserkai 23", "address2": null, "address3": null, "city": "Hamburg", "zip_code": "20457", "country": "DE", "state": "HH", "display_address": ["Am Kaiserkai 23", "20457 Hamburg", "Germany"]}, "phone": "+494036091790", "display_phone": "+49 40 36091790", "distance": 4395.207574771093}, {"id": "fnsDGlsWpmNG8DOR1qiKsw", "alias": "j-r-tolkien-hamburg", "name": "J.R. Tolkien", "image_url": "https://s3-media3.fl.yelpcdn.com/bphoto/35L3oH0u5U_cKIqLxEz0Ug/o.jpg", "is_closed": false, "url": "https://www.yelp.com/biz/j-r-tolkien-hamburg?adjust_creative=hBJOknVQJ58S5goQyjmwRw&utm_campaign=yelp_api_v3&utm_medium=api_v3_business_search&utm_source=hBJOknVQJ58S5goQyjmwRw", "review_count": 3, "categories": [{"alias": "landmarks", "title": "Landmarks & Historical Buildings"}, {"alias": "cafes", "title": "Cafes"}, {"alias": "tours", "title": "Tours"}], "rating": 4.5, "coordinates": {"latitude": 53.5423, "longitude": 9.9876}, "transactions": [], "price": "\u20ac", "location": {"address1": "Am Sandtorkai 66", "address2": "", "address3": null, "city": "Hamburg", "zip_code": "20457", "country": "DE", "state": "HH", "display_address": ["Am Sandtorkai 66", "20457 Hamburg", "Germany"]}, "phone": "", "display_phone": "", "distance": 4541.998794721485}, {"id": "DjrUqDZfLxqlLjWNhp9_Tw", "alias": "komm-du-hamburg", "name": "Komm du", "image_url": "https://s3-media3.fl.yelpcdn.com/bphoto/ol-8ep-AUiWSI0v8rg8WFg/o.jpg", "is_closed": false, "url": "https://www.yelp.com/biz/komm-du-hamburg?adjust_creative=hBJOknVQJ58S5goQyjmwRw&utm_campaign=yelp_api_v3&utm_medium=api_v3_business_search&utm_source=hBJOknVQJ58S5goQyjmwRw", "review_count": 2, "categories": [{"alias": "cafes", "title": "Cafes"}, {"alias": "musicvenues", "title": "Music Venues"}], "rating": 4.5, "coordinates": {"latitude": 53.4653091, "longitude": 9.9760799}, "transactions": [], "price": "\u20ac", "location": {"address1": "Buxtehuder Str. 13", "address2": "", "address3": "", "city": "Hamburg", "zip_code": "21073", "country": "DE", "state": "HH", "display_address": ["Buxtehuder Str. 13", "21073 Hamburg", "Germany"]}, "phone": "+494057228952", "display_phone": "+49 40 57228952", "distance": 4301.562098833008}, {"id": "jR0ug_XIH94AGwkGwXXUQw", "alias": "american-pizza-profis-und-chinatown-hamburg", "name": "American Pizza Profis & Chinatown", "image_url": "https://s3-media3.fl.yelpcdn.com/bphoto/p-dZMGJUft6OM26kho_PtQ/o.jpg", "is_closed": false, "url": "https://www.yelp.com/biz/american-pizza-profis-und-chinatown-hamburg?adjust_creative=hBJOknVQJ58S5goQyjmwRw&utm_campaign=yelp_api_v3&utm_medium=api_v3_business_search&utm_source=hBJOknVQJ58S5goQyjmwRw", "review_count": 7, "categories": [{"alias": "hotdogs", "title": "Fast Food"}, {"alias": "pizza", "title": "Pizza"}], "rating": 3.5, "coordinates": {"latitude": 53.5167, "longitude": 9.99329}, "transactions": [], "price": "\u20ac\u20ac\u20ac\u20ac", "location": {"address1": "Georg-Wilhelm-Str. 7 b", "address2": "", "address3": null, "city": "Hamburg", "zip_code": "21107", "country": "DE", "state": "HH", "display_address": ["Georg-Wilhelm-Str. 7 b", "21107 Hamburg", "Germany"]}, "phone": "+49407526655", "display_phone": "+49 40 7526655", "distance": 1671.0146863436169}, {"id": "L06GAdOtyA5GCrUjDrDlmw", "alias": "lees-sushi-bar-hamburg", "name": "Lee's Sushi Bar", "image_url": "https://s3-media3.fl.yelpcdn.com/bphoto/TSErUnVsR2br71FiK2KJqA/o.jpg", "is_closed": false, "url": "https://www.yelp.com/biz/lees-sushi-bar-hamburg?adjust_creative=hBJOknVQJ58S5goQyjmwRw&utm_campaign=yelp_api_v3&utm_medium=api_v3_business_search&utm_source=hBJOknVQJ58S5goQyjmwRw", "review_count": 13, "categories": [{"alias": "sushi", "title": "Sushi Bars"}], "rating": 4.0, "coordinates": {"latitude": 53.54356, "longitude": 9.99312}, "transactions": [], "price": "\u20ac\u20ac", "location": {"address1": "Am Sandtorkai 23", "address2": "", "address3": "", "city": "Hamburg", "zip_code": "20457", "country": "DE", "state": "HH", "display_address": ["Am Sandtorkai 23", "20457 Hamburg", "Germany"]}, "phone": "+494030068367", "display_phone": "+49 40 30068367", "distance": 4645.2281532385205}, {"id": "eH-z4D_0m1HaN71xKExiaA", "alias": "green-lovers-hamburg-2", "name": "green lovers", "image_url": "https://s3-media4.fl.yelpcdn.com/bphoto/wm9Bh3-uf0Njjw9qOX9KMQ/o.jpg", "is_closed": false, "url": "https://www.yelp.com/biz/green-lovers-hamburg-2?adjust_creative=hBJOknVQJ58S5goQyjmwRw&utm_campaign=yelp_api_v3&utm_medium=api_v3_business_search&utm_source=hBJOknVQJ58S5goQyjmwRw", "review_count": 5, "categories": [{"alias": "salad", "title": "Salad"}, {"alias": "hotdogs", "title": "Fast Food"}, {"alias": "soup", "title": "Soup"}], "rating": 4.0, "coordinates": {"latitude": 53.5412483, "longitude": 9.9865999}, "transactions": [], "price": "\u20ac", "location": {"address1": "Am Kaiserkai 65", "address2": "", "address3": "", "city": "Hamburg", "zip_code": "20457", "country": "DE", "state": "HH", "display_address": ["Am Kaiserkai 65", "20457 Hamburg", "Germany"]}, "phone": "+494069279364", "display_phone": "+49 40 69279364", "distance": 4440.396383090167}, {"id": "E7fuyJ0etbqJvMm8cu1DMw", "alias": "tasquinha-galego-hamburg-2", "name": "Tasquinha Galego", "image_url": "https://s3-media4.fl.yelpcdn.com/bphoto/-iqFmgGmpnZvkqJnvB_bFw/o.jpg", "is_closed": false, "url": "https://www.yelp.com/biz/tasquinha-galego-hamburg-2?adjust_creative=hBJOknVQJ58S5goQyjmwRw&utm_campaign=yelp_api_v3&utm_medium=api_v3_business_search&utm_source=hBJOknVQJ58S5goQyjmwRw", "review_count": 66, "categories": [{"alias": "portuguese", "title": "Portuguese"}], "rating": 3.0, "coordinates": {"latitude": 53.54418, "longitude": 9.97648}, "transactions": [], "price": "\u20ac\u20ac", "location": {"address1": "Vorsetzen 70", "address2": null, "address3": null, "city": "Hamburg", "zip_code": "20459", "country": "DE", "state": "HH", "display_address": ["Vorsetzen 70", "20459 Hamburg", "Germany"]}, "phone": "+494035629360", "display_phone": "+49 40 35629360", "distance": 4894.808339829572}, {"id": "h48R1_44cHxVB6DuWJkRfw", "alias": "thai-foo-hamburg", "name": "Thai Foo", "image_url": "https://s3-media1.fl.yelpcdn.com/bphoto/Fxmnk8C0DEATuVMn42vLGA/o.jpg", "is_closed": false, "url": "https://www.yelp.com/biz/thai-foo-hamburg?adjust_creative=hBJOknVQJ58S5goQyjmwRw&utm_campaign=yelp_api_v3&utm_medium=api_v3_business_search&utm_source=hBJOknVQJ58S5goQyjmwRw", "review_count": 4, "categories": [{"alias": "thai", "title": "Thai"}], "rating": 3.0, "coordinates": {"latitude": 53.45996, "longitude": 9.98231}, "transactions": [], "price": "\u20ac", "location": {"address1": "L\u00fcneburger Str. 39", "address2": "", "address3": "", "city": "Hamburg", "zip_code": "21073", "country": "DE", "state": "HH", "display_address": ["L\u00fcneburger Str. 39", "21073 Hamburg", "Germany"]}, "phone": "+494076753072", "display_phone": "+49 40 76753072", "distance": 4754.5485831034675}, {"id": "ZmEJfw6CqWOPYTeJqIi8Jg", "alias": "alte-liebe-hamburg", "name": "Alte Liebe", "image_url": "https://s3-media1.fl.yelpcdn.com/bphoto/kjIfO01e7mj1kTmfPPjuLg/o.jpg", "is_closed": false, "url": "https://www.yelp.com/biz/alte-liebe-hamburg?adjust_creative=hBJOknVQJ58S5goQyjmwRw&utm_campaign=yelp_api_v3&utm_medium=api_v3_business_search&utm_source=hBJOknVQJ58S5goQyjmwRw", "review_count": 4, "categories": [{"alias": "german", "title": "German"}, {"alias": "cafes", "title": "Cafes"}], "rating": 3.5, "coordinates": {"latitude": 53.5432380614137, "longitude": 9.99964057380339}, "transactions": [], "price": "\u20ac\u20ac", "location": {"address1": "Koreastr. 1", "address2": "", "address3": "", "city": "Hamburg", "zip_code": "20457", "country": "DE", "state": "HH", "display_address": ["Koreastr. 1", "20457 Hamburg", "Germany"]}, "phone": "+494045060626", "display_phone": "+49 40 45060626", "distance": 4604.213435299623}, {"id": "Mrn-cXjAt7L168a8gGDyug", "alias": "tungs-asia-hamburg", "name": "Tung's Asia", "image_url": "https://s3-media4.fl.yelpcdn.com/bphoto/ZDdzi_FVZiuQ_LiQcLmpNw/o.jpg", "is_closed": false, "url": "https://www.yelp.com/biz/tungs-asia-hamburg?adjust_creative=hBJOknVQJ58S5goQyjmwRw&utm_campaign=yelp_api_v3&utm_medium=api_v3_business_search&utm_source=hBJOknVQJ58S5goQyjmwRw", "review_count": 6, "categories": [{"alias": "fooddeliveryservices", "title": "Food Delivery Services"}, {"alias": "panasian", "title": "Pan Asian"}], "rating": 3.5, "coordinates": {"latitude": 53.45963, "longitude": 9.98218}, "transactions": [], "price": "\u20ac", "location": {"address1": "Deichhausweg 3", "address2": "", "address3": "", "city": "Hamburg", "zip_code": "21073", "country": "DE", "state": "HH", "display_address": ["Deichhausweg 3", "21073 Hamburg", "Germany"]}, "phone": "+494041450841", "display_phone": "+49 40 41450841", "distance": 4810.232154847368}, {"id": "jRwG8fGkXFkRpsRnnFuyIg", "alias": "ria-de-aveiro-hamburg", "name": "Ria de Aveiro", "image_url": "https://s3-media4.fl.yelpcdn.com/bphoto/WZ9FZ055ICwy-sjw-WKgOA/o.jpg", "is_closed": false, "url": "https://www.yelp.com/biz/ria-de-aveiro-hamburg?adjust_creative=hBJOknVQJ58S5goQyjmwRw&utm_campaign=yelp_api_v3&utm_medium=api_v3_business_search&utm_source=hBJOknVQJ58S5goQyjmwRw", "review_count": 3, "categories": [{"alias": "cafes", "title": "Cafes"}], "rating": 4.0, "coordinates": {"latitude": 53.461, "longitude": 9.98095}, "transactions": [], "location": {"address1": "H\u00f6lertwiete 10", "address2": "", "address3": "", "city": "Hamburg", "zip_code": "21073", "country": "DE", "state": "HH", "display_address": ["H\u00f6lertwiete 10", "21073 Hamburg", "Germany"]}, "phone": "+494025778251", "display_phone": "+49 40 25778251", "distance": 4673.158904382628}, {"id": "iCq9ieHPN5WxcPKPT6Ykdw", "alias": "soup-city-hamburg-4", "name": "Soup City", "image_url": "https://s3-media1.fl.yelpcdn.com/bphoto/rz2XsDrtjFLsYSnVVRpAtw/o.jpg", "is_closed": false, "url": "https://www.yelp.com/biz/soup-city-hamburg-4?adjust_creative=hBJOknVQJ58S5goQyjmwRw&utm_campaign=yelp_api_v3&utm_medium=api_v3_business_search&utm_source=hBJOknVQJ58S5goQyjmwRw", "review_count": 9, "categories": [{"alias": "soup", "title": "Soup"}], "rating": 3.5, "coordinates": {"latitude": 53.5316484, "longitude": 9.9852574}, "transactions": [], "price": "\u20ac\u20ac", "location": {"address1": "Am Sandtorkai 30", "address2": "", "address3": null, "city": "Hamburg", "zip_code": "20457", "country": "DE", "state": "HH", "display_address": ["Am Sandtorkai 30", "20457 Hamburg", "Germany"]}, "phone": "+494028410490", "display_phone": "+49 40 28410490", "distance": 3406.028484297743}, {"id": "eH1rB0Kc5CX-szUqsWeiCg", "alias": "black-rock-hamburg-2", "name": "Black Rock", "image_url": "", "is_closed": false, "url": "https://www.yelp.com/biz/black-rock-hamburg-2?adjust_creative=hBJOknVQJ58S5goQyjmwRw&utm_campaign=yelp_api_v3&utm_medium=api_v3_business_search&utm_source=hBJOknVQJ58S5goQyjmwRw", "review_count": 1, "categories": [{"alias": "steak", "title": "Steakhouses"}], "rating": 4.0, "coordinates": {"latitude": 53.46353, "longitude": 9.98068}, "transactions": [], "location": {"address1": "L\u00e4mmertwiete 9", "address2": "", "address3": null, "city": "Hamburg", "zip_code": "21073", "country": "DE", "state": "HH", "display_address": ["L\u00e4mmertwiete 9", "21073 Hamburg", "Germany"]}, "phone": "+4915252773254", "display_phone": "+49 1525 2773254", "distance": 4407.734377177297}, {"id": "ieh-7rmSUqAwYfgSkImM9A", "alias": "weite-welt-hamburg-2", "name": "Weite Welt", "image_url": "https://s3-media2.fl.yelpcdn.com/bphoto/5dictDdoiX1wB3iGMfkrhQ/o.jpg", "is_closed": false, "url": "https://www.yelp.com/biz/weite-welt-hamburg-2?adjust_creative=hBJOknVQJ58S5goQyjmwRw&utm_campaign=yelp_api_v3&utm_medium=api_v3_business_search&utm_source=hBJOknVQJ58S5goQyjmwRw", "review_count": 5, "categories": [{"alias": "bistros", "title": "Bistros"}, {"alias": "cafes", "title": "Cafes"}], "rating": 3.0, "coordinates": {"latitude": 53.5448, "longitude": 9.98706}, "transactions": [], "price": "\u20ac", "location": {"address1": "Hohe Br\u00fccke 2", "address2": "an der Flussschifferkirche", "address3": null, "city": "Hamburg", "zip_code": "20459", "country": "DE", "state": "HH", "display_address": ["Hohe Br\u00fccke 2", "an der Flussschifferkirche", "20459 Hamburg", "Germany"]}, "phone": "+494030605187", "display_phone": "+49 40 30605187", "distance": 4822.243654612977}, {"id": "BUxiGAHxRjtM82ywFjV_bw", "alias": "d\u00f6ner-treff-hamburg", "name": "D\u00f6ner-Treff", "image_url": "https://s3-media1.fl.yelpcdn.com/bphoto/4_qUsH322fk753aEyjSwTQ/o.jpg", "is_closed": false, "url": "https://www.yelp.com/biz/d%C3%B6ner-treff-hamburg?adjust_creative=hBJOknVQJ58S5goQyjmwRw&utm_campaign=yelp_api_v3&utm_medium=api_v3_business_search&utm_source=hBJOknVQJ58S5goQyjmwRw", "review_count": 3, "categories": [{"alias": "kebab", "title": "Kebab"}, {"alias": "foodstands", "title": "Food Stands"}], "rating": 4.5, "coordinates": {"latitude": 53.46042, "longitude": 9.9784}, "transactions": [], "price": "\u20ac\u20ac", "location": {"address1": "Am Centrumshaus 5", "address2": null, "address3": null, "city": "Hamburg", "zip_code": "21073", "country": "DE", "state": "HH", "display_address": ["Am Centrumshaus 5", "21073 Hamburg", "Germany"]}, "phone": "", "display_phone": "", "distance": 4779.518303580656}, {"id": "gBH3d24lctwqqCQkiAyNWw", "alias": "mina-hamburg", "name": "Mina", "image_url": "https://s3-media4.fl.yelpcdn.com/bphoto/pAnAfcHsKmFEjdELLPcLDA/o.jpg", "is_closed": false, "url": "https://www.yelp.com/biz/mina-hamburg?adjust_creative=hBJOknVQJ58S5goQyjmwRw&utm_campaign=yelp_api_v3&utm_medium=api_v3_business_search&utm_source=hBJOknVQJ58S5goQyjmwRw", "review_count": 1, "categories": [{"alias": "kebab", "title": "Kebab"}], "rating": 1.0, "coordinates": {"latitude": 53.4978479484476, "longitude": 10.0068896636367}, "transactions": [], "location": {"address1": "Wilhelm-Strau\u00df-Weg 1 b", "address2": "", "address3": "S-Bahnhof Wilhelmsburg", "city": "Hamburg", "zip_code": "21109", "country": "DE", "state": "HH", "display_address": ["Wilhelm-Strau\u00df-Weg 1 b", "S-Bahnhof Wilhelmsburg", "21109 Hamburg", "Germany"]}, "phone": "", "display_phone": "", "distance": 778.919108165686}, {"id": "D0nfIlvK_wTibaSS9LyoqQ", "alias": "kaiserlich-hamburg", "name": "Kaiserlich", "image_url": "https://s3-media2.fl.yelpcdn.com/bphoto/Lnyrym_W6Urbtf-kj3T2sA/o.jpg", "is_closed": false, "url": "https://www.yelp.com/biz/kaiserlich-hamburg?adjust_creative=hBJOknVQJ58S5goQyjmwRw&utm_campaign=yelp_api_v3&utm_medium=api_v3_business_search&utm_source=hBJOknVQJ58S5goQyjmwRw", "review_count": 1, "categories": [{"alias": "german", "title": "German"}, {"alias": "beergarden", "title": "Beer Garden"}], "rating": 4.0, "coordinates": {"latitude": 53.46486, "longitude": 9.97301}, "transactions": [], "location": {"address1": "Schwarzenbergstr. 80", "address2": "", "address3": null, "city": "Hamburg", "zip_code": "21073", "country": "DE", "state": "HH", "display_address": ["Schwarzenbergstr. 80", "21073 Hamburg", "Germany"]}, "phone": "+494030085115", "display_phone": "+49 40 30085115", "distance": 4410.7194038877315}, {"id": "18NbyuHVcmHFQHniZpt5LQ", "alias": "nordsee-hamburg-16", "name": "Nordsee", "image_url": "https://s3-media1.fl.yelpcdn.com/bphoto/JA0c2EETfbRel4qZet8nCA/o.jpg", "is_closed": false, "url": "https://www.yelp.com/biz/nordsee-hamburg-16?adjust_creative=hBJOknVQJ58S5goQyjmwRw&utm_campaign=yelp_api_v3&utm_medium=api_v3_business_search&utm_source=hBJOknVQJ58S5goQyjmwRw", "review_count": 1, "categories": [{"alias": "fischbroetchen", "title": "Fischbroetchen"}], "rating": 4.0, "coordinates": {"latitude": 53.4599674, "longitude": 9.9822394}, "transactions": [], "location": {"address1": "L\u00fcneburger Str. 39", "address2": "", "address3": "", "city": "Hamburg", "zip_code": "21073", "country": "DE", "state": "HH", "display_address": ["L\u00fcneburger Str. 39", "21073 Hamburg", "Germany"]}, "phone": "", "display_phone": "", "distance": 4762.2786960356725}, {"id": "cT2d2Pahuc7CYZislHoyGw", "alias": "surfkitchen-hamburg-2", "name": "Surfkitchen", "image_url": "https://s3-media2.fl.yelpcdn.com/bphoto/aL6EwgpqWL31BtzmHNuqPA/o.jpg", "is_closed": false, "url": "https://www.yelp.com/biz/surfkitchen-hamburg-2?adjust_creative=hBJOknVQJ58S5goQyjmwRw&utm_campaign=yelp_api_v3&utm_medium=api_v3_business_search&utm_source=hBJOknVQJ58S5goQyjmwRw", "review_count": 44, "categories": [{"alias": "pizza", "title": "Pizza"}], "rating": 3.5, "coordinates": {"latitude": 53.542744, "longitude": 10.000565}, "transactions": [], "price": "\u20ac\u20ac", "location": {"address1": "Hongkongstr. 2 - 4", "address2": null, "address3": "", "city": "Hamburg", "zip_code": "20457", "country": "DE", "state": "HH", "display_address": ["Hongkongstr. 2 - 4", "20457 Hamburg", "Germany"]}, "phone": "+494032041258", "display_phone": "+49 40 32041258", "distance": 4551.858744716268}, {"id": "dLvDter6WJPtK_7K1zZsBg", "alias": "andronaco-hamburg-6", "name": "Andronaco", "image_url": "https://s3-media3.fl.yelpcdn.com/bphoto/Htk7gHKCoWbz9Wr1AAlq9Q/o.jpg", "is_closed": false, "url": "https://www.yelp.com/biz/andronaco-hamburg-6?adjust_creative=hBJOknVQJ58S5goQyjmwRw&utm_campaign=yelp_api_v3&utm_medium=api_v3_business_search&utm_source=hBJOknVQJ58S5goQyjmwRw", "review_count": 37, "categories": [{"alias": "italian", "title": "Italian"}, {"alias": "pizza", "title": "Pizza"}, {"alias": "intlgrocery", "title": "International Grocery"}], "rating": 3.0, "coordinates": {"latitude": 53.54366, "longitude": 9.99678}, "transactions": [], "price": "\u20ac\u20ac", "location": {"address1": "Am Sandtorkai 44", "address2": "", "address3": "", "city": "Hamburg", "zip_code": "20457", "country": "DE", "state": "HH", "display_address": ["Am Sandtorkai 44", "20457 Hamburg", "Germany"]}, "phone": "+494076794390", "display_phone": "+49 40 76794390", "distance": 4635.512659080391}, {"id": "qlWbNZaKXirvqm0hq_BO7Q", "alias": "ristorante-da-luigi-hamburg-3", "name": "Ristorante da Luigi", "image_url": "https://s3-media4.fl.yelpcdn.com/bphoto/hxCKfyiNR3U0GzpWryXUTw/o.jpg", "is_closed": false, "url": "https://www.yelp.com/biz/ristorante-da-luigi-hamburg-3?adjust_creative=hBJOknVQJ58S5goQyjmwRw&utm_campaign=yelp_api_v3&utm_medium=api_v3_business_search&utm_source=hBJOknVQJ58S5goQyjmwRw", "review_count": 44, "categories": [{"alias": "italian", "title": "Italian"}], "rating": 3.5, "coordinates": {"latitude": 53.4621, "longitude": 9.97928}, "transactions": [], "price": "\u20ac\u20ac", "location": {"address1": "Neue Str. 29", "address2": null, "address3": null, "city": "Hamburg", "zip_code": "21073", "country": "DE", "state": "HH", "display_address": ["Neue Str. 29", "21073 Hamburg", "Germany"]}, "phone": "+49407659603", "display_phone": "+49 40 7659603", "distance": 4577.476680004554}, {"id": "0N2WPiWN_kI_3TQlab_uAg", "alias": "mai-mai-hamburg-9", "name": "mai-mai", "image_url": "https://s3-media3.fl.yelpcdn.com/bphoto/v7jYJU4bpeRQl0ZjhMO9ng/o.jpg", "is_closed": false, "url": "https://www.yelp.com/biz/mai-mai-hamburg-9?adjust_creative=hBJOknVQJ58S5goQyjmwRw&utm_campaign=yelp_api_v3&utm_medium=api_v3_business_search&utm_source=hBJOknVQJ58S5goQyjmwRw", "review_count": 2, "categories": [{"alias": "panasian", "title": "Pan Asian"}], "rating": 3.0, "coordinates": {"latitude": 53.49866, "longitude": 10.00908}, "transactions": [], "location": {"address1": "Wilhelm-Strau\u00df-Weg 2 b", "address2": "", "address3": "", "city": "Hamburg", "zip_code": "21109", "country": "DE", "state": "HH", "display_address": ["Wilhelm-Strau\u00df-Weg 2 b", "21109 Hamburg", "Germany"]}, "phone": "+494036919568", "display_phone": "+49 40 36919568", "distance": 851.2208277625108}, {"id": "ENgSCZar8z14J7s0-oefDA", "alias": "lieger-caesar-hamburg", "name": "Lieger Caesar", "image_url": "https://s3-media2.fl.yelpcdn.com/bphoto/YGgZIMhZwBYORheLhvUL8Q/o.jpg", "is_closed": false, "url": "https://www.yelp.com/biz/lieger-caesar-hamburg?adjust_creative=hBJOknVQJ58S5goQyjmwRw&utm_campaign=yelp_api_v3&utm_medium=api_v3_business_search&utm_source=hBJOknVQJ58S5goQyjmwRw", "review_count": 3, "categories": [{"alias": "german", "title": "German"}], "rating": 4.5, "coordinates": {"latitude": 53.5422918796532, "longitude": 9.99044250950298}, "transactions": [], "price": "\u20ac\u20ac", "location": {"address1": "Sandtorhafen/Traditionsschiffhafen", "address2": "", "address3": null, "city": "Hamburg", "zip_code": "20457", "country": "DE", "state": "HH", "display_address": ["Sandtorhafen/Traditionsschiffhafen", "20457 Hamburg", "Germany"]}, "phone": "+494060533820", "display_phone": "+49 40 60533820", "distance": 4518.59031000793}, {"id": "Hs68mSrDRVhs0m68e59ePw", "alias": "markthalle-speicherstadt-hamburg", "name": "Markthalle Speicherstadt", "image_url": "https://s3-media3.fl.yelpcdn.com/bphoto/IwhgdGpMoZ7Apca9pe3mtg/o.jpg", "is_closed": false, "url": "https://www.yelp.com/biz/markthalle-speicherstadt-hamburg?adjust_creative=hBJOknVQJ58S5goQyjmwRw&utm_campaign=yelp_api_v3&utm_medium=api_v3_business_search&utm_source=hBJOknVQJ58S5goQyjmwRw", "review_count": 22, "categories": [{"alias": "food_court", "title": "Food Court"}], "rating": 3.5, "coordinates": {"latitude": 53.54356, "longitude": 9.99312}, "transactions": [], "price": "\u20ac", "location": {"address1": "Am Sandtorkai 23", "address2": "", "address3": "", "city": "Hamburg", "zip_code": "20457", "country": "DE", "state": "HH", "display_address": ["Am Sandtorkai 23", "20457 Hamburg", "Germany"]}, "phone": "+4915733924558", "display_phone": "+49 1573 3924558", "distance": 4645.2281532385205}, {"id": "nRfdFEQ-CNC1jwtKjE13EQ", "alias": "schanzenb\u00e4ckerei-hamburg-50", "name": "Schanzenb\u00e4ckerei", "image_url": "https://s3-media3.fl.yelpcdn.com/bphoto/apdvPKsOzeuE0u5QDS2oBw/o.jpg", "is_closed": false, "url": "https://www.yelp.com/biz/schanzenb%C3%A4ckerei-hamburg-50?adjust_creative=hBJOknVQJ58S5goQyjmwRw&utm_campaign=yelp_api_v3&utm_medium=api_v3_business_search&utm_source=hBJOknVQJ58S5goQyjmwRw", "review_count": 1, "categories": [{"alias": "bakeries", "title": "Bakeries"}, {"alias": "breakfast_brunch", "title": "Breakfast & Brunch"}, {"alias": "desserts", "title": "Desserts"}], "rating": 4.0, "coordinates": {"latitude": 53.5443639274264, "longitude": 9.97721236199141}, "transactions": [], "location": {"address1": "Vorsetzen 41", "address2": "", "address3": null, "city": "Hamburg", "zip_code": "20459", "country": "DE", "state": "HH", "display_address": ["Vorsetzen 41", "20459 Hamburg", "Germany"]}, "phone": "+494036097889", "display_phone": "+49 40 36097889", "distance": 4908.4106871327795}, {"id": "XQj6TM-4ezagjmJY_qWUHQ", "alias": "infocenter-im-kesselhaus-hamburg", "name": "Infocenter im Kesselhaus", "image_url": "https://s3-media1.fl.yelpcdn.com/bphoto/r82EqZdwpvOACcUPSIR9yQ/o.jpg", "is_closed": false, "url": "https://www.yelp.com/biz/infocenter-im-kesselhaus-hamburg?adjust_creative=hBJOknVQJ58S5goQyjmwRw&utm_campaign=yelp_api_v3&utm_medium=api_v3_business_search&utm_source=hBJOknVQJ58S5goQyjmwRw", "review_count": 19, "categories": [{"alias": "landmarks", "title": "Landmarks & Historical Buildings"}, {"alias": "tours", "title": "Tours"}, {"alias": "cafes", "title": "Cafes"}], "rating": 4.0, "coordinates": {"latitude": 53.54325, "longitude": 9.99038}, "transactions": [], "price": "\u20ac\u20ac", "location": {"address1": "Kesselhaus", "address2": "Am Sandtorkai 30", "address3": null, "city": "Hamburg", "zip_code": "20457", "country": "DE", "state": "HH", "display_address": ["Kesselhaus", "Am Sandtorkai 30", "20457 Hamburg", "Germany"]}, "phone": "+494036901799", "display_phone": "+49 40 36901799", "distance": 4629.747222195848}, {"id": "Fkjb7JsEHcsGKKQXjUfw-w", "alias": "miss-sofie-hamburg", "name": "Miss Sofie", "image_url": "https://s3-media1.fl.yelpcdn.com/bphoto/SEtL2RpXZpgZWquHH0L75g/o.jpg", "is_closed": false, "url": "https://www.yelp.com/biz/miss-sofie-hamburg?adjust_creative=hBJOknVQJ58S5goQyjmwRw&utm_campaign=yelp_api_v3&utm_medium=api_v3_business_search&utm_source=hBJOknVQJ58S5goQyjmwRw", "review_count": 51, "categories": [{"alias": "hotdog", "title": "Hot Dogs"}, {"alias": "icecream", "title": "Ice Cream & Frozen Yogurt"}], "rating": 3.5, "coordinates": {"latitude": 53.540857708631, "longitude": 9.98674249775547}, "transactions": [], "price": "\u20ac\u20ac\u20ac", "location": {"address1": "Am Kaiserkai 59a", "address2": "", "address3": "", "city": "Hamburg", "zip_code": "20457", "country": "DE", "state": "HH", "display_address": ["Am Kaiserkai 59a", "20457 Hamburg", "Germany"]}, "phone": "+4917621534267", "display_phone": "+49 176 21534267", "distance": 4391.858859214224}, {"id": "a6_1MO12bUkQMWN3bKAKTw", "alias": "mercato-hamburg", "name": "Mercato", "image_url": "https://s3-media3.fl.yelpcdn.com/bphoto/BRe2gP8QH3iAfqzeENDLqA/o.jpg", "is_closed": false, "url": "https://www.yelp.com/biz/mercato-hamburg?adjust_creative=hBJOknVQJ58S5goQyjmwRw&utm_campaign=yelp_api_v3&utm_medium=api_v3_business_search&utm_source=hBJOknVQJ58S5goQyjmwRw", "review_count": 39, "categories": [{"alias": "italian", "title": "Italian"}, {"alias": "cafes", "title": "Cafes"}, {"alias": "pizza", "title": "Pizza"}], "rating": 4.0, "coordinates": {"latitude": 53.46247, "longitude": 9.9794}, "transactions": [], "price": "\u20ac\u20ac\u20ac", "location": {"address1": "Neue Str. 35", "address2": "", "address3": "", "city": "Hamburg", "zip_code": "21073", "country": "DE", "state": "HH", "display_address": ["Neue Str. 35", "21073 Hamburg", "Germany"]}, "phone": "+494076758862", "display_phone": "+49 40 76758862", "distance": 4537.907309221405}, {"id": "jmaCzGWhZiyTqyBWNpw8Kw", "alias": "wildes-fr\u00e4ulein-hamburg", "name": "Wildes Fr\u00e4ulein", "image_url": "https://s3-media2.fl.yelpcdn.com/bphoto/k0lAhPYJkRVlCZBRRBPuDQ/o.jpg", "is_closed": false, "url": "https://www.yelp.com/biz/wildes-fr%C3%A4ulein-hamburg?adjust_creative=hBJOknVQJ58S5goQyjmwRw&utm_campaign=yelp_api_v3&utm_medium=api_v3_business_search&utm_source=hBJOknVQJ58S5goQyjmwRw", "review_count": 15, "categories": [{"alias": "cafes", "title": "Cafes"}], "rating": 3.5, "coordinates": {"latitude": 53.5426678001403, "longitude": 9.99761651627385}, "transactions": [], "price": "\u20ac\u20ac", "location": {"address1": "\u00dcberseeboulevard 2", "address2": "", "address3": null, "city": "Hamburg", "zip_code": "20457", "country": "DE", "state": "HH", "display_address": ["\u00dcberseeboulevard 2", "20457 Hamburg", "Germany"]}, "phone": "+491632511858", "display_phone": "+49 163 2511858", "distance": 4538.119529059572}, {"id": "agsFxbQGQBvZYfcNyHkhFg", "alias": "elbarkaden-lounge-hamburg", "name": "Elbarkaden Lounge", "image_url": "https://s3-media2.fl.yelpcdn.com/bphoto/B0R9SzdZcLEwpBu50TLGhA/o.jpg", "is_closed": false, "url": "https://www.yelp.com/biz/elbarkaden-lounge-hamburg?adjust_creative=hBJOknVQJ58S5goQyjmwRw&utm_campaign=yelp_api_v3&utm_medium=api_v3_business_search&utm_source=hBJOknVQJ58S5goQyjmwRw", "review_count": 7, "categories": [{"alias": "theater", "title": "Performing Arts"}, {"alias": "cafes", "title": "Cafes"}], "rating": 3.0, "coordinates": {"latitude": 53.5428944, "longitude": 10.0010078}, "transactions": [], "price": "\u20ac\u20ac", "location": {"address1": "Hongkongstr. 2 - 4", "address2": "", "address3": "", "city": "Hamburg", "zip_code": "20539", "country": "DE", "state": "HH", "display_address": ["Hongkongstr. 2 - 4", "20539 Hamburg", "Germany"]}, "phone": "+494035770777", "display_phone": "+49 40 35770777", "distance": 4570.068380808302}, {"id": "gnxogqKBPeZYngFzKcaj5w", "alias": "k\u00f6z-harput-hamburg", "name": "K\u00f6z Harput", "image_url": "https://s3-media1.fl.yelpcdn.com/bphoto/qKK3qfi2FIkDRp130MTvOA/o.jpg", "is_closed": false, "url": "https://www.yelp.com/biz/k%C3%B6z-harput-hamburg?adjust_creative=hBJOknVQJ58S5goQyjmwRw&utm_campaign=yelp_api_v3&utm_medium=api_v3_business_search&utm_source=hBJOknVQJ58S5goQyjmwRw", "review_count": 1, "categories": [{"alias": "kebab", "title": "Kebab"}, {"alias": "turkish", "title": "Turkish"}], "rating": 4.0, "coordinates": {"latitude": 53.4612434989418, "longitude": 9.97852988419762}, "transactions": [], "location": {"address1": "Neue Str. 9", "address2": "", "address3": "", "city": "Hamburg", "zip_code": "21073", "country": "DE", "state": "HH", "display_address": ["Neue Str. 9", "21073 Hamburg", "Germany"]}, "phone": "+494046636117", "display_phone": "+49 40 46636117", "distance": 4682.3935209544425}, {"id": "_wb_8bDSfSZXZ76NwNKA5w", "alias": "hobenk\u00f6\u00f6k-hamburg", "name": "Hobenk\u00f6\u00f6k", "image_url": "https://s3-media3.fl.yelpcdn.com/bphoto/LjtRNE6Y6Ah17f5LLCnfNQ/o.jpg", "is_closed": false, "url": "https://www.yelp.com/biz/hobenk%C3%B6%C3%B6k-hamburg?adjust_creative=hBJOknVQJ58S5goQyjmwRw&utm_campaign=yelp_api_v3&utm_medium=api_v3_business_search&utm_source=hBJOknVQJ58S5goQyjmwRw", "review_count": 8, "categories": [{"alias": "german", "title": "German"}], "rating": 3.5, "coordinates": {"latitude": 53.5433450982727, "longitude": 10.0082123279572}, "transactions": [], "location": {"address1": "Stockmeyerstr. 43", "address2": "", "address3": null, "city": "Hamburg", "zip_code": "20457", "country": "DE", "state": "HH", "display_address": ["Stockmeyerstr. 43", "20457 Hamburg", "Germany"]}, "phone": "+494022865538", "display_phone": "+49 40 22865538", "distance": 4670.1207213867}, {"id": "CbUiL17tlxO2GqF6ckuBfQ", "alias": "hotel-panorama-hamburg", "name": "Hotel Panorama", "image_url": "https://s3-media2.fl.yelpcdn.com/bphoto/RmfzM3AhpCmNFfdsIU46nw/o.jpg", "is_closed": false, "url": "https://www.yelp.com/biz/hotel-panorama-hamburg?adjust_creative=hBJOknVQJ58S5goQyjmwRw&utm_campaign=yelp_api_v3&utm_medium=api_v3_business_search&utm_source=hBJOknVQJ58S5goQyjmwRw", "review_count": 15, "categories": [{"alias": "hotels", "title": "Hotels"}, {"alias": "restaurants", "title": "Restaurants"}], "rating": 3.5, "coordinates": {"latitude": 53.4589, "longitude": 9.98489}, "transactions": [], "price": "\u20ac\u20ac", "location": {"address1": "Harburger Ring 8-10", "address2": "", "address3": "", "city": "Hamburg", "zip_code": "21073", "country": "DE", "state": "HH", "display_address": ["Harburger Ring 8-10", "21073 Hamburg", "Germany"]}, "phone": "+4940766950", "display_phone": "+49 40 766950", "distance": 4793.523349626443}, {"id": "fAg5Pzglm70q2pjFl941ow", "alias": "pizza-stra\u00dfenverkauf-hamburg", "name": "Pizza Stra\u00dfenverkauf", "image_url": "https://s3-media2.fl.yelpcdn.com/bphoto/vcI1Uk5IFKR5O0hEoIJw-Q/o.jpg", "is_closed": false, "url": "https://www.yelp.com/biz/pizza-stra%C3%9Fenverkauf-hamburg?adjust_creative=hBJOknVQJ58S5goQyjmwRw&utm_campaign=yelp_api_v3&utm_medium=api_v3_business_search&utm_source=hBJOknVQJ58S5goQyjmwRw", "review_count": 1, "categories": [{"alias": "pizza", "title": "Pizza"}], "rating": 3.0, "coordinates": {"latitude": 53.462, "longitude": 9.97951}, "transactions": [], "price": "\u20ac", "location": {"address1": "Sand 35-37", "address2": null, "address3": null, "city": "Hamburg", "zip_code": "21073", "country": "DE", "state": "HH", "display_address": ["Sand 35-37", "21073 Hamburg", "Germany"]}, "phone": "", "display_phone": "", "distance": 4584.300088774794}, {"id": "SfFknAO6N2tuqYZUhus_cA", "alias": "cafe-und-bistro-kehrwieder-hamburg", "name": "Cafe & Bistro Kehrwieder", "image_url": "https://s3-media4.fl.yelpcdn.com/bphoto/lkxZKZaHJMw7gfD0CHDm1Q/o.jpg", "is_closed": false, "url": "https://www.yelp.com/biz/cafe-und-bistro-kehrwieder-hamburg?adjust_creative=hBJOknVQJ58S5goQyjmwRw&utm_campaign=yelp_api_v3&utm_medium=api_v3_business_search&utm_source=hBJOknVQJ58S5goQyjmwRw", "review_count": 18, "categories": [{"alias": "bistros", "title": "Bistros"}, {"alias": "cafes", "title": "Cafes"}, {"alias": "coffee", "title": "Coffee & Tea"}], "rating": 3.0, "coordinates": {"latitude": 53.5442085, "longitude": 9.9895096}, "transactions": [], "price": "\u20ac\u20ac", "location": {"address1": "Kehrwieder 1", "address2": "", "address3": "", "city": "Hamburg", "zip_code": "20457", "country": "DE", "state": "HH", "display_address": ["Kehrwieder 1", "20457 Hamburg", "Germany"]}, "phone": "+4940337824", "display_phone": "+49 40 337824", "distance": 4736.006896217947}, {"id": "aH8otpspbETCTVVXTzibog", "alias": "kleine-heimat-hamburg-2", "name": "Kleine Heimat", "image_url": "https://s3-media1.fl.yelpcdn.com/bphoto/GIoxzMepntooyWwAB75-7w/o.jpg", "is_closed": false, "url": "https://www.yelp.com/biz/kleine-heimat-hamburg-2?adjust_creative=hBJOknVQJ58S5goQyjmwRw&utm_campaign=yelp_api_v3&utm_medium=api_v3_business_search&utm_source=hBJOknVQJ58S5goQyjmwRw", "review_count": 2, "categories": [{"alias": "cafes", "title": "Cafes"}, {"alias": "bistros", "title": "Bistros"}], "rating": 3.5, "coordinates": {"latitude": 53.54305, "longitude": 10.00059}, "transactions": [], "price": "\u20ac\u20ac", "location": {"address1": "Hongkongstr. 2 - 4", "address2": "", "address3": "", "city": "Hamburg", "zip_code": "20457", "country": "DE", "state": "HH", "display_address": ["Hongkongstr. 2 - 4", "20457 Hamburg", "Germany"]}, "phone": "+494032041259", "display_phone": "+49 40 32041259", "distance": 4566.620694371151}, {"id": "ZB0nnVR3i7CqvykMxxjxSA", "alias": "schanzenb\u00e4ckerei-hamburg-29", "name": "Schanzenb\u00e4ckerei", "image_url": "https://s3-media1.fl.yelpcdn.com/bphoto/oV-4et8QD79hUf6bhptA3A/o.jpg", "is_closed": false, "url": "https://www.yelp.com/biz/schanzenb%C3%A4ckerei-hamburg-29?adjust_creative=hBJOknVQJ58S5goQyjmwRw&utm_campaign=yelp_api_v3&utm_medium=api_v3_business_search&utm_source=hBJOknVQJ58S5goQyjmwRw", "review_count": 4, "categories": [{"alias": "bakeries", "title": "Bakeries"}, {"alias": "bistros", "title": "Bistros"}], "rating": 3.5, "coordinates": {"latitude": 53.5416245481602, "longitude": 9.99367944896221}, "transactions": [], "price": "\u20ac", "location": {"address1": "Gro\u00dfer Grasbrook 9", "address2": "", "address3": "", "city": "Hamburg", "zip_code": "20457", "country": "DE", "state": "HH", "display_address": ["Gro\u00dfer Grasbrook 9", "20457 Hamburg", "Germany"]}, "phone": "+494036090190", "display_phone": "+49 40 36090190", "distance": 4428.27377798301}, {"id": "JC6gdUGy79FIUd6T24wUIQ", "alias": "imbiss-binnenhafen-hamburg", "name": "Imbiss Binnenhafen", "image_url": "https://s3-media1.fl.yelpcdn.com/bphoto/CXN-Ivlpl6SdWFHj5_Mtbw/o.jpg", "is_closed": false, "url": "https://www.yelp.com/biz/imbiss-binnenhafen-hamburg?adjust_creative=hBJOknVQJ58S5goQyjmwRw&utm_campaign=yelp_api_v3&utm_medium=api_v3_business_search&utm_source=hBJOknVQJ58S5goQyjmwRw", "review_count": 4, "categories": [{"alias": "foodstands", "title": "Food Stands"}, {"alias": "hotdogs", "title": "Fast Food"}], "rating": 4.0, "coordinates": {"latitude": 53.46618, "longitude": 9.9858}, "transactions": [], "location": {"address1": "Kanalplatz 1a", "address2": "", "address3": "", "city": "Hamburg", "zip_code": "21079", "country": "DE", "state": "HH", "display_address": ["Kanalplatz 1a", "21079 Hamburg", "Germany"]}, "phone": "", "display_phone": "", "distance": 4041.7685712387433}, {"id": "EVZkD8TyGDlbYFz8v410FA", "alias": "fischhalle-hamburg", "name": "Fischhalle", "image_url": "https://s3-media2.fl.yelpcdn.com/bphoto/-2684jIyrMtos2ezbggajg/o.jpg", "is_closed": false, "url": "https://www.yelp.com/biz/fischhalle-hamburg?adjust_creative=hBJOknVQJ58S5goQyjmwRw&utm_campaign=yelp_api_v3&utm_medium=api_v3_business_search&utm_source=hBJOknVQJ58S5goQyjmwRw", "review_count": 3, "categories": [{"alias": "bistros", "title": "Bistros"}, {"alias": "cafes", "title": "Cafes"}, {"alias": "musicvenues", "title": "Music Venues"}], "rating": 5.0, "coordinates": {"latitude": 53.46718, "longitude": 9.98234}, "transactions": [], "location": {"address1": "Kanalplatz 16", "address2": "", "address3": null, "city": "Hamburg", "zip_code": "21079", "country": "DE", "state": "HH", "display_address": ["Kanalplatz 16", "21079 Hamburg", "Germany"]}, "phone": "+491715463474", "display_phone": "+49 171 5463474", "distance": 3970.981887390972}, {"id": "kpULn7yxfOWYYwfWU7M5ig", "alias": "tarterie-jolie-hamburg", "name": "Tarterie Jolie", "image_url": "https://s3-media2.fl.yelpcdn.com/bphoto/rEJefRXlhBDLNmxafZlmLw/o.jpg", "is_closed": false, "url": "https://www.yelp.com/biz/tarterie-jolie-hamburg?adjust_creative=hBJOknVQJ58S5goQyjmwRw&utm_campaign=yelp_api_v3&utm_medium=api_v3_business_search&utm_source=hBJOknVQJ58S5goQyjmwRw", "review_count": 7, "categories": [{"alias": "creperies", "title": "Creperies"}, {"alias": "cafes", "title": "Cafes"}, {"alias": "french", "title": "French"}], "rating": 3.5, "coordinates": {"latitude": 53.54143, "longitude": 9.9899}, "transactions": [], "price": "\u20ac\u20ac", "location": {"address1": "Am Kaiserkai 27", "address2": "", "address3": "", "city": "Hamburg", "zip_code": "20457", "country": "DE", "state": "HH", "display_address": ["Am Kaiserkai 27", "20457 Hamburg", "Germany"]}, "phone": "+491624937350", "display_phone": "+49 162 4937350", "distance": 4427.589341503662}, {"id": "Xw8JuSvkCJXP_veYJWafvw", "alias": "von-allw\u00f6rden-hamburg-48", "name": "Von Allw\u00f6rden", "image_url": "https://s3-media1.fl.yelpcdn.com/bphoto/O4mGVx4Nwvr5I6FfBwWUiw/o.jpg", "is_closed": false, "url": "https://www.yelp.com/biz/von-allw%C3%B6rden-hamburg-48?adjust_creative=hBJOknVQJ58S5goQyjmwRw&utm_campaign=yelp_api_v3&utm_medium=api_v3_business_search&utm_source=hBJOknVQJ58S5goQyjmwRw", "review_count": 1, "categories": [{"alias": "bistros", "title": "Bistros"}, {"alias": "cakeshop", "title": "Patisserie/Cake Shop"}, {"alias": "bakeries", "title": "Bakeries"}], "rating": 4.0, "coordinates": {"latitude": 53.4607303515967, "longitude": 9.97968190447996}, "transactions": [], "location": {"address1": "Harburger Ring", "address2": "", "address3": null, "city": "Hamburg", "zip_code": "21073", "country": "DE", "state": "HH", "display_address": ["Harburger Ring", "21073 Hamburg", "Germany"]}, "phone": "", "display_phone": "", "distance": 4718.111651046249}, {"id": "MAMwjqbBtwhc5hEvn8-2TQ", "alias": "hornbachers-goldener-engel-hamburg", "name": "Hornbachers Goldener Engel", "image_url": "https://s3-media4.fl.yelpcdn.com/bphoto/aGi6weAAOpot4YrbWe-ZfA/o.jpg", "is_closed": false, "url": "https://www.yelp.com/biz/hornbachers-goldener-engel-hamburg?adjust_creative=hBJOknVQJ58S5goQyjmwRw&utm_campaign=yelp_api_v3&utm_medium=api_v3_business_search&utm_source=hBJOknVQJ58S5goQyjmwRw", "review_count": 33, "categories": [{"alias": "german", "title": "German"}], "rating": 3.5, "coordinates": {"latitude": 53.4642658, "longitude": 9.9823764}, "transactions": [], "price": "\u20ac\u20ac", "location": {"address1": "Harburger Schlo\u00dfstr. 7", "address2": null, "address3": null, "city": "Hamburg", "zip_code": "21079", "country": "DE", "state": "HH", "display_address": ["Harburger Schlo\u00dfstr. 7", "21079 Hamburg", "Germany"]}, "phone": "+494033443858", "display_phone": "+49 40 33443858", "distance": 4293.862327823665}, {"id": "KpF7kg2JBIO0KE2tbGYWUg", "alias": "nissis-kunstkantine-hamburg", "name": "Nissis Kunstkantine", "image_url": "https://s3-media2.fl.yelpcdn.com/bphoto/7rNWFYtlBhXW0dbxbfQPNg/o.jpg", "is_closed": false, "url": "https://www.yelp.com/biz/nissis-kunstkantine-hamburg?adjust_creative=hBJOknVQJ58S5goQyjmwRw&utm_campaign=yelp_api_v3&utm_medium=api_v3_business_search&utm_source=hBJOknVQJ58S5goQyjmwRw", "review_count": 3, "categories": [{"alias": "galleries", "title": "Art Galleries"}, {"alias": "cafes", "title": "Cafes"}], "rating": 4.0, "coordinates": {"latitude": 53.54161, "longitude": 9.99551}, "transactions": [], "price": "\u20ac\u20ac", "location": {"address1": "Am Dalmannkai 6", "address2": "", "address3": "", "city": "Hamburg", "zip_code": "20457", "country": "DE", "state": "HH", "display_address": ["Am Dalmannkai 6", "20457 Hamburg", "Germany"]}, "phone": "+4916092312515", "display_phone": "+49 160 92312515", "distance": 4424.015584687834}, {"id": "I8UkoDhWL5iMOVBVcXX-7A", "alias": "le-crobag-hamburg-16", "name": "Le Crobag", "image_url": "https://s3-media4.fl.yelpcdn.com/bphoto/tR_HaWEsd48I3PyMPaC2bA/o.jpg", "is_closed": false, "url": "https://www.yelp.com/biz/le-crobag-hamburg-16?adjust_creative=hBJOknVQJ58S5goQyjmwRw&utm_campaign=yelp_api_v3&utm_medium=api_v3_business_search&utm_source=hBJOknVQJ58S5goQyjmwRw", "review_count": 8, "categories": [{"alias": "cafes", "title": "Cafes"}, {"alias": "backshop", "title": "Backshop"}], "rating": 4.5, "coordinates": {"latitude": 53.5423508, "longitude": 9.9956198}, "transactions": [], "price": "\u20ac\u20ac", "location": {"address1": "Am Sandtorpark 6", "address2": "", "address3": "", "city": "Hamburg", "zip_code": "20457", "country": "DE", "state": "HH", "display_address": ["Am Sandtorpark 6", "20457 Hamburg", "Germany"]}, "phone": "+494030709379", "display_phone": "+49 40 30709379", "distance": 4530.508812309998}, {"id": "0eRwKOR0cRr25xWKQkaUxg", "alias": "uni-grill-house-hamburg", "name": "Uni Grill House", "image_url": "https://s3-media4.fl.yelpcdn.com/bphoto/v4C68yTzCxAOu46YIlFyOw/o.jpg", "is_closed": false, "url": "https://www.yelp.com/biz/uni-grill-house-hamburg?adjust_creative=hBJOknVQJ58S5goQyjmwRw&utm_campaign=yelp_api_v3&utm_medium=api_v3_business_search&utm_source=hBJOknVQJ58S5goQyjmwRw", "review_count": 12, "categories": [{"alias": "hotdogs", "title": "Fast Food"}, {"alias": "kebab", "title": "Kebab"}], "rating": 3.0, "coordinates": {"latitude": 53.46013, "longitude": 9.97536}, "transactions": [], "price": "\u20ac", "location": {"address1": "Ei\u00dfendorfer Str. 21", "address2": null, "address3": null, "city": "Hamburg", "zip_code": "21073", "country": "DE", "state": "HH", "display_address": ["Ei\u00dfendorfer Str. 21", "21073 Hamburg", "Germany"]}, "phone": "+494076757070", "display_phone": "+49 40 76757070", "distance": 4861.087734317795}, {"id": "o4ssaXvu2bzq1rtSDlA9iQ", "alias": "casa-barco-hamburg", "name": "Casa Barco", "image_url": "https://s3-media4.fl.yelpcdn.com/bphoto/arlGVSirJd5h16aU2Ncm1w/o.jpg", "is_closed": false, "url": "https://www.yelp.com/biz/casa-barco-hamburg?adjust_creative=hBJOknVQJ58S5goQyjmwRw&utm_campaign=yelp_api_v3&utm_medium=api_v3_business_search&utm_source=hBJOknVQJ58S5goQyjmwRw", "review_count": 1, "categories": [{"alias": "bistros", "title": "Bistros"}, {"alias": "tapas", "title": "Tapas Bars"}], "rating": 2.0, "coordinates": {"latitude": 53.544651, "longitude": 9.9760303}, "transactions": [], "price": "\u20ac", "location": {"address1": "Vorsetzen 53", "address2": "", "address3": "", "city": "Hamburg", "zip_code": "20459", "country": "DE", "state": "HH", "display_address": ["Vorsetzen 53", "20459 Hamburg", "Germany"]}, "phone": "", "display_phone": "", "distance": 4981.465940673952}, {"id": "NJRwSmdUTRwoTF0cwj2YWA", "alias": "china-service-hamburg", "name": "China - Service", "image_url": "", "is_closed": false, "url": "https://www.yelp.com/biz/china-service-hamburg?adjust_creative=hBJOknVQJ58S5goQyjmwRw&utm_campaign=yelp_api_v3&utm_medium=api_v3_business_search&utm_source=hBJOknVQJ58S5goQyjmwRw", "review_count": 2, "categories": [{"alias": "hotdogs", "title": "Fast Food"}, {"alias": "fooddeliveryservices", "title": "Food Delivery Services"}], "rating": 3.0, "coordinates": {"latitude": 53.5139, "longitude": 9.98713}, "transactions": [], "location": {"address1": "Veringstr. 46", "address2": null, "address3": null, "city": "Hamburg", "zip_code": "21107", "country": "DE", "state": "HH", "display_address": ["Veringstr. 46", "21107 Hamburg", "Germany"]}, "phone": "+494074200349", "display_phone": "+49 40 74200349", "distance": 1496.570678902557}, {"id": "o74sT37WfXS9qlnJK9F4Rg", "alias": "st\u00f6rtebeker-elbphilharmonie-hamburg", "name": "St\u00f6rtebeker Elbphilharmonie", "image_url": "https://s3-media1.fl.yelpcdn.com/bphoto/jNVgwXln7gTeG8nWV_SPeg/o.jpg", "is_closed": false, "url": "https://www.yelp.com/biz/st%C3%B6rtebeker-elbphilharmonie-hamburg?adjust_creative=hBJOknVQJ58S5goQyjmwRw&utm_campaign=yelp_api_v3&utm_medium=api_v3_business_search&utm_source=hBJOknVQJ58S5goQyjmwRw", "review_count": 36, "categories": [{"alias": "northerngerman", "title": "Northern German"}, {"alias": "beerbar", "title": "Beer Bar"}], "rating": 3.5, "coordinates": {"latitude": 53.5412569, "longitude": 9.9850363}, "transactions": [], "price": "\u20ac\u20ac\u20ac", "location": {"address1": "Platz der Deutschen Einheit 3", "address2": "", "address3": null, "city": "Hamburg", "zip_code": "20457", "country": "DE", "state": "HH", "display_address": ["Platz der Deutschen Einheit 3", "20457 Hamburg", "Germany"]}, "phone": "+494060533810", "display_phone": "+49 40 60533810", "distance": 4454.720397151566}, {"id": "o-_9ldDtdUnNiH_jF4u29w", "alias": "chutney-hamburg-3", "name": "Chutney", "image_url": "https://s3-media2.fl.yelpcdn.com/bphoto/U2wrydRgY88tZgfvMW_ttQ/o.jpg", "is_closed": false, "url": "https://www.yelp.com/biz/chutney-hamburg-3?adjust_creative=hBJOknVQJ58S5goQyjmwRw&utm_campaign=yelp_api_v3&utm_medium=api_v3_business_search&utm_source=hBJOknVQJ58S5goQyjmwRw", "review_count": 13, "categories": [{"alias": "indpak", "title": "Indian"}, {"alias": "hotdogs", "title": "Fast Food"}], "rating": 3.0, "coordinates": {"latitude": 53.5316484, "longitude": 9.9852574}, "transactions": [], "price": "\u20ac\u20ac", "location": {"address1": "Am Sandtorkai 23", "address2": "", "address3": null, "city": "Hamburg", "zip_code": "20457", "country": "DE", "state": "HH", "display_address": ["Am Sandtorkai 23", "20457 Hamburg", "Germany"]}, "phone": "", "display_phone": "", "distance": 3406.028484297743}, {"id": "pRji4PKv8PrO3T9nDpt1Rg", "alias": "le-qu\u00e1n-hamburg-4", "name": "Le Qu\u00e1n", "image_url": "https://s3-media3.fl.yelpcdn.com/bphoto/MS255rUXtP1DIhZ-M1fz_A/o.jpg", "is_closed": false, "url": "https://www.yelp.com/biz/le-qu%C3%A1n-hamburg-4?adjust_creative=hBJOknVQJ58S5goQyjmwRw&utm_campaign=yelp_api_v3&utm_medium=api_v3_business_search&utm_source=hBJOknVQJ58S5goQyjmwRw", "review_count": 2, "categories": [{"alias": "vietnamese", "title": "Vietnamese"}], "rating": 2.0, "coordinates": {"latitude": 53.54270263082, "longitude": 10.0030912661316}, "transactions": [], "location": {"address1": "Steinschanze 2 A", "address2": "", "address3": null, "city": "Hamburg", "zip_code": "20457", "country": "DE", "state": "HH", "display_address": ["Steinschanze 2 A", "20457 Hamburg", "Germany"]}, "phone": "", "display_phone": "", "distance": 4558.41044565939}, {"id": "Gv8eJ6-i_hLVAvVfh-9XaA", "alias": "langnese-caf\u00e9-hamburg-3", "name": "Langnese Caf\u00e9", "image_url": "https://s3-media2.fl.yelpcdn.com/bphoto/SolTXHRoi8aul1yvRUPyEQ/o.jpg", "is_closed": false, "url": "https://www.yelp.com/biz/langnese-caf%C3%A9-hamburg-3?adjust_creative=hBJOknVQJ58S5goQyjmwRw&utm_campaign=yelp_api_v3&utm_medium=api_v3_business_search&utm_source=hBJOknVQJ58S5goQyjmwRw", "review_count": 30, "categories": [{"alias": "cafes", "title": "Cafes"}], "rating": 4.0, "coordinates": {"latitude": 53.5387580301, "longitude": 9.99357276686476}, "transactions": [], "price": "\u20ac\u20ac", "location": {"address1": "Unilever-Haus", "address2": "Am Strandkai 1", "address3": "", "city": "Hamburg", "zip_code": "20457", "country": "DE", "state": "HH", "display_address": ["Unilever-Haus", "Am Strandkai 1", "20457 Hamburg", "Germany"]}, "phone": "+494036090801", "display_phone": "+49 40 36090801", "distance": 4110.424464346328}, {"id": "JLME-JhmhywsfAjxdGukJg", "alias": "helms-lounge-hamburg-2", "name": "Helms Lounge", "image_url": "https://s3-media1.fl.yelpcdn.com/bphoto/4LgaB7grul2Bknuty4Shqg/o.jpg", "is_closed": false, "url": "https://www.yelp.com/biz/helms-lounge-hamburg-2?adjust_creative=hBJOknVQJ58S5goQyjmwRw&utm_campaign=yelp_api_v3&utm_medium=api_v3_business_search&utm_source=hBJOknVQJ58S5goQyjmwRw", "review_count": 10, "categories": [{"alias": "lounges", "title": "Lounges"}, {"alias": "afghani", "title": "Afghan"}], "rating": 3.0, "coordinates": {"latitude": 53.458997, "longitude": 9.977169}, "transactions": [], "price": "\u20ac\u20ac", "location": {"address1": "Museumsplatz 2", "address2": "", "address3": "", "city": "Hamburg", "zip_code": "21073", "country": "DE", "state": "HH", "display_address": ["Museumsplatz 2", "21073 Hamburg", "Germany"]}, "phone": "+494076755799", "display_phone": "+49 40 76755799", "distance": 4948.400220244651}, {"id": "E9dmhyidDuuUTPMBYS4cVw", "alias": "la-boca-hamburg", "name": "La Boca", "image_url": "https://s3-media1.fl.yelpcdn.com/bphoto/TZaXKwlGVwaL7xOBLd8KGw/o.jpg", "is_closed": false, "url": "https://www.yelp.com/biz/la-boca-hamburg?adjust_creative=hBJOknVQJ58S5goQyjmwRw&utm_campaign=yelp_api_v3&utm_medium=api_v3_business_search&utm_source=hBJOknVQJ58S5goQyjmwRw", "review_count": 3, "categories": [{"alias": "cafes", "title": "Cafes"}], "rating": 3.5, "coordinates": {"latitude": 53.4635, "longitude": 9.98023}, "transactions": [], "price": "\u20ac\u20ac", "location": {"address1": "Neue Str. 56", "address2": null, "address3": null, "city": "Hamburg", "zip_code": "21073", "country": "DE", "state": "HH", "display_address": ["Neue Str. 56", "21073 Hamburg", "Germany"]}, "phone": "", "display_phone": "", "distance": 4410.866567085294}, {"id": "_jg-uq_jg1L9ASCZNd54Tg", "alias": "smileys-hamburg-19", "name": "Smileys", "image_url": "", "is_closed": false, "url": "https://www.yelp.com/biz/smileys-hamburg-19?adjust_creative=hBJOknVQJ58S5goQyjmwRw&utm_campaign=yelp_api_v3&utm_medium=api_v3_business_search&utm_source=hBJOknVQJ58S5goQyjmwRw", "review_count": 1, "categories": [{"alias": "pizza", "title": "Pizza"}], "rating": 4.0, "coordinates": {"latitude": 53.48524, "longitude": 10.01903}, "transactions": [], "price": "\u20ac\u20ac\u20ac", "location": {"address1": "Kirchdorfer Damm 3", "address2": "", "address3": "", "city": "Hamburg", "zip_code": "21109", "country": "DE", "state": "HH", "display_address": ["Kirchdorfer Damm 3", "21109 Hamburg", "Germany"]}, "phone": "+494075062232", "display_phone": "+49 40 75062232", "distance": 2327.7350851307924}, {"id": "-7AsMKjzFEqv08oGkTiRJQ", "alias": "caf\u00e9-erlk\u00f6nig-hamburg", "name": "Caf\u00e9 Erlk\u00f6nig", "image_url": "https://s3-media1.fl.yelpcdn.com/bphoto/hchHbCdP0ugRIThJuyszDw/o.jpg", "is_closed": false, "url": "https://www.yelp.com/biz/caf%C3%A9-erlk%C3%B6nig-hamburg?adjust_creative=hBJOknVQJ58S5goQyjmwRw&utm_campaign=yelp_api_v3&utm_medium=api_v3_business_search&utm_source=hBJOknVQJ58S5goQyjmwRw", "review_count": 1, "categories": [{"alias": "bistros", "title": "Bistros"}, {"alias": "cafes", "title": "Cafes"}], "rating": 4.0, "coordinates": {"latitude": 53.54332, "longitude": 10.00248}, "transactions": [], "location": {"address1": "Prototyp Museum", "address2": "Shanghaiallee 7", "address3": "", "city": "Hamburg", "zip_code": "20457", "country": "DE", "state": "HH", "display_address": ["Prototyp Museum", "Shanghaiallee 7", "20457 Hamburg", "Germany"]}, "phone": "+494039996969", "display_phone": "+49 40 39996969", "distance": 4611.84183262133}, {"id": "8_ZQO67CJEjBox0fqOA0Dw", "alias": "potato-hamburg", "name": "Potato", "image_url": "https://s3-media1.fl.yelpcdn.com/bphoto/RqVw_K6dEaxoCF8VnDrPZw/o.jpg", "is_closed": false, "url": "https://www.yelp.com/biz/potato-hamburg?adjust_creative=hBJOknVQJ58S5goQyjmwRw&utm_campaign=yelp_api_v3&utm_medium=api_v3_business_search&utm_source=hBJOknVQJ58S5goQyjmwRw", "review_count": 2, "categories": [{"alias": "kebab", "title": "Kebab"}, {"alias": "potatoes", "title": "Potatoes"}], "rating": 4.0, "coordinates": {"latitude": 53.460734, "longitude": 9.981879}, "transactions": [], "price": "\u20ac", "location": {"address1": "Schlo\u00dfm\u00fchlendamm 1", "address2": "", "address3": "", "city": "Hamburg", "zip_code": "21073", "country": "DE", "state": "HH", "display_address": ["Schlo\u00dfm\u00fchlendamm 1", "21073 Hamburg", "Germany"]}, "phone": "+494023848304", "display_phone": "+49 40 23848304", "distance": 4684.0527267802745}, {"id": "5vxkcyXLuqOuDQNW9aCyRw", "alias": "eiscaf\u00e9-leonardo-hamburg-2", "name": "Eiscaf\u00e9 Leonardo", "image_url": "https://s3-media2.fl.yelpcdn.com/bphoto/8jCWdYJRgSLmA2qx4ALh3A/o.jpg", "is_closed": false, "url": "https://www.yelp.com/biz/eiscaf%C3%A9-leonardo-hamburg-2?adjust_creative=hBJOknVQJ58S5goQyjmwRw&utm_campaign=yelp_api_v3&utm_medium=api_v3_business_search&utm_source=hBJOknVQJ58S5goQyjmwRw", "review_count": 2, "categories": [{"alias": "cafes", "title": "Cafes"}, {"alias": "icecream", "title": "Ice Cream & Frozen Yogurt"}], "rating": 4.0, "coordinates": {"latitude": 53.4597478944529, "longitude": 9.98378828394465}, "transactions": [], "price": "\u20ac\u20ac", "location": {"address1": "L\u00fcneburger Tor 10", "address2": "", "address3": "", "city": "Hamburg", "zip_code": "21073", "country": "DE", "state": "HH", "display_address": ["L\u00fcneburger Tor 10", "21073 Hamburg", "Germany"]}, "phone": "+494036029951", "display_phone": "+49 40 36029951", "distance": 4765.965495243499}, {"id": "G4zsU0sJR31QUzYWd8wrlw", "alias": "oktober-hamburg-2", "name": "Oktober", "image_url": "https://s3-media1.fl.yelpcdn.com/bphoto/t59SMzwjydOCS10X8fddRA/o.jpg", "is_closed": false, "url": "https://www.yelp.com/biz/oktober-hamburg-2?adjust_creative=hBJOknVQJ58S5goQyjmwRw&utm_campaign=yelp_api_v3&utm_medium=api_v3_business_search&utm_source=hBJOknVQJ58S5goQyjmwRw", "review_count": 78, "categories": [{"alias": "breakfast_brunch", "title": "Breakfast & Brunch"}, {"alias": "cafes", "title": "Cafes"}, {"alias": "cocktailbars", "title": "Cocktail Bars"}], "rating": 3.0, "coordinates": {"latitude": 53.46306, "longitude": 9.98155}, "transactions": [], "price": "\u20ac\u20ac", "location": {"address1": "Schlossm\u00fchlendamm 23", "address2": "", "address3": "", "city": "Hamburg", "zip_code": "21073", "country": "DE", "state": "HH", "display_address": ["Schlossm\u00fchlendamm 23", "21073 Hamburg", "Germany"]}, "phone": "+4940772618", "display_phone": "+49 40 772618", "distance": 4440.177312906395}, {"id": "Knjq3e0foO65SAwwNtr4mg", "alias": "kantine-stadtreinigung-hamburg", "name": "Kantine Stadtreinigung", "image_url": "", "is_closed": false, "url": "https://www.yelp.com/biz/kantine-stadtreinigung-hamburg?adjust_creative=hBJOknVQJ58S5goQyjmwRw&utm_campaign=yelp_api_v3&utm_medium=api_v3_business_search&utm_source=hBJOknVQJ58S5goQyjmwRw", "review_count": 4, "categories": [{"alias": "canteen", "title": "Canteen"}], "rating": 3.5, "coordinates": {"latitude": 53.4602, "longitude": 10.0021}, "transactions": [], "price": "\u20ac\u20ac", "location": {"address1": "Neul\u00e4nder Kamp 6", "address2": "", "address3": null, "city": "Hamburg", "zip_code": "21079", "country": "DE", "state": "HH", "display_address": ["Neul\u00e4nder Kamp 6", "21079 Hamburg", "Germany"]}, "phone": "", "display_phone": "", "distance": 4643.132439984416}, {"id": "OiRjhR0XPYINaGdKY6pSAw", "alias": "croque-master-hamburg", "name": "Croque Master", "image_url": "https://s3-media3.fl.yelpcdn.com/bphoto/mNCWgYgGs53m_ZQ4h_pAgw/o.jpg", "is_closed": false, "url": "https://www.yelp.com/biz/croque-master-hamburg?adjust_creative=hBJOknVQJ58S5goQyjmwRw&utm_campaign=yelp_api_v3&utm_medium=api_v3_business_search&utm_source=hBJOknVQJ58S5goQyjmwRw", "review_count": 22, "categories": [{"alias": "pizza", "title": "Pizza"}, {"alias": "baguettes", "title": "Baguettes"}], "rating": 3.5, "coordinates": {"latitude": 53.4604, "longitude": 9.97603}, "transactions": [], "price": "\u20ac\u20ac", "location": {"address1": "Ei\u00dfendorfer Str. 16", "address2": null, "address3": null, "city": "Hamburg", "zip_code": "21073", "country": "DE", "state": "HH", "display_address": ["Ei\u00dfendorfer Str. 16", "21073 Hamburg", "Germany"]}, "phone": "+4940773930", "display_phone": "+49 40 773930", "distance": 4818.457036707857}, {"id": "4-kUVcQhE_ErgwIPGhanqg", "alias": "d\u00f6ner-queen-hamburg-2", "name": "D\u00f6ner Queen", "image_url": "https://s3-media3.fl.yelpcdn.com/bphoto/onJw8pwhwOvILhyxT1cVnQ/o.jpg", "is_closed": false, "url": "https://www.yelp.com/biz/d%C3%B6ner-queen-hamburg-2?adjust_creative=hBJOknVQJ58S5goQyjmwRw&utm_campaign=yelp_api_v3&utm_medium=api_v3_business_search&utm_source=hBJOknVQJ58S5goQyjmwRw", "review_count": 19, "categories": [{"alias": "food", "title": "Food"}, {"alias": "kebab", "title": "Kebab"}], "rating": 3.0, "coordinates": {"latitude": 53.4612, "longitude": 9.9816}, "transactions": [], "price": "\u20ac", "location": {"address1": "Schlo\u00dfm\u00fchlendamm 7", "address2": null, "address3": null, "city": "Hamburg", "zip_code": "21073", "country": "DE", "state": "HH", "display_address": ["Schlo\u00dfm\u00fchlendamm 7", "21073 Hamburg", "Germany"]}, "phone": "+494032528850", "display_phone": "+49 40 32528850", "distance": 4637.564241650784}, {"id": "bysy5bhHCabV-8z7mO2Hqg", "alias": "elis-hamburg", "name": "Eli's", "image_url": "https://s3-media4.fl.yelpcdn.com/bphoto/vrHVD6jsh2gfGwI93J4B0A/o.jpg", "is_closed": false, "url": "https://www.yelp.com/biz/elis-hamburg?adjust_creative=hBJOknVQJ58S5goQyjmwRw&utm_campaign=yelp_api_v3&utm_medium=api_v3_business_search&utm_source=hBJOknVQJ58S5goQyjmwRw", "review_count": 2, "categories": [{"alias": "burgers", "title": "Burgers"}, {"alias": "hotdogs", "title": "Fast Food"}], "rating": 2.5, "coordinates": {"latitude": 53.54356, "longitude": 9.99312}, "transactions": [], "price": "\u20ac\u20ac", "location": {"address1": "Am Sandtorkai 23", "address2": "", "address3": "", "city": "Hamburg", "zip_code": "20457", "country": "DE", "state": "HH", "display_address": ["Am Sandtorkai 23", "20457 Hamburg", "Germany"]}, "phone": "", "display_phone": "", "distance": 4645.2281532385205}, {"id": "gAGnFIZbHDSlzsH2ATizNg", "alias": "kebapwelt-hamburg", "name": "KebapWelt", "image_url": "https://s3-media2.fl.yelpcdn.com/bphoto/MvhRdRgJEqPwwfvSioz67g/o.jpg", "is_closed": false, "url": "https://www.yelp.com/biz/kebapwelt-hamburg?adjust_creative=hBJOknVQJ58S5goQyjmwRw&utm_campaign=yelp_api_v3&utm_medium=api_v3_business_search&utm_source=hBJOknVQJ58S5goQyjmwRw", "review_count": 5, "categories": [{"alias": "turkish", "title": "Turkish"}, {"alias": "currysausage", "title": "Curry Sausage"}, {"alias": "pizza", "title": "Pizza"}], "rating": 3.5, "coordinates": {"latitude": 53.4602, "longitude": 9.97695}, "transactions": [], "price": "\u20ac\u20ac", "location": {"address1": "Knoopstr. 4", "address2": null, "address3": null, "city": "Hamburg", "zip_code": "21073", "country": "DE", "state": "HH", "display_address": ["Knoopstr. 4", "21073 Hamburg", "Germany"]}, "phone": "+494046866777", "display_phone": "+49 40 46866777", "distance": 4822.443087171729}, {"id": "VLw4BqkmYT-O4yKXGhJTCQ", "alias": "benfica-hamburg", "name": "Benfica", "image_url": "", "is_closed": false, "url": "https://www.yelp.com/biz/benfica-hamburg?adjust_creative=hBJOknVQJ58S5goQyjmwRw&utm_campaign=yelp_api_v3&utm_medium=api_v3_business_search&utm_source=hBJOknVQJ58S5goQyjmwRw", "review_count": 3, "categories": [{"alias": "portuguese", "title": "Portuguese"}, {"alias": "mexican", "title": "Mexican"}], "rating": 2.0, "coordinates": {"latitude": 53.5446, "longitude": 9.97619}, "transactions": [], "price": "\u20ac\u20ac", "location": {"address1": "Vorsetzen 53", "address2": null, "address3": null, "city": "Hamburg", "zip_code": "20459", "country": "DE", "state": "HH", "display_address": ["Vorsetzen 53", "20459 Hamburg", "Germany"]}, "phone": "+4940371201", "display_phone": "+49 40 371201", "distance": 4952.248511316967}, {"id": "QT6cMEwYzsTEFaQ2Iob6-g", "alias": "bierbrunnen-zwo-hamburg", "name": "Bierbrunnen Zwo", "image_url": "", "is_closed": false, "url": "https://www.yelp.com/biz/bierbrunnen-zwo-hamburg?adjust_creative=hBJOknVQJ58S5goQyjmwRw&utm_campaign=yelp_api_v3&utm_medium=api_v3_business_search&utm_source=hBJOknVQJ58S5goQyjmwRw", "review_count": 1, "categories": [{"alias": "indpak", "title": "Indian"}], "rating": 4.0, "coordinates": {"latitude": 53.4634, "longitude": 9.98157}, "transactions": [], "location": {"address1": "Schlo\u00dfm\u00fchlendamm 29", "address2": null, "address3": null, "city": "Hamburg", "zip_code": "21073", "country": "DE", "state": "HH", "display_address": ["Schlo\u00dfm\u00fchlendamm 29", "21073 Hamburg", "Germany"]}, "phone": "+494041481493", "display_phone": "+49 40 41481493", "distance": 4399.896800491857}, {"id": "8hwCKvb8ks_FBjP4ujY1Hw", "alias": "mcdonalds-hamburg-14", "name": "McDonald's", "image_url": "https://s3-media2.fl.yelpcdn.com/bphoto/iDEbdg4cURdrZzFdiQxyvA/o.jpg", "is_closed": false, "url": "https://www.yelp.com/biz/mcdonalds-hamburg-14?adjust_creative=hBJOknVQJ58S5goQyjmwRw&utm_campaign=yelp_api_v3&utm_medium=api_v3_business_search&utm_source=hBJOknVQJ58S5goQyjmwRw", "review_count": 3, "categories": [{"alias": "hotdogs", "title": "Fast Food"}, {"alias": "burgers", "title": "Burgers"}], "rating": 1.5, "coordinates": {"latitude": 53.45996, "longitude": 9.98231}, "transactions": [], "price": "\u20ac\u20ac", "location": {"address1": "L\u00fcneburger Str. 39", "address2": null, "address3": null, "city": "Hamburg", "zip_code": "21073", "country": "DE", "state": "HH", "display_address": ["L\u00fcneburger Str. 39", "21073 Hamburg", "Germany"]}, "phone": "+494032507321", "display_phone": "+49 40 32507321", "distance": 4754.5485831034675}, {"id": "aV6FjXhMxupF7l26q1mcaw", "alias": "burger-lounge-hamburg-6", "name": "Burger Lounge", "image_url": "https://s3-media2.fl.yelpcdn.com/bphoto/6Ifrx3qMjMkEzXFNpOcZCA/o.jpg", "is_closed": false, "url": "https://www.yelp.com/biz/burger-lounge-hamburg-6?adjust_creative=hBJOknVQJ58S5goQyjmwRw&utm_campaign=yelp_api_v3&utm_medium=api_v3_business_search&utm_source=hBJOknVQJ58S5goQyjmwRw", "review_count": 3, "categories": [{"alias": "burgers", "title": "Burgers"}], "rating": 2.0, "coordinates": {"latitude": 53.4601491526657, "longitude": 9.97944713803599}, "transactions": [], "location": {"address1": "Am Centrumhaus 2", "address2": "", "address3": null, "city": "Hamburg", "zip_code": "21073", "country": "DE", "state": "HH", "display_address": ["Am Centrumhaus 2", "21073 Hamburg", "Germany"]}, "phone": "+494049200712", "display_phone": "+49 40 49200712", "distance": 4784.5754275220415}, {"id": "7kgD98n5qer2SUe6FHajLw", "alias": "barrossa-hamburg", "name": "Barrossa", "image_url": "https://s3-media1.fl.yelpcdn.com/bphoto/6fC6Fpay00skX7CxfEgBsw/o.jpg", "is_closed": false, "url": "https://www.yelp.com/biz/barrossa-hamburg?adjust_creative=hBJOknVQJ58S5goQyjmwRw&utm_campaign=yelp_api_v3&utm_medium=api_v3_business_search&utm_source=hBJOknVQJ58S5goQyjmwRw", "review_count": 7, "categories": [{"alias": "cafes", "title": "Cafes"}, {"alias": "coffee", "title": "Coffee & Tea"}], "rating": 2.5, "coordinates": {"latitude": 53.543865, "longitude": 9.990371}, "transactions": [], "price": "\u20ac\u20ac", "location": {"address1": "Brook 9", "address2": "", "address3": "", "city": "Hamburg", "zip_code": "20457", "country": "DE", "state": "HH", "display_address": ["Brook 9", "20457 Hamburg", "Germany"]}, "phone": "", "display_phone": "", "distance": 4692.710926320588}, {"id": "nF5l5qH9sTfgYit8rNIS1g", "alias": "oh-its-fresh-hamburg-4", "name": "Oh it's fresh!", "image_url": "https://s3-media2.fl.yelpcdn.com/bphoto/v9pqR5csUrlciP0TpQ2QfA/o.jpg", "is_closed": false, "url": "https://www.yelp.com/biz/oh-its-fresh-hamburg-4?adjust_creative=hBJOknVQJ58S5goQyjmwRw&utm_campaign=yelp_api_v3&utm_medium=api_v3_business_search&utm_source=hBJOknVQJ58S5goQyjmwRw", "review_count": 23, "categories": [{"alias": "bagels", "title": "Bagels"}, {"alias": "breakfast_brunch", "title": "Breakfast & Brunch"}, {"alias": "cafes", "title": "Cafes"}], "rating": 3.0, "coordinates": {"latitude": 53.542876, "longitude": 9.984919}, "transactions": [], "price": "\u20ac\u20ac", "location": {"address1": "Am Sandtorkai 40", "address2": "", "address3": "Hanseatic Trade Center", "city": "Hamburg", "zip_code": "20457", "country": "DE", "state": "HH", "display_address": ["Am Sandtorkai 40", "Hanseatic Trade Center", "20457 Hamburg", "Germany"]}, "phone": "+494037503025", "display_phone": "+49 40 37503025", "distance": 4633.250951534262}, {"id": "xQ9mWuzzbzULyF597RInPg", "alias": "backhaus-wedermann-hamburg", "name": "Backhaus Wedermann", "image_url": "", "is_closed": false, "url": "https://www.yelp.com/biz/backhaus-wedermann-hamburg?adjust_creative=hBJOknVQJ58S5goQyjmwRw&utm_campaign=yelp_api_v3&utm_medium=api_v3_business_search&utm_source=hBJOknVQJ58S5goQyjmwRw", "review_count": 1, "categories": [{"alias": "cafes", "title": "Cafes"}, {"alias": "bakeries", "title": "Bakeries"}, {"alias": "coffee", "title": "Coffee & Tea"}], "rating": 2.0, "coordinates": {"latitude": 53.4663391, "longitude": 9.9867496}, "transactions": [], "location": {"address1": "Veritaskai 3", "address2": "", "address3": "", "city": "Hamburg", "zip_code": "21079", "country": "DE", "state": "HH", "display_address": ["Veritaskai 3", "21079 Hamburg", "Germany"]}, "phone": "+494046866745", "display_phone": "+49 40 46866745", "distance": 4014.689422494042}, {"id": "0HNhfAJrVtjnUngdyYWk7A", "alias": "kai-bar-baltic-hamburg", "name": "kai bar baltic", "image_url": "https://s3-media4.fl.yelpcdn.com/bphoto/7w62iGMW2hnZC6JP-Jmb1Q/o.jpg", "is_closed": false, "url": "https://www.yelp.com/biz/kai-bar-baltic-hamburg?adjust_creative=hBJOknVQJ58S5goQyjmwRw&utm_campaign=yelp_api_v3&utm_medium=api_v3_business_search&utm_source=hBJOknVQJ58S5goQyjmwRw", "review_count": 1, "categories": [{"alias": "cafes", "title": "Cafes"}, {"alias": "coffee", "title": "Coffee & Tea"}], "rating": 1.0, "coordinates": {"latitude": 53.5414967, "longitude": 9.9892395}, "transactions": [], "price": "\u20ac\u20ac\u20ac", "location": {"address1": "Am Kaiserkai 17", "address2": null, "address3": null, "city": "Hamburg", "zip_code": "20457", "country": "DE", "state": "HH", "display_address": ["Am Kaiserkai 17", "20457 Hamburg", "Germany"]}, "phone": "", "display_phone": "", "distance": 4439.377603880585}]