[{"id": "8XSZziK-2FuaItksHhgwUw", "alias": "duckdalben-international-seamens-club-hamburg", "name": "Duckdalben International Seamen's Club", "image_url": "https://s3-media1.fl.yelpcdn.com/bphoto/ilV-Z3ZAV0trBqoRpUoz7w/o.jpg", "is_closed": false, "url": "https://www.yelp.com/biz/duckdalben-international-seamens-club-hamburg?adjust_creative=hBJOknVQJ58S5goQyjmwRw&utm_campaign=yelp_api_v3&utm_medium=api_v3_business_search&utm_source=hBJOknVQJ58S5goQyjmwRw", "review_count": 12, "categories": [{"alias": "cafes", "title": "Cafes"}, {"alias": "religiousorgs", "title": "Religious Organizations"}, {"alias": "social_clubs", "title": "Social Clubs"}], "rating": 5.0, "coordinates": {"latitude": 53.52042, "longitude": 9.9213799}, "transactions": [], "price": "\u20ac", "location": {"address1": "Terminal Waltershof-Freihafen", "address2": "Zellmannstr. 16", "address3": null, "city": "Hamburg", "zip_code": "21129", "country": "DE", "state": "HH", "display_address": ["Terminal Waltershof-Freihafen", "Zellmannstr. 16", "21129 Hamburg", "Germany"]}, "phone": "+49407401661", "display_phone": "+49 40 7401661", "distance": 2226.1157943234307}, {"id": "yI3Dc37NudFTaMcqTnTc1Q", "alias": "restaurant-zum-storchennest-hamburg", "name": "Restaurant Zum Storchennest", "image_url": "https://s3-media3.fl.yelpcdn.com/bphoto/p2iS9Ap2W5GOhaXOUPJMNg/o.jpg", "is_closed": false, "url": "https://www.yelp.com/biz/restaurant-zum-storchennest-hamburg?adjust_creative=hBJOknVQJ58S5goQyjmwRw&utm_campaign=yelp_api_v3&utm_medium=api_v3_business_search&utm_source=hBJOknVQJ58S5goQyjmwRw", "review_count": 12, "categories": [{"alias": "seafood", "title": "Seafood"}], "rating": 5.0, "coordinates": {"latitude": 53.5202, "longitude": 9.88556}, "transactions": [], "price": "\u20ac\u20ac\u20ac", "location": {"address1": "Osterfelddeich 2", "address2": null, "address3": null, "city": "Hamburg", "zip_code": "21129", "country": "DE", "state": "HH", "display_address": ["Osterfelddeich 2", "21129 Hamburg", "Germany"]}, "phone": "+49407426850", "display_phone": "+49 40 7426850", "distance": 2410.414311225275}, {"id": "15okiYple4dJTCutCgygiA", "alias": "s\u00fc\u00dfwasser-hamburg", "name": "S\u00fc\u00dfwasser", "image_url": "https://s3-media3.fl.yelpcdn.com/bphoto/dlfsqTuCU6k-xR1AkPxCGQ/o.jpg", "is_closed": false, "url": "https://www.yelp.com/biz/s%C3%BC%C3%9Fwasser-hamburg?adjust_creative=hBJOknVQJ58S5goQyjmwRw&utm_campaign=yelp_api_v3&utm_medium=api_v3_business_search&utm_source=hBJOknVQJ58S5goQyjmwRw", "review_count": 36, "categories": [{"alias": "seafood", "title": "Seafood"}], "rating": 4.0, "coordinates": {"latitude": 53.54473, "longitude": 9.90803}, "transactions": [], "price": "\u20ac\u20ac\u20ac", "location": {"address1": "\u00d6velg\u00f6nne 38", "address2": null, "address3": null, "city": "Hamburg", "zip_code": "22605", "country": "DE", "state": "HH", "display_address": ["\u00d6velg\u00f6nne 38", "22605 Hamburg", "Germany"]}, "phone": "+49408801242", "display_phone": "+49 40 8801242", "distance": 4700.347288612783}, {"id": "uaVxT9mBmSD7t3K3GxcCaA", "alias": "nuggis-elbkate-hamburg-3", "name": "Nuggi's Elbkate", "image_url": "https://s3-media3.fl.yelpcdn.com/bphoto/PRHiPw15p8Ek7t9SjXBVaQ/o.jpg", "is_closed": false, "url": "https://www.yelp.com/biz/nuggis-elbkate-hamburg-3?adjust_creative=hBJOknVQJ58S5goQyjmwRw&utm_campaign=yelp_api_v3&utm_medium=api_v3_business_search&utm_source=hBJOknVQJ58S5goQyjmwRw", "review_count": 1, "categories": [{"alias": "fischbroetchen", "title": "Fischbroetchen"}], "rating": 5.0, "coordinates": {"latitude": 53.5439821263843, "longitude": 9.91457478959806}, "transactions": [], "price": "\u20ac", "location": {"address1": "Neum\u00fchlen", "address2": "", "address3": null, "city": "Hamburg", "zip_code": "22605", "country": "DE", "state": "HH", "display_address": ["Neum\u00fchlen", "22605 Hamburg", "Germany"]}, "phone": "", "display_phone": "", "distance": 4632.797888288995}, {"id": "BUquzEkuhw3SJmZ_pt08-g", "alias": "strandperle-hamburg", "name": "Strandperle", "image_url": "https://s3-media3.fl.yelpcdn.com/bphoto/3rC4LMfBmxsXlA69VGnG7w/o.jpg", "is_closed": false, "url": "https://www.yelp.com/biz/strandperle-hamburg?adjust_creative=hBJOknVQJ58S5goQyjmwRw&utm_campaign=yelp_api_v3&utm_medium=api_v3_business_search&utm_source=hBJOknVQJ58S5goQyjmwRw", "review_count": 159, "categories": [{"alias": "german", "title": "German"}, {"alias": "beachbars", "title": "Beach Bars"}], "rating": 4.0, "coordinates": {"latitude": 53.544457914332, "longitude": 9.9054941735681}, "transactions": [], "price": "\u20ac\u20ac", "location": {"address1": "\u00d6velg\u00f6nne 60", "address2": "", "address3": "", "city": "Hamburg", "zip_code": "22605", "country": "DE", "state": "HH", "display_address": ["\u00d6velg\u00f6nne 60", "22605 Hamburg", "Germany"]}, "phone": "+494088099508", "display_phone": "+49 40 88099508", "distance": 4657.784358537132}, {"id": "cmBkM8WkNzC1oO4piY3dvg", "alias": "elbraum-hamburg", "name": "Elbraum", "image_url": "https://s3-media2.fl.yelpcdn.com/bphoto/uF2tMqtXyI8y7dQVrndBRw/o.jpg", "is_closed": false, "url": "https://www.yelp.com/biz/elbraum-hamburg?adjust_creative=hBJOknVQJ58S5goQyjmwRw&utm_campaign=yelp_api_v3&utm_medium=api_v3_business_search&utm_source=hBJOknVQJ58S5goQyjmwRw", "review_count": 1, "categories": [{"alias": "german", "title": "German"}], "rating": 5.0, "coordinates": {"latitude": 53.5443, "longitude": 9.92091}, "transactions": [], "location": {"address1": "Neum\u00fchlen 17", "address2": null, "address3": null, "city": "Hamburg", "zip_code": "22763", "country": "DE", "state": "HH", "display_address": ["Neum\u00fchlen 17", "22763 Hamburg", "Germany"]}, "phone": "+494089724945", "display_phone": "+49 40 89724945", "distance": 4732.459595913871}, {"id": "viU8W58X8U7CIk18WRp8IQ", "alias": "taverna-acchillion-zum-dorfkrug-hamburg", "name": "Taverna Acchillion - Zum Dorfkrug", "image_url": "https://s3-media2.fl.yelpcdn.com/bphoto/b-aqA76Y4d8LlXd8HqhBkA/o.jpg", "is_closed": false, "url": "https://www.yelp.com/biz/taverna-acchillion-zum-dorfkrug-hamburg?adjust_creative=hBJOknVQJ58S5goQyjmwRw&utm_campaign=yelp_api_v3&utm_medium=api_v3_business_search&utm_source=hBJOknVQJ58S5goQyjmwRw", "review_count": 7, "categories": [{"alias": "greek", "title": "Greek"}], "rating": 4.5, "coordinates": {"latitude": 53.47825, "longitude": 9.8878}, "transactions": [], "price": "\u20ac\u20ac", "location": {"address1": "Neuwiedenthaler Str. 133", "address2": "", "address3": "", "city": "Hamburg", "zip_code": "21147", "country": "DE", "state": "HH", "display_address": ["Neuwiedenthaler Str. 133", "21147 Hamburg", "Germany"]}, "phone": "+49407962103", "display_phone": "+49 40 7962103", "distance": 2979.523173330144}, {"id": "1ur4VWH_EnVK3cyHH_p7jQ", "alias": "das-weisse-haus-hamburg", "name": "Das Weisse Haus", "image_url": "https://s3-media4.fl.yelpcdn.com/bphoto/8yRIxbPRADExLIhO9G-siA/o.jpg", "is_closed": false, "url": "https://www.yelp.com/biz/das-weisse-haus-hamburg?adjust_creative=hBJOknVQJ58S5goQyjmwRw&utm_campaign=yelp_api_v3&utm_medium=api_v3_business_search&utm_source=hBJOknVQJ58S5goQyjmwRw", "review_count": 103, "categories": [{"alias": "german", "title": "German"}, {"alias": "international", "title": "International"}], "rating": 4.0, "coordinates": {"latitude": 53.5445512344073, "longitude": 9.91472614285271}, "transactions": [], "price": "\u20ac\u20ac\u20ac", "location": {"address1": "Neum\u00fchlen 50", "address2": "", "address3": null, "city": "Hamburg", "zip_code": "22763", "country": "DE", "state": "HH", "display_address": ["Neum\u00fchlen 50", "22763 Hamburg", "Germany"]}, "phone": "+49403909016", "display_phone": "+49 40 3909016", "distance": 4696.800180633557}, {"id": "VmKHDB9yn_W5vXAI13Ojkw", "alias": "k\u00e4rntner-h\u00fctte-hamburg", "name": "K\u00e4rntner H\u00fctte", "image_url": "https://s3-media3.fl.yelpcdn.com/bphoto/VDOi8qVRnDJjkBlhEDvxnQ/o.jpg", "is_closed": false, "url": "https://www.yelp.com/biz/k%C3%A4rntner-h%C3%BCtte-hamburg?adjust_creative=hBJOknVQJ58S5goQyjmwRw&utm_campaign=yelp_api_v3&utm_medium=api_v3_business_search&utm_source=hBJOknVQJ58S5goQyjmwRw", "review_count": 15, "categories": [{"alias": "german", "title": "German"}, {"alias": "austrian", "title": "Austrian"}], "rating": 3.5, "coordinates": {"latitude": 53.47016, "longitude": 9.90457052513125}, "transactions": [], "price": "\u20ac\u20ac", "location": {"address1": "Cuxhavener Str. 55 c", "address2": null, "address3": null, "city": "Hamburg", "zip_code": "21149", "country": "DE", "state": "HH", "display_address": ["Cuxhavener Str. 55 c", "21149 Hamburg", "Germany"]}, "phone": "+49407964622", "display_phone": "+49 40 7964622", "distance": 3607.518943077742}, {"id": "AV-RVcpCmZ2SwVyd6RZR9Q", "alias": "sutsche-hamburg", "name": "Sutsche", "image_url": "https://s3-media1.fl.yelpcdn.com/bphoto/cmrX1tRJGn4GXHyajG4FhA/o.jpg", "is_closed": false, "url": "https://www.yelp.com/biz/sutsche-hamburg?adjust_creative=hBJOknVQJ58S5goQyjmwRw&utm_campaign=yelp_api_v3&utm_medium=api_v3_business_search&utm_source=hBJOknVQJ58S5goQyjmwRw", "review_count": 30, "categories": [{"alias": "cafes", "title": "Cafes"}, {"alias": "bars", "title": "Bars"}], "rating": 4.0, "coordinates": {"latitude": 53.5443808225352, "longitude": 9.91282150625148}, "transactions": [], "price": "\u20ac\u20ac", "location": {"address1": "\u00d6velg\u00f6nne 2 - 3", "address2": "", "address3": "", "city": "Hamburg", "zip_code": "22605", "country": "DE", "state": "HH", "display_address": ["\u00d6velg\u00f6nne 2 - 3", "22605 Hamburg", "Germany"]}, "phone": "+494071663319", "display_phone": "+49 40 71663319", "distance": 4665.521132108017}, {"id": "OjuVO3sB_a8CQRKX21ctNg", "alias": "hafenbahnhof-hamburg", "name": "Hafenbahnhof", "image_url": "https://s3-media2.fl.yelpcdn.com/bphoto/GkyYOyTRpSJYwCGBqxow2Q/o.jpg", "is_closed": false, "url": "https://www.yelp.com/biz/hafenbahnhof-hamburg?adjust_creative=hBJOknVQJ58S5goQyjmwRw&utm_campaign=yelp_api_v3&utm_medium=api_v3_business_search&utm_source=hBJOknVQJ58S5goQyjmwRw", "review_count": 35, "categories": [{"alias": "bars", "title": "Bars"}, {"alias": "cafes", "title": "Cafes"}, {"alias": "jazzandblues", "title": "Jazz & Blues"}], "rating": 4.5, "coordinates": {"latitude": 53.54479, "longitude": 9.92846}, "transactions": [], "price": "\u20ac\u20ac", "location": {"address1": "Gro\u00dfe Elbstr. 276", "address2": null, "address3": null, "city": "Hamburg", "zip_code": "22767", "country": "DE", "state": "HH", "display_address": ["Gro\u00dfe Elbstr. 276", "22767 Hamburg", "Germany"]}, "phone": "+494025482501", "display_phone": "+49 40 25482501", "distance": 4910.513552787916}, {"id": "KaMlL3EyCdcSzkDAfVIt-g", "alias": "landhaus-j\u00e4gerhof-hamburg-2", "name": "Landhaus J\u00e4gerhof", "image_url": "https://s3-media2.fl.yelpcdn.com/bphoto/FqOyL1xyztMlYzIiFbxi7Q/o.jpg", "is_closed": false, "url": "https://www.yelp.com/biz/landhaus-j%C3%A4gerhof-hamburg-2?adjust_creative=hBJOknVQJ58S5goQyjmwRw&utm_campaign=yelp_api_v3&utm_medium=api_v3_business_search&utm_source=hBJOknVQJ58S5goQyjmwRw", "review_count": 3, "categories": [{"alias": "german", "title": "German"}, {"alias": "bowling", "title": "Bowling"}], "rating": 3.5, "coordinates": {"latitude": 53.47019, "longitude": 9.88699}, "transactions": [], "location": {"address1": "Ehestorfer Heuweg 12 - 14", "address2": null, "address3": null, "city": "Hamburg", "zip_code": "21149", "country": "DE", "state": "HH", "display_address": ["Ehestorfer Heuweg 12 - 14", "21149 Hamburg", "Germany"]}, "phone": "+49407962015", "display_phone": "+49 40 7962015", "distance": 3831.9824801807854}, {"id": "zjU8sl3PNnw59FuUDcTxmw", "alias": "kleinhuis-restaurantschiff-hamburg-2", "name": "Kleinhuis' Restaurantschiff", "image_url": "https://s3-media4.fl.yelpcdn.com/bphoto/6AudSBZuSNa-fdLYizyrzQ/o.jpg", "is_closed": false, "url": "https://www.yelp.com/biz/kleinhuis-restaurantschiff-hamburg-2?adjust_creative=hBJOknVQJ58S5goQyjmwRw&utm_campaign=yelp_api_v3&utm_medium=api_v3_business_search&utm_source=hBJOknVQJ58S5goQyjmwRw", "review_count": 33, "categories": [{"alias": "german", "title": "German"}, {"alias": "cafes", "title": "Cafes"}], "rating": 4.0, "coordinates": {"latitude": 53.5436497362334, "longitude": 9.91471823936467}, "transactions": [], "price": "\u20ac\u20ac", "location": {"address1": "Ponton Neum\u00fchlen", "address2": "", "address3": "", "city": "Hamburg", "zip_code": "22763", "country": "DE", "state": "HH", "display_address": ["Ponton Neum\u00fchlen", "22763 Hamburg", "Germany"]}, "phone": "+4940397383", "display_phone": "+49 40 397383", "distance": 4597.140868832859}, {"id": "s6U3uDUPKiGu9SDVeFte7w", "alias": "caf\u00e9-elbterrassen-hamburg", "name": "Caf\u00e9 Elbterrassen", "image_url": "https://s3-media3.fl.yelpcdn.com/bphoto/Y53Hlup19k5oRx8-9bE5gA/o.jpg", "is_closed": false, "url": "https://www.yelp.com/biz/caf%C3%A9-elbterrassen-hamburg?adjust_creative=hBJOknVQJ58S5goQyjmwRw&utm_campaign=yelp_api_v3&utm_medium=api_v3_business_search&utm_source=hBJOknVQJ58S5goQyjmwRw", "review_count": 51, "categories": [{"alias": "german", "title": "German"}, {"alias": "cafes", "title": "Cafes"}], "rating": 3.5, "coordinates": {"latitude": 53.54479, "longitude": 9.91462}, "transactions": [], "price": "\u20ac\u20ac", "location": {"address1": "\u00d6velg\u00f6nne 1", "address2": null, "address3": null, "city": "Hamburg", "zip_code": "22605", "country": "DE", "state": "HH", "display_address": ["\u00d6velg\u00f6nne 1", "22605 Hamburg", "Germany"]}, "phone": "+49403903443", "display_phone": "+49 40 3903443", "distance": 4714.699571521706}, {"id": "pAULuFrzubYmxMVrEd_bog", "alias": "zum-alten-lotsenhaus-hamburg", "name": "Zum Alten Lotsenhaus", "image_url": "https://s3-media2.fl.yelpcdn.com/bphoto/-dJPTEX3O3ZwYtfKY_CR5Q/o.jpg", "is_closed": false, "url": "https://www.yelp.com/biz/zum-alten-lotsenhaus-hamburg?adjust_creative=hBJOknVQJ58S5goQyjmwRw&utm_campaign=yelp_api_v3&utm_medium=api_v3_business_search&utm_source=hBJOknVQJ58S5goQyjmwRw", "review_count": 55, "categories": [{"alias": "seafood", "title": "Seafood"}], "rating": 4.0, "coordinates": {"latitude": 53.54489, "longitude": 9.91201}, "transactions": [], "price": "\u20ac\u20ac\u20ac", "location": {"address1": "\u00d6velg\u00f6nne 13", "address2": null, "address3": null, "city": "Hamburg", "zip_code": "22605", "country": "DE", "state": "HH", "display_address": ["\u00d6velg\u00f6nne 13", "22605 Hamburg", "Germany"]}, "phone": "+49408800196", "display_phone": "+49 40 8800196", "distance": 4725.219014140285}, {"id": "kfGyGne8Qn3mxvhXHzMIyQ", "alias": "burger-king-hamburg-3", "name": "Burger King", "image_url": "https://s3-media2.fl.yelpcdn.com/bphoto/vlyYJMsm8pyi6cVRGoOL9g/o.jpg", "is_closed": false, "url": "https://www.yelp.com/biz/burger-king-hamburg-3?adjust_creative=hBJOknVQJ58S5goQyjmwRw&utm_campaign=yelp_api_v3&utm_medium=api_v3_business_search&utm_source=hBJOknVQJ58S5goQyjmwRw", "review_count": 14, "categories": [{"alias": "hotdogs", "title": "Fast Food"}, {"alias": "burgers", "title": "Burgers"}], "rating": 3.0, "coordinates": {"latitude": 53.471143, "longitude": 9.922511}, "transactions": [], "price": "\u20ac\u20ac", "location": {"address1": "Stader Str. 302", "address2": "", "address3": null, "city": "Hamburg", "zip_code": "21075", "country": "DE", "state": "HH", "display_address": ["Stader Str. 302", "21075 Hamburg", "Germany"]}, "phone": "+494079143649", "display_phone": "+49 40 79143649", "distance": 3646.7953215204634}, {"id": "8_KCb-X3F6MwPI6ae2tsLQ", "alias": "br\u00fccke-10-im-strandhaus-hamburg", "name": "Br\u00fccke 10 im Strandhaus", "image_url": "https://s3-media1.fl.yelpcdn.com/bphoto/g5C-V5WBMphx0NzzFX3WQg/o.jpg", "is_closed": false, "url": "https://www.yelp.com/biz/br%C3%BCcke-10-im-strandhaus-hamburg?adjust_creative=hBJOknVQJ58S5goQyjmwRw&utm_campaign=yelp_api_v3&utm_medium=api_v3_business_search&utm_source=hBJOknVQJ58S5goQyjmwRw", "review_count": 2, "categories": [{"alias": "bars", "title": "Bars"}, {"alias": "cafes", "title": "Cafes"}], "rating": 4.0, "coordinates": {"latitude": 53.544838, "longitude": 9.892318}, "transactions": [], "location": {"address1": "\u00d6velg\u00f6nner Hohlweg 12", "address2": "", "address3": null, "city": "Hamburg", "zip_code": "22605", "country": "DE", "state": "HH", "display_address": ["\u00d6velg\u00f6nner Hohlweg 12", "22605 Hamburg", "Germany"]}, "phone": "+494085352351", "display_phone": "+49 40 85352351", "distance": 4804.853718863162}, {"id": "_7drLx2S3W9MRaSGq7I5og", "alias": "grando-sukredo-hamburg", "name": "Grando Sukredo", "image_url": "https://s3-media2.fl.yelpcdn.com/bphoto/3NfZ11_c5hbVZpK9SfdssQ/o.jpg", "is_closed": false, "url": "https://www.yelp.com/biz/grando-sukredo-hamburg?adjust_creative=hBJOknVQJ58S5goQyjmwRw&utm_campaign=yelp_api_v3&utm_medium=api_v3_business_search&utm_source=hBJOknVQJ58S5goQyjmwRw", "review_count": 17, "categories": [{"alias": "steak", "title": "Steakhouses"}], "rating": 4.5, "coordinates": {"latitude": 53.46093, "longitude": 9.89245}, "transactions": [], "price": "\u20ac\u20ac", "location": {"address1": "Ehestorfer Heuweg 89", "address2": null, "address3": null, "city": "Hamburg", "zip_code": "21149", "country": "DE", "state": "HH", "display_address": ["Ehestorfer Heuweg 89", "21149 Hamburg", "Germany"]}, "phone": "+494061193643", "display_phone": "+49 40 61193643", "distance": 4723.822986962268}, {"id": "xsZHnSCWIgqF8i1isIPxSQ", "alias": "fischrestaurant-hoppe-hamburg", "name": "Fischrestaurant Hoppe", "image_url": "https://s3-media2.fl.yelpcdn.com/bphoto/MdKg88A-bPH_zFnadaMtvg/o.jpg", "is_closed": false, "url": "https://www.yelp.com/biz/fischrestaurant-hoppe-hamburg?adjust_creative=hBJOknVQJ58S5goQyjmwRw&utm_campaign=yelp_api_v3&utm_medium=api_v3_business_search&utm_source=hBJOknVQJ58S5goQyjmwRw", "review_count": 27, "categories": [{"alias": "seafood", "title": "Seafood"}, {"alias": "german", "title": "German"}], "rating": 3.0, "coordinates": {"latitude": 53.54468, "longitude": 9.91329}, "transactions": [], "price": "\u20ac\u20ac\u20ac", "location": {"address1": "\u00d6velg\u00f6nne 6", "address2": null, "address3": null, "city": "Hamburg", "zip_code": "22605", "country": "DE", "state": "HH", "display_address": ["\u00d6velg\u00f6nne 6", "22605 Hamburg", "Germany"]}, "phone": "+49408800445", "display_phone": "+49 40 8800445", "distance": 4710.31673803179}, {"id": "7v0u6Xs6eJeHsFx_JPt8SQ", "alias": "elbwarte-hamburg", "name": "Elbwarte", "image_url": "https://s3-media4.fl.yelpcdn.com/bphoto/IdqcqgmiD3sm4CD8jkuejg/o.jpg", "is_closed": false, "url": "https://www.yelp.com/biz/elbwarte-hamburg?adjust_creative=hBJOknVQJ58S5goQyjmwRw&utm_campaign=yelp_api_v3&utm_medium=api_v3_business_search&utm_source=hBJOknVQJ58S5goQyjmwRw", "review_count": 4, "categories": [{"alias": "cafes", "title": "Cafes"}, {"alias": "international", "title": "International"}], "rating": 5.0, "coordinates": {"latitude": 53.54392, "longitude": 9.91661}, "transactions": [], "location": {"address1": "Augustinum Hamburg", "address2": "Neum\u00fchlen 37", "address3": "", "city": "Hamburg", "zip_code": "22763", "country": "DE", "state": "HH", "display_address": ["Augustinum Hamburg", "Neum\u00fchlen 37", "22763 Hamburg", "Germany"]}, "phone": "+494039194999", "display_phone": "+49 40 39194999", "distance": 4642.832885243879}, {"id": "_BNYVKl7NdOIzbpEfeFD0Q", "alias": "mundfein-pizzawerkstatt-hamburg-2", "name": "Mundfein Pizzawerkstatt", "image_url": "https://s3-media2.fl.yelpcdn.com/bphoto/V6jQeQHP487aHvucKn_zzg/o.jpg", "is_closed": false, "url": "https://www.yelp.com/biz/mundfein-pizzawerkstatt-hamburg-2?adjust_creative=hBJOknVQJ58S5goQyjmwRw&utm_campaign=yelp_api_v3&utm_medium=api_v3_business_search&utm_source=hBJOknVQJ58S5goQyjmwRw", "review_count": 8, "categories": [{"alias": "pizza", "title": "Pizza"}], "rating": 4.0, "coordinates": {"latitude": 53.4721624, "longitude": 9.8875506}, "transactions": [], "price": "\u20ac\u20ac\u20ac", "location": {"address1": "Cuxhavener Str. 152", "address2": null, "address3": null, "city": "Hamburg", "zip_code": "21149", "country": "DE", "state": "HH", "display_address": ["Cuxhavener Str. 152", "21149 Hamburg", "Germany"]}, "phone": "+494079752777", "display_phone": "+49 40 79752777", "distance": 3613.405136445438}, {"id": "RUvELTNuACC7Q89V3-0QbQ", "alias": "mcdonalds-hamburg-10", "name": "McDonald's", "image_url": "https://s3-media2.fl.yelpcdn.com/bphoto/fM32vOY4bl5EwLtw0hyMVw/o.jpg", "is_closed": false, "url": "https://www.yelp.com/biz/mcdonalds-hamburg-10?adjust_creative=hBJOknVQJ58S5goQyjmwRw&utm_campaign=yelp_api_v3&utm_medium=api_v3_business_search&utm_source=hBJOknVQJ58S5goQyjmwRw", "review_count": 7, "categories": [{"alias": "hotdogs", "title": "Fast Food"}, {"alias": "burgers", "title": "Burgers"}], "rating": 2.5, "coordinates": {"latitude": 53.4709864343674, "longitude": 9.92870281507347}, "transactions": [], "price": "\u20ac\u20ac", "location": {"address1": "Stader Str. 256", "address2": "", "address3": "", "city": "Hamburg", "zip_code": "21075", "country": "DE", "state": "HH", "display_address": ["Stader Str. 256", "21075 Hamburg", "Germany"]}, "phone": "+49407923009", "display_phone": "+49 40 7923009", "distance": 3800.1809186342775}, {"id": "d31D5VwmAC9qRuMdi_V6-A", "alias": "villa-im-heine-park-hamburg", "name": "Villa im Heine-Park", "image_url": "https://s3-media4.fl.yelpcdn.com/bphoto/mCxq0xG_4snQeUb0SQuLTA/o.jpg", "is_closed": false, "url": "https://www.yelp.com/biz/villa-im-heine-park-hamburg?adjust_creative=hBJOknVQJ58S5goQyjmwRw&utm_campaign=yelp_api_v3&utm_medium=api_v3_business_search&utm_source=hBJOknVQJ58S5goQyjmwRw", "review_count": 2, "categories": [{"alias": "venues", "title": "Venues & Event Spaces"}, {"alias": "cafes", "title": "Cafes"}], "rating": 5.0, "coordinates": {"latitude": 53.54555, "longitude": 9.92707}, "transactions": [], "location": {"address1": "Elbchaussee 43", "address2": "", "address3": "", "city": "Hamburg", "zip_code": "22765", "country": "DE", "state": "HH", "display_address": ["Elbchaussee 43", "22765 Hamburg", "Germany"]}, "phone": "+4940421070180", "display_phone": "+49 40 421070180", "distance": 4962.998367097078}]