[{"id": "HruG03Njlxgm3x31iY6q_Q", "alias": "pizzeria-piccola-hamburg", "name": "Pizzeria Piccola", "image_url": "https://s3-media2.fl.yelpcdn.com/bphoto/3DypNNz208QleNj_ydOb-Q/o.jpg", "is_closed": false, "url": "https://www.yelp.com/biz/pizzeria-piccola-hamburg?adjust_creative=hBJOknVQJ58S5goQyjmwRw&utm_campaign=yelp_api_v3&utm_medium=api_v3_business_search&utm_source=hBJOknVQJ58S5goQyjmwRw", "review_count": 29, "categories": [{"alias": "pizza", "title": "Pizza"}, {"alias": "italian", "title": "Italian"}], "rating": 5.0, "coordinates": {"latitude": 53.52375, "longitude": 10.01573}, "transactions": [], "price": "\u20ac", "location": {"address1": "Wilhelmsburger Platz 14", "address2": "", "address3": "", "city": "Hamburg", "zip_code": "20539", "country": "DE", "state": "HH", "display_address": ["Wilhelmsburger Platz 14", "20539 Hamburg", "Germany"]}, "phone": "+494079008490", "display_phone": "+49 40 79008490", "distance": 2580.513929305482}, {"id": "yFKrFeN3B3-AZh6FClPM0A", "alias": "mr-kebab-s\u00fcdland-hamburg", "name": "Mr. Kebab S\u00fcdland", "image_url": "https://s3-media1.fl.yelpcdn.com/bphoto/MtJMIdh9ExNJLIlWLPdfew/o.jpg", "is_closed": false, "url": "https://www.yelp.com/biz/mr-kebab-s%C3%BCdland-hamburg?adjust_creative=hBJOknVQJ58S5goQyjmwRw&utm_campaign=yelp_api_v3&utm_medium=api_v3_business_search&utm_source=hBJOknVQJ58S5goQyjmwRw", "review_count": 9, "categories": [{"alias": "turkish", "title": "Turkish"}, {"alias": "kebab", "title": "Kebab"}], "rating": 5.0, "coordinates": {"latitude": 53.4972749534473, "longitude": 10.0043760985136}, "transactions": [], "price": "\u20ac\u20ac", "location": {"address1": "Neuenfelder Str. 31", "address2": "", "address3": "", "city": "Hamburg", "zip_code": "21109", "country": "DE", "state": "HH", "display_address": ["Neuenfelder Str. 31", "21109 Hamburg", "Germany"]}, "phone": "+4915209060666", "display_phone": "+49 1520 9060666", "distance": 1595.688979317724}, {"id": "nBgzcYJxYY3TAhfP-L0H3Q", "alias": "veddeler-fischgastst\u00e4tte-hamburg", "name": "Veddeler Fischgastst\u00e4tte", "image_url": "https://s3-media3.fl.yelpcdn.com/bphoto/v2zqQ0t4NcdVYHFJgGTleg/o.jpg", "is_closed": false, "url": "https://www.yelp.com/biz/veddeler-fischgastst%C3%A4tte-hamburg?adjust_creative=hBJOknVQJ58S5goQyjmwRw&utm_campaign=yelp_api_v3&utm_medium=api_v3_business_search&utm_source=hBJOknVQJ58S5goQyjmwRw", "review_count": 122, "categories": [{"alias": "fishnchips", "title": "Fish & Chips"}, {"alias": "seafood", "title": "Seafood"}, {"alias": "northerngerman", "title": "Northern German"}], "rating": 4.5, "coordinates": {"latitude": 53.529258, "longitude": 10.0204}, "transactions": [], "price": "\u20ac\u20ac", "location": {"address1": "Tunnelstr. 70", "address2": "", "address3": "", "city": "Hamburg", "zip_code": "20539", "country": "DE", "state": "HH", "display_address": ["Tunnelstr. 70", "20539 Hamburg", "Germany"]}, "phone": "+4940786389", "display_phone": "+49 40 786389", "distance": 3109.7630833157446}, {"id": "-T6JvFBrGMa1iS1O5JbJ2g", "alias": "gastst\u00e4tte-zur-m\u00fchlenklause-hamburg", "name": "Gastst\u00e4tte Zur M\u00fchlenklause", "image_url": "https://s3-media2.fl.yelpcdn.com/bphoto/xJ-PNRG2m3Eq0fBNmhCTcQ/o.jpg", "is_closed": false, "url": "https://www.yelp.com/biz/gastst%C3%A4tte-zur-m%C3%BChlenklause-hamburg?adjust_creative=hBJOknVQJ58S5goQyjmwRw&utm_campaign=yelp_api_v3&utm_medium=api_v3_business_search&utm_source=hBJOknVQJ58S5goQyjmwRw", "review_count": 1, "categories": [{"alias": "german", "title": "German"}], "rating": 4.0, "coordinates": {"latitude": 53.53622, "longitude": 10.03305}, "transactions": [], "location": {"address1": "Billhorner M\u00fchlenweg 26", "address2": null, "address3": null, "city": "Hamburg", "zip_code": "20539", "country": "DE", "state": "HH", "display_address": ["Billhorner M\u00fchlenweg 26", "20539 Hamburg", "Germany"]}, "phone": "+4940785192", "display_phone": "+49 40 785192", "distance": 3867.61453162909}, {"id": "g0y_UjeNh4fAs7_1mvQAIg", "alias": "biller-lunch-haus-hamburg-2", "name": "Biller Lunch Haus", "image_url": "https://s3-media4.fl.yelpcdn.com/bphoto/5vNToWhrpNudf0T56hyKsg/o.jpg", "is_closed": false, "url": "https://www.yelp.com/biz/biller-lunch-haus-hamburg-2?adjust_creative=hBJOknVQJ58S5goQyjmwRw&utm_campaign=yelp_api_v3&utm_medium=api_v3_business_search&utm_source=hBJOknVQJ58S5goQyjmwRw", "review_count": 3, "categories": [{"alias": "international", "title": "International"}, {"alias": "italian", "title": "Italian"}], "rating": 5.0, "coordinates": {"latitude": 53.5400009, "longitude": 10.0448599}, "transactions": [], "location": {"address1": "Ausschl\u00e4ger Billdeich 16", "address2": "", "address3": "", "city": "Hamburg", "zip_code": "20539", "country": "DE", "state": "HH", "display_address": ["Ausschl\u00e4ger Billdeich 16", "20539 Hamburg", "Germany"]}, "phone": "+494087600574", "display_phone": "+49 40 87600574", "distance": 4417.118232287413}, {"id": "SFUK2wwcdACH-1iYf5-y4Q", "alias": "juventude-do-minho-hamburg", "name": "Juventude do Minho", "image_url": "", "is_closed": false, "url": "https://www.yelp.com/biz/juventude-do-minho-hamburg?adjust_creative=hBJOknVQJ58S5goQyjmwRw&utm_campaign=yelp_api_v3&utm_medium=api_v3_business_search&utm_source=hBJOknVQJ58S5goQyjmwRw", "review_count": 2, "categories": [{"alias": "portuguese", "title": "Portuguese"}], "rating": 4.5, "coordinates": {"latitude": 53.5169, "longitude": 10.0035}, "transactions": [], "price": "\u20ac", "location": {"address1": "Stenzelring 24", "address2": null, "address3": null, "city": "Hamburg", "zip_code": "21107", "country": "DE", "state": "HH", "display_address": ["Stenzelring 24", "21107 Hamburg", "Germany"]}, "phone": "+49407521101", "display_phone": "+49 40 7521101", "distance": 2321.0859565817664}, {"id": "Mht3cgKJjA_rrfxla8x6rA", "alias": "the-table-hamburg", "name": "The Table", "image_url": "https://s3-media2.fl.yelpcdn.com/bphoto/hEQnX6xYCz2buBeR53DDug/o.jpg", "is_closed": false, "url": "https://www.yelp.com/biz/the-table-hamburg?adjust_creative=hBJOknVQJ58S5goQyjmwRw&utm_campaign=yelp_api_v3&utm_medium=api_v3_business_search&utm_source=hBJOknVQJ58S5goQyjmwRw", "review_count": 12, "categories": [{"alias": "modern_european", "title": "Modern European"}], "rating": 5.0, "coordinates": {"latitude": 53.54261, "longitude": 10.00305}, "transactions": [], "price": "\u20ac\u20ac\u20ac\u20ac", "location": {"address1": "Shanghaiallee 15", "address2": "", "address3": "", "city": "Hamburg", "zip_code": "20457", "country": "DE", "state": "HH", "display_address": ["Shanghaiallee 15", "20457 Hamburg", "Germany"]}, "phone": "+494022867422", "display_phone": "+49 40 22867422", "distance": 4833.7818115613145}, {"id": "jNjcKjZidgN5OHsg1MatuQ", "alias": "entenwerder1-hamburg", "name": "Entenwerder1", "image_url": "https://s3-media4.fl.yelpcdn.com/bphoto/nVwf_MRHWCZIA1rH92pjgg/o.jpg", "is_closed": false, "url": "https://www.yelp.com/biz/entenwerder1-hamburg?adjust_creative=hBJOknVQJ58S5goQyjmwRw&utm_campaign=yelp_api_v3&utm_medium=api_v3_business_search&utm_source=hBJOknVQJ58S5goQyjmwRw", "review_count": 27, "categories": [{"alias": "bars", "title": "Bars"}, {"alias": "cafes", "title": "Cafes"}], "rating": 3.5, "coordinates": {"latitude": 53.5293485335548, "longitude": 10.0372358486707}, "transactions": [], "price": "\u20ac\u20ac", "location": {"address1": "Entenwerder 1", "address2": "", "address3": "", "city": "Hamburg", "zip_code": "20539", "country": "DE", "state": "HH", "display_address": ["Entenwerder 1", "20539 Hamburg", "Germany"]}, "phone": "+494070293588", "display_phone": "+49 40 70293588", "distance": 3153.4803313474476}, {"id": "zJS8PYfLlhzWN9dJto6wrw", "alias": "erfrischungsraum-brandshof-hamburg-2", "name": "Erfrischungsraum Brandshof", "image_url": "https://s3-media3.fl.yelpcdn.com/bphoto/2Sbf-vGhAr7VAR9Ejte5ug/o.jpg", "is_closed": false, "url": "https://www.yelp.com/biz/erfrischungsraum-brandshof-hamburg-2?adjust_creative=hBJOknVQJ58S5goQyjmwRw&utm_campaign=yelp_api_v3&utm_medium=api_v3_business_search&utm_source=hBJOknVQJ58S5goQyjmwRw", "review_count": 25, "categories": [{"alias": "cafes", "title": "Cafes"}, {"alias": "breakfast_brunch", "title": "Breakfast & Brunch"}, {"alias": "tapasmallplates", "title": "Tapas/Small Plates"}], "rating": 5.0, "coordinates": {"latitude": 53.5400045863348, "longitude": 10.0271927111003}, "transactions": [], "price": "\u20ac", "location": {"address1": "Billhorner R\u00f6hrendamm 4", "address2": "", "address3": "", "city": "Hamburg", "zip_code": "20539", "country": "DE", "state": "HH", "display_address": ["Billhorner R\u00f6hrendamm 4", "20539 Hamburg", "Germany"]}, "phone": "+4940782564", "display_phone": "+49 40 782564", "distance": 4270.320308356866}, {"id": "gd_YrUKvO5wVpw5Z7zPQWQ", "alias": "taverna-knossos-palace-hamburg", "name": "Taverna Knossos Palace", "image_url": "https://s3-media1.fl.yelpcdn.com/bphoto/8Fn_uEiBAwvYU7RLA4nwmg/o.jpg", "is_closed": false, "url": "https://www.yelp.com/biz/taverna-knossos-palace-hamburg?adjust_creative=hBJOknVQJ58S5goQyjmwRw&utm_campaign=yelp_api_v3&utm_medium=api_v3_business_search&utm_source=hBJOknVQJ58S5goQyjmwRw", "review_count": 12, "categories": [{"alias": "greek", "title": "Greek"}], "rating": 4.0, "coordinates": {"latitude": 53.49909, "longitude": 10.02473}, "transactions": [], "price": "\u20ac\u20ac", "location": {"address1": "Kirchdorfer Str. 48", "address2": "", "address3": "", "city": "Hamburg", "zip_code": "21109", "country": "DE", "state": "HH", "display_address": ["Kirchdorfer Str. 48", "21109 Hamburg", "Germany"]}, "phone": "+494023936053", "display_phone": "+49 40 23936053", "distance": 330.2031085215998}, {"id": "w-uxLCNAf06QBlfzC83DAQ", "alias": "sallis-imbiss-b\u00e4ckerei-kiosk-hamburg", "name": "Salli's Imbiss B\u00e4ckerei Kiosk", "image_url": "https://s3-media3.fl.yelpcdn.com/bphoto/diHMMAd18aWy_LL3XHbbDQ/o.jpg", "is_closed": false, "url": "https://www.yelp.com/biz/sallis-imbiss-b%C3%A4ckerei-kiosk-hamburg?adjust_creative=hBJOknVQJ58S5goQyjmwRw&utm_campaign=yelp_api_v3&utm_medium=api_v3_business_search&utm_source=hBJOknVQJ58S5goQyjmwRw", "review_count": 5, "categories": [{"alias": "hotdogs", "title": "Fast Food"}, {"alias": "kebab", "title": "Kebab"}], "rating": 2.5, "coordinates": {"latitude": 53.5229472, "longitude": 10.014432}, "transactions": [], "price": "\u20ac\u20ac", "location": {"address1": "Wilhelmsburger Platz   Hamburg 10", "address2": null, "address3": null, "city": "Hamburg", "zip_code": "20539", "country": "DE", "state": "HH", "display_address": ["Wilhelmsburger Platz   Hamburg 10", "20539 Hamburg", "Germany"]}, "phone": "+494078089429", "display_phone": "+49 40 78089429", "distance": 2523.2731261811027}, {"id": "tsMbmtFE7c8oI4BpbBWfkQ", "alias": "refugium-hamburg", "name": "Refugium", "image_url": "https://s3-media2.fl.yelpcdn.com/bphoto/bHZfzE7ViTgSRY7PhswAtw/o.jpg", "is_closed": false, "url": "https://www.yelp.com/biz/refugium-hamburg?adjust_creative=hBJOknVQJ58S5goQyjmwRw&utm_campaign=yelp_api_v3&utm_medium=api_v3_business_search&utm_source=hBJOknVQJ58S5goQyjmwRw", "review_count": 1, "categories": [{"alias": "mediterranean", "title": "Mediterranean"}, {"alias": "bistros", "title": "Bistros"}], "rating": 4.0, "coordinates": {"latitude": 53.4945412, "longitude": 10.0030804}, "transactions": [], "price": "\u20ac\u20ac", "location": {"address1": "Inselpark 20", "address2": "", "address3": "", "city": "Hamburg", "zip_code": "21109", "country": "DE", "state": "HH", "display_address": ["Inselpark 20", "21109 Hamburg", "Germany"]}, "phone": "+494033442688", "display_phone": "+49 40 33442688", "distance": 1780.5395127732404}, {"id": "EgKKnh3rXM6vvU8ChA_Cag", "alias": "tortuga-beach-hamburg", "name": "Tortuga Beach", "image_url": "https://s3-media1.fl.yelpcdn.com/bphoto/BwMra9jGdoe_Q7uTRITDug/o.jpg", "is_closed": false, "url": "https://www.yelp.com/biz/tortuga-beach-hamburg?adjust_creative=hBJOknVQJ58S5goQyjmwRw&utm_campaign=yelp_api_v3&utm_medium=api_v3_business_search&utm_source=hBJOknVQJ58S5goQyjmwRw", "review_count": 5, "categories": [{"alias": "bars", "title": "Bars"}, {"alias": "italian", "title": "Italian"}, {"alias": "burgers", "title": "Burgers"}], "rating": 4.5, "coordinates": {"latitude": 53.4590968, "longitude": 10.0138964}, "transactions": [], "price": "\u20ac\u20ac", "location": {"address1": "Am Neul\u00e4nder Baggerteich 3", "address2": "", "address3": "", "city": "Hamburg", "zip_code": "21079", "country": "DE", "state": "HH", "display_address": ["Am Neul\u00e4nder Baggerteich 3", "21079 Hamburg", "Germany"]}, "phone": "+494915231713404", "display_phone": "+49 491 5231713404", "distance": 4809.693794384916}, {"id": "O3_9LrM2z7eyznSAP9KrsA", "alias": "ufuk-imbiss-hamburg", "name": "Ufuk Imbiss", "image_url": "https://s3-media2.fl.yelpcdn.com/bphoto/goYm_dAQrCE9-1hW9ORJxw/o.jpg", "is_closed": false, "url": "https://www.yelp.com/biz/ufuk-imbiss-hamburg?adjust_creative=hBJOknVQJ58S5goQyjmwRw&utm_campaign=yelp_api_v3&utm_medium=api_v3_business_search&utm_source=hBJOknVQJ58S5goQyjmwRw", "review_count": 7, "categories": [{"alias": "kebab", "title": "Kebab"}], "rating": 4.5, "coordinates": {"latitude": 53.4930679366908, "longitude": 10.0133583998035}, "transactions": [], "price": "\u20ac", "location": {"address1": "Neuenfelder Str. 96", "address2": null, "address3": null, "city": "Hamburg", "zip_code": "21109", "country": "DE", "state": "HH", "display_address": ["Neuenfelder Str. 96", "21109 Hamburg", "Germany"]}, "phone": "+491734556070", "display_phone": "+49 173 4556070", "distance": 1326.7676791177137}, {"id": "98aFDKSYZnwJtLLe3Wxf6w", "alias": "d\u00f6nerei-hamburg", "name": "D\u00f6nerei", "image_url": "https://s3-media3.fl.yelpcdn.com/bphoto/f3PUgog-jh2fWrr-o6ntNg/o.jpg", "is_closed": false, "url": "https://www.yelp.com/biz/d%C3%B6nerei-hamburg?adjust_creative=hBJOknVQJ58S5goQyjmwRw&utm_campaign=yelp_api_v3&utm_medium=api_v3_business_search&utm_source=hBJOknVQJ58S5goQyjmwRw", "review_count": 2, "categories": [{"alias": "kebab", "title": "Kebab"}], "rating": 5.0, "coordinates": {"latitude": 53.5338809470294, "longitude": 10.03906685719}, "transactions": [], "price": "\u20ac", "location": {"address1": "Rothenburgsorter Marktplatz 1-3", "address2": "", "address3": "", "city": "Hamburg", "zip_code": "20539", "country": "DE", "state": "HH", "display_address": ["Rothenburgsorter Marktplatz 1-3", "20539 Hamburg", "Germany"]}, "phone": "", "display_phone": "", "distance": 3671.619213644137}, {"id": "bV7QqSWeT214eEYNKFHfUQ", "alias": "schweinske-hamburg-14", "name": "Schweinske", "image_url": "https://s3-media2.fl.yelpcdn.com/bphoto/EP1I_Xr6BSXui6fd3YbgDQ/o.jpg", "is_closed": false, "url": "https://www.yelp.com/biz/schweinske-hamburg-14?adjust_creative=hBJOknVQJ58S5goQyjmwRw&utm_campaign=yelp_api_v3&utm_medium=api_v3_business_search&utm_source=hBJOknVQJ58S5goQyjmwRw", "review_count": 7, "categories": [{"alias": "german", "title": "German"}], "rating": 3.0, "coordinates": {"latitude": 53.4982, "longitude": 10.011}, "transactions": [], "price": "\u20ac\u20ac\u20ac", "location": {"address1": "Berta-Kr\u00f6ger-Platz", "address2": "Krieterstr. 18", "address3": null, "city": "Hamburg", "zip_code": "21109", "country": "DE", "state": "HH", "display_address": ["Berta-Kr\u00f6ger-Platz", "Krieterstr. 18", "21109 Hamburg", "Germany"]}, "phone": "+494023936965", "display_phone": "+49 40 23936965", "distance": 1147.435749197078}, {"id": "FY6Q336c3PrPp0L1hQW8xA", "alias": "kupferkrug-hamburg-2", "name": "Kupferkrug", "image_url": "https://s3-media2.fl.yelpcdn.com/bphoto/bcUnTUt1FY0jQRh_m4zz4A/o.jpg", "is_closed": false, "url": "https://www.yelp.com/biz/kupferkrug-hamburg-2?adjust_creative=hBJOknVQJ58S5goQyjmwRw&utm_campaign=yelp_api_v3&utm_medium=api_v3_business_search&utm_source=hBJOknVQJ58S5goQyjmwRw", "review_count": 13, "categories": [{"alias": "german", "title": "German"}], "rating": 4.0, "coordinates": {"latitude": 53.51124, "longitude": 10.02055}, "transactions": [], "price": "\u20ac\u20ac\u20ac", "location": {"address1": "Niedergeorgswerder Deich 75", "address2": null, "address3": null, "city": "Hamburg", "zip_code": "21109", "country": "DE", "state": "HH", "display_address": ["Niedergeorgswerder Deich 75", "21109 Hamburg", "Germany"]}, "phone": "+49407544901", "display_phone": "+49 40 7544901", "distance": 1163.088449940734}, {"id": "ILJdjVeC9EU0ZAyl2IZfkw", "alias": "harbour-grill-hamburg", "name": "Harbour Grill", "image_url": "https://s3-media3.fl.yelpcdn.com/bphoto/AY0u571SmrBj3Qlyqq6niw/o.jpg", "is_closed": false, "url": "https://www.yelp.com/biz/harbour-grill-hamburg?adjust_creative=hBJOknVQJ58S5goQyjmwRw&utm_campaign=yelp_api_v3&utm_medium=api_v3_business_search&utm_source=hBJOknVQJ58S5goQyjmwRw", "review_count": 2, "categories": [{"alias": "steak", "title": "Steakhouses"}, {"alias": "currysausage", "title": "Curry Sausage"}], "rating": 3.0, "coordinates": {"latitude": 53.5446, "longitude": 10.015}, "transactions": [], "price": "\u20ac\u20ac", "location": {"address1": "Banksstr. 28", "address2": null, "address3": null, "city": "Hamburg", "zip_code": "20097", "country": "DE", "state": "HH", "display_address": ["Banksstr. 28", "20097 Hamburg", "Germany"]}, "phone": "+4940324531", "display_phone": "+49 40 324531", "distance": 4850.811105717832}, {"id": "kWJowGmc_ltrgOpxjBtY0g", "alias": "bistro-chaplin-hamburg-2", "name": "Bistro Chaplin", "image_url": "https://s3-media3.fl.yelpcdn.com/bphoto/fDrKUKCgK5bwzb4YH29bKA/o.jpg", "is_closed": false, "url": "https://www.yelp.com/biz/bistro-chaplin-hamburg-2?adjust_creative=hBJOknVQJ58S5goQyjmwRw&utm_campaign=yelp_api_v3&utm_medium=api_v3_business_search&utm_source=hBJOknVQJ58S5goQyjmwRw", "review_count": 8, "categories": [{"alias": "bars", "title": "Bars"}, {"alias": "bistros", "title": "Bistros"}], "rating": 4.5, "coordinates": {"latitude": 53.5335, "longitude": 10.03953}, "transactions": [], "price": "\u20ac\u20ac", "location": {"address1": "Rothenburgsorter Marktplatz 4", "address2": null, "address3": null, "city": "Hamburg", "zip_code": "20539", "country": "DE", "state": "HH", "display_address": ["Rothenburgsorter Marktplatz 4", "20539 Hamburg", "Germany"]}, "phone": "+494098263553", "display_phone": "+49 40 98263553", "distance": 3636.8611272180806}, {"id": "RsWynCVZqVoHY8nTdx89Zw", "alias": "vatandas-hamburg", "name": "Vatandas", "image_url": "https://s3-media3.fl.yelpcdn.com/bphoto/IgLXSWyxkYXi-93l1LUB0A/o.jpg", "is_closed": false, "url": "https://www.yelp.com/biz/vatandas-hamburg?adjust_creative=hBJOknVQJ58S5goQyjmwRw&utm_campaign=yelp_api_v3&utm_medium=api_v3_business_search&utm_source=hBJOknVQJ58S5goQyjmwRw", "review_count": 1, "categories": [{"alias": "hotdogs", "title": "Fast Food"}], "rating": 4.0, "coordinates": {"latitude": 53.5254, "longitude": 10.021}, "transactions": [], "location": {"address1": "Veddeler Br\u00fcckenstr. 132", "address2": null, "address3": null, "city": "Hamburg", "zip_code": "20539", "country": "DE", "state": "HH", "display_address": ["Veddeler Br\u00fcckenstr. 132", "20539 Hamburg", "Germany"]}, "phone": "+494041548862", "display_phone": "+49 40 41548862", "distance": 2679.750386288235}, {"id": "3H3LA7zHDQMKxhbKZ_uXXA", "alias": "weltcaf\u00e9-elbfaire-hamburg", "name": "Weltcaf\u00e9 ElbFaire", "image_url": "https://s3-media3.fl.yelpcdn.com/bphoto/M3fR1UtCWWFDDOmBfbcdOw/o.jpg", "is_closed": false, "url": "https://www.yelp.com/biz/weltcaf%C3%A9-elbfaire-hamburg?adjust_creative=hBJOknVQJ58S5goQyjmwRw&utm_campaign=yelp_api_v3&utm_medium=api_v3_business_search&utm_source=hBJOknVQJ58S5goQyjmwRw", "review_count": 3, "categories": [{"alias": "cafes", "title": "Cafes"}], "rating": 4.5, "coordinates": {"latitude": 53.5430102, "longitude": 10.0025401}, "transactions": [], "price": "\u20ac\u20ac", "location": {"address1": "Shanghaiallee 12", "address2": null, "address3": null, "city": "Hamburg", "zip_code": "20457", "country": "DE", "state": "HH", "display_address": ["Shanghaiallee 12", "20457 Hamburg", "Germany"]}, "phone": "", "display_phone": "", "distance": 4888.530790472831}, {"id": "_lnuho27eVj0Mo9uaUwKjw", "alias": "mina-restaurant-hamburg", "name": "Mina Restaurant", "image_url": "https://s3-media3.fl.yelpcdn.com/bphoto/sQklcxFb_JpubEyocZAv0g/o.jpg", "is_closed": false, "url": "https://www.yelp.com/biz/mina-restaurant-hamburg?adjust_creative=hBJOknVQJ58S5goQyjmwRw&utm_campaign=yelp_api_v3&utm_medium=api_v3_business_search&utm_source=hBJOknVQJ58S5goQyjmwRw", "review_count": 9, "categories": [{"alias": "hotdogs", "title": "Fast Food"}], "rating": 3.5, "coordinates": {"latitude": 53.49804, "longitude": 10.00861}, "transactions": [], "price": "\u20ac", "location": {"address1": "Wilhelm-Strau\u00df-Weg 8", "address2": "", "address3": "", "city": "Hamburg", "zip_code": "21109", "country": "DE", "state": "HH", "display_address": ["Wilhelm-Strau\u00df-Weg 8", "21109 Hamburg", "Germany"]}, "phone": "+494030236968", "display_phone": "+49 40 30236968", "distance": 1303.0261796348204}, {"id": "G8vTrkjmYm7ymw8fYQ_-0A", "alias": "baakennest-hamburg", "name": "BaakenNest", "image_url": "https://s3-media3.fl.yelpcdn.com/bphoto/qeJrORu6lUhM5uLKtraHew/o.jpg", "is_closed": false, "url": "https://www.yelp.com/biz/baakennest-hamburg?adjust_creative=hBJOknVQJ58S5goQyjmwRw&utm_campaign=yelp_api_v3&utm_medium=api_v3_business_search&utm_source=hBJOknVQJ58S5goQyjmwRw", "review_count": 1, "categories": [{"alias": "bars", "title": "Bars"}, {"alias": "delis", "title": "Delis"}], "rating": 5.0, "coordinates": {"latitude": 53.5397197726081, "longitude": 10.0116428015394}, "transactions": [], "location": {"address1": "Versmannstr. 24", "address2": "", "address3": null, "city": "Hamburg", "zip_code": "20457", "country": "DE", "state": "HH", "display_address": ["Versmannstr. 24", "20457 Hamburg", "Germany"]}, "phone": "+494030094120", "display_phone": "+49 40 30094120", "distance": 4364.429826367076}, {"id": "jUPENPA2agvBwm75l0CokQ", "alias": "alt-deutsche-k\u00fcche-elbbr\u00fccken-hamburg", "name": "Alt Deutsche K\u00fcche Elbbr\u00fccken", "image_url": "https://s3-media3.fl.yelpcdn.com/bphoto/Aeqh23mIiMdstatkmYSe2Q/o.jpg", "is_closed": false, "url": "https://www.yelp.com/biz/alt-deutsche-k%C3%BCche-elbbr%C3%BCcken-hamburg?adjust_creative=hBJOknVQJ58S5goQyjmwRw&utm_campaign=yelp_api_v3&utm_medium=api_v3_business_search&utm_source=hBJOknVQJ58S5goQyjmwRw", "review_count": 23, "categories": [{"alias": "northerngerman", "title": "Northern German"}, {"alias": "sportsbars", "title": "Sports Bars"}], "rating": 3.5, "coordinates": {"latitude": 53.5366893475375, "longitude": 10.033874680426}, "transactions": [], "price": "\u20ac\u20ac", "location": {"address1": "Billhorner R\u00f6hrendamm 94", "address2": null, "address3": "", "city": "Hamburg", "zip_code": "20539", "country": "DE", "state": "HH", "display_address": ["Billhorner R\u00f6hrendamm 94", "20539 Hamburg", "Germany"]}, "phone": "+4940786286", "display_phone": "+49 40 786286", "distance": 3925.226739633417}, {"id": "XIgAJqYrSM9reXc9i4PSUw", "alias": "100-200-hamburg", "name": "100/200", "image_url": "", "is_closed": false, "url": "https://www.yelp.com/biz/100-200-hamburg?adjust_creative=hBJOknVQJ58S5goQyjmwRw&utm_campaign=yelp_api_v3&utm_medium=api_v3_business_search&utm_source=hBJOknVQJ58S5goQyjmwRw", "review_count": 1, "categories": [{"alias": "modern_european", "title": "Modern European"}], "rating": 5.0, "coordinates": {"latitude": 53.537946, "longitude": 10.028275}, "transactions": [], "location": {"address1": "Brandshofer Deich 68", "address2": "", "address3": null, "city": "Hamburg", "zip_code": "20539", "country": "DE", "state": "HH", "display_address": ["Brandshofer Deich 68", "20539 Hamburg", "Germany"]}, "phone": "+494030925191", "display_phone": "+49 40 30925191", "distance": 3967.120917404448}, {"id": "sdAZwPKxjK9G_tgdBTQm_Q", "alias": "hallo-pizza-hamburg-16", "name": "Hallo Pizza", "image_url": "https://s3-media1.fl.yelpcdn.com/bphoto/Ws_ObNA3I4z-EMXMgWO2-g/o.jpg", "is_closed": false, "url": "https://www.yelp.com/biz/hallo-pizza-hamburg-16?adjust_creative=hBJOknVQJ58S5goQyjmwRw&utm_campaign=yelp_api_v3&utm_medium=api_v3_business_search&utm_source=hBJOknVQJ58S5goQyjmwRw", "review_count": 1, "categories": [{"alias": "pizza", "title": "Pizza"}], "rating": 5.0, "coordinates": {"latitude": 53.4961847403054, "longitude": 10.0036735875583}, "transactions": [], "location": {"address1": "Neuenfelder Str. 31", "address2": "", "address3": null, "city": "Hamburg", "zip_code": "20457", "country": "DE", "state": "HH", "display_address": ["Neuenfelder Str. 31", "20457 Hamburg", "Germany"]}, "phone": "+494031807141", "display_phone": "+49 40 31807141", "distance": 1679.629304637967}, {"id": "AlDUWW2NRY5iWci8qbBJag", "alias": "bistro-sharri-hamburg", "name": "Bistro Sharri", "image_url": "https://s3-media2.fl.yelpcdn.com/bphoto/A5vAJhLb8SG5ZTFUkN4Q7w/o.jpg", "is_closed": false, "url": "https://www.yelp.com/biz/bistro-sharri-hamburg?adjust_creative=hBJOknVQJ58S5goQyjmwRw&utm_campaign=yelp_api_v3&utm_medium=api_v3_business_search&utm_source=hBJOknVQJ58S5goQyjmwRw", "review_count": 1, "categories": [{"alias": "bistros", "title": "Bistros"}, {"alias": "modern_european", "title": "Modern European"}], "rating": 4.0, "coordinates": {"latitude": 53.5011180951635, "longitude": 10.0088192406728}, "transactions": [], "price": "\u20ac\u20ac", "location": {"address1": "Wittestra\u00dfe 7", "address2": "", "address3": null, "city": "Hamburg", "zip_code": "21109", "country": "DE", "state": "HH", "display_address": ["Wittestra\u00dfe 7", "21109 Hamburg", "Germany"]}, "phone": "+494031794321", "display_phone": "+49 40 31794321", "distance": 1228.7023757916745}, {"id": "svMvWfP_oj_T5ol1u3gH0A", "alias": "gasthof-sohre-hamburg", "name": "Gasthof Sohre", "image_url": "https://s3-media2.fl.yelpcdn.com/bphoto/JLMLC6GhAnw8WCg0KW-btw/o.jpg", "is_closed": false, "url": "https://www.yelp.com/biz/gasthof-sohre-hamburg?adjust_creative=hBJOknVQJ58S5goQyjmwRw&utm_campaign=yelp_api_v3&utm_medium=api_v3_business_search&utm_source=hBJOknVQJ58S5goQyjmwRw", "review_count": 20, "categories": [{"alias": "hotels", "title": "Hotels"}, {"alias": "german", "title": "German"}], "rating": 3.5, "coordinates": {"latitude": 53.4869, "longitude": 10.0163}, "transactions": [], "price": "\u20ac\u20ac", "location": {"address1": "Kirchdorfer Str. 169", "address2": null, "address3": null, "city": "Hamburg", "zip_code": "21109", "country": "DE", "state": "HH", "display_address": ["Kirchdorfer Str. 169", "21109 Hamburg", "Germany"]}, "phone": "+494031976742", "display_phone": "+49 40 31976742", "distance": 1791.4243700192185}, {"id": "j0ysYcDNHxTNKmuAvcgJ4A", "alias": "restaurant-blaue-adria-hamburg", "name": "Restaurant blaue Adria", "image_url": "https://s3-media2.fl.yelpcdn.com/bphoto/sbQfdYTdnDqTJXukxLa_lw/o.jpg", "is_closed": false, "url": "https://www.yelp.com/biz/restaurant-blaue-adria-hamburg?adjust_creative=hBJOknVQJ58S5goQyjmwRw&utm_campaign=yelp_api_v3&utm_medium=api_v3_business_search&utm_source=hBJOknVQJ58S5goQyjmwRw", "review_count": 5, "categories": [{"alias": "german", "title": "German"}], "rating": 4.0, "coordinates": {"latitude": 53.5352, "longitude": 10.0414}, "transactions": [], "price": "\u20ac\u20ac", "location": {"address1": "Marckmannstr. 74", "address2": null, "address3": null, "city": "Hamburg", "zip_code": "20539", "country": "DE", "state": "HH", "display_address": ["Marckmannstr. 74", "20539 Hamburg", "Germany"]}, "phone": "+49407890242", "display_phone": "+49 40 7890242", "distance": 3849.334861868495}, {"id": "_M1WzOBE-XxhsHyxrEL6kQ", "alias": "mein-d\u00f6ner-hamburg", "name": "Mein D\u00f6ner", "image_url": "https://s3-media2.fl.yelpcdn.com/bphoto/loDEw0PVlsd3ErHh6ALjNA/o.jpg", "is_closed": false, "url": "https://www.yelp.com/biz/mein-d%C3%B6ner-hamburg?adjust_creative=hBJOknVQJ58S5goQyjmwRw&utm_campaign=yelp_api_v3&utm_medium=api_v3_business_search&utm_source=hBJOknVQJ58S5goQyjmwRw", "review_count": 7, "categories": [{"alias": "kebab", "title": "Kebab"}], "rating": 3.5, "coordinates": {"latitude": 53.5365884457337, "longitude": 10.0344046872517}, "transactions": [], "price": "\u20ac", "location": {"address1": "Billhorner R\u00f6hrendamm 98", "address2": "", "address3": null, "city": "Hamburg", "zip_code": "20539", "country": "DE", "state": "HH", "display_address": ["Billhorner R\u00f6hrendamm 98", "20539 Hamburg", "Germany"]}, "phone": "+494078081199", "display_phone": "+49 40 78081199", "distance": 3918.073750638596}, {"id": "TQZu5TXWITuFj5bqRMVQEw", "alias": "entenwerder-f\u00e4hrhaus-hamburg", "name": "Entenwerder F\u00e4hrhaus", "image_url": "https://s3-media2.fl.yelpcdn.com/bphoto/VB1uXzzWSGKR97ZDzNUs2g/o.jpg", "is_closed": false, "url": "https://www.yelp.com/biz/entenwerder-f%C3%A4hrhaus-hamburg?adjust_creative=hBJOknVQJ58S5goQyjmwRw&utm_campaign=yelp_api_v3&utm_medium=api_v3_business_search&utm_source=hBJOknVQJ58S5goQyjmwRw", "review_count": 5, "categories": [{"alias": "german", "title": "German"}, {"alias": "beergarden", "title": "Beer Garden"}], "rating": 3.5, "coordinates": {"latitude": 53.530194, "longitude": 10.040777}, "transactions": [], "price": "\u20ac", "location": {"address1": "Entenwerder Stieg 6 - 8", "address2": null, "address3": null, "city": "Hamburg", "zip_code": "20539", "country": "DE", "state": "HH", "display_address": ["Entenwerder Stieg 6 - 8", "20539 Hamburg", "Germany"]}, "phone": "", "display_phone": "", "distance": 3300.5107486285365}, {"id": "a16kZh83Ee5ZoSjXghj_5A", "alias": "orange-coffee-hamburg", "name": "Orange Coffee", "image_url": "https://s3-media3.fl.yelpcdn.com/bphoto/FtZQ0d-fQW57NOdZLrtiHg/o.jpg", "is_closed": false, "url": "https://www.yelp.com/biz/orange-coffee-hamburg?adjust_creative=hBJOknVQJ58S5goQyjmwRw&utm_campaign=yelp_api_v3&utm_medium=api_v3_business_search&utm_source=hBJOknVQJ58S5goQyjmwRw", "review_count": 2, "categories": [{"alias": "kiosk", "title": "Kiosk"}, {"alias": "backshop", "title": "Backshop"}, {"alias": "cafes", "title": "Cafes"}], "rating": 4.5, "coordinates": {"latitude": 53.5363151285288, "longitude": 10.0347996877954}, "transactions": [], "location": {"address1": "Billhorner R\u00f6hrendamm 104", "address2": "", "address3": "", "city": "Hamburg", "zip_code": "20539", "country": "DE", "state": "HH", "display_address": ["Billhorner R\u00f6hrendamm 104", "20539 Hamburg", "Germany"]}, "phone": "+494084508431", "display_phone": "+49 40 84508431", "distance": 3891.104606300613}, {"id": "eiiSy1-2zbpcdvMmHzMtzg", "alias": "kotan-imbis-hamburg-3", "name": "Kotan \u0130mbis", "image_url": "https://s3-media2.fl.yelpcdn.com/bphoto/0MMBhvtM7pmASgdkjQzL0A/o.jpg", "is_closed": false, "url": "https://www.yelp.com/biz/kotan-imbis-hamburg-3?adjust_creative=hBJOknVQJ58S5goQyjmwRw&utm_campaign=yelp_api_v3&utm_medium=api_v3_business_search&utm_source=hBJOknVQJ58S5goQyjmwRw", "review_count": 1, "categories": [{"alias": "hotdogs", "title": "Fast Food"}], "rating": 5.0, "coordinates": {"latitude": 53.525, "longitude": 10.0208}, "transactions": [], "location": {"address1": "Veddeler Br\u00fcckenstr. 69", "address2": null, "address3": null, "city": "Hamburg", "zip_code": "20539", "country": "DE", "state": "HH", "display_address": ["Veddeler Br\u00fcckenstr. 69", "20539 Hamburg", "Germany"]}, "phone": "", "display_phone": "", "distance": 2637.9848943303705}, {"id": "eeAeK-QDo5mwnzxzg42r8w", "alias": "caglar-b\u00e4ckerei-hamburg", "name": "Caglar B\u00e4ckerei", "image_url": "https://s3-media1.fl.yelpcdn.com/bphoto/GDmhQcxZ2VNRUfelgGTYYg/o.jpg", "is_closed": false, "url": "https://www.yelp.com/biz/caglar-b%C3%A4ckerei-hamburg?adjust_creative=hBJOknVQJ58S5goQyjmwRw&utm_campaign=yelp_api_v3&utm_medium=api_v3_business_search&utm_source=hBJOknVQJ58S5goQyjmwRw", "review_count": 4, "categories": [{"alias": "bakeries", "title": "Bakeries"}, {"alias": "cafes", "title": "Cafes"}], "rating": 5.0, "coordinates": {"latitude": 53.5343049084099, "longitude": 10.0415912215949}, "transactions": [], "price": "\u20ac", "location": {"address1": "Vierl\u00e4nder Damm 9", "address2": "", "address3": "", "city": "Hamburg", "zip_code": "20539", "country": "DE", "state": "HH", "display_address": ["Vierl\u00e4nder Damm 9", "20539 Hamburg", "Germany"]}, "phone": "+494038672149", "display_phone": "+49 40 38672149", "distance": 3755.9559176779853}, {"id": "ceta9UkTZYUYM_fBq7G_hQ", "alias": "le-meridien-hamburg-stillhorn-hamburg", "name": "Le Meridien Hamburg-Stillhorn****", "image_url": "", "is_closed": false, "url": "https://www.yelp.com/biz/le-meridien-hamburg-stillhorn-hamburg?adjust_creative=hBJOknVQJ58S5goQyjmwRw&utm_campaign=yelp_api_v3&utm_medium=api_v3_business_search&utm_source=hBJOknVQJ58S5goQyjmwRw", "review_count": 1, "categories": [{"alias": "international", "title": "International"}, {"alias": "german", "title": "German"}], "rating": 1.0, "coordinates": {"latitude": 53.48, "longitude": 10.0248}, "transactions": [], "location": {"address1": "Stillhorner Weg 40", "address2": null, "address3": null, "city": "Hamburg", "zip_code": "21109", "country": "DE", "state": "HH", "display_address": ["Stillhorner Weg 40", "21109 Hamburg", "Germany"]}, "phone": "+4940750150", "display_phone": "+49 40 750150", "distance": 2407.9480019250454}, {"id": "sJHyZAcqZ7M1Ffy2PEyxKA", "alias": "limerick-hamburg-2", "name": "Limerick", "image_url": "https://s3-media1.fl.yelpcdn.com/bphoto/I-nie7D9-Fxk3qtsA86EBA/o.jpg", "is_closed": false, "url": "https://www.yelp.com/biz/limerick-hamburg-2?adjust_creative=hBJOknVQJ58S5goQyjmwRw&utm_campaign=yelp_api_v3&utm_medium=api_v3_business_search&utm_source=hBJOknVQJ58S5goQyjmwRw", "review_count": 3, "categories": [{"alias": "international", "title": "International"}], "rating": 3.0, "coordinates": {"latitude": 53.52812, "longitude": 10.02182}, "transactions": [], "location": {"address1": "Hotel Gresham Carat", "address2": "Sieldeich 5 - 7", "address3": null, "city": "Hamburg", "zip_code": "20539", "country": "DE", "state": "HH", "display_address": ["Hotel Gresham Carat", "Sieldeich 5 - 7", "20539 Hamburg", "Germany"]}, "phone": "+4940789660", "display_phone": "+49 40 789660", "distance": 2977.3223853515556}, {"id": "opZw8A9bdxiAtEaK9HsIpg", "alias": "cafe-kaltehofe-hamburg", "name": "Cafe Kaltehofe", "image_url": "https://s3-media1.fl.yelpcdn.com/bphoto/-SBPTxsjwRH5SJYThXwoYA/o.jpg", "is_closed": false, "url": "https://www.yelp.com/biz/cafe-kaltehofe-hamburg?adjust_creative=hBJOknVQJ58S5goQyjmwRw&utm_campaign=yelp_api_v3&utm_medium=api_v3_business_search&utm_source=hBJOknVQJ58S5goQyjmwRw", "review_count": 8, "categories": [{"alias": "cafes", "title": "Cafes"}], "rating": 3.0, "coordinates": {"latitude": 53.5247, "longitude": 10.0508}, "transactions": [], "price": "\u20ac\u20ac\u20ac", "location": {"address1": "Kaltehofe Hauptdeich 6-7", "address2": null, "address3": null, "city": "Hamburg", "zip_code": "20439", "country": "DE", "state": "HH", "display_address": ["Kaltehofe Hauptdeich 6-7", "20439 Hamburg", "Germany"]}, "phone": "+4940788849992", "display_phone": "+49 40 788849992", "distance": 2999.240290525573}, {"id": "G_bKcShBqhkMyTjZAALNLg", "alias": "mensa-hcu-hamburg", "name": "Mensa HCU", "image_url": "https://s3-media4.fl.yelpcdn.com/bphoto/Zug2F4de_gaB3NAj4RuHWw/o.jpg", "is_closed": false, "url": "https://www.yelp.com/biz/mensa-hcu-hamburg?adjust_creative=hBJOknVQJ58S5goQyjmwRw&utm_campaign=yelp_api_v3&utm_medium=api_v3_business_search&utm_source=hBJOknVQJ58S5goQyjmwRw", "review_count": 1, "categories": [{"alias": "canteen", "title": "Canteen"}], "rating": 4.0, "coordinates": {"latitude": 53.540228, "longitude": 10.005366}, "transactions": [], "location": {"address1": "\u00dcberseeallee 16", "address2": "", "address3": "", "city": "Hamburg", "zip_code": "20457", "country": "DE", "state": "HH", "display_address": ["\u00dcberseeallee 16", "20457 Hamburg", "Germany"]}, "phone": "+494028472722", "display_phone": "+49 40 28472722", "distance": 4534.978317856735}, {"id": "PsyHTuNN8hLO6bbsbz1tCg", "alias": "hollys-grill-hamburg", "name": "Holly's Grill", "image_url": "https://s3-media3.fl.yelpcdn.com/bphoto/DHsgVOwzYHocbOkee7s5jQ/o.jpg", "is_closed": false, "url": "https://www.yelp.com/biz/hollys-grill-hamburg?adjust_creative=hBJOknVQJ58S5goQyjmwRw&utm_campaign=yelp_api_v3&utm_medium=api_v3_business_search&utm_source=hBJOknVQJ58S5goQyjmwRw", "review_count": 1, "categories": [{"alias": "steak", "title": "Steakhouses"}], "rating": 4.0, "coordinates": {"latitude": 53.54159, "longitude": 10.05061}, "transactions": [], "location": {"address1": "Ausschl\u00e4ger Billdeich 52", "address2": "", "address3": null, "city": "Hamburg", "zip_code": "20539", "country": "DE", "state": "HH", "display_address": ["Ausschl\u00e4ger Billdeich 52", "20539 Hamburg", "Germany"]}, "phone": "+494088148259", "display_phone": "+49 40 88148259", "distance": 4690.111637647426}, {"id": "eTvIy-Dk3Te9sMQYsz5AYQ", "alias": "restaurant-al-lido-hamburg", "name": "Restaurant Al Lido", "image_url": "https://s3-media2.fl.yelpcdn.com/bphoto/IMdQz8lfaK65yWpbb9Asuw/o.jpg", "is_closed": false, "url": "https://www.yelp.com/biz/restaurant-al-lido-hamburg?adjust_creative=hBJOknVQJ58S5goQyjmwRw&utm_campaign=yelp_api_v3&utm_medium=api_v3_business_search&utm_source=hBJOknVQJ58S5goQyjmwRw", "review_count": 45, "categories": [{"alias": "italian", "title": "Italian"}, {"alias": "pizza", "title": "Pizza"}], "rating": 3.5, "coordinates": {"latitude": 53.54242, "longitude": 10.02533}, "transactions": [], "price": "\u20ac\u20ac", "location": {"address1": "Amsinckstr. 70", "address2": null, "address3": null, "city": "Hamburg", "zip_code": "20097", "country": "DE", "state": "HH", "display_address": ["Amsinckstr. 70", "20097 Hamburg", "Germany"]}, "phone": "+494023688975", "display_phone": "+49 40 23688975", "distance": 4544.711718512885}, {"id": "_wb_8bDSfSZXZ76NwNKA5w", "alias": "hobenk\u00f6\u00f6k-hamburg", "name": "Hobenk\u00f6\u00f6k", "image_url": "https://s3-media3.fl.yelpcdn.com/bphoto/LjtRNE6Y6Ah17f5LLCnfNQ/o.jpg", "is_closed": false, "url": "https://www.yelp.com/biz/hobenk%C3%B6%C3%B6k-hamburg?adjust_creative=hBJOknVQJ58S5goQyjmwRw&utm_campaign=yelp_api_v3&utm_medium=api_v3_business_search&utm_source=hBJOknVQJ58S5goQyjmwRw", "review_count": 8, "categories": [{"alias": "german", "title": "German"}], "rating": 3.5, "coordinates": {"latitude": 53.5433450982727, "longitude": 10.0082123279572}, "transactions": [], "location": {"address1": "Stockmeyerstr. 43", "address2": "", "address3": null, "city": "Hamburg", "zip_code": "20457", "country": "DE", "state": "HH", "display_address": ["Stockmeyerstr. 43", "20457 Hamburg", "Germany"]}, "phone": "+494022865538", "display_phone": "+49 40 22865538", "distance": 4811.572589393938}, {"id": "IXtkTDyPslFKFzjZouTG1Q", "alias": "eat-brazil-hamburg", "name": "EAT Brazil", "image_url": "https://s3-media2.fl.yelpcdn.com/bphoto/99loJJz5AmyQlu4TwJ0CmA/o.jpg", "is_closed": false, "url": "https://www.yelp.com/biz/eat-brazil-hamburg?adjust_creative=hBJOknVQJ58S5goQyjmwRw&utm_campaign=yelp_api_v3&utm_medium=api_v3_business_search&utm_source=hBJOknVQJ58S5goQyjmwRw", "review_count": 1, "categories": [{"alias": "brazilian", "title": "Brazilian"}, {"alias": "cafes", "title": "Cafes"}], "rating": 2.0, "coordinates": {"latitude": 53.5398, "longitude": 10.01088}, "transactions": [], "location": {"address1": "Versmannstr. 24", "address2": "", "address3": null, "city": "Hamburg", "zip_code": "20457", "country": "DE", "state": "HH", "display_address": ["Versmannstr. 24", "20457 Hamburg", "Germany"]}, "phone": "+491719544987", "display_phone": "+49 171 9544987", "distance": 4381.1535501845265}, {"id": "SeodQIjOcsrznD7rwIB-Jw", "alias": "the-big-balmy-hamburg-2", "name": "The Big Balmy", "image_url": "https://s3-media2.fl.yelpcdn.com/bphoto/KWUCQvGDONs_iDxlKXzgvQ/o.jpg", "is_closed": false, "url": "https://www.yelp.com/biz/the-big-balmy-hamburg-2?adjust_creative=hBJOknVQJ58S5goQyjmwRw&utm_campaign=yelp_api_v3&utm_medium=api_v3_business_search&utm_source=hBJOknVQJ58S5goQyjmwRw", "review_count": 27, "categories": [{"alias": "burgers", "title": "Burgers"}, {"alias": "foodtrucks", "title": "Food Trucks"}], "rating": 3.5, "coordinates": {"latitude": 53.537786, "longitude": 10.028218}, "transactions": [], "price": "\u20ac\u20ac", "location": {"address1": "", "address2": null, "address3": null, "city": "Hamburg", "zip_code": "", "country": "DE", "state": "HH", "display_address": ["Hamburg", "Germany"]}, "phone": "+494069278630", "display_phone": "+49 40 69278630", "distance": 4023.989505566785}, {"id": "M1pGgGZ7ghiLnLRUfG1B5Q", "alias": "mcdonalds-hamburg-38", "name": "McDonald's", "image_url": "https://s3-media4.fl.yelpcdn.com/bphoto/PK1MIpn8UAqv7i506QMbNw/o.jpg", "is_closed": false, "url": "https://www.yelp.com/biz/mcdonalds-hamburg-38?adjust_creative=hBJOknVQJ58S5goQyjmwRw&utm_campaign=yelp_api_v3&utm_medium=api_v3_business_search&utm_source=hBJOknVQJ58S5goQyjmwRw", "review_count": 18, "categories": [{"alias": "hotdogs", "title": "Fast Food"}, {"alias": "burgers", "title": "Burgers"}], "rating": 2.0, "coordinates": {"latitude": 53.5427408251281, "longitude": 10.027001291956}, "transactions": [], "price": "\u20ac\u20ac", "location": {"address1": "Amsinckstr. 73", "address2": null, "address3": null, "city": "Hamburg", "zip_code": "20097", "country": "DE", "state": "HH", "display_address": ["Amsinckstr. 73", "20097 Hamburg", "Germany"]}, "phone": "+494023686926", "display_phone": "+49 40 23686926", "distance": 4574.626237733825}, {"id": "d4XCaPNR7j0Qm6Z5Qd0uQw", "alias": "asia-pham-hamburg-2", "name": "Asia Pham", "image_url": "https://s3-media3.fl.yelpcdn.com/bphoto/QA5WN5mgflheiqgx1oyyvA/o.jpg", "is_closed": false, "url": "https://www.yelp.com/biz/asia-pham-hamburg-2?adjust_creative=hBJOknVQJ58S5goQyjmwRw&utm_campaign=yelp_api_v3&utm_medium=api_v3_business_search&utm_source=hBJOknVQJ58S5goQyjmwRw", "review_count": 3, "categories": [{"alias": "panasian", "title": "Pan Asian"}], "rating": 3.0, "coordinates": {"latitude": 53.5337, "longitude": 10.045}, "transactions": [], "price": "\u20ac\u20ac", "location": {"address1": "Vierl\u00e4nder Damm 52", "address2": null, "address3": null, "city": "Hamburg", "zip_code": "20539", "country": "DE", "state": "HH", "display_address": ["Vierl\u00e4nder Damm 52", "20539 Hamburg", "Germany"]}, "phone": "+49407892801", "display_phone": "+49 40 7892801", "distance": 3754.576424655379}, {"id": "_jg-uq_jg1L9ASCZNd54Tg", "alias": "smileys-hamburg-19", "name": "Smileys", "image_url": "", "is_closed": false, "url": "https://www.yelp.com/biz/smileys-hamburg-19?adjust_creative=hBJOknVQJ58S5goQyjmwRw&utm_campaign=yelp_api_v3&utm_medium=api_v3_business_search&utm_source=hBJOknVQJ58S5goQyjmwRw", "review_count": 1, "categories": [{"alias": "pizza", "title": "Pizza"}], "rating": 4.0, "coordinates": {"latitude": 53.48524, "longitude": 10.01903}, "transactions": [], "price": "\u20ac\u20ac\u20ac", "location": {"address1": "Kirchdorfer Damm 3", "address2": "", "address3": "", "city": "Hamburg", "zip_code": "21109", "country": "DE", "state": "HH", "display_address": ["Kirchdorfer Damm 3", "21109 Hamburg", "Germany"]}, "phone": "+494075062232", "display_phone": "+49 40 75062232", "distance": 1894.9474111613015}, {"id": "0N2WPiWN_kI_3TQlab_uAg", "alias": "mai-mai-hamburg-9", "name": "mai-mai", "image_url": "https://s3-media3.fl.yelpcdn.com/bphoto/v7jYJU4bpeRQl0ZjhMO9ng/o.jpg", "is_closed": false, "url": "https://www.yelp.com/biz/mai-mai-hamburg-9?adjust_creative=hBJOknVQJ58S5goQyjmwRw&utm_campaign=yelp_api_v3&utm_medium=api_v3_business_search&utm_source=hBJOknVQJ58S5goQyjmwRw", "review_count": 2, "categories": [{"alias": "panasian", "title": "Pan Asian"}], "rating": 3.0, "coordinates": {"latitude": 53.49866, "longitude": 10.00908}, "transactions": [], "location": {"address1": "Wilhelm-Strau\u00df-Weg 2 b", "address2": "", "address3": "", "city": "Hamburg", "zip_code": "21109", "country": "DE", "state": "HH", "display_address": ["Wilhelm-Strau\u00df-Weg 2 b", "21109 Hamburg", "Germany"]}, "phone": "+494036919568", "display_phone": "+49 40 36919568", "distance": 1273.4782713881962}, {"id": "z3xSdGIRbXTExpnk2ZS8PA", "alias": "schuhs-food-hamburg-2", "name": "Schuh's food", "image_url": "", "is_closed": false, "url": "https://www.yelp.com/biz/schuhs-food-hamburg-2?adjust_creative=hBJOknVQJ58S5goQyjmwRw&utm_campaign=yelp_api_v3&utm_medium=api_v3_business_search&utm_source=hBJOknVQJ58S5goQyjmwRw", "review_count": 3, "categories": [{"alias": "buffets", "title": "Buffets"}, {"alias": "eventplanning", "title": "Party & Event Planning"}, {"alias": "catering", "title": "Caterers"}], "rating": 1.5, "coordinates": {"latitude": 53.54021, "longitude": 10.04197}, "transactions": [], "location": {"address1": "Billstr. 82", "address2": null, "address3": null, "city": "Hamburg", "zip_code": "20539", "country": "DE", "state": "HH", "display_address": ["Billstr. 82", "20539 Hamburg", "Germany"]}, "phone": "+494078079180", "display_phone": "+49 40 78079180", "distance": 4400.171283691207}, {"id": "Knjq3e0foO65SAwwNtr4mg", "alias": "kantine-stadtreinigung-hamburg", "name": "Kantine Stadtreinigung", "image_url": "", "is_closed": false, "url": "https://www.yelp.com/biz/kantine-stadtreinigung-hamburg?adjust_creative=hBJOknVQJ58S5goQyjmwRw&utm_campaign=yelp_api_v3&utm_medium=api_v3_business_search&utm_source=hBJOknVQJ58S5goQyjmwRw", "review_count": 4, "categories": [{"alias": "canteen", "title": "Canteen"}], "rating": 3.5, "coordinates": {"latitude": 53.4602, "longitude": 10.0021}, "transactions": [], "price": "\u20ac\u20ac", "location": {"address1": "Neul\u00e4nder Kamp 6", "address2": "", "address3": null, "city": "Hamburg", "zip_code": "21079", "country": "DE", "state": "HH", "display_address": ["Neul\u00e4nder Kamp 6", "21079 Hamburg", "Germany"]}, "phone": "", "display_phone": "", "distance": 4898.036179341748}, {"id": "-7AsMKjzFEqv08oGkTiRJQ", "alias": "caf\u00e9-erlk\u00f6nig-hamburg", "name": "Caf\u00e9 Erlk\u00f6nig", "image_url": "https://s3-media1.fl.yelpcdn.com/bphoto/hchHbCdP0ugRIThJuyszDw/o.jpg", "is_closed": false, "url": "https://www.yelp.com/biz/caf%C3%A9-erlk%C3%B6nig-hamburg?adjust_creative=hBJOknVQJ58S5goQyjmwRw&utm_campaign=yelp_api_v3&utm_medium=api_v3_business_search&utm_source=hBJOknVQJ58S5goQyjmwRw", "review_count": 1, "categories": [{"alias": "bistros", "title": "Bistros"}, {"alias": "cafes", "title": "Cafes"}], "rating": 4.0, "coordinates": {"latitude": 53.54332, "longitude": 10.00248}, "transactions": [], "location": {"address1": "Prototyp Museum", "address2": "Shanghaiallee 7", "address3": "", "city": "Hamburg", "zip_code": "20457", "country": "DE", "state": "HH", "display_address": ["Prototyp Museum", "Shanghaiallee 7", "20457 Hamburg", "Germany"]}, "phone": "+494039996969", "display_phone": "+49 40 39996969", "distance": 4906.428349407317}, {"id": "pRji4PKv8PrO3T9nDpt1Rg", "alias": "le-qu\u00e1n-hamburg-4", "name": "Le Qu\u00e1n", "image_url": "https://s3-media3.fl.yelpcdn.com/bphoto/MS255rUXtP1DIhZ-M1fz_A/o.jpg", "is_closed": false, "url": "https://www.yelp.com/biz/le-qu%C3%A1n-hamburg-4?adjust_creative=hBJOknVQJ58S5goQyjmwRw&utm_campaign=yelp_api_v3&utm_medium=api_v3_business_search&utm_source=hBJOknVQJ58S5goQyjmwRw", "review_count": 2, "categories": [{"alias": "vietnamese", "title": "Vietnamese"}], "rating": 2.0, "coordinates": {"latitude": 53.54270263082, "longitude": 10.0030912661316}, "transactions": [], "location": {"address1": "Steinschanze 2 A", "address2": "", "address3": null, "city": "Hamburg", "zip_code": "20457", "country": "DE", "state": "HH", "display_address": ["Steinschanze 2 A", "20457 Hamburg", "Germany"]}, "phone": "", "display_phone": "", "distance": 4844.135034854813}, {"id": "gBH3d24lctwqqCQkiAyNWw", "alias": "mina-hamburg", "name": "Mina", "image_url": "https://s3-media4.fl.yelpcdn.com/bphoto/pAnAfcHsKmFEjdELLPcLDA/o.jpg", "is_closed": false, "url": "https://www.yelp.com/biz/mina-hamburg?adjust_creative=hBJOknVQJ58S5goQyjmwRw&utm_campaign=yelp_api_v3&utm_medium=api_v3_business_search&utm_source=hBJOknVQJ58S5goQyjmwRw", "review_count": 1, "categories": [{"alias": "kebab", "title": "Kebab"}], "rating": 1.0, "coordinates": {"latitude": 53.4978479484476, "longitude": 10.0068896636367}, "transactions": [], "location": {"address1": "Wilhelm-Strau\u00df-Weg 1 b", "address2": "", "address3": "S-Bahnhof Wilhelmsburg", "city": "Hamburg", "zip_code": "21109", "country": "DE", "state": "HH", "display_address": ["Wilhelm-Strau\u00df-Weg 1 b", "S-Bahnhof Wilhelmsburg", "21109 Hamburg", "Germany"]}, "phone": "", "display_phone": "", "distance": 1417.9948796337205}, {"id": "jOGz-IvadObbfbZ3QWiTrA", "alias": "subway-hamburg-9", "name": "Subway", "image_url": "https://s3-media3.fl.yelpcdn.com/bphoto/AeQz18UDYvShxDIQgu4fkQ/o.jpg", "is_closed": false, "url": "https://www.yelp.com/biz/subway-hamburg-9?adjust_creative=hBJOknVQJ58S5goQyjmwRw&utm_campaign=yelp_api_v3&utm_medium=api_v3_business_search&utm_source=hBJOknVQJ58S5goQyjmwRw", "review_count": 9, "categories": [{"alias": "hotdogs", "title": "Fast Food"}, {"alias": "sandwiches", "title": "Sandwiches"}], "rating": 4.0, "coordinates": {"latitude": 53.54434, "longitude": 10.02527}, "transactions": [], "price": "\u20ac\u20ac", "location": {"address1": "Hammerbrookstr. 92 - 94", "address2": null, "address3": null, "city": "Hamburg", "zip_code": "20097", "country": "DE", "state": "HH", "display_address": ["Hammerbrookstr. 92 - 94", "20097 Hamburg", "Germany"]}, "phone": "+494023937588", "display_phone": "+49 40 23937588", "distance": 4760.137833815899}]