[{"id": "qx7w7LWJk0dhxP_9QcUlJw", "alias": "gasthaus-zur-post-hamburg", "name": "Gasthaus Zur Post", "image_url": "https://s3-media4.fl.yelpcdn.com/bphoto/jQXSKKFiMHuBVm3nQpWsgw/o.jpg", "is_closed": false, "url": "https://www.yelp.com/biz/gasthaus-zur-post-hamburg?adjust_creative=hBJOknVQJ58S5goQyjmwRw&utm_campaign=yelp_api_v3&utm_medium=api_v3_business_search&utm_source=hBJOknVQJ58S5goQyjmwRw", "review_count": 24, "categories": [{"alias": "german", "title": "German"}, {"alias": "seafood", "title": "Seafood"}], "rating": 4.5, "coordinates": {"latitude": 53.5346336458307, "longitude": 9.77853611111641}, "transactions": [], "price": "\u20ac\u20ac", "location": {"address1": "Estedeich 88", "address2": "", "address3": "", "city": "Hamburg", "zip_code": "21129", "country": "DE", "state": "HH", "display_address": ["Estedeich 88", "21129 Hamburg", "Germany"]}, "phone": "+49407459409", "display_phone": "+49 40 7459409", "distance": 3755.213493059224}, {"id": "2wMF98mwT2lTdaQd7cVUgA", "alias": "restaurant-hintze-jork", "name": "Restaurant Hintze", "image_url": "https://s3-media2.fl.yelpcdn.com/bphoto/On32FoJuhMUKzZ2GkHokPw/o.jpg", "is_closed": false, "url": "https://www.yelp.com/biz/restaurant-hintze-jork?adjust_creative=hBJOknVQJ58S5goQyjmwRw&utm_campaign=yelp_api_v3&utm_medium=api_v3_business_search&utm_source=hBJOknVQJ58S5goQyjmwRw", "review_count": 5, "categories": [{"alias": "german", "title": "German"}], "rating": 4.0, "coordinates": {"latitude": 53.53201, "longitude": 9.76469}, "transactions": [], "price": "\u20ac\u20ac", "location": {"address1": "Leeswig 106", "address2": null, "address3": null, "city": "Jork", "zip_code": "21635", "country": "DE", "state": "NI", "display_address": ["Leeswig 106", "21635 Jork", "Germany"]}, "phone": "+49407459386", "display_phone": "+49 40 7459386", "distance": 3207.7196013516154}, {"id": "M82FIuxPwcp7YmmKBQq_dw", "alias": "restaurant-altes-f\u00e4hrhaus-hamburg", "name": "Restaurant Altes F\u00e4hrhaus", "image_url": "https://s3-media3.fl.yelpcdn.com/bphoto/0iATsFKwDDuLZUSkafqOBQ/o.jpg", "is_closed": false, "url": "https://www.yelp.com/biz/restaurant-altes-f%C3%A4hrhaus-hamburg?adjust_creative=hBJOknVQJ58S5goQyjmwRw&utm_campaign=yelp_api_v3&utm_medium=api_v3_business_search&utm_source=hBJOknVQJ58S5goQyjmwRw", "review_count": 18, "categories": [{"alias": "cafes", "title": "Cafes"}, {"alias": "northerngerman", "title": "Northern German"}], "rating": 3.5, "coordinates": {"latitude": 53.534651, "longitude": 9.779566}, "transactions": [], "price": "\u20ac\u20ac", "location": {"address1": "Estedeich 94", "address2": "", "address3": "", "city": "Hamburg", "zip_code": "21129", "country": "DE", "state": "HH", "display_address": ["Estedeich 94", "21129 Hamburg", "Germany"]}, "phone": "+49407459132", "display_phone": "+49 40 7459132", "distance": 3784.460910221229}, {"id": "9g3tkNR1Iq4Fpx4YX_x9MQ", "alias": "caf\u00e9-dammanns-jork", "name": "Caf\u00e9 Dammanns", "image_url": "", "is_closed": false, "url": "https://www.yelp.com/biz/caf%C3%A9-dammanns-jork?adjust_creative=hBJOknVQJ58S5goQyjmwRw&utm_campaign=yelp_api_v3&utm_medium=api_v3_business_search&utm_source=hBJOknVQJ58S5goQyjmwRw", "review_count": 3, "categories": [{"alias": "cafes", "title": "Cafes"}], "rating": 3.0, "coordinates": {"latitude": 53.5191, "longitude": 9.73069}, "transactions": [], "location": {"address1": "Gro\u00df Hove 2", "address2": null, "address3": null, "city": "Jork", "zip_code": "21635", "country": "DE", "state": "NI", "display_address": ["Gro\u00df Hove 2", "21635 Jork", "Germany"]}, "phone": "+4941629131989", "display_phone": "+49 4162 9131989", "distance": 2402.0019584347456}]