[{"id": "dpRmaAsro244woCbG-KXsQ", "alias": "zum-eichbaum-hamburg", "name": "Zum Eichbaum", "image_url": "https://s3-media3.fl.yelpcdn.com/bphoto/7sVtbVfEtQKroT84_5DbYA/o.jpg", "is_closed": false, "url": "https://www.yelp.com/biz/zum-eichbaum-hamburg?adjust_creative=hBJOknVQJ58S5goQyjmwRw&utm_campaign=yelp_api_v3&utm_medium=api_v3_business_search&utm_source=hBJOknVQJ58S5goQyjmwRw", "review_count": 46, "categories": [{"alias": "german", "title": "German"}, {"alias": "hotels", "title": "Hotels"}], "rating": 4.0, "coordinates": {"latitude": 53.4881351625541, "longitude": 10.1045254522435}, "transactions": [], "price": "\u20ac\u20ac", "location": {"address1": "Moorfleeter Deich 477", "address2": "", "address3": "", "city": "Hamburg", "zip_code": "21037", "country": "DE", "state": "HH", "display_address": ["Moorfleeter Deich 477", "21037 Hamburg", "Germany"]}, "phone": "+49407372655", "display_phone": "+49 40 7372655", "distance": 1659.2574817864433}, {"id": "d3IaAPXLTYkqGqukAB81ig", "alias": "restaurant-rhodos-hamburg", "name": "Restaurant Rhodos", "image_url": "https://s3-media1.fl.yelpcdn.com/bphoto/BAyl-tsBuGD2Ja-FqHzoFQ/o.jpg", "is_closed": false, "url": "https://www.yelp.com/biz/restaurant-rhodos-hamburg?adjust_creative=hBJOknVQJ58S5goQyjmwRw&utm_campaign=yelp_api_v3&utm_medium=api_v3_business_search&utm_source=hBJOknVQJ58S5goQyjmwRw", "review_count": 12, "categories": [{"alias": "greek", "title": "Greek"}], "rating": 4.5, "coordinates": {"latitude": 53.5307, "longitude": 10.1257}, "transactions": [], "price": "\u20ac\u20ac", "location": {"address1": "Steinbeker Hauptstr. 75", "address2": "", "address3": null, "city": "Hamburg", "zip_code": "22117", "country": "DE", "state": "HH", "display_address": ["Steinbeker Hauptstr. 75", "22117 Hamburg", "Germany"]}, "phone": "+49407125732", "display_phone": "+49 40 7125732", "distance": 3366.4907036339487}, {"id": "SNPvqQxaRxQIra7hgjev2Q", "alias": "zum-kl\u00f6nschnack-hamburg", "name": "Zum Kl\u00f6nschnack", "image_url": "", "is_closed": false, "url": "https://www.yelp.com/biz/zum-kl%C3%B6nschnack-hamburg?adjust_creative=hBJOknVQJ58S5goQyjmwRw&utm_campaign=yelp_api_v3&utm_medium=api_v3_business_search&utm_source=hBJOknVQJ58S5goQyjmwRw", "review_count": 1, "categories": [{"alias": "currysausage", "title": "Curry Sausage"}], "rating": 4.0, "coordinates": {"latitude": 53.5333, "longitude": 10.097}, "transactions": [], "price": "\u20ac\u20ac", "location": {"address1": "Moorfleeter Str. 25", "address2": null, "address3": null, "city": "Hamburg", "zip_code": "22113", "country": "DE", "state": "HH", "display_address": ["Moorfleeter Str. 25", "22113 Hamburg", "Germany"]}, "phone": "", "display_phone": "", "distance": 3868.2093942125116}, {"id": "RXRh4Wb1Os3YT2Fam1swVA", "alias": "sel-kebaps-hamburg-3", "name": "Sel Kebap's", "image_url": "https://s3-media4.fl.yelpcdn.com/bphoto/PUU457LahpNwzeysKymIJg/o.jpg", "is_closed": false, "url": "https://www.yelp.com/biz/sel-kebaps-hamburg-3?adjust_creative=hBJOknVQJ58S5goQyjmwRw&utm_campaign=yelp_api_v3&utm_medium=api_v3_business_search&utm_source=hBJOknVQJ58S5goQyjmwRw", "review_count": 1, "categories": [{"alias": "kebab", "title": "Kebab"}, {"alias": "turkish", "title": "Turkish"}], "rating": 5.0, "coordinates": {"latitude": 53.5400121164517, "longitude": 10.1023189723492}, "transactions": [], "location": {"address1": "Billstedter Hauptstr. 51", "address2": "", "address3": "", "city": "Hamburg", "zip_code": "22111", "country": "DE", "state": "HH", "display_address": ["Billstedter Hauptstr. 51", "22111 Hamburg", "Germany"]}, "phone": "", "display_phone": "", "distance": 4480.141556802799}, {"id": "nUOFGotik8BYpYlFNev2wQ", "alias": "orkinus-fisch-grill-haus-hamburg", "name": "Orkinus Fisch-Grill-Haus", "image_url": "https://s3-media1.fl.yelpcdn.com/bphoto/hgzwti95kpzVl4LcuUSIew/o.jpg", "is_closed": false, "url": "https://www.yelp.com/biz/orkinus-fisch-grill-haus-hamburg?adjust_creative=hBJOknVQJ58S5goQyjmwRw&utm_campaign=yelp_api_v3&utm_medium=api_v3_business_search&utm_source=hBJOknVQJ58S5goQyjmwRw", "review_count": 36, "categories": [{"alias": "seafood", "title": "Seafood"}], "rating": 4.5, "coordinates": {"latitude": 53.5403374, "longitude": 10.1013957}, "transactions": [], "price": "\u20ac\u20ac", "location": {"address1": "Billstedter Hauptstr. 43", "address2": "", "address3": "", "city": "Hamburg", "zip_code": "22111", "country": "DE", "state": "HH", "display_address": ["Billstedter Hauptstr. 43", "22111 Hamburg", "Germany"]}, "phone": "+494032841201", "display_phone": "+49 40 32841201", "distance": 4529.6008431391065}, {"id": "SlTXq8HEtujfMAVIyvBYHg", "alias": "cevapcici-und-burek-hamburg", "name": "Cevapcici & Burek", "image_url": "https://s3-media3.fl.yelpcdn.com/bphoto/-TKeutnVAgeqUB9XllvCww/o.jpg", "is_closed": false, "url": "https://www.yelp.com/biz/cevapcici-und-burek-hamburg?adjust_creative=hBJOknVQJ58S5goQyjmwRw&utm_campaign=yelp_api_v3&utm_medium=api_v3_business_search&utm_source=hBJOknVQJ58S5goQyjmwRw", "review_count": 3, "categories": [{"alias": "german", "title": "German"}], "rating": 4.5, "coordinates": {"latitude": 53.54102, "longitude": 10.10102}, "transactions": [], "price": "\u20ac\u20ac", "location": {"address1": "Schiffbeker Weg 3", "address2": "", "address3": null, "city": "Hamburg", "zip_code": "22111", "country": "DE", "state": "HH", "display_address": ["Schiffbeker Weg 3", "22111 Hamburg", "Germany"]}, "phone": "+494023954224", "display_phone": "+49 40 23954224", "distance": 4604.3060671815965}, {"id": "cENV4e-uYI6n9rz-djMLpg", "alias": "fresh-factory-hamburg", "name": "Fresh Factory", "image_url": "", "is_closed": false, "url": "https://www.yelp.com/biz/fresh-factory-hamburg?adjust_creative=hBJOknVQJ58S5goQyjmwRw&utm_campaign=yelp_api_v3&utm_medium=api_v3_business_search&utm_source=hBJOknVQJ58S5goQyjmwRw", "review_count": 1, "categories": [{"alias": "salad", "title": "Salad"}, {"alias": "juicebars", "title": "Juice Bars & Smoothies"}], "rating": 4.0, "coordinates": {"latitude": 53.52276, "longitude": 10.09576}, "transactions": [], "location": {"address1": "Porgesring 11", "address2": "", "address3": "", "city": "Hamburg", "zip_code": "22113", "country": "DE", "state": "HH", "display_address": ["Porgesring 11", "22113 Hamburg", "Germany"]}, "phone": "+494054750750", "display_phone": "+49 40 54750750", "distance": 2839.4349383362437}, {"id": "XPuVFytYhvVWWXO01qGyew", "alias": "pascha-d\u00f6ner-hamburg", "name": "Pascha D\u00f6ner", "image_url": "https://s3-media3.fl.yelpcdn.com/bphoto/olRB1zRRp9rBuXoIrf9kKg/o.jpg", "is_closed": false, "url": "https://www.yelp.com/biz/pascha-d%C3%B6ner-hamburg?adjust_creative=hBJOknVQJ58S5goQyjmwRw&utm_campaign=yelp_api_v3&utm_medium=api_v3_business_search&utm_source=hBJOknVQJ58S5goQyjmwRw", "review_count": 2, "categories": [{"alias": "kebab", "title": "Kebab"}], "rating": 3.5, "coordinates": {"latitude": 53.53844, "longitude": 10.12413}, "transactions": [], "price": "\u20ac", "location": {"address1": "M\u00f6llner Landstr. 130", "address2": "", "address3": "", "city": "Hamburg", "zip_code": "22117", "country": "DE", "state": "HH", "display_address": ["M\u00f6llner Landstr. 130", "22117 Hamburg", "Germany"]}, "phone": "", "display_phone": "", "distance": 4207.307726172906}, {"id": "FRmfMd1RyzCEGobD0V4SwQ", "alias": "anatolya-grill-haus-hamburg", "name": "Anatolya Grill-Haus", "image_url": "https://s3-media2.fl.yelpcdn.com/bphoto/t5sUs72PtLkdRk7aAjl68A/o.jpg", "is_closed": false, "url": "https://www.yelp.com/biz/anatolya-grill-haus-hamburg?adjust_creative=hBJOknVQJ58S5goQyjmwRw&utm_campaign=yelp_api_v3&utm_medium=api_v3_business_search&utm_source=hBJOknVQJ58S5goQyjmwRw", "review_count": 2, "categories": [{"alias": "kebab", "title": "Kebab"}], "rating": 2.5, "coordinates": {"latitude": 53.5404, "longitude": 10.1012}, "transactions": [], "price": "\u20ac\u20ac", "location": {"address1": "Billstedter Hauptstr.", "address2": null, "address3": null, "city": "Hamburg", "zip_code": "22111", "country": "DE", "state": "HH", "display_address": ["Billstedter Hauptstr.", "22111 Hamburg", "Germany"]}, "phone": "", "display_phone": "", "distance": 4539.47269402726}, {"id": "e1MAQ0OCg675wVd3DeB3Tw", "alias": "meram-restaurant-hamburg-2", "name": "Meram Restaurant", "image_url": "https://s3-media2.fl.yelpcdn.com/bphoto/wJV0u3WzHA11nTdGmfA9wg/o.jpg", "is_closed": false, "url": "https://www.yelp.com/biz/meram-restaurant-hamburg-2?adjust_creative=hBJOknVQJ58S5goQyjmwRw&utm_campaign=yelp_api_v3&utm_medium=api_v3_business_search&utm_source=hBJOknVQJ58S5goQyjmwRw", "review_count": 61, "categories": [{"alias": "turkish", "title": "Turkish"}], "rating": 4.0, "coordinates": {"latitude": 53.54025, "longitude": 10.10179}, "transactions": [], "price": "\u20ac\u20ac", "location": {"address1": "Billstedter Hauptstr. 47", "address2": "", "address3": null, "city": "Hamburg", "zip_code": "22111", "country": "DE", "state": "HH", "display_address": ["Billstedter Hauptstr. 47", "22111 Hamburg", "Germany"]}, "phone": "+49407314656", "display_phone": "+49 40 7314656", "distance": 4515.989734106345}, {"id": "zDBc6IZrtooKf3VIjwNbIA", "alias": "apollo-pizza-hamburg", "name": "Apollo Pizza", "image_url": "https://s3-media3.fl.yelpcdn.com/bphoto/bmlAoSkT98rY5_ArvhGK8Q/o.jpg", "is_closed": false, "url": "https://www.yelp.com/biz/apollo-pizza-hamburg?adjust_creative=hBJOknVQJ58S5goQyjmwRw&utm_campaign=yelp_api_v3&utm_medium=api_v3_business_search&utm_source=hBJOknVQJ58S5goQyjmwRw", "review_count": 8, "categories": [{"alias": "pizza", "title": "Pizza"}], "rating": 3.0, "coordinates": {"latitude": 53.5377, "longitude": 10.1118}, "transactions": [], "price": "\u20ac", "location": {"address1": "Sp\u00f6kelbarg 20", "address2": null, "address3": null, "city": "Hamburg", "zip_code": "22117", "country": "DE", "state": "HH", "display_address": ["Sp\u00f6kelbarg 20", "22117 Hamburg", "Germany"]}, "phone": "+494021987411", "display_phone": "+49 40 21987411", "distance": 4123.531626972485}, {"id": "0Dq2u8WaFJlQnWTVpIHsDw", "alias": "bermudadreieck-hamburg", "name": "Bermudadreieck", "image_url": "https://s3-media1.fl.yelpcdn.com/bphoto/Il20waVhS8IK9_oTX9TOLw/o.jpg", "is_closed": false, "url": "https://www.yelp.com/biz/bermudadreieck-hamburg?adjust_creative=hBJOknVQJ58S5goQyjmwRw&utm_campaign=yelp_api_v3&utm_medium=api_v3_business_search&utm_source=hBJOknVQJ58S5goQyjmwRw", "review_count": 2, "categories": [{"alias": "restaurants", "title": "Restaurants"}], "rating": 3.0, "coordinates": {"latitude": 53.52567, "longitude": 10.11074}, "transactions": [], "price": "\u20ac", "location": {"address1": "Billwerder Billdeich 1", "address2": "", "address3": "", "city": "Hamburg", "zip_code": "22113", "country": "DE", "state": "HH", "display_address": ["Billwerder Billdeich 1", "22113 Hamburg", "Germany"]}, "phone": "", "display_phone": "", "distance": 2800.1813317371752}, {"id": "V4bKMm8OGNYtdGsZNyt5fg", "alias": "nordsee-hamburg-19", "name": "Nordsee", "image_url": "https://s3-media1.fl.yelpcdn.com/bphoto/zagNky8-J7YRTkIlytvZKA/o.jpg", "is_closed": false, "url": "https://www.yelp.com/biz/nordsee-hamburg-19?adjust_creative=hBJOknVQJ58S5goQyjmwRw&utm_campaign=yelp_api_v3&utm_medium=api_v3_business_search&utm_source=hBJOknVQJ58S5goQyjmwRw", "review_count": 5, "categories": [{"alias": "fischbroetchen", "title": "Fischbroetchen"}], "rating": 4.0, "coordinates": {"latitude": 53.5409, "longitude": 10.1055}, "transactions": [], "price": "\u20ac\u20ac", "location": {"address1": "M\u00f6llner Landstr. 3", "address2": "", "address3": null, "city": "Hamburg", "zip_code": "22111", "country": "DE", "state": "HH", "display_address": ["M\u00f6llner Landstr. 3", "22111 Hamburg", "Germany"]}, "phone": "+494073670510", "display_phone": "+49 40 73670510", "distance": 4533.853202832909}, {"id": "iky1wcqgbisBxoQR-AS4kQ", "alias": "ach-der-deniz-hamburg-3", "name": "Ach Der Deniz", "image_url": "https://s3-media3.fl.yelpcdn.com/bphoto/Lhdt9WtcMIaKKNkqKqIAzw/o.jpg", "is_closed": false, "url": "https://www.yelp.com/biz/ach-der-deniz-hamburg-3?adjust_creative=hBJOknVQJ58S5goQyjmwRw&utm_campaign=yelp_api_v3&utm_medium=api_v3_business_search&utm_source=hBJOknVQJ58S5goQyjmwRw", "review_count": 2, "categories": [{"alias": "kebab", "title": "Kebab"}], "rating": 3.5, "coordinates": {"latitude": 53.538735, "longitude": 10.122476}, "transactions": [], "location": {"address1": "M\u00f6llner Landstr. 123", "address2": "", "address3": null, "city": "Hamburg", "zip_code": "22117", "country": "DE", "state": "HH", "display_address": ["M\u00f6llner Landstr. 123", "22117 Hamburg", "Germany"]}, "phone": "", "display_phone": "", "distance": 4228.79149757494}, {"id": "rDlxd3UlHXEkW57iYRzuRw", "alias": "arams-pizzaservice-hamburg", "name": "Arams Pizzaservice", "image_url": "https://s3-media1.fl.yelpcdn.com/bphoto/sbiCVzLNTTBYfVJ-c9h49A/o.jpg", "is_closed": false, "url": "https://www.yelp.com/biz/arams-pizzaservice-hamburg?adjust_creative=hBJOknVQJ58S5goQyjmwRw&utm_campaign=yelp_api_v3&utm_medium=api_v3_business_search&utm_source=hBJOknVQJ58S5goQyjmwRw", "review_count": 8, "categories": [{"alias": "italian", "title": "Italian"}, {"alias": "hotdogs", "title": "Fast Food"}], "rating": 4.5, "coordinates": {"latitude": 53.5293, "longitude": 10.1262}, "transactions": [], "price": "\u20ac\u20ac", "location": {"address1": "Steinbeker Hauptstr. 70", "address2": null, "address3": null, "city": "Hamburg", "zip_code": "22117", "country": "DE", "state": "HH", "display_address": ["Steinbeker Hauptstr. 70", "22117 Hamburg", "Germany"]}, "phone": "+494018995618", "display_phone": "+49 40 18995618", "distance": 3218.3126596564975}, {"id": "U9PC9xkZgrE_sRpktMvnaA", "alias": "afghanische-konditorei-hamburg", "name": "Afghanische Konditorei", "image_url": "", "is_closed": false, "url": "https://www.yelp.com/biz/afghanische-konditorei-hamburg?adjust_creative=hBJOknVQJ58S5goQyjmwRw&utm_campaign=yelp_api_v3&utm_medium=api_v3_business_search&utm_source=hBJOknVQJ58S5goQyjmwRw", "review_count": 1, "categories": [{"alias": "cakeshop", "title": "Patisserie/Cake Shop"}, {"alias": "afghani", "title": "Afghan"}], "rating": 4.0, "coordinates": {"latitude": 53.5421384684295, "longitude": 10.0963474070709}, "transactions": [], "location": {"address1": "Billstedter Hauptstr. 12", "address2": "", "address3": null, "city": "Hamburg", "zip_code": "22111", "country": "DE", "state": "HH", "display_address": ["Billstedter Hauptstr. 12", "22111 Hamburg", "Germany"]}, "phone": "+494084709732", "display_phone": "+49 40 84709732", "distance": 4811.941598655519}, {"id": "9nxX8JqkPfknCMZDoDQXbQ", "alias": "k\u00f6z-\u00e1-la-turca-hamburg-2", "name": "K\u00f6z \u00e1 la Turca", "image_url": "https://s3-media4.fl.yelpcdn.com/bphoto/Bie7L6e2PWZoKUBZ4GXgCw/o.jpg", "is_closed": false, "url": "https://www.yelp.com/biz/k%C3%B6z-%C3%A1-la-turca-hamburg-2?adjust_creative=hBJOknVQJ58S5goQyjmwRw&utm_campaign=yelp_api_v3&utm_medium=api_v3_business_search&utm_source=hBJOknVQJ58S5goQyjmwRw", "review_count": 2, "categories": [{"alias": "turkish", "title": "Turkish"}, {"alias": "mediterranean", "title": "Mediterranean"}], "rating": 5.0, "coordinates": {"latitude": 53.5401, "longitude": 10.1026}, "transactions": [], "price": "\u20ac\u20ac", "location": {"address1": "Billstedter Hauptstr. 53", "address2": null, "address3": null, "city": "Hamburg", "zip_code": "22111", "country": "DE", "state": "HH", "display_address": ["Billstedter Hauptstr. 53", "22111 Hamburg", "Germany"]}, "phone": "+494070296885", "display_phone": "+49 40 70296885", "distance": 4485.451187087127}, {"id": "TGllMw7dQQtI2ZvtS868mA", "alias": "billstedter-biergarten-hamburg", "name": "Billstedter Biergarten", "image_url": "https://s3-media3.fl.yelpcdn.com/bphoto/e2ipBAodlvOB-8HO9oN5Hg/o.jpg", "is_closed": false, "url": "https://www.yelp.com/biz/billstedter-biergarten-hamburg?adjust_creative=hBJOknVQJ58S5goQyjmwRw&utm_campaign=yelp_api_v3&utm_medium=api_v3_business_search&utm_source=hBJOknVQJ58S5goQyjmwRw", "review_count": 2, "categories": [{"alias": "beergarden", "title": "Beer Garden"}], "rating": 4.0, "coordinates": {"latitude": 53.53841, "longitude": 10.10607}, "transactions": [], "price": "\u20ac\u20ac", "location": {"address1": "Billstedter Hauptstr. 73", "address2": "", "address3": null, "city": "Hamburg", "zip_code": "22111", "country": "DE", "state": "HH", "display_address": ["Billstedter Hauptstr. 73", "22111 Hamburg", "Germany"]}, "phone": "+49407337958", "display_phone": "+49 40 7337958", "distance": 4258.862290223027}, {"id": "vk3-NnVUiAvUP38GlzQzGA", "alias": "stehcafe-melli-hamburg", "name": "Stehcafe Melli", "image_url": "", "is_closed": false, "url": "https://www.yelp.com/biz/stehcafe-melli-hamburg?adjust_creative=hBJOknVQJ58S5goQyjmwRw&utm_campaign=yelp_api_v3&utm_medium=api_v3_business_search&utm_source=hBJOknVQJ58S5goQyjmwRw", "review_count": 1, "categories": [{"alias": "cafes", "title": "Cafes"}], "rating": 5.0, "coordinates": {"latitude": 53.5395851251921, "longitude": 10.0954826433472}, "transactions": [], "location": {"address1": "Billstedter Hauptstr. 1 - 5", "address2": "", "address3": "", "city": "Hamburg", "zip_code": "22111", "country": "DE", "state": "HH", "display_address": ["Billstedter Hauptstr. 1 - 5", "22111 Hamburg", "Germany"]}, "phone": "+494087882430", "display_phone": "+49 40 87882430", "distance": 4559.634977986029}, {"id": "HOF5OiBdvdlwq1KVzE9ZWw", "alias": "landhaus-voigt-hamburg", "name": "Landhaus Voigt", "image_url": "https://s3-media2.fl.yelpcdn.com/bphoto/iLXdjMtQuNu03XFhRfD6cQ/o.jpg", "is_closed": false, "url": "https://www.yelp.com/biz/landhaus-voigt-hamburg?adjust_creative=hBJOknVQJ58S5goQyjmwRw&utm_campaign=yelp_api_v3&utm_medium=api_v3_business_search&utm_source=hBJOknVQJ58S5goQyjmwRw", "review_count": 11, "categories": [{"alias": "german", "title": "German"}], "rating": 3.0, "coordinates": {"latitude": 53.4752032, "longitude": 10.1021493}, "transactions": [], "price": "\u20ac\u20ac", "location": {"address1": "Ochsenwerder Norderdeich  113", "address2": null, "address3": null, "city": "Hamburg", "zip_code": "21037", "country": "DE", "state": "HH", "display_address": ["Ochsenwerder Norderdeich  113", "21037 Hamburg", "Germany"]}, "phone": "+49407372440", "display_phone": "+49 40 7372440", "distance": 3028.034400017837}, {"id": "4FpU3bFIM9Qg_WU--dIXMg", "alias": "asiahung-hamburg-18", "name": "asiahung", "image_url": "https://s3-media3.fl.yelpcdn.com/bphoto/xR3SsObZDqrBBHV7p-MkGA/o.jpg", "is_closed": false, "url": "https://www.yelp.com/biz/asiahung-hamburg-18?adjust_creative=hBJOknVQJ58S5goQyjmwRw&utm_campaign=yelp_api_v3&utm_medium=api_v3_business_search&utm_source=hBJOknVQJ58S5goQyjmwRw", "review_count": 8, "categories": [{"alias": "hotdogs", "title": "Fast Food"}, {"alias": "panasian", "title": "Pan Asian"}], "rating": 3.5, "coordinates": {"latitude": 53.5418, "longitude": 10.1061}, "transactions": [], "price": "\u20ac", "location": {"address1": "M\u00f6llner Landstr. 3", "address2": "", "address3": null, "city": "Hamburg", "zip_code": "22111", "country": "DE", "state": "HH", "display_address": ["M\u00f6llner Landstr. 3", "22111 Hamburg", "Germany"]}, "phone": "", "display_phone": "", "distance": 4625.525645423632}, {"id": "tgldf5W4qcSGZElSAqchMg", "alias": "l-italian-hamburg", "name": "L\u00b4Italian", "image_url": "https://s3-media4.fl.yelpcdn.com/bphoto/gYseBdz6ANtBBhY4wjEtcQ/o.jpg", "is_closed": false, "url": "https://www.yelp.com/biz/l-italian-hamburg?adjust_creative=hBJOknVQJ58S5goQyjmwRw&utm_campaign=yelp_api_v3&utm_medium=api_v3_business_search&utm_source=hBJOknVQJ58S5goQyjmwRw", "review_count": 4, "categories": [{"alias": "italian", "title": "Italian"}], "rating": 3.0, "coordinates": {"latitude": 53.53979, "longitude": 10.10457}, "transactions": [], "price": "\u20ac\u20ac", "location": {"address1": "M\u00f6llner Landstr. 3", "address2": "", "address3": "", "city": "Hamburg", "zip_code": "22111", "country": "DE", "state": "HH", "display_address": ["M\u00f6llner Landstr. 3", "22111 Hamburg", "Germany"]}, "phone": "", "display_phone": "", "distance": 4424.252530809979}, {"id": "K4B-CHJDsU_In3DP2LziiA", "alias": "call-a-pizza-hamburg-7", "name": "Call a Pizza", "image_url": "https://s3-media2.fl.yelpcdn.com/bphoto/rELdVa8hQyxKVegEi_LOnw/o.jpg", "is_closed": false, "url": "https://www.yelp.com/biz/call-a-pizza-hamburg-7?adjust_creative=hBJOknVQJ58S5goQyjmwRw&utm_campaign=yelp_api_v3&utm_medium=api_v3_business_search&utm_source=hBJOknVQJ58S5goQyjmwRw", "review_count": 5, "categories": [{"alias": "pizza", "title": "Pizza"}], "rating": 3.5, "coordinates": {"latitude": 53.5428429, "longitude": 10.1028221}, "transactions": [], "price": "\u20ac\u20ac", "location": {"address1": "Schiffbecker Weg 29", "address2": null, "address3": null, "city": "Hamburg", "zip_code": "22111", "country": "DE", "state": "HH", "display_address": ["Schiffbecker Weg 29", "22111 Hamburg", "Germany"]}, "phone": "+494073115181", "display_phone": "+49 40 73115181", "distance": 4780.091209721846}, {"id": "EZILGQV8FIXerqudRluW4Q", "alias": "d\u00f6ner-company-hamburg-2", "name": "D\u00f6ner Company", "image_url": "https://s3-media1.fl.yelpcdn.com/bphoto/MyVEYS5Gdq5FSs6Za7M5kg/o.jpg", "is_closed": false, "url": "https://www.yelp.com/biz/d%C3%B6ner-company-hamburg-2?adjust_creative=hBJOknVQJ58S5goQyjmwRw&utm_campaign=yelp_api_v3&utm_medium=api_v3_business_search&utm_source=hBJOknVQJ58S5goQyjmwRw", "review_count": 6, "categories": [{"alias": "kebab", "title": "Kebab"}], "rating": 3.0, "coordinates": {"latitude": 53.54237, "longitude": 10.10559}, "transactions": [], "price": "\u20ac\u20ac", "location": {"address1": "Reclamstr. 2", "address2": null, "address3": null, "city": "Hamburg", "zip_code": "22111", "country": "DE", "state": "HH", "display_address": ["Reclamstr. 2", "22111 Hamburg", "Germany"]}, "phone": "+494089728833", "display_phone": "+49 40 89728833", "distance": 4626.562554417541}, {"id": "SGap-Co7AAtFf9Oe8GfH5g", "alias": "palastk\u00fcche-hamburg", "name": "Palastk\u00fcche", "image_url": "https://s3-media1.fl.yelpcdn.com/bphoto/YrX_qatf2-B9JfySCxzD0g/o.jpg", "is_closed": false, "url": "https://www.yelp.com/biz/palastk%C3%BCche-hamburg?adjust_creative=hBJOknVQJ58S5goQyjmwRw&utm_campaign=yelp_api_v3&utm_medium=api_v3_business_search&utm_source=hBJOknVQJ58S5goQyjmwRw", "review_count": 3, "categories": [{"alias": "german", "title": "German"}], "rating": 4.0, "coordinates": {"latitude": 53.54228, "longitude": 10.11027}, "transactions": [], "price": "\u20ac\u20ac\u20ac", "location": {"address1": "\u00d6jendorfer Weg 30 A", "address2": "", "address3": null, "city": "Hamburg", "zip_code": "22119", "country": "DE", "state": "HH", "display_address": ["\u00d6jendorfer Weg 30 A", "22119 Hamburg", "Germany"]}, "phone": "+494028407777", "display_phone": "+49 40 28407777", "distance": 4614.707543655522}, {"id": "uowcUv_zNFP2MIHxcVMvwQ", "alias": "mcdonalds-hamburg-45", "name": "McDonald's", "image_url": "https://s3-media1.fl.yelpcdn.com/bphoto/81A7pzdZ0CM5ZZztlvbqyg/o.jpg", "is_closed": false, "url": "https://www.yelp.com/biz/mcdonalds-hamburg-45?adjust_creative=hBJOknVQJ58S5goQyjmwRw&utm_campaign=yelp_api_v3&utm_medium=api_v3_business_search&utm_source=hBJOknVQJ58S5goQyjmwRw", "review_count": 11, "categories": [{"alias": "burgers", "title": "Burgers"}, {"alias": "hotdogs", "title": "Fast Food"}], "rating": 2.5, "coordinates": {"latitude": 53.5415, "longitude": 10.0991}, "transactions": [], "price": "\u20ac\u20ac", "location": {"address1": "Billstedter Hauptstr. 23-25", "address2": null, "address3": null, "city": "Hamburg", "zip_code": "22111", "country": "DE", "state": "HH", "display_address": ["Billstedter Hauptstr. 23-25", "22111 Hamburg", "Germany"]}, "phone": "+494021987533", "display_phone": "+49 40 21987533", "distance": 4692.92363548558}, {"id": "smxdoZuHpRCuDDVqCaqcDQ", "alias": "zenthai-hamburg-3", "name": "Zenthai", "image_url": "https://s3-media3.fl.yelpcdn.com/bphoto/231WD874e1FRLV5x669NlA/o.jpg", "is_closed": false, "url": "https://www.yelp.com/biz/zenthai-hamburg-3?adjust_creative=hBJOknVQJ58S5goQyjmwRw&utm_campaign=yelp_api_v3&utm_medium=api_v3_business_search&utm_source=hBJOknVQJ58S5goQyjmwRw", "review_count": 6, "categories": [{"alias": "panasian", "title": "Pan Asian"}], "rating": 3.0, "coordinates": {"latitude": 53.5397891, "longitude": 10.1045729}, "transactions": [], "price": "\u20ac\u20ac", "location": {"address1": "M\u00f6llner Landstr. 3", "address2": "", "address3": "1. OG", "city": "Hamburg", "zip_code": "22111", "country": "DE", "state": "HH", "display_address": ["M\u00f6llner Landstr. 3", "1. OG", "22111 Hamburg", "Germany"]}, "phone": "+494073675939", "display_phone": "+49 40 73675939", "distance": 4424.116485911232}, {"id": "Yesr7nanDZ6qj_B9KlTWUA", "alias": "vu-imbiss-hamburg-2", "name": "Vu Imbiss", "image_url": "https://s3-media3.fl.yelpcdn.com/bphoto/Efpa3Z_bih_XM9cE3XQEaQ/o.jpg", "is_closed": false, "url": "https://www.yelp.com/biz/vu-imbiss-hamburg-2?adjust_creative=hBJOknVQJ58S5goQyjmwRw&utm_campaign=yelp_api_v3&utm_medium=api_v3_business_search&utm_source=hBJOknVQJ58S5goQyjmwRw", "review_count": 1, "categories": [{"alias": "panasian", "title": "Pan Asian"}, {"alias": "hotdogs", "title": "Fast Food"}], "rating": 3.0, "coordinates": {"latitude": 53.5422748, "longitude": 10.1404382}, "transactions": [], "location": {"address1": "M\u00f6llner Landstr. 240", "address2": "", "address3": null, "city": "Hamburg", "zip_code": "22117", "country": "DE", "state": "HH", "display_address": ["M\u00f6llner Landstr. 240", "22117 Hamburg", "Germany"]}, "phone": "", "display_phone": "", "distance": 4849.276627504277}, {"id": "BpSJW907Ej6BBEXxNG2gAw", "alias": "suja-hamburg-3", "name": "Suja", "image_url": "https://s3-media3.fl.yelpcdn.com/bphoto/fCqhAhrNmcf_dgzMif1rvQ/o.jpg", "is_closed": false, "url": "https://www.yelp.com/biz/suja-hamburg-3?adjust_creative=hBJOknVQJ58S5goQyjmwRw&utm_campaign=yelp_api_v3&utm_medium=api_v3_business_search&utm_source=hBJOknVQJ58S5goQyjmwRw", "review_count": 4, "categories": [{"alias": "indpak", "title": "Indian"}, {"alias": "fooddeliveryservices", "title": "Food Delivery Services"}], "rating": 2.5, "coordinates": {"latitude": 53.54013, "longitude": 10.10337}, "transactions": [], "price": "\u20ac\u20ac", "location": {"address1": "M\u00f6llner Landstr. 3", "address2": "", "address3": "1. OG", "city": "Hamburg", "zip_code": "22111", "country": "DE", "state": "HH", "display_address": ["M\u00f6llner Landstr. 3", "1. OG", "22111 Hamburg", "Germany"]}, "phone": "+494022610860", "display_phone": "+49 40 22610860", "distance": 4521.7753517531255}, {"id": "HNqlIYhxzjON1G_cQ6ilbw", "alias": "kapelleneck-hamburg", "name": "Kapelleneck", "image_url": "https://s3-media2.fl.yelpcdn.com/bphoto/kGZCIcicPFPngv0eUX0pXQ/o.jpg", "is_closed": false, "url": "https://www.yelp.com/biz/kapelleneck-hamburg?adjust_creative=hBJOknVQJ58S5goQyjmwRw&utm_campaign=yelp_api_v3&utm_medium=api_v3_business_search&utm_source=hBJOknVQJ58S5goQyjmwRw", "review_count": 2, "categories": [{"alias": "gastropubs", "title": "Gastropubs"}, {"alias": "divebars", "title": "Dive Bars"}], "rating": 2.0, "coordinates": {"latitude": 53.53252, "longitude": 10.12782}, "transactions": [], "price": "\u20ac\u20ac", "location": {"address1": "Kapellenstr. 101", "address2": "", "address3": "", "city": "Hamburg", "zip_code": "22117", "country": "DE", "state": "HH", "display_address": ["Kapellenstr. 101", "22117 Hamburg", "Germany"]}, "phone": "", "display_phone": "", "distance": 3594.061966436825}, {"id": "Sj3UwAhi9vGlIKnXqkeRxQ", "alias": "grill-j\u00fcrs-hamburg", "name": "Grill J\u00fcrs", "image_url": "https://s3-media3.fl.yelpcdn.com/bphoto/-lm-EJQXLT887MJqjQObXw/o.jpg", "is_closed": false, "url": "https://www.yelp.com/biz/grill-j%C3%BCrs-hamburg?adjust_creative=hBJOknVQJ58S5goQyjmwRw&utm_campaign=yelp_api_v3&utm_medium=api_v3_business_search&utm_source=hBJOknVQJ58S5goQyjmwRw", "review_count": 3, "categories": [{"alias": "chickenshop", "title": "Chicken Shop"}, {"alias": "hotdogs", "title": "Fast Food"}], "rating": 2.5, "coordinates": {"latitude": 53.53276, "longitude": 10.127}, "transactions": [], "price": "\u20ac\u20ac", "location": {"address1": "Kapellenstr. 95", "address2": "", "address3": null, "city": "Hamburg", "zip_code": "22117", "country": "DE", "state": "HH", "display_address": ["Kapellenstr. 95", "22117 Hamburg", "Germany"]}, "phone": "", "display_phone": "", "distance": 3606.543090271732}, {"id": "gIrRs118ZpavQ1dFibXAlA", "alias": "rose-rote-veranstaltungs-center-hamburg", "name": "Rose Rote Veranstaltungs Center", "image_url": "", "is_closed": false, "url": "https://www.yelp.com/biz/rose-rote-veranstaltungs-center-hamburg?adjust_creative=hBJOknVQJ58S5goQyjmwRw&utm_campaign=yelp_api_v3&utm_medium=api_v3_business_search&utm_source=hBJOknVQJ58S5goQyjmwRw", "review_count": 1, "categories": [{"alias": "hotelstravel", "title": "Hotels & Travel"}, {"alias": "restaurants", "title": "Restaurants"}], "rating": 4.0, "coordinates": {"latitude": 53.5401, "longitude": 10.1024}, "transactions": [], "price": "\u20ac", "location": {"address1": "Billstedter Hauptstr. 51", "address2": null, "address3": null, "city": "Hamburg", "zip_code": "22111", "country": "DE", "state": "HH", "display_address": ["Billstedter Hauptstr. 51", "22111 Hamburg", "Germany"]}, "phone": "", "display_phone": "", "distance": 4488.435459942544}, {"id": "YljwUsa40IemittL_EO12w", "alias": "donja-hamburg", "name": "Donja", "image_url": "https://s3-media4.fl.yelpcdn.com/bphoto/IgSijvZnjPBzvHyEhYkT6g/o.jpg", "is_closed": false, "url": "https://www.yelp.com/biz/donja-hamburg?adjust_creative=hBJOknVQJ58S5goQyjmwRw&utm_campaign=yelp_api_v3&utm_medium=api_v3_business_search&utm_source=hBJOknVQJ58S5goQyjmwRw", "review_count": 9, "categories": [{"alias": "afghani", "title": "Afghan"}], "rating": 4.0, "coordinates": {"latitude": 53.54197, "longitude": 10.09844}, "transactions": [], "price": "\u20ac\u20ac", "location": {"address1": "Billstedter Hauptstr. 17", "address2": "", "address3": "", "city": "Hamburg", "zip_code": "22111", "country": "DE", "state": "HH", "display_address": ["Billstedter Hauptstr. 17", "22111 Hamburg", "Germany"]}, "phone": "+494073677417", "display_phone": "+49 40 73677417", "distance": 4733.524533482011}, {"id": "e0VSS8cgiOI05OFDJTtcJA", "alias": "zum-pr\u00f6sterchen-hamburg", "name": "Zum Pr\u00f6sterchen", "image_url": "https://s3-media2.fl.yelpcdn.com/bphoto/-Fs69fMD4Vm4XESapntCkQ/o.jpg", "is_closed": false, "url": "https://www.yelp.com/biz/zum-pr%C3%B6sterchen-hamburg?adjust_creative=hBJOknVQJ58S5goQyjmwRw&utm_campaign=yelp_api_v3&utm_medium=api_v3_business_search&utm_source=hBJOknVQJ58S5goQyjmwRw", "review_count": 1, "categories": [{"alias": "beerbar", "title": "Beer Bar"}, {"alias": "northerngerman", "title": "Northern German"}], "rating": 4.0, "coordinates": {"latitude": 53.53928, "longitude": 10.1057}, "transactions": [], "price": "\u20ac", "location": {"address1": "M\u00f6llner Landstr. 18", "address2": "", "address3": null, "city": "Hamburg", "zip_code": "22111", "country": "DE", "state": "HH", "display_address": ["M\u00f6llner Landstr. 18", "22111 Hamburg", "Germany"]}, "phone": "+49407314698", "display_phone": "+49 40 7314698", "distance": 4342.946405648571}, {"id": "tw9C5ljsuxZHQK4s89LpvA", "alias": "billstedter-bierstube-hamburg", "name": "Billstedter Bierstube", "image_url": "https://s3-media2.fl.yelpcdn.com/bphoto/y60neRVTsKgjRKUp3pZkNA/o.jpg", "is_closed": false, "url": "https://www.yelp.com/biz/billstedter-bierstube-hamburg?adjust_creative=hBJOknVQJ58S5goQyjmwRw&utm_campaign=yelp_api_v3&utm_medium=api_v3_business_search&utm_source=hBJOknVQJ58S5goQyjmwRw", "review_count": 1, "categories": [{"alias": "pubs", "title": "Pubs"}, {"alias": "restaurants", "title": "Restaurants"}], "rating": 3.0, "coordinates": {"latitude": 53.5396, "longitude": 10.1025}, "transactions": [], "location": {"address1": "Billstedter Hauptstr. 52", "address2": null, "address3": null, "city": "Hamburg", "zip_code": "22111", "country": "DE", "state": "HH", "display_address": ["Billstedter Hauptstr. 52", "22111 Hamburg", "Germany"]}, "phone": "+494028097339", "display_phone": "+49 40 28097339", "distance": 4432.795115628388}, {"id": "QKXV1M2pdEvzJTtJf4ctEA", "alias": "restaurant-panorama-hamburg", "name": "Restaurant Panorama", "image_url": "", "is_closed": false, "url": "https://www.yelp.com/biz/restaurant-panorama-hamburg?adjust_creative=hBJOknVQJ58S5goQyjmwRw&utm_campaign=yelp_api_v3&utm_medium=api_v3_business_search&utm_source=hBJOknVQJ58S5goQyjmwRw", "review_count": 1, "categories": [{"alias": "german", "title": "German"}], "rating": 4.0, "coordinates": {"latitude": 53.5397, "longitude": 10.1014}, "transactions": [], "location": {"address1": "Hotel Panorama Billstedt", "address2": "Billstedter Hauptstr. 44", "address3": null, "city": "Hamburg", "zip_code": "22111", "country": "DE", "state": "HH", "display_address": ["Hotel Panorama Billstedt", "Billstedter Hauptstr. 44", "22111 Hamburg", "Germany"]}, "phone": "+4940733590", "display_phone": "+49 40 733590", "distance": 4460.756640713056}, {"id": "P8P5_LvPRtGXRGJyMs6skg", "alias": "baustellen-casino-hamburg", "name": "Baustellen Casino", "image_url": "https://s3-media4.fl.yelpcdn.com/bphoto/q5Q3sJTyy275JykHLwxJxA/o.jpg", "is_closed": false, "url": "https://www.yelp.com/biz/baustellen-casino-hamburg?adjust_creative=hBJOknVQJ58S5goQyjmwRw&utm_campaign=yelp_api_v3&utm_medium=api_v3_business_search&utm_source=hBJOknVQJ58S5goQyjmwRw", "review_count": 1, "categories": [{"alias": "german", "title": "German"}], "rating": 4.0, "coordinates": {"latitude": 53.542219, "longitude": 10.1101957}, "transactions": [], "price": "\u20ac", "location": {"address1": "\u00d6jendorfer Weg 30a", "address2": null, "address3": null, "city": "Hamburg", "zip_code": "22119", "country": "DE", "state": "HH", "display_address": ["\u00d6jendorfer Weg 30a", "22119 Hamburg", "Germany"]}, "phone": "+494071404155", "display_phone": "+49 40 71404155", "distance": 4634.259525764786}, {"id": "2ncLFilbbL3p2VwDs9fpGQ", "alias": "meyns-hamburg-2", "name": "Meyns", "image_url": "https://s3-media4.fl.yelpcdn.com/bphoto/KpQEGi338DIWzv1yBI2VEQ/o.jpg", "is_closed": false, "url": "https://www.yelp.com/biz/meyns-hamburg-2?adjust_creative=hBJOknVQJ58S5goQyjmwRw&utm_campaign=yelp_api_v3&utm_medium=api_v3_business_search&utm_source=hBJOknVQJ58S5goQyjmwRw", "review_count": 2, "categories": [{"alias": "cafes", "title": "Cafes"}], "rating": 4.5, "coordinates": {"latitude": 53.542, "longitude": 10.1392}, "transactions": [], "price": "\u20ac\u20ac", "location": {"address1": "M\u00f6llner Landstr. 229", "address2": null, "address3": null, "city": "Hamburg", "zip_code": "22117", "country": "DE", "state": "HH", "display_address": ["M\u00f6llner Landstr. 229", "22117 Hamburg", "Germany"]}, "phone": "+494089708422", "display_phone": "+49 40 89708422", "distance": 4795.45894627741}, {"id": "MmYbD5eULMcs2pgW3hOrCw", "alias": "alaturca-hamburg", "name": "Alaturca", "image_url": "https://s3-media4.fl.yelpcdn.com/bphoto/oAaKUiu9XWJcj6VL2F2Ohw/o.jpg", "is_closed": false, "url": "https://www.yelp.com/biz/alaturca-hamburg?adjust_creative=hBJOknVQJ58S5goQyjmwRw&utm_campaign=yelp_api_v3&utm_medium=api_v3_business_search&utm_source=hBJOknVQJ58S5goQyjmwRw", "review_count": 18, "categories": [{"alias": "turkish", "title": "Turkish"}, {"alias": "kebab", "title": "Kebab"}], "rating": 3.0, "coordinates": {"latitude": 53.53974, "longitude": 10.10145}, "transactions": [], "price": "\u20ac\u20ac\u20ac", "location": {"address1": "Billstedter Hauptstr. 48 53", "address2": null, "address3": null, "city": "Hamburg", "zip_code": "22111", "country": "DE", "state": "HH", "display_address": ["Billstedter Hauptstr. 48 53", "22111 Hamburg", "Germany"]}, "phone": "+494070296885", "display_phone": "+49 40 70296885", "distance": 4464.2683353672855}, {"id": "7N9yEdpjKU2hFEhuKJDUsw", "alias": "betriebsrestaurant-billstedt-hamburg", "name": "Betriebsrestaurant Billstedt", "image_url": "https://s3-media2.fl.yelpcdn.com/bphoto/9b8pnnOHIYREqx3PKzBwOg/o.jpg", "is_closed": false, "url": "https://www.yelp.com/biz/betriebsrestaurant-billstedt-hamburg?adjust_creative=hBJOknVQJ58S5goQyjmwRw&utm_campaign=yelp_api_v3&utm_medium=api_v3_business_search&utm_source=hBJOknVQJ58S5goQyjmwRw", "review_count": 2, "categories": [{"alias": "canteen", "title": "Canteen"}], "rating": 4.0, "coordinates": {"latitude": 53.5404399, "longitude": 10.10682}, "transactions": [], "price": "\u20ac", "location": {"address1": "\u00d6jendorferweg 9", "address2": "", "address3": "", "city": "Hamburg", "zip_code": "22111", "country": "DE", "state": "HH", "display_address": ["\u00d6jendorferweg 9", "22111 Hamburg", "Germany"]}, "phone": "+49407314900", "display_phone": "+49 40 7314900", "distance": 4456.651400028953}, {"id": "yqk1NxWrR6Jp3IOyks0cSQ", "alias": "schweinske-hamburg-29", "name": "Schweinske", "image_url": "https://s3-media3.fl.yelpcdn.com/bphoto/LWx1Qfrr6CLbQoqxc7GUAQ/o.jpg", "is_closed": false, "url": "https://www.yelp.com/biz/schweinske-hamburg-29?adjust_creative=hBJOknVQJ58S5goQyjmwRw&utm_campaign=yelp_api_v3&utm_medium=api_v3_business_search&utm_source=hBJOknVQJ58S5goQyjmwRw", "review_count": 26, "categories": [{"alias": "german", "title": "German"}], "rating": 2.5, "coordinates": {"latitude": 53.5386279623028, "longitude": 10.1104775816202}, "transactions": [], "price": "\u20ac", "location": {"address1": "M\u00f6llner Landstr. 2", "address2": "", "address3": null, "city": "Hamburg", "zip_code": "22111", "country": "DE", "state": "HH", "display_address": ["M\u00f6llner Landstr. 2", "22111 Hamburg", "Germany"]}, "phone": "+494073433380", "display_phone": "+49 40 73433380", "distance": 4235.3720176636425}, {"id": "rAsVelSwPKX0rwgdY9du6A", "alias": "athina-hamburg-2", "name": "Athina", "image_url": "https://s3-media1.fl.yelpcdn.com/bphoto/neJUJ1smDqW-T2KDiInYrw/o.jpg", "is_closed": false, "url": "https://www.yelp.com/biz/athina-hamburg-2?adjust_creative=hBJOknVQJ58S5goQyjmwRw&utm_campaign=yelp_api_v3&utm_medium=api_v3_business_search&utm_source=hBJOknVQJ58S5goQyjmwRw", "review_count": 11, "categories": [{"alias": "greek", "title": "Greek"}], "rating": 3.5, "coordinates": {"latitude": 53.5399168041103, "longitude": 10.1349412213544}, "transactions": [], "price": "\u20ac\u20ac", "location": {"address1": "Wegkoppel 3", "address2": null, "address3": null, "city": "Hamburg", "zip_code": "22117", "country": "DE", "state": "HH", "display_address": ["Wegkoppel 3", "22117 Hamburg", "Germany"]}, "phone": "+494063655580", "display_phone": "+49 40 63655580", "distance": 4495.618241505677}, {"id": "sEkpM7--ZMmNjrVd6MNyOA", "alias": "knappis-imbiss-hamburg-3", "name": "Knappis Imbiss", "image_url": "https://s3-media1.fl.yelpcdn.com/bphoto/5oKcQAiuz9KcJT7y9Bc90g/o.jpg", "is_closed": false, "url": "https://www.yelp.com/biz/knappis-imbiss-hamburg-3?adjust_creative=hBJOknVQJ58S5goQyjmwRw&utm_campaign=yelp_api_v3&utm_medium=api_v3_business_search&utm_source=hBJOknVQJ58S5goQyjmwRw", "review_count": 1, "categories": [{"alias": "currysausage", "title": "Curry Sausage"}], "rating": 5.0, "coordinates": {"latitude": 53.5392586, "longitude": 10.1063802}, "transactions": [], "price": "\u20ac", "location": {"address1": "M\u00f6llner Landstra\u00dfe", "address2": null, "address3": null, "city": "Hamburg", "zip_code": "22111", "country": "DE", "state": "HH", "display_address": ["M\u00f6llner Landstra\u00dfe", "22111 Hamburg", "Germany"]}, "phone": "", "display_phone": "", "distance": 4343.925822613288}, {"id": "ZowjZ9bdVgxpVWOM4k-1UA", "alias": "subway-hamburg-29", "name": "Subway", "image_url": "https://s3-media2.fl.yelpcdn.com/bphoto/F9xIvjrCfpEPDoFbegH5Dg/o.jpg", "is_closed": false, "url": "https://www.yelp.com/biz/subway-hamburg-29?adjust_creative=hBJOknVQJ58S5goQyjmwRw&utm_campaign=yelp_api_v3&utm_medium=api_v3_business_search&utm_source=hBJOknVQJ58S5goQyjmwRw", "review_count": 7, "categories": [{"alias": "sandwiches", "title": "Sandwiches"}, {"alias": "hotdogs", "title": "Fast Food"}], "rating": 4.0, "coordinates": {"latitude": 53.539943, "longitude": 10.103886}, "transactions": [], "price": "\u20ac\u20ac\u20ac\u20ac", "location": {"address1": "M\u00f6llner Landstr. 3", "address2": "", "address3": "", "city": "Hamburg", "zip_code": "22111", "country": "DE", "state": "HH", "display_address": ["M\u00f6llner Landstr. 3", "22111 Hamburg", "Germany"]}, "phone": "+494033428595", "display_phone": "+49 40 33428595", "distance": 4450.068967023559}, {"id": "mcoIIcxFqpgcsQsSB7w4gg", "alias": "sel-chicken-hamburg", "name": "Sel Chicken", "image_url": "", "is_closed": false, "url": "https://www.yelp.com/biz/sel-chicken-hamburg?adjust_creative=hBJOknVQJ58S5goQyjmwRw&utm_campaign=yelp_api_v3&utm_medium=api_v3_business_search&utm_source=hBJOknVQJ58S5goQyjmwRw", "review_count": 1, "categories": [{"alias": "chicken_wings", "title": "Chicken Wings"}, {"alias": "hotdogs", "title": "Fast Food"}], "rating": 1.0, "coordinates": {"latitude": 53.540088, "longitude": 10.102545}, "transactions": [], "price": "\u20ac\u20ac", "location": {"address1": "Billstedter Hauptstr. 51", "address2": "", "address3": null, "city": "Hamburg", "zip_code": "22111", "country": "DE", "state": "HH", "display_address": ["Billstedter Hauptstr. 51", "22111 Hamburg", "Germany"]}, "phone": "", "display_phone": "", "distance": 4484.9681183164375}, {"id": "ctCDPQumN0wiEQqkEk0Jzw", "alias": "emir-d\u00f6ner-hamburg", "name": "Emir D\u00f6ner", "image_url": "https://s3-media4.fl.yelpcdn.com/bphoto/aID8KlC8L2TLKWGkdpMJIw/o.jpg", "is_closed": false, "url": "https://www.yelp.com/biz/emir-d%C3%B6ner-hamburg?adjust_creative=hBJOknVQJ58S5goQyjmwRw&utm_campaign=yelp_api_v3&utm_medium=api_v3_business_search&utm_source=hBJOknVQJ58S5goQyjmwRw", "review_count": 2, "categories": [{"alias": "kebab", "title": "Kebab"}, {"alias": "cafes", "title": "Cafes"}], "rating": 2.5, "coordinates": {"latitude": 53.5402543935662, "longitude": 10.1050699129701}, "transactions": [], "price": "\u20ac\u20ac", "location": {"address1": "M\u00f6llner Landstr. 3", "address2": "", "address3": "", "city": "Hamburg", "zip_code": "22111", "country": "DE", "state": "HH", "display_address": ["M\u00f6llner Landstr. 3", "22111 Hamburg", "Germany"]}, "phone": "+494023498049", "display_phone": "+49 40 23498049", "distance": 4468.528073935038}, {"id": "YegaVSTIXDOqvF4UKbRrwA", "alias": "pizza-max-hamburg-3", "name": "Pizza Max", "image_url": "https://s3-media3.fl.yelpcdn.com/bphoto/6EOS5sWgPWoDUmpMNGtc1Q/o.jpg", "is_closed": false, "url": "https://www.yelp.com/biz/pizza-max-hamburg-3?adjust_creative=hBJOknVQJ58S5goQyjmwRw&utm_campaign=yelp_api_v3&utm_medium=api_v3_business_search&utm_source=hBJOknVQJ58S5goQyjmwRw", "review_count": 27, "categories": [{"alias": "pizza", "title": "Pizza"}, {"alias": "burgers", "title": "Burgers"}], "rating": 3.5, "coordinates": {"latitude": 53.54304, "longitude": 10.09595}, "transactions": [], "price": "\u20ac\u20ac", "location": {"address1": "Washingtonallee 111", "address2": "", "address3": "", "city": "Hamburg", "zip_code": "22111", "country": "DE", "state": "HH", "display_address": ["Washingtonallee 111", "22111 Hamburg", "Germany"]}, "phone": "+494073670849", "display_phone": "+49 40 73670849", "distance": 4914.9521292732015}, {"id": "BFSov6Q4m4OGbudFU3DvZA", "alias": "mcdonalds-hamburg-52", "name": "McDonald's", "image_url": "https://s3-media4.fl.yelpcdn.com/bphoto/9z82e7Vdha91FAaOWNZImw/o.jpg", "is_closed": false, "url": "https://www.yelp.com/biz/mcdonalds-hamburg-52?adjust_creative=hBJOknVQJ58S5goQyjmwRw&utm_campaign=yelp_api_v3&utm_medium=api_v3_business_search&utm_source=hBJOknVQJ58S5goQyjmwRw", "review_count": 2, "categories": [{"alias": "hotdogs", "title": "Fast Food"}, {"alias": "burgers", "title": "Burgers"}], "rating": 2.5, "coordinates": {"latitude": 53.5395934, "longitude": 10.1047763}, "transactions": [], "location": {"address1": "M\u00f6llner Landstr. 7a", "address2": null, "address3": null, "city": "Hamburg", "zip_code": "22111", "country": "DE", "state": "HH", "display_address": ["M\u00f6llner Landstr. 7a", "22111 Hamburg", "Germany"]}, "phone": "+49407325722", "display_phone": "+49 40 7325722", "distance": 4423.68682085755}, {"id": "TGlVX1NeqMNA95qxbES1Rg", "alias": "caf\u00e9-winter-hamburg", "name": "Caf\u00e9 Winter", "image_url": "https://s3-media1.fl.yelpcdn.com/bphoto/ia4QVOBTLuG2yoMpxlaicQ/o.jpg", "is_closed": false, "url": "https://www.yelp.com/biz/caf%C3%A9-winter-hamburg?adjust_creative=hBJOknVQJ58S5goQyjmwRw&utm_campaign=yelp_api_v3&utm_medium=api_v3_business_search&utm_source=hBJOknVQJ58S5goQyjmwRw", "review_count": 2, "categories": [{"alias": "cafes", "title": "Cafes"}, {"alias": "cakeshop", "title": "Patisserie/Cake Shop"}], "rating": 3.5, "coordinates": {"latitude": 53.5403885, "longitude": 10.1359522}, "transactions": [], "location": {"address1": "M\u00f6llner Landstr. 202", "address2": "", "address3": "", "city": "Hamburg", "zip_code": "22117", "country": "DE", "state": "HH", "display_address": ["M\u00f6llner Landstr. 202", "22117 Hamburg", "Germany"]}, "phone": "+49407123388", "display_phone": "+49 40 7123388", "distance": 4563.495314151266}, {"id": "3YztXT5dmOGD-i9ZwYfDWw", "alias": "burger-king-hamburg-12", "name": "Burger King", "image_url": "https://s3-media3.fl.yelpcdn.com/bphoto/_7T-i176DAQ09IW_u9oq3A/o.jpg", "is_closed": false, "url": "https://www.yelp.com/biz/burger-king-hamburg-12?adjust_creative=hBJOknVQJ58S5goQyjmwRw&utm_campaign=yelp_api_v3&utm_medium=api_v3_business_search&utm_source=hBJOknVQJ58S5goQyjmwRw", "review_count": 5, "categories": [{"alias": "burgers", "title": "Burgers"}, {"alias": "hotdogs", "title": "Fast Food"}], "rating": 2.5, "coordinates": {"latitude": 53.54013, "longitude": 10.10337}, "transactions": [], "price": "\u20ac\u20ac", "location": {"address1": "M\u00f6llner Landstr. 3", "address2": "", "address3": null, "city": "Hamburg", "zip_code": "22111", "country": "DE", "state": "HH", "display_address": ["M\u00f6llner Landstr. 3", "22111 Hamburg", "Germany"]}, "phone": "+494073679659", "display_phone": "+49 40 73679659", "distance": 4521.7753517531255}, {"id": "il8FEDFNPrw_B8UfjigGkw", "alias": "back-lava-hamburg-3", "name": "Back-Lava", "image_url": "https://s3-media2.fl.yelpcdn.com/bphoto/4dED60GL0dQuN4slUM0Fpg/o.jpg", "is_closed": false, "url": "https://www.yelp.com/biz/back-lava-hamburg-3?adjust_creative=hBJOknVQJ58S5goQyjmwRw&utm_campaign=yelp_api_v3&utm_medium=api_v3_business_search&utm_source=hBJOknVQJ58S5goQyjmwRw", "review_count": 1, "categories": [{"alias": "bakeries", "title": "Bakeries"}, {"alias": "turkish", "title": "Turkish"}, {"alias": "cakeshop", "title": "Patisserie/Cake Shop"}], "rating": 2.0, "coordinates": {"latitude": 53.54084, "longitude": 10.10021}, "transactions": [], "location": {"address1": "Billstedter Hauptstr. 35", "address2": null, "address3": null, "city": "Hamburg", "zip_code": "22111", "country": "DE", "state": "HH", "display_address": ["Billstedter Hauptstr. 35", "22111 Hamburg", "Germany"]}, "phone": "+494051907247", "display_phone": "+49 40 51907247", "distance": 4603.072375638191}, {"id": "xwYBQiBbAXJl3sAZwwsaUg", "alias": "krox-hamburg-7", "name": "Krox", "image_url": "https://s3-media3.fl.yelpcdn.com/bphoto/BHWjik_D16JK44ObnGav7Q/o.jpg", "is_closed": false, "url": "https://www.yelp.com/biz/krox-hamburg-7?adjust_creative=hBJOknVQJ58S5goQyjmwRw&utm_campaign=yelp_api_v3&utm_medium=api_v3_business_search&utm_source=hBJOknVQJ58S5goQyjmwRw", "review_count": 17, "categories": [{"alias": "sandwiches", "title": "Sandwiches"}, {"alias": "creperies", "title": "Creperies"}, {"alias": "pizza", "title": "Pizza"}], "rating": 3.0, "coordinates": {"latitude": 53.538735, "longitude": 10.122476}, "transactions": [], "price": "\u20ac\u20ac", "location": {"address1": "M\u00f6llner Landstr. 123", "address2": "", "address3": "", "city": "Hamburg", "zip_code": "22117", "country": "DE", "state": "HH", "display_address": ["M\u00f6llner Landstr. 123", "22117 Hamburg", "Germany"]}, "phone": "+49407133310", "display_phone": "+49 40 7133310", "distance": 4228.79149757494}]