[{"id": "-T6JvFBrGMa1iS1O5JbJ2g", "alias": "gastst\u00e4tte-zur-m\u00fchlenklause-hamburg", "name": "Gastst\u00e4tte Zur M\u00fchlenklause", "image_url": "https://s3-media2.fl.yelpcdn.com/bphoto/xJ-PNRG2m3Eq0fBNmhCTcQ/o.jpg", "is_closed": false, "url": "https://www.yelp.com/biz/gastst%C3%A4tte-zur-m%C3%BChlenklause-hamburg?adjust_creative=hBJOknVQJ58S5goQyjmwRw&utm_campaign=yelp_api_v3&utm_medium=api_v3_business_search&utm_source=hBJOknVQJ58S5goQyjmwRw", "review_count": 1, "categories": [{"alias": "german", "title": "German"}], "rating": 4.0, "coordinates": {"latitude": 53.53622, "longitude": 10.03305}, "transactions": [], "location": {"address1": "Billhorner M\u00fchlenweg 26", "address2": null, "address3": null, "city": "Hamburg", "zip_code": "20539", "country": "DE", "state": "HH", "display_address": ["Billhorner M\u00fchlenweg 26", "20539 Hamburg", "Germany"]}, "phone": "+4940785192", "display_phone": "+49 40 785192", "distance": 4204.661367477171}, {"id": "g0y_UjeNh4fAs7_1mvQAIg", "alias": "biller-lunch-haus-hamburg-2", "name": "Biller Lunch Haus", "image_url": "https://s3-media4.fl.yelpcdn.com/bphoto/5vNToWhrpNudf0T56hyKsg/o.jpg", "is_closed": false, "url": "https://www.yelp.com/biz/biller-lunch-haus-hamburg-2?adjust_creative=hBJOknVQJ58S5goQyjmwRw&utm_campaign=yelp_api_v3&utm_medium=api_v3_business_search&utm_source=hBJOknVQJ58S5goQyjmwRw", "review_count": 3, "categories": [{"alias": "international", "title": "International"}, {"alias": "italian", "title": "Italian"}], "rating": 5.0, "coordinates": {"latitude": 53.5400009, "longitude": 10.0448599}, "transactions": [], "location": {"address1": "Ausschl\u00e4ger Billdeich 16", "address2": "", "address3": "", "city": "Hamburg", "zip_code": "20539", "country": "DE", "state": "HH", "display_address": ["Ausschl\u00e4ger Billdeich 16", "20539 Hamburg", "Germany"]}, "phone": "+494087600574", "display_phone": "+49 40 87600574", "distance": 4375.988631058603}, {"id": "lb_5Il0RiWf-WYoleqq4SA", "alias": "zur-elbbr\u00fccke-hamburg", "name": "Zur Elbbr\u00fccke", "image_url": "https://s3-media3.fl.yelpcdn.com/bphoto/TRXDcKjduwNa11wWBF1rtA/o.jpg", "is_closed": false, "url": "https://www.yelp.com/biz/zur-elbbr%C3%BCcke-hamburg?adjust_creative=hBJOknVQJ58S5goQyjmwRw&utm_campaign=yelp_api_v3&utm_medium=api_v3_business_search&utm_source=hBJOknVQJ58S5goQyjmwRw", "review_count": 6, "categories": [{"alias": "german", "title": "German"}], "rating": 4.0, "coordinates": {"latitude": 53.501809, "longitude": 10.079916}, "transactions": [], "price": "\u20ac\u20ac", "location": {"address1": "Moorfleeter Deich 259", "address2": "", "address3": "", "city": "Hamburg", "zip_code": "22113", "country": "DE", "state": "HH", "display_address": ["Moorfleeter Deich 259", "22113 Hamburg", "Germany"]}, "phone": "+49407372304", "display_phone": "+49 40 7372304", "distance": 1473.427708906573}, {"id": "jNjcKjZidgN5OHsg1MatuQ", "alias": "entenwerder1-hamburg", "name": "Entenwerder1", "image_url": "https://s3-media4.fl.yelpcdn.com/bphoto/nVwf_MRHWCZIA1rH92pjgg/o.jpg", "is_closed": false, "url": "https://www.yelp.com/biz/entenwerder1-hamburg?adjust_creative=hBJOknVQJ58S5goQyjmwRw&utm_campaign=yelp_api_v3&utm_medium=api_v3_business_search&utm_source=hBJOknVQJ58S5goQyjmwRw", "review_count": 27, "categories": [{"alias": "bars", "title": "Bars"}, {"alias": "cafes", "title": "Cafes"}], "rating": 3.5, "coordinates": {"latitude": 53.5293485335548, "longitude": 10.0372358486707}, "transactions": [], "price": "\u20ac\u20ac", "location": {"address1": "Entenwerder 1", "address2": "", "address3": "", "city": "Hamburg", "zip_code": "20539", "country": "DE", "state": "HH", "display_address": ["Entenwerder 1", "20539 Hamburg", "Germany"]}, "phone": "+494070293588", "display_phone": "+49 40 70293588", "distance": 3391.2719742439704}, {"id": "98aFDKSYZnwJtLLe3Wxf6w", "alias": "d\u00f6nerei-hamburg", "name": "D\u00f6nerei", "image_url": "https://s3-media3.fl.yelpcdn.com/bphoto/f3PUgog-jh2fWrr-o6ntNg/o.jpg", "is_closed": false, "url": "https://www.yelp.com/biz/d%C3%B6nerei-hamburg?adjust_creative=hBJOknVQJ58S5goQyjmwRw&utm_campaign=yelp_api_v3&utm_medium=api_v3_business_search&utm_source=hBJOknVQJ58S5goQyjmwRw", "review_count": 2, "categories": [{"alias": "kebab", "title": "Kebab"}], "rating": 5.0, "coordinates": {"latitude": 53.5338809470294, "longitude": 10.03906685719}, "transactions": [], "price": "\u20ac", "location": {"address1": "Rothenburgsorter Marktplatz 1-3", "address2": "", "address3": "", "city": "Hamburg", "zip_code": "20539", "country": "DE", "state": "HH", "display_address": ["Rothenburgsorter Marktplatz 1-3", "20539 Hamburg", "Germany"]}, "phone": "", "display_phone": "", "distance": 3818.8791837152344}, {"id": "45K9V6Od-olAsZzNnCq1Ew", "alias": "marschl\u00e4nder-elblounge-hamburg", "name": "Marschl\u00e4nder Elblounge", "image_url": "https://s3-media4.fl.yelpcdn.com/bphoto/VlmCBhqXZ0ySgPD7nGTxWg/o.jpg", "is_closed": false, "url": "https://www.yelp.com/biz/marschl%C3%A4nder-elblounge-hamburg?adjust_creative=hBJOknVQJ58S5goQyjmwRw&utm_campaign=yelp_api_v3&utm_medium=api_v3_business_search&utm_source=hBJOknVQJ58S5goQyjmwRw", "review_count": 1, "categories": [{"alias": "cafes", "title": "Cafes"}], "rating": 5.0, "coordinates": {"latitude": 53.478363, "longitude": 10.062896}, "transactions": [], "location": {"address1": "Spadenl\u00e4nder Elbdeich 40", "address2": "", "address3": null, "city": "Hamburg", "zip_code": "21037", "country": "DE", "state": "HH", "display_address": ["Spadenl\u00e4nder Elbdeich 40", "21037 Hamburg", "Germany"]}, "phone": "+494089723000", "display_phone": "+49 40 89723000", "distance": 2579.2678925219143}, {"id": "5fZ9jkrklSrRyUbPaMAWjQ", "alias": "bamboo-restaurant-hamburg", "name": "Bamboo Restaurant", "image_url": "https://s3-media1.fl.yelpcdn.com/bphoto/CJi4ntAQvSHIw0BhBFiUlA/o.jpg", "is_closed": false, "url": "https://www.yelp.com/biz/bamboo-restaurant-hamburg?adjust_creative=hBJOknVQJ58S5goQyjmwRw&utm_campaign=yelp_api_v3&utm_medium=api_v3_business_search&utm_source=hBJOknVQJ58S5goQyjmwRw", "review_count": 9, "categories": [{"alias": "chinese", "title": "Chinese"}, {"alias": "thai", "title": "Thai"}], "rating": 4.0, "coordinates": {"latitude": 53.5013803, "longitude": 10.0799064}, "transactions": [], "price": "\u20ac\u20ac", "location": {"address1": "Tatenberger Weg 1", "address2": null, "address3": null, "city": "Hamburg", "zip_code": "22113", "country": "DE", "state": "HH", "display_address": ["Tatenberger Weg 1", "22113 Hamburg", "Germany"]}, "phone": "+494078071611", "display_phone": "+49 40 78071611", "distance": 1480.2109268228908}, {"id": "kWJowGmc_ltrgOpxjBtY0g", "alias": "bistro-chaplin-hamburg-2", "name": "Bistro Chaplin", "image_url": "https://s3-media3.fl.yelpcdn.com/bphoto/fDrKUKCgK5bwzb4YH29bKA/o.jpg", "is_closed": false, "url": "https://www.yelp.com/biz/bistro-chaplin-hamburg-2?adjust_creative=hBJOknVQJ58S5goQyjmwRw&utm_campaign=yelp_api_v3&utm_medium=api_v3_business_search&utm_source=hBJOknVQJ58S5goQyjmwRw", "review_count": 8, "categories": [{"alias": "bars", "title": "Bars"}, {"alias": "bistros", "title": "Bistros"}], "rating": 4.5, "coordinates": {"latitude": 53.5335, "longitude": 10.03953}, "transactions": [], "price": "\u20ac\u20ac", "location": {"address1": "Rothenburgsorter Marktplatz 4", "address2": null, "address3": null, "city": "Hamburg", "zip_code": "20539", "country": "DE", "state": "HH", "display_address": ["Rothenburgsorter Marktplatz 4", "20539 Hamburg", "Germany"]}, "phone": "+494098263553", "display_phone": "+49 40 98263553", "distance": 3768.989186951591}, {"id": "jUPENPA2agvBwm75l0CokQ", "alias": "alt-deutsche-k\u00fcche-elbbr\u00fccken-hamburg", "name": "Alt Deutsche K\u00fcche Elbbr\u00fccken", "image_url": "https://s3-media3.fl.yelpcdn.com/bphoto/Aeqh23mIiMdstatkmYSe2Q/o.jpg", "is_closed": false, "url": "https://www.yelp.com/biz/alt-deutsche-k%C3%BCche-elbbr%C3%BCcken-hamburg?adjust_creative=hBJOknVQJ58S5goQyjmwRw&utm_campaign=yelp_api_v3&utm_medium=api_v3_business_search&utm_source=hBJOknVQJ58S5goQyjmwRw", "review_count": 23, "categories": [{"alias": "northerngerman", "title": "Northern German"}, {"alias": "sportsbars", "title": "Sports Bars"}], "rating": 3.5, "coordinates": {"latitude": 53.5366893475375, "longitude": 10.033874680426}, "transactions": [], "price": "\u20ac\u20ac", "location": {"address1": "Billhorner R\u00f6hrendamm 94", "address2": null, "address3": "", "city": "Hamburg", "zip_code": "20539", "country": "DE", "state": "HH", "display_address": ["Billhorner R\u00f6hrendamm 94", "20539 Hamburg", "Germany"]}, "phone": "+4940786286", "display_phone": "+49 40 786286", "distance": 4230.47873850697}, {"id": "GOJDESC3enoUxwJ6jQjqHQ", "alias": "e-on-hanse-hamburg", "name": "E.On Hanse", "image_url": "https://s3-media2.fl.yelpcdn.com/bphoto/xPQjXnTN7P00HhR7txprnQ/o.jpg", "is_closed": false, "url": "https://www.yelp.com/biz/e-on-hanse-hamburg?adjust_creative=hBJOknVQJ58S5goQyjmwRw&utm_campaign=yelp_api_v3&utm_medium=api_v3_business_search&utm_source=hBJOknVQJ58S5goQyjmwRw", "review_count": 2, "categories": [{"alias": "canteen", "title": "Canteen"}], "rating": 3.0, "coordinates": {"latitude": 53.5289, "longitude": 10.0641}, "transactions": [], "location": {"address1": "Ausschl\u00e4ger Elbdeich 127", "address2": null, "address3": null, "city": "Hamburg", "zip_code": "20539", "country": "DE", "state": "HH", "display_address": ["Ausschl\u00e4ger Elbdeich 127", "20539 Hamburg", "Germany"]}, "phone": "", "display_phone": "", "distance": 3095.4322293852897}, {"id": "j0ysYcDNHxTNKmuAvcgJ4A", "alias": "restaurant-blaue-adria-hamburg", "name": "Restaurant blaue Adria", "image_url": "https://s3-media2.fl.yelpcdn.com/bphoto/sbQfdYTdnDqTJXukxLa_lw/o.jpg", "is_closed": false, "url": "https://www.yelp.com/biz/restaurant-blaue-adria-hamburg?adjust_creative=hBJOknVQJ58S5goQyjmwRw&utm_campaign=yelp_api_v3&utm_medium=api_v3_business_search&utm_source=hBJOknVQJ58S5goQyjmwRw", "review_count": 5, "categories": [{"alias": "german", "title": "German"}], "rating": 4.0, "coordinates": {"latitude": 53.5352, "longitude": 10.0414}, "transactions": [], "price": "\u20ac\u20ac", "location": {"address1": "Marckmannstr. 74", "address2": null, "address3": null, "city": "Hamburg", "zip_code": "20539", "country": "DE", "state": "HH", "display_address": ["Marckmannstr. 74", "20539 Hamburg", "Germany"]}, "phone": "+49407890242", "display_phone": "+49 40 7890242", "distance": 3913.323794080509}, {"id": "TQZu5TXWITuFj5bqRMVQEw", "alias": "entenwerder-f\u00e4hrhaus-hamburg", "name": "Entenwerder F\u00e4hrhaus", "image_url": "https://s3-media2.fl.yelpcdn.com/bphoto/VB1uXzzWSGKR97ZDzNUs2g/o.jpg", "is_closed": false, "url": "https://www.yelp.com/biz/entenwerder-f%C3%A4hrhaus-hamburg?adjust_creative=hBJOknVQJ58S5goQyjmwRw&utm_campaign=yelp_api_v3&utm_medium=api_v3_business_search&utm_source=hBJOknVQJ58S5goQyjmwRw", "review_count": 5, "categories": [{"alias": "german", "title": "German"}, {"alias": "beergarden", "title": "Beer Garden"}], "rating": 3.5, "coordinates": {"latitude": 53.530194, "longitude": 10.040777}, "transactions": [], "price": "\u20ac", "location": {"address1": "Entenwerder Stieg 6 - 8", "address2": null, "address3": null, "city": "Hamburg", "zip_code": "20539", "country": "DE", "state": "HH", "display_address": ["Entenwerder Stieg 6 - 8", "20539 Hamburg", "Germany"]}, "phone": "", "display_phone": "", "distance": 3394.375558869728}, {"id": "_M1WzOBE-XxhsHyxrEL6kQ", "alias": "mein-d\u00f6ner-hamburg", "name": "Mein D\u00f6ner", "image_url": "https://s3-media2.fl.yelpcdn.com/bphoto/loDEw0PVlsd3ErHh6ALjNA/o.jpg", "is_closed": false, "url": "https://www.yelp.com/biz/mein-d%C3%B6ner-hamburg?adjust_creative=hBJOknVQJ58S5goQyjmwRw&utm_campaign=yelp_api_v3&utm_medium=api_v3_business_search&utm_source=hBJOknVQJ58S5goQyjmwRw", "review_count": 7, "categories": [{"alias": "kebab", "title": "Kebab"}], "rating": 3.5, "coordinates": {"latitude": 53.5365884457337, "longitude": 10.0344046872517}, "transactions": [], "price": "\u20ac", "location": {"address1": "Billhorner R\u00f6hrendamm 98", "address2": "", "address3": null, "city": "Hamburg", "zip_code": "20539", "country": "DE", "state": "HH", "display_address": ["Billhorner R\u00f6hrendamm 98", "20539 Hamburg", "Germany"]}, "phone": "+494078081199", "display_phone": "+49 40 78081199", "distance": 4207.199011803159}, {"id": "a16kZh83Ee5ZoSjXghj_5A", "alias": "orange-coffee-hamburg", "name": "Orange Coffee", "image_url": "https://s3-media3.fl.yelpcdn.com/bphoto/FtZQ0d-fQW57NOdZLrtiHg/o.jpg", "is_closed": false, "url": "https://www.yelp.com/biz/orange-coffee-hamburg?adjust_creative=hBJOknVQJ58S5goQyjmwRw&utm_campaign=yelp_api_v3&utm_medium=api_v3_business_search&utm_source=hBJOknVQJ58S5goQyjmwRw", "review_count": 2, "categories": [{"alias": "kiosk", "title": "Kiosk"}, {"alias": "backshop", "title": "Backshop"}, {"alias": "cafes", "title": "Cafes"}], "rating": 4.5, "coordinates": {"latitude": 53.5363151285288, "longitude": 10.0347996877954}, "transactions": [], "location": {"address1": "Billhorner R\u00f6hrendamm 104", "address2": "", "address3": "", "city": "Hamburg", "zip_code": "20539", "country": "DE", "state": "HH", "display_address": ["Billhorner R\u00f6hrendamm 104", "20539 Hamburg", "Germany"]}, "phone": "+494084508431", "display_phone": "+49 40 84508431", "distance": 4169.419367211197}, {"id": "oSfMMhQCa84nYUsFIW9txg", "alias": "gastst\u00e4tte-bunthaus-hamburg", "name": "Gastst\u00e4tte Bunthaus", "image_url": "https://s3-media2.fl.yelpcdn.com/bphoto/PRPWKX1iWz3qiRyKS-NPMQ/o.jpg", "is_closed": false, "url": "https://www.yelp.com/biz/gastst%C3%A4tte-bunthaus-hamburg?adjust_creative=hBJOknVQJ58S5goQyjmwRw&utm_campaign=yelp_api_v3&utm_medium=api_v3_business_search&utm_source=hBJOknVQJ58S5goQyjmwRw", "review_count": 1, "categories": [{"alias": "german", "title": "German"}], "rating": 5.0, "coordinates": {"latitude": 53.4605354299647, "longitude": 10.0638100782702}, "transactions": [], "price": "\u20ac\u20ac", "location": {"address1": "Moorwerder Hauptdeich 33", "address2": "", "address3": null, "city": "Hamburg", "zip_code": "21109", "country": "DE", "state": "HH", "display_address": ["Moorwerder Hauptdeich 33", "21109 Hamburg", "Germany"]}, "phone": "+4915122949396", "display_phone": "+49 1512 2949396", "distance": 4556.033503599365}, {"id": "opZw8A9bdxiAtEaK9HsIpg", "alias": "cafe-kaltehofe-hamburg", "name": "Cafe Kaltehofe", "image_url": "https://s3-media1.fl.yelpcdn.com/bphoto/-SBPTxsjwRH5SJYThXwoYA/o.jpg", "is_closed": false, "url": "https://www.yelp.com/biz/cafe-kaltehofe-hamburg?adjust_creative=hBJOknVQJ58S5goQyjmwRw&utm_campaign=yelp_api_v3&utm_medium=api_v3_business_search&utm_source=hBJOknVQJ58S5goQyjmwRw", "review_count": 8, "categories": [{"alias": "cafes", "title": "Cafes"}], "rating": 3.0, "coordinates": {"latitude": 53.5247, "longitude": 10.0508}, "transactions": [], "price": "\u20ac\u20ac\u20ac", "location": {"address1": "Kaltehofe Hauptdeich 6-7", "address2": null, "address3": null, "city": "Hamburg", "zip_code": "20439", "country": "DE", "state": "HH", "display_address": ["Kaltehofe Hauptdeich 6-7", "20439 Hamburg", "Germany"]}, "phone": "+4940788849992", "display_phone": "+49 40 788849992", "distance": 2635.54340310843}, {"id": "eeAeK-QDo5mwnzxzg42r8w", "alias": "caglar-b\u00e4ckerei-hamburg", "name": "Caglar B\u00e4ckerei", "image_url": "https://s3-media1.fl.yelpcdn.com/bphoto/GDmhQcxZ2VNRUfelgGTYYg/o.jpg", "is_closed": false, "url": "https://www.yelp.com/biz/caglar-b%C3%A4ckerei-hamburg?adjust_creative=hBJOknVQJ58S5goQyjmwRw&utm_campaign=yelp_api_v3&utm_medium=api_v3_business_search&utm_source=hBJOknVQJ58S5goQyjmwRw", "review_count": 4, "categories": [{"alias": "bakeries", "title": "Bakeries"}, {"alias": "cafes", "title": "Cafes"}], "rating": 5.0, "coordinates": {"latitude": 53.5343049084099, "longitude": 10.0415912215949}, "transactions": [], "price": "\u20ac", "location": {"address1": "Vierl\u00e4nder Damm 9", "address2": "", "address3": "", "city": "Hamburg", "zip_code": "20539", "country": "DE", "state": "HH", "display_address": ["Vierl\u00e4nder Damm 9", "20539 Hamburg", "Germany"]}, "phone": "+494038672149", "display_phone": "+49 40 38672149", "distance": 3814.1473471866593}, {"id": "PsyHTuNN8hLO6bbsbz1tCg", "alias": "hollys-grill-hamburg", "name": "Holly's Grill", "image_url": "https://s3-media3.fl.yelpcdn.com/bphoto/DHsgVOwzYHocbOkee7s5jQ/o.jpg", "is_closed": false, "url": "https://www.yelp.com/biz/hollys-grill-hamburg?adjust_creative=hBJOknVQJ58S5goQyjmwRw&utm_campaign=yelp_api_v3&utm_medium=api_v3_business_search&utm_source=hBJOknVQJ58S5goQyjmwRw", "review_count": 1, "categories": [{"alias": "steak", "title": "Steakhouses"}], "rating": 4.0, "coordinates": {"latitude": 53.54159, "longitude": 10.05061}, "transactions": [], "location": {"address1": "Ausschl\u00e4ger Billdeich 52", "address2": "", "address3": null, "city": "Hamburg", "zip_code": "20539", "country": "DE", "state": "HH", "display_address": ["Ausschl\u00e4ger Billdeich 52", "20539 Hamburg", "Germany"]}, "phone": "+494088148259", "display_phone": "+49 40 88148259", "distance": 4492.122984621705}, {"id": "d4XCaPNR7j0Qm6Z5Qd0uQw", "alias": "asia-pham-hamburg-2", "name": "Asia Pham", "image_url": "https://s3-media3.fl.yelpcdn.com/bphoto/QA5WN5mgflheiqgx1oyyvA/o.jpg", "is_closed": false, "url": "https://www.yelp.com/biz/asia-pham-hamburg-2?adjust_creative=hBJOknVQJ58S5goQyjmwRw&utm_campaign=yelp_api_v3&utm_medium=api_v3_business_search&utm_source=hBJOknVQJ58S5goQyjmwRw", "review_count": 3, "categories": [{"alias": "panasian", "title": "Pan Asian"}], "rating": 3.0, "coordinates": {"latitude": 53.5337, "longitude": 10.045}, "transactions": [], "price": "\u20ac\u20ac", "location": {"address1": "Vierl\u00e4nder Damm 52", "address2": null, "address3": null, "city": "Hamburg", "zip_code": "20539", "country": "DE", "state": "HH", "display_address": ["Vierl\u00e4nder Damm 52", "20539 Hamburg", "Germany"]}, "phone": "+49407892801", "display_phone": "+49 40 7892801", "distance": 3692.567094490597}, {"id": "z3xSdGIRbXTExpnk2ZS8PA", "alias": "schuhs-food-hamburg-2", "name": "Schuh's food", "image_url": "", "is_closed": false, "url": "https://www.yelp.com/biz/schuhs-food-hamburg-2?adjust_creative=hBJOknVQJ58S5goQyjmwRw&utm_campaign=yelp_api_v3&utm_medium=api_v3_business_search&utm_source=hBJOknVQJ58S5goQyjmwRw", "review_count": 3, "categories": [{"alias": "buffets", "title": "Buffets"}, {"alias": "eventplanning", "title": "Party & Event Planning"}, {"alias": "catering", "title": "Caterers"}], "rating": 1.5, "coordinates": {"latitude": 53.54021, "longitude": 10.04197}, "transactions": [], "location": {"address1": "Billstr. 82", "address2": null, "address3": null, "city": "Hamburg", "zip_code": "20539", "country": "DE", "state": "HH", "display_address": ["Billstr. 82", "20539 Hamburg", "Germany"]}, "phone": "+494078079180", "display_phone": "+49 40 78079180", "distance": 4443.036385210154}]