[{"id": "lsvCI5YWm-9xAJ2Mujc9oA", "alias": "merrano-hamburg", "name": "Merrano", "image_url": "https://s3-media3.fl.yelpcdn.com/bphoto/tMUgVq59MNJ06OtbpcwlAQ/o.jpg", "is_closed": false, "url": "https://www.yelp.com/biz/merrano-hamburg?adjust_creative=hBJOknVQJ58S5goQyjmwRw&utm_campaign=yelp_api_v3&utm_medium=api_v3_business_search&utm_source=hBJOknVQJ58S5goQyjmwRw", "review_count": 4, "categories": [{"alias": "mediterranean", "title": "Mediterranean"}, {"alias": "pizza", "title": "Pizza"}, {"alias": "steak", "title": "Steakhouses"}], "rating": 4.0, "coordinates": {"latitude": 53.4717, "longitude": 9.86313}, "transactions": [], "price": "\u20ac\u20ac", "location": {"address1": "Cuxhavener Str. 292", "address2": "", "address3": "", "city": "Hamburg", "zip_code": "21149", "country": "DE", "state": "HH", "display_address": ["Cuxhavener Str. 292", "21149 Hamburg", "Germany"]}, "phone": "+494070201001", "display_phone": "+49 40 70201001", "distance": 3646.7766973226435}, {"id": "jHG8e5VYEJ0N5bbE2aHHnw", "alias": "balkan-grill-hamburg-2", "name": "Balkan Grill", "image_url": "https://s3-media2.fl.yelpcdn.com/bphoto/Eeh3Qb27bPyKkysjrB840A/o.jpg", "is_closed": false, "url": "https://www.yelp.com/biz/balkan-grill-hamburg-2?adjust_creative=hBJOknVQJ58S5goQyjmwRw&utm_campaign=yelp_api_v3&utm_medium=api_v3_business_search&utm_source=hBJOknVQJ58S5goQyjmwRw", "review_count": 2, "categories": [{"alias": "turkish", "title": "Turkish"}], "rating": 4.5, "coordinates": {"latitude": 53.5348988, "longitude": 9.8593984}, "transactions": [], "price": "\u20ac\u20ac", "location": {"address1": "Butenwarf 1", "address2": null, "address3": null, "city": "Hamburg", "zip_code": "21129", "country": "DE", "state": "HH", "display_address": ["Butenwarf 1", "21129 Hamburg", "Germany"]}, "phone": "+49407425627", "display_phone": "+49 40 7425627", "distance": 3646.233977557732}, {"id": "SAOF8FII-H4PfIV5J9-p5A", "alias": "kaiser-pavillon-hamburg-4", "name": "Kaiser Pavillon", "image_url": "https://s3-media4.fl.yelpcdn.com/bphoto/HEo2jrbD5OR8PV3_q2QZ2g/o.jpg", "is_closed": false, "url": "https://www.yelp.com/biz/kaiser-pavillon-hamburg-4?adjust_creative=hBJOknVQJ58S5goQyjmwRw&utm_campaign=yelp_api_v3&utm_medium=api_v3_business_search&utm_source=hBJOknVQJ58S5goQyjmwRw", "review_count": 29, "categories": [{"alias": "chinese", "title": "Chinese"}], "rating": 4.0, "coordinates": {"latitude": 53.4724921726936, "longitude": 9.84974658664703}, "transactions": [], "price": "\u20ac\u20ac", "location": {"address1": "Cuxhavener Str. 355", "address2": "", "address3": "", "city": "Hamburg", "zip_code": "21149", "country": "DE", "state": "HH", "display_address": ["Cuxhavener Str. 355", "21149 Hamburg", "Germany"]}, "phone": "+494076960719", "display_phone": "+49 40 76960719", "distance": 3401.231538206004}, {"id": "LCJqWscQr5-GlrG4fl6vyw", "alias": "viva-l-italia-hamburg", "name": "Viva L'Italia", "image_url": "", "is_closed": false, "url": "https://www.yelp.com/biz/viva-l-italia-hamburg?adjust_creative=hBJOknVQJ58S5goQyjmwRw&utm_campaign=yelp_api_v3&utm_medium=api_v3_business_search&utm_source=hBJOknVQJ58S5goQyjmwRw", "review_count": 6, "categories": [{"alias": "italian", "title": "Italian"}], "rating": 4.0, "coordinates": {"latitude": 53.5153738936739, "longitude": 9.85123463862305}, "transactions": [], "price": "\u20ac", "location": {"address1": "Finkenwerder Norderdeich 71", "address2": "", "address3": "", "city": "Hamburg", "zip_code": "21129", "country": "DE", "state": "HH", "display_address": ["Finkenwerder Norderdeich 71", "21129 Hamburg", "Germany"]}, "phone": "+494074212744", "display_phone": "+49 40 74212744", "distance": 1409.2580576201594}, {"id": "DIVGBv1Wi_VHjH7QEY76NA", "alias": "neugrabener-grillhaus-hamburg", "name": "Neugrabener Grillhaus", "image_url": "https://s3-media2.fl.yelpcdn.com/bphoto/g3aBYw3Nu6LOrkU3MCnbKA/o.jpg", "is_closed": false, "url": "https://www.yelp.com/biz/neugrabener-grillhaus-hamburg?adjust_creative=hBJOknVQJ58S5goQyjmwRw&utm_campaign=yelp_api_v3&utm_medium=api_v3_business_search&utm_source=hBJOknVQJ58S5goQyjmwRw", "review_count": 4, "categories": [{"alias": "turkish", "title": "Turkish"}], "rating": 4.5, "coordinates": {"latitude": 53.4698361904983, "longitude": 9.85375790927886}, "transactions": [], "price": "\u20ac\u20ac", "location": {"address1": "Neugrabener Markt 2", "address2": "", "address3": "", "city": "Hamburg", "zip_code": "21149", "country": "DE", "state": "HH", "display_address": ["Neugrabener Markt 2", "21149 Hamburg", "Germany"]}, "phone": "+494039870741", "display_phone": "+49 40 39870741", "distance": 3720.948663761484}, {"id": "z111X_0D0eONCDL2EtSAaA", "alias": "fesstos-hamburg-3", "name": "Fesstos", "image_url": "https://s3-media4.fl.yelpcdn.com/bphoto/ExvQkiatNPKaA6chkh8Iew/o.jpg", "is_closed": false, "url": "https://www.yelp.com/biz/fesstos-hamburg-3?adjust_creative=hBJOknVQJ58S5goQyjmwRw&utm_campaign=yelp_api_v3&utm_medium=api_v3_business_search&utm_source=hBJOknVQJ58S5goQyjmwRw", "review_count": 27, "categories": [{"alias": "greek", "title": "Greek"}], "rating": 4.5, "coordinates": {"latitude": 53.47189, "longitude": 9.83723}, "transactions": [], "price": "\u20ac\u20ac", "location": {"address1": "Cuxhavener Str. 415", "address2": null, "address3": null, "city": "Hamburg", "zip_code": "21149", "country": "DE", "state": "HH", "display_address": ["Cuxhavener Str. 415", "21149 Hamburg", "Germany"]}, "phone": "+49407018261", "display_phone": "+49 40 7018261", "distance": 3511.019358986167}, {"id": "ru0RbywqypL0ZjF6H9rLhg", "alias": "restaurant-dionysos-hamburg", "name": "Restaurant Dionysos", "image_url": "https://s3-media2.fl.yelpcdn.com/bphoto/2kJBWXpRY8jefTl7GUIn9g/o.jpg", "is_closed": false, "url": "https://www.yelp.com/biz/restaurant-dionysos-hamburg?adjust_creative=hBJOknVQJ58S5goQyjmwRw&utm_campaign=yelp_api_v3&utm_medium=api_v3_business_search&utm_source=hBJOknVQJ58S5goQyjmwRw", "review_count": 4, "categories": [{"alias": "greek", "title": "Greek"}], "rating": 4.0, "coordinates": {"latitude": 53.5336, "longitude": 9.87189}, "transactions": [], "price": "\u20ac\u20ac", "location": {"address1": "Finkenwerder Norderdch 62", "address2": null, "address3": null, "city": "Hamburg", "zip_code": "21129", "country": "DE", "state": "HH", "display_address": ["Finkenwerder Norderdch 62", "21129 Hamburg", "Germany"]}, "phone": "+494033397939", "display_phone": "+49 40 33397939", "distance": 3792.6203934254786}, {"id": "6_i0Ifuq-HxOqLvguRO4UA", "alias": "ready-pizza-hamburg-2", "name": "Ready Pizza", "image_url": "", "is_closed": false, "url": "https://www.yelp.com/biz/ready-pizza-hamburg-2?adjust_creative=hBJOknVQJ58S5goQyjmwRw&utm_campaign=yelp_api_v3&utm_medium=api_v3_business_search&utm_source=hBJOknVQJ58S5goQyjmwRw", "review_count": 1, "categories": [{"alias": "pizza", "title": "Pizza"}], "rating": 4.0, "coordinates": {"latitude": 53.47664, "longitude": 9.86996}, "transactions": [], "location": {"address1": "Neuwiedenthaler Str. 25", "address2": "", "address3": "", "city": "Hamburg", "zip_code": "21147", "country": "DE", "state": "HH", "display_address": ["Neuwiedenthaler Str. 25", "21147 Hamburg", "Germany"]}, "phone": "+494070380830", "display_phone": "+49 40 70380830", "distance": 3315.3357479629717}, {"id": "ytna7AExPNRhMVE0JWb2lg", "alias": "taverna-korfu-hamburg", "name": "Taverna Korfu", "image_url": "https://s3-media1.fl.yelpcdn.com/bphoto/OUytWpRMw2A41S3pl1P6uw/o.jpg", "is_closed": false, "url": "https://www.yelp.com/biz/taverna-korfu-hamburg?adjust_creative=hBJOknVQJ58S5goQyjmwRw&utm_campaign=yelp_api_v3&utm_medium=api_v3_business_search&utm_source=hBJOknVQJ58S5goQyjmwRw", "review_count": 19, "categories": [{"alias": "greek", "title": "Greek"}], "rating": 4.0, "coordinates": {"latitude": 53.4697097, "longitude": 9.8544475}, "transactions": [], "price": "\u20ac\u20ac", "location": {"address1": "Neugrabener Bahnhofstr. 27", "address2": null, "address3": null, "city": "Hamburg", "zip_code": "21149", "country": "DE", "state": "HH", "display_address": ["Neugrabener Bahnhofstr. 27", "21149 Hamburg", "Germany"]}, "phone": "+49407026588", "display_phone": "+49 40 7026588", "distance": 3741.046712372344}, {"id": "iJdyFvgYnEFInkfDkCjiQQ", "alias": "china-restaurant-lily-hamburg", "name": "China Restaurant Lily", "image_url": "https://s3-media2.fl.yelpcdn.com/bphoto/FJH_jfLCFr7lLbLdn0A3uA/o.jpg", "is_closed": false, "url": "https://www.yelp.com/biz/china-restaurant-lily-hamburg?adjust_creative=hBJOknVQJ58S5goQyjmwRw&utm_campaign=yelp_api_v3&utm_medium=api_v3_business_search&utm_source=hBJOknVQJ58S5goQyjmwRw", "review_count": 10, "categories": [{"alias": "chinese", "title": "Chinese"}], "rating": 4.0, "coordinates": {"latitude": 53.47236, "longitude": 9.85213}, "transactions": [], "price": "\u20ac\u20ac", "location": {"address1": "Cuxhavener Str. 335", "address2": null, "address3": null, "city": "Hamburg", "zip_code": "21149", "country": "DE", "state": "HH", "display_address": ["Cuxhavener Str. 335", "21149 Hamburg", "Germany"]}, "phone": "+49407025544", "display_phone": "+49 40 7025544", "distance": 3450.1562159531977}, {"id": "ng4easez7Xfrmr0yqYzbJg", "alias": "pizzeria-atoll-hamburg", "name": "Pizzeria Atoll", "image_url": "https://s3-media4.fl.yelpcdn.com/bphoto/Xbv6y69vrIoNUrhCCY3Nsg/o.jpg", "is_closed": false, "url": "https://www.yelp.com/biz/pizzeria-atoll-hamburg?adjust_creative=hBJOknVQJ58S5goQyjmwRw&utm_campaign=yelp_api_v3&utm_medium=api_v3_business_search&utm_source=hBJOknVQJ58S5goQyjmwRw", "review_count": 1, "categories": [{"alias": "pizza", "title": "Pizza"}, {"alias": "italian", "title": "Italian"}], "rating": 4.0, "coordinates": {"latitude": 53.472675, "longitude": 9.854646}, "transactions": [], "location": {"address1": "Cuxhavener Str. 336", "address2": "", "address3": "", "city": "Hamburg", "zip_code": "21149", "country": "DE", "state": "HH", "display_address": ["Cuxhavener Str. 336", "21149 Hamburg", "Germany"]}, "phone": "+494047190192", "display_phone": "+49 40 47190192", "distance": 3420.0058002033243}, {"id": "tIq1SBRBK9oxrl4cM9W3Kg", "alias": "restaurant-river-view-hamburg", "name": "Restaurant River View", "image_url": "https://s3-media3.fl.yelpcdn.com/bphoto/dJEmWOBFxjSCvx6WTtBnuA/o.jpg", "is_closed": false, "url": "https://www.yelp.com/biz/restaurant-river-view-hamburg?adjust_creative=hBJOknVQJ58S5goQyjmwRw&utm_campaign=yelp_api_v3&utm_medium=api_v3_business_search&utm_source=hBJOknVQJ58S5goQyjmwRw", "review_count": 17, "categories": [{"alias": "international", "title": "International"}], "rating": 3.0, "coordinates": {"latitude": 53.540825, "longitude": 9.862846}, "transactions": [], "price": "\u20ac\u20ac\u20ac", "location": {"address1": "Hein-Sa\u00df-Weg 40", "address2": "", "address3": null, "city": "Hamburg", "zip_code": "21129", "country": "DE", "state": "HH", "display_address": ["Hein-Sa\u00df-Weg 40", "21129 Hamburg", "Germany"]}, "phone": "+4940300849800", "display_phone": "+49 40 300849800", "distance": 4340.747169959679}, {"id": "WvHcp_RfDgRiD5yS8bYnZw", "alias": "zur-b\u00f6rse-hamburg", "name": "Zur B\u00f6rse", "image_url": "https://s3-media4.fl.yelpcdn.com/bphoto/HYxpQefAIJfd7lloWAfszw/o.jpg", "is_closed": false, "url": "https://www.yelp.com/biz/zur-b%C3%B6rse-hamburg?adjust_creative=hBJOknVQJ58S5goQyjmwRw&utm_campaign=yelp_api_v3&utm_medium=api_v3_business_search&utm_source=hBJOknVQJ58S5goQyjmwRw", "review_count": 3, "categories": [{"alias": "german", "title": "German"}, {"alias": "bowling", "title": "Bowling"}], "rating": 4.5, "coordinates": {"latitude": 53.4794, "longitude": 9.86294}, "transactions": [], "price": "\u20ac", "location": {"address1": "Francoper Str. 57", "address2": null, "address3": null, "city": "Hamburg", "zip_code": "21147", "country": "DE", "state": "HH", "display_address": ["Francoper Str. 57", "21147 Hamburg", "Germany"]}, "phone": "+49407018216", "display_phone": "+49 40 7018216", "distance": 2842.898335588257}, {"id": "k9ItjxDeGs52UDh4EjcfRQ", "alias": "\u00f6z-urfa-hamburg-3", "name": "\u00d6z Urfa", "image_url": "https://s3-media4.fl.yelpcdn.com/bphoto/sW7GV-r2LoZNcZXHgf1EmQ/o.jpg", "is_closed": false, "url": "https://www.yelp.com/biz/%C3%B6z-urfa-hamburg-3?adjust_creative=hBJOknVQJ58S5goQyjmwRw&utm_campaign=yelp_api_v3&utm_medium=api_v3_business_search&utm_source=hBJOknVQJ58S5goQyjmwRw", "review_count": 18, "categories": [{"alias": "halal", "title": "Halal"}, {"alias": "turkish", "title": "Turkish"}, {"alias": "kebab", "title": "Kebab"}], "rating": 4.0, "coordinates": {"latitude": 53.47272, "longitude": 9.85331}, "transactions": [], "price": "\u20ac", "location": {"address1": "Cuxhavener Str. 342", "address2": "", "address3": "", "city": "Hamburg", "zip_code": "21149", "country": "DE", "state": "HH", "display_address": ["Cuxhavener Str. 342", "21149 Hamburg", "Germany"]}, "phone": "+494022646405", "display_phone": "+49 40 22646405", "distance": 3413.1363364207423}, {"id": "gLtQQkYai9Znzw4n2GgsUg", "alias": "von-allw\u00f6rden-hamburg-49", "name": "von Allw\u00f6rden", "image_url": "https://s3-media3.fl.yelpcdn.com/bphoto/x77nIJaM6pcGX4nuSdKRvw/o.jpg", "is_closed": false, "url": "https://www.yelp.com/biz/von-allw%C3%B6rden-hamburg-49?adjust_creative=hBJOknVQJ58S5goQyjmwRw&utm_campaign=yelp_api_v3&utm_medium=api_v3_business_search&utm_source=hBJOknVQJ58S5goQyjmwRw", "review_count": 2, "categories": [{"alias": "bakeries", "title": "Bakeries"}, {"alias": "cafes", "title": "Cafes"}], "rating": 4.5, "coordinates": {"latitude": 53.4767872102729, "longitude": 9.85711079392413}, "transactions": [], "location": {"address1": "Torfstecherweg 1", "address2": "", "address3": null, "city": "Hamburg", "zip_code": "21147", "country": "DE", "state": "HH", "display_address": ["Torfstecherweg 1", "21147 Hamburg", "Germany"]}, "phone": "+494086699250", "display_phone": "+49 40 86699250", "distance": 3000.2897955083417}, {"id": "TT2qrIUU5O4RVRyMdcPMTQ", "alias": "dominos-hamburg-22", "name": "Domino's", "image_url": "", "is_closed": false, "url": "https://www.yelp.com/biz/dominos-hamburg-22?adjust_creative=hBJOknVQJ58S5goQyjmwRw&utm_campaign=yelp_api_v3&utm_medium=api_v3_business_search&utm_source=hBJOknVQJ58S5goQyjmwRw", "review_count": 1, "categories": [{"alias": "pizza", "title": "Pizza"}], "rating": 4.0, "coordinates": {"latitude": 53.471843, "longitude": 9.839575}, "transactions": [], "location": {"address1": "Cuxhavener Str. 401", "address2": null, "address3": null, "city": "Hamburg", "zip_code": "21149", "country": "DE", "state": "HH", "display_address": ["Cuxhavener Str. 401", "21149 Hamburg", "Germany"]}, "phone": "+49407020970", "display_phone": "+49 40 7020970", "distance": 3496.601151763975}, {"id": "uHc4UEeB61WcdGsIXtxz1A", "alias": "mcdonalds-hamburg-27", "name": "McDonald's", "image_url": "https://s3-media3.fl.yelpcdn.com/bphoto/gvbbBAY7VMK2X8OoYtvnFA/o.jpg", "is_closed": false, "url": "https://www.yelp.com/biz/mcdonalds-hamburg-27?adjust_creative=hBJOknVQJ58S5goQyjmwRw&utm_campaign=yelp_api_v3&utm_medium=api_v3_business_search&utm_source=hBJOknVQJ58S5goQyjmwRw", "review_count": 10, "categories": [{"alias": "hotdogs", "title": "Fast Food"}, {"alias": "burgers", "title": "Burgers"}], "rating": 2.5, "coordinates": {"latitude": 53.4737, "longitude": 9.84645}, "transactions": [], "price": "\u20ac\u20ac", "location": {"address1": "Cuxhavener Str. 382", "address2": null, "address3": null, "city": "Hamburg", "zip_code": "21149", "country": "DE", "state": "HH", "display_address": ["Cuxhavener Str. 382", "21149 Hamburg", "Germany"]}, "phone": "+494070380506", "display_phone": "+49 40 70380506", "distance": 3260.0831418292796}, {"id": "mf57nmVCUd0KL3CdqSIphQ", "alias": "restaurant-deutsches-haus-hamburg", "name": "Restaurant Deutsches Haus", "image_url": "https://s3-media3.fl.yelpcdn.com/bphoto/yG6UsqplWbk-kszw05fBpQ/o.jpg", "is_closed": false, "url": "https://www.yelp.com/biz/restaurant-deutsches-haus-hamburg?adjust_creative=hBJOknVQJ58S5goQyjmwRw&utm_campaign=yelp_api_v3&utm_medium=api_v3_business_search&utm_source=hBJOknVQJ58S5goQyjmwRw", "review_count": 3, "categories": [{"alias": "northerngerman", "title": "Northern German"}], "rating": 4.5, "coordinates": {"latitude": 53.4677, "longitude": 9.85407}, "transactions": [], "location": {"address1": "Bergheide 1", "address2": null, "address3": null, "city": "Hamburg", "zip_code": "21149", "country": "DE", "state": "HH", "display_address": ["Bergheide 1", "21149 Hamburg", "Germany"]}, "phone": "+49407010130", "display_phone": "+49 40 7010130", "distance": 3959.17277747612}, {"id": "dyIcQ0Aavrhchxq9ckJHQQ", "alias": "b\u00e4cker-schrader-hamburg", "name": "B\u00e4cker Schrader", "image_url": "https://s3-media4.fl.yelpcdn.com/bphoto/ZCeg3F0B62FxMp0jl6XJFw/o.jpg", "is_closed": false, "url": "https://www.yelp.com/biz/b%C3%A4cker-schrader-hamburg?adjust_creative=hBJOknVQJ58S5goQyjmwRw&utm_campaign=yelp_api_v3&utm_medium=api_v3_business_search&utm_source=hBJOknVQJ58S5goQyjmwRw", "review_count": 2, "categories": [{"alias": "cafes", "title": "Cafes"}, {"alias": "bakeries", "title": "Bakeries"}], "rating": 3.0, "coordinates": {"latitude": 53.4725064, "longitude": 9.8401192}, "transactions": [], "location": {"address1": "Cuxhavener Str. 414", "address2": null, "address3": null, "city": "Hamburg", "zip_code": "21149", "country": "DE", "state": "HH", "display_address": ["Cuxhavener Str. 414", "21149 Hamburg", "Germany"]}, "phone": "+49407018492", "display_phone": "+49 40 7018492", "distance": 3418.8582416311106}, {"id": "p154M1TKs2ILBPVdSX9CbA", "alias": "am-falkenberg-hamburg", "name": "Am Falkenberg", "image_url": "", "is_closed": false, "url": "https://www.yelp.com/biz/am-falkenberg-hamburg?adjust_creative=hBJOknVQJ58S5goQyjmwRw&utm_campaign=yelp_api_v3&utm_medium=api_v3_business_search&utm_source=hBJOknVQJ58S5goQyjmwRw", "review_count": 3, "categories": [{"alias": "german", "title": "German"}], "rating": 4.0, "coordinates": {"latitude": 53.46435, "longitude": 9.86563}, "transactions": [], "location": {"address1": "Falkenbergsweg 56", "address2": null, "address3": null, "city": "Hamburg", "zip_code": "21149", "country": "DE", "state": "HH", "display_address": ["Falkenbergsweg 56", "21149 Hamburg", "Germany"]}, "phone": "+49407018655", "display_phone": "+49 40 7018655", "distance": 4485.355539453788}, {"id": "kUPu-a5NGKnDVWa4gjoKmQ", "alias": "schweinske-hamburg-24", "name": "Schweinske", "image_url": "https://s3-media3.fl.yelpcdn.com/bphoto/RkExcGcGjdpmyrfr5JpJcA/o.jpg", "is_closed": false, "url": "https://www.yelp.com/biz/schweinske-hamburg-24?adjust_creative=hBJOknVQJ58S5goQyjmwRw&utm_campaign=yelp_api_v3&utm_medium=api_v3_business_search&utm_source=hBJOknVQJ58S5goQyjmwRw", "review_count": 22, "categories": [{"alias": "german", "title": "German"}, {"alias": "breakfast_brunch", "title": "Breakfast & Brunch"}], "rating": 3.0, "coordinates": {"latitude": 53.472818, "longitude": 9.853336}, "transactions": [], "price": "\u20ac\u20ac", "location": {"address1": "Cuxhavener Str. 342", "address2": null, "address3": null, "city": "Hamburg", "zip_code": "21149", "country": "DE", "state": "HH", "display_address": ["Cuxhavener Str. 342", "21149 Hamburg", "Germany"]}, "phone": "+494070381804", "display_phone": "+49 40 70381804", "distance": 3388.592646363987}]