[{"id": "yI3Dc37NudFTaMcqTnTc1Q", "alias": "restaurant-zum-storchennest-hamburg", "name": "Restaurant Zum Storchennest", "image_url": "https://s3-media3.fl.yelpcdn.com/bphoto/p2iS9Ap2W5GOhaXOUPJMNg/o.jpg", "is_closed": false, "url": "https://www.yelp.com/biz/restaurant-zum-storchennest-hamburg?adjust_creative=hBJOknVQJ58S5goQyjmwRw&utm_campaign=yelp_api_v3&utm_medium=api_v3_business_search&utm_source=hBJOknVQJ58S5goQyjmwRw", "review_count": 12, "categories": [{"alias": "seafood", "title": "Seafood"}], "rating": 5.0, "coordinates": {"latitude": 53.5202, "longitude": 9.88556}, "transactions": [], "price": "\u20ac\u20ac\u20ac", "location": {"address1": "Osterfelddeich 2", "address2": null, "address3": null, "city": "Hamburg", "zip_code": "21129", "country": "DE", "state": "HH", "display_address": ["Osterfelddeich 2", "21129 Hamburg", "Germany"]}, "phone": "+49407426850", "display_phone": "+49 40 7426850", "distance": 2022.6206698283218}, {"id": "lsvCI5YWm-9xAJ2Mujc9oA", "alias": "merrano-hamburg", "name": "Merrano", "image_url": "https://s3-media3.fl.yelpcdn.com/bphoto/tMUgVq59MNJ06OtbpcwlAQ/o.jpg", "is_closed": false, "url": "https://www.yelp.com/biz/merrano-hamburg?adjust_creative=hBJOknVQJ58S5goQyjmwRw&utm_campaign=yelp_api_v3&utm_medium=api_v3_business_search&utm_source=hBJOknVQJ58S5goQyjmwRw", "review_count": 4, "categories": [{"alias": "mediterranean", "title": "Mediterranean"}, {"alias": "pizza", "title": "Pizza"}, {"alias": "steak", "title": "Steakhouses"}], "rating": 4.0, "coordinates": {"latitude": 53.4717, "longitude": 9.86313}, "transactions": [], "price": "\u20ac\u20ac", "location": {"address1": "Cuxhavener Str. 292", "address2": "", "address3": "", "city": "Hamburg", "zip_code": "21149", "country": "DE", "state": "HH", "display_address": ["Cuxhavener Str. 292", "21149 Hamburg", "Germany"]}, "phone": "+494070201001", "display_phone": "+49 40 70201001", "distance": 3568.7496915195347}, {"id": "jHG8e5VYEJ0N5bbE2aHHnw", "alias": "balkan-grill-hamburg-2", "name": "Balkan Grill", "image_url": "https://s3-media2.fl.yelpcdn.com/bphoto/Eeh3Qb27bPyKkysjrB840A/o.jpg", "is_closed": false, "url": "https://www.yelp.com/biz/balkan-grill-hamburg-2?adjust_creative=hBJOknVQJ58S5goQyjmwRw&utm_campaign=yelp_api_v3&utm_medium=api_v3_business_search&utm_source=hBJOknVQJ58S5goQyjmwRw", "review_count": 2, "categories": [{"alias": "turkish", "title": "Turkish"}], "rating": 4.5, "coordinates": {"latitude": 53.5348988, "longitude": 9.8593984}, "transactions": [], "price": "\u20ac\u20ac", "location": {"address1": "Butenwarf 1", "address2": null, "address3": null, "city": "Hamburg", "zip_code": "21129", "country": "DE", "state": "HH", "display_address": ["Butenwarf 1", "21129 Hamburg", "Germany"]}, "phone": "+49407425627", "display_phone": "+49 40 7425627", "distance": 3746.6022455125662}, {"id": "_eIzJGTL6zee0qrUPi2zRQ", "alias": "finkwarder-kl\u00f6nstuv-hamburg", "name": "Finkwarder Kl\u00f6nstuv", "image_url": "https://s3-media3.fl.yelpcdn.com/bphoto/YDvNGLC32_oHukCwGPb6DA/o.jpg", "is_closed": false, "url": "https://www.yelp.com/biz/finkwarder-kl%C3%B6nstuv-hamburg?adjust_creative=hBJOknVQJ58S5goQyjmwRw&utm_campaign=yelp_api_v3&utm_medium=api_v3_business_search&utm_source=hBJOknVQJ58S5goQyjmwRw", "review_count": 1, "categories": [{"alias": "restaurants", "title": "Restaurants"}], "rating": 5.0, "coordinates": {"latitude": 53.53326, "longitude": 9.87762}, "transactions": [], "location": {"address1": "Steendiek 6", "address2": null, "address3": null, "city": "Hamburg", "zip_code": "21129", "country": "DE", "state": "HH", "display_address": ["Steendiek 6", "21129 Hamburg", "Germany"]}, "phone": "+494074201660", "display_phone": "+49 40 74201660", "distance": 3381.501056453791}, {"id": "h76slnRXB-F1F_7ajRmFaQ", "alias": "brandts-anfang-hamburg", "name": "Brandts Anfang", "image_url": "https://s3-media1.fl.yelpcdn.com/bphoto/WnFDz0bk4tss7U6QLRrf_g/o.jpg", "is_closed": false, "url": "https://www.yelp.com/biz/brandts-anfang-hamburg?adjust_creative=hBJOknVQJ58S5goQyjmwRw&utm_campaign=yelp_api_v3&utm_medium=api_v3_business_search&utm_source=hBJOknVQJ58S5goQyjmwRw", "review_count": 5, "categories": [{"alias": "cocktailbars", "title": "Cocktail Bars"}, {"alias": "steak", "title": "Steakhouses"}], "rating": 4.5, "coordinates": {"latitude": 53.5326295, "longitude": 9.880036}, "transactions": [], "price": "\u20ac\u20ac", "location": {"address1": "Steendiek 37", "address2": null, "address3": null, "city": "Hamburg", "zip_code": "21129", "country": "DE", "state": "HH", "display_address": ["Steendiek 37", "21129 Hamburg", "Germany"]}, "phone": "+494038671673", "display_phone": "+49 40 38671673", "distance": 3324.3415996355247}, {"id": "hYZgSIROzW1RbXJHpQhFwA", "alias": "finkenwerder-landungsbr\u00fccke-hamburg", "name": "Finkenwerder Landungsbr\u00fccke", "image_url": "https://s3-media4.fl.yelpcdn.com/bphoto/Sng2FU6bf0nQHEkhSqg-bw/o.jpg", "is_closed": false, "url": "https://www.yelp.com/biz/finkenwerder-landungsbr%C3%BCcke-hamburg?adjust_creative=hBJOknVQJ58S5goQyjmwRw&utm_campaign=yelp_api_v3&utm_medium=api_v3_business_search&utm_source=hBJOknVQJ58S5goQyjmwRw", "review_count": 27, "categories": [{"alias": "seafood", "title": "Seafood"}, {"alias": "northerngerman", "title": "Northern German"}], "rating": 3.5, "coordinates": {"latitude": 53.5354641, "longitude": 9.878811}, "transactions": [], "price": "\u20ac\u20ac", "location": {"address1": "Benittstr. 9", "address2": null, "address3": null, "city": "Hamburg", "zip_code": "21129", "country": "DE", "state": "HH", "display_address": ["Benittstr. 9", "21129 Hamburg", "Germany"]}, "phone": "+49407425151", "display_phone": "+49 40 7425151", "distance": 3634.77199752469}, {"id": "viU8W58X8U7CIk18WRp8IQ", "alias": "taverna-acchillion-zum-dorfkrug-hamburg", "name": "Taverna Acchillion - Zum Dorfkrug", "image_url": "https://s3-media2.fl.yelpcdn.com/bphoto/b-aqA76Y4d8LlXd8HqhBkA/o.jpg", "is_closed": false, "url": "https://www.yelp.com/biz/taverna-acchillion-zum-dorfkrug-hamburg?adjust_creative=hBJOknVQJ58S5goQyjmwRw&utm_campaign=yelp_api_v3&utm_medium=api_v3_business_search&utm_source=hBJOknVQJ58S5goQyjmwRw", "review_count": 7, "categories": [{"alias": "greek", "title": "Greek"}], "rating": 4.5, "coordinates": {"latitude": 53.47825, "longitude": 9.8878}, "transactions": [], "price": "\u20ac\u20ac", "location": {"address1": "Neuwiedenthaler Str. 133", "address2": "", "address3": "", "city": "Hamburg", "zip_code": "21147", "country": "DE", "state": "HH", "display_address": ["Neuwiedenthaler Str. 133", "21147 Hamburg", "Germany"]}, "phone": "+49407962103", "display_phone": "+49 40 7962103", "distance": 2826.821629044514}, {"id": "LCJqWscQr5-GlrG4fl6vyw", "alias": "viva-l-italia-hamburg", "name": "Viva L'Italia", "image_url": "", "is_closed": false, "url": "https://www.yelp.com/biz/viva-l-italia-hamburg?adjust_creative=hBJOknVQJ58S5goQyjmwRw&utm_campaign=yelp_api_v3&utm_medium=api_v3_business_search&utm_source=hBJOknVQJ58S5goQyjmwRw", "review_count": 6, "categories": [{"alias": "italian", "title": "Italian"}], "rating": 4.0, "coordinates": {"latitude": 53.5153738936739, "longitude": 9.85123463862305}, "transactions": [], "price": "\u20ac", "location": {"address1": "Finkenwerder Norderdeich 71", "address2": "", "address3": "", "city": "Hamburg", "zip_code": "21129", "country": "DE", "state": "HH", "display_address": ["Finkenwerder Norderdeich 71", "21129 Hamburg", "Germany"]}, "phone": "+494074212744", "display_phone": "+49 40 74212744", "distance": 2185.3947190415743}, {"id": "DIVGBv1Wi_VHjH7QEY76NA", "alias": "neugrabener-grillhaus-hamburg", "name": "Neugrabener Grillhaus", "image_url": "https://s3-media2.fl.yelpcdn.com/bphoto/g3aBYw3Nu6LOrkU3MCnbKA/o.jpg", "is_closed": false, "url": "https://www.yelp.com/biz/neugrabener-grillhaus-hamburg?adjust_creative=hBJOknVQJ58S5goQyjmwRw&utm_campaign=yelp_api_v3&utm_medium=api_v3_business_search&utm_source=hBJOknVQJ58S5goQyjmwRw", "review_count": 4, "categories": [{"alias": "turkish", "title": "Turkish"}], "rating": 4.5, "coordinates": {"latitude": 53.4698361904983, "longitude": 9.85375790927886}, "transactions": [], "price": "\u20ac\u20ac", "location": {"address1": "Neugrabener Markt 2", "address2": "", "address3": "", "city": "Hamburg", "zip_code": "21149", "country": "DE", "state": "HH", "display_address": ["Neugrabener Markt 2", "21149 Hamburg", "Germany"]}, "phone": "+494039870741", "display_phone": "+49 40 39870741", "distance": 3965.8015378137093}, {"id": "ru0RbywqypL0ZjF6H9rLhg", "alias": "restaurant-dionysos-hamburg", "name": "Restaurant Dionysos", "image_url": "https://s3-media2.fl.yelpcdn.com/bphoto/2kJBWXpRY8jefTl7GUIn9g/o.jpg", "is_closed": false, "url": "https://www.yelp.com/biz/restaurant-dionysos-hamburg?adjust_creative=hBJOknVQJ58S5goQyjmwRw&utm_campaign=yelp_api_v3&utm_medium=api_v3_business_search&utm_source=hBJOknVQJ58S5goQyjmwRw", "review_count": 4, "categories": [{"alias": "greek", "title": "Greek"}], "rating": 4.0, "coordinates": {"latitude": 53.5336, "longitude": 9.87189}, "transactions": [], "price": "\u20ac\u20ac", "location": {"address1": "Finkenwerder Norderdch 62", "address2": null, "address3": null, "city": "Hamburg", "zip_code": "21129", "country": "DE", "state": "HH", "display_address": ["Finkenwerder Norderdch 62", "21129 Hamburg", "Germany"]}, "phone": "+494033397939", "display_phone": "+49 40 33397939", "distance": 3438.996194885001}, {"id": "6_i0Ifuq-HxOqLvguRO4UA", "alias": "ready-pizza-hamburg-2", "name": "Ready Pizza", "image_url": "", "is_closed": false, "url": "https://www.yelp.com/biz/ready-pizza-hamburg-2?adjust_creative=hBJOknVQJ58S5goQyjmwRw&utm_campaign=yelp_api_v3&utm_medium=api_v3_business_search&utm_source=hBJOknVQJ58S5goQyjmwRw", "review_count": 1, "categories": [{"alias": "pizza", "title": "Pizza"}], "rating": 4.0, "coordinates": {"latitude": 53.47664, "longitude": 9.86996}, "transactions": [], "location": {"address1": "Neuwiedenthaler Str. 25", "address2": "", "address3": "", "city": "Hamburg", "zip_code": "21147", "country": "DE", "state": "HH", "display_address": ["Neuwiedenthaler Str. 25", "21147 Hamburg", "Germany"]}, "phone": "+494070380830", "display_phone": "+49 40 70380830", "distance": 2941.9682876368697}, {"id": "IbCuFlSuBKCXjDbIaglUXg", "alias": "kebap-haus-finkenwerder-hamburg", "name": "Kebap Haus Finkenwerder", "image_url": "https://s3-media2.fl.yelpcdn.com/bphoto/L6blQRjh0Rmed29tFsLxkw/o.jpg", "is_closed": false, "url": "https://www.yelp.com/biz/kebap-haus-finkenwerder-hamburg?adjust_creative=hBJOknVQJ58S5goQyjmwRw&utm_campaign=yelp_api_v3&utm_medium=api_v3_business_search&utm_source=hBJOknVQJ58S5goQyjmwRw", "review_count": 1, "categories": [{"alias": "kebab", "title": "Kebab"}], "rating": 4.0, "coordinates": {"latitude": 53.5324395, "longitude": 9.8798759}, "transactions": [], "location": {"address1": "Steendiek 24", "address2": null, "address3": null, "city": "Hamburg", "zip_code": "21129", "country": "DE", "state": "HH", "display_address": ["Steendiek 24", "21129 Hamburg", "Germany"]}, "phone": "+49407424615", "display_phone": "+49 40 7424615", "distance": 3302.559952282957}, {"id": "_7drLx2S3W9MRaSGq7I5og", "alias": "grando-sukredo-hamburg", "name": "Grando Sukredo", "image_url": "https://s3-media2.fl.yelpcdn.com/bphoto/3NfZ11_c5hbVZpK9SfdssQ/o.jpg", "is_closed": false, "url": "https://www.yelp.com/biz/grando-sukredo-hamburg?adjust_creative=hBJOknVQJ58S5goQyjmwRw&utm_campaign=yelp_api_v3&utm_medium=api_v3_business_search&utm_source=hBJOknVQJ58S5goQyjmwRw", "review_count": 17, "categories": [{"alias": "steak", "title": "Steakhouses"}], "rating": 4.5, "coordinates": {"latitude": 53.46093, "longitude": 9.89245}, "transactions": [], "price": "\u20ac\u20ac", "location": {"address1": "Ehestorfer Heuweg 89", "address2": null, "address3": null, "city": "Hamburg", "zip_code": "21149", "country": "DE", "state": "HH", "display_address": ["Ehestorfer Heuweg 89", "21149 Hamburg", "Germany"]}, "phone": "+494061193643", "display_phone": "+49 40 61193643", "distance": 4773.259487398417}, {"id": "ytna7AExPNRhMVE0JWb2lg", "alias": "taverna-korfu-hamburg", "name": "Taverna Korfu", "image_url": "https://s3-media1.fl.yelpcdn.com/bphoto/OUytWpRMw2A41S3pl1P6uw/o.jpg", "is_closed": false, "url": "https://www.yelp.com/biz/taverna-korfu-hamburg?adjust_creative=hBJOknVQJ58S5goQyjmwRw&utm_campaign=yelp_api_v3&utm_medium=api_v3_business_search&utm_source=hBJOknVQJ58S5goQyjmwRw", "review_count": 19, "categories": [{"alias": "greek", "title": "Greek"}], "rating": 4.0, "coordinates": {"latitude": 53.4697097, "longitude": 9.8544475}, "transactions": [], "price": "\u20ac\u20ac", "location": {"address1": "Neugrabener Bahnhofstr. 27", "address2": null, "address3": null, "city": "Hamburg", "zip_code": "21149", "country": "DE", "state": "HH", "display_address": ["Neugrabener Bahnhofstr. 27", "21149 Hamburg", "Germany"]}, "phone": "+49407026588", "display_phone": "+49 40 7026588", "distance": 3961.673256406884}, {"id": "tIq1SBRBK9oxrl4cM9W3Kg", "alias": "restaurant-river-view-hamburg", "name": "Restaurant River View", "image_url": "https://s3-media3.fl.yelpcdn.com/bphoto/dJEmWOBFxjSCvx6WTtBnuA/o.jpg", "is_closed": false, "url": "https://www.yelp.com/biz/restaurant-river-view-hamburg?adjust_creative=hBJOknVQJ58S5goQyjmwRw&utm_campaign=yelp_api_v3&utm_medium=api_v3_business_search&utm_source=hBJOknVQJ58S5goQyjmwRw", "review_count": 17, "categories": [{"alias": "international", "title": "International"}], "rating": 3.0, "coordinates": {"latitude": 53.540825, "longitude": 9.862846}, "transactions": [], "price": "\u20ac\u20ac\u20ac", "location": {"address1": "Hein-Sa\u00df-Weg 40", "address2": "", "address3": null, "city": "Hamburg", "zip_code": "21129", "country": "DE", "state": "HH", "display_address": ["Hein-Sa\u00df-Weg 40", "21129 Hamburg", "Germany"]}, "phone": "+4940300849800", "display_phone": "+49 40 300849800", "distance": 4325.199797047443}, {"id": "KaMlL3EyCdcSzkDAfVIt-g", "alias": "landhaus-j\u00e4gerhof-hamburg-2", "name": "Landhaus J\u00e4gerhof", "image_url": "https://s3-media2.fl.yelpcdn.com/bphoto/FqOyL1xyztMlYzIiFbxi7Q/o.jpg", "is_closed": false, "url": "https://www.yelp.com/biz/landhaus-j%C3%A4gerhof-hamburg-2?adjust_creative=hBJOknVQJ58S5goQyjmwRw&utm_campaign=yelp_api_v3&utm_medium=api_v3_business_search&utm_source=hBJOknVQJ58S5goQyjmwRw", "review_count": 3, "categories": [{"alias": "german", "title": "German"}, {"alias": "bowling", "title": "Bowling"}], "rating": 3.5, "coordinates": {"latitude": 53.47019, "longitude": 9.88699}, "transactions": [], "location": {"address1": "Ehestorfer Heuweg 12 - 14", "address2": null, "address3": null, "city": "Hamburg", "zip_code": "21149", "country": "DE", "state": "HH", "display_address": ["Ehestorfer Heuweg 12 - 14", "21149 Hamburg", "Germany"]}, "phone": "+49407962015", "display_phone": "+49 40 7962015", "distance": 3690.3477682206344}, {"id": "WvHcp_RfDgRiD5yS8bYnZw", "alias": "zur-b\u00f6rse-hamburg", "name": "Zur B\u00f6rse", "image_url": "https://s3-media4.fl.yelpcdn.com/bphoto/HYxpQefAIJfd7lloWAfszw/o.jpg", "is_closed": false, "url": "https://www.yelp.com/biz/zur-b%C3%B6rse-hamburg?adjust_creative=hBJOknVQJ58S5goQyjmwRw&utm_campaign=yelp_api_v3&utm_medium=api_v3_business_search&utm_source=hBJOknVQJ58S5goQyjmwRw", "review_count": 3, "categories": [{"alias": "german", "title": "German"}, {"alias": "bowling", "title": "Bowling"}], "rating": 4.5, "coordinates": {"latitude": 53.4794, "longitude": 9.86294}, "transactions": [], "price": "\u20ac", "location": {"address1": "Francoper Str. 57", "address2": null, "address3": null, "city": "Hamburg", "zip_code": "21147", "country": "DE", "state": "HH", "display_address": ["Francoper Str. 57", "21147 Hamburg", "Germany"]}, "phone": "+49407018216", "display_phone": "+49 40 7018216", "distance": 2755.352305236756}, {"id": "iJdyFvgYnEFInkfDkCjiQQ", "alias": "china-restaurant-lily-hamburg", "name": "China Restaurant Lily", "image_url": "https://s3-media2.fl.yelpcdn.com/bphoto/FJH_jfLCFr7lLbLdn0A3uA/o.jpg", "is_closed": false, "url": "https://www.yelp.com/biz/china-restaurant-lily-hamburg?adjust_creative=hBJOknVQJ58S5goQyjmwRw&utm_campaign=yelp_api_v3&utm_medium=api_v3_business_search&utm_source=hBJOknVQJ58S5goQyjmwRw", "review_count": 10, "categories": [{"alias": "chinese", "title": "Chinese"}], "rating": 4.0, "coordinates": {"latitude": 53.47236, "longitude": 9.85213}, "transactions": [], "price": "\u20ac\u20ac", "location": {"address1": "Cuxhavener Str. 335", "address2": null, "address3": null, "city": "Hamburg", "zip_code": "21149", "country": "DE", "state": "HH", "display_address": ["Cuxhavener Str. 335", "21149 Hamburg", "Germany"]}, "phone": "+49407025544", "display_phone": "+49 40 7025544", "distance": 3760.710898022155}, {"id": "ng4easez7Xfrmr0yqYzbJg", "alias": "pizzeria-atoll-hamburg", "name": "Pizzeria Atoll", "image_url": "https://s3-media4.fl.yelpcdn.com/bphoto/Xbv6y69vrIoNUrhCCY3Nsg/o.jpg", "is_closed": false, "url": "https://www.yelp.com/biz/pizzeria-atoll-hamburg?adjust_creative=hBJOknVQJ58S5goQyjmwRw&utm_campaign=yelp_api_v3&utm_medium=api_v3_business_search&utm_source=hBJOknVQJ58S5goQyjmwRw", "review_count": 1, "categories": [{"alias": "pizza", "title": "Pizza"}, {"alias": "italian", "title": "Italian"}], "rating": 4.0, "coordinates": {"latitude": 53.472675, "longitude": 9.854646}, "transactions": [], "location": {"address1": "Cuxhavener Str. 336", "address2": "", "address3": "", "city": "Hamburg", "zip_code": "21149", "country": "DE", "state": "HH", "display_address": ["Cuxhavener Str. 336", "21149 Hamburg", "Germany"]}, "phone": "+494047190192", "display_phone": "+49 40 47190192", "distance": 3654.156206348354}, {"id": "k9ItjxDeGs52UDh4EjcfRQ", "alias": "\u00f6z-urfa-hamburg-3", "name": "\u00d6z Urfa", "image_url": "https://s3-media4.fl.yelpcdn.com/bphoto/sW7GV-r2LoZNcZXHgf1EmQ/o.jpg", "is_closed": false, "url": "https://www.yelp.com/biz/%C3%B6z-urfa-hamburg-3?adjust_creative=hBJOknVQJ58S5goQyjmwRw&utm_campaign=yelp_api_v3&utm_medium=api_v3_business_search&utm_source=hBJOknVQJ58S5goQyjmwRw", "review_count": 18, "categories": [{"alias": "halal", "title": "Halal"}, {"alias": "turkish", "title": "Turkish"}, {"alias": "kebab", "title": "Kebab"}], "rating": 4.0, "coordinates": {"latitude": 53.47272, "longitude": 9.85331}, "transactions": [], "price": "\u20ac", "location": {"address1": "Cuxhavener Str. 342", "address2": "", "address3": "", "city": "Hamburg", "zip_code": "21149", "country": "DE", "state": "HH", "display_address": ["Cuxhavener Str. 342", "21149 Hamburg", "Germany"]}, "phone": "+494022646405", "display_phone": "+49 40 22646405", "distance": 3702.7921494882607}, {"id": "bLAeZH69Zei7fWFILX5ybA", "alias": "finkenwerder-fischbr\u00f6tchen-hamburg", "name": "Finkenwerder Fischbr\u00f6tchen", "image_url": "https://s3-media1.fl.yelpcdn.com/bphoto/1CT13QGzQzI58AWpS4e44Q/o.jpg", "is_closed": false, "url": "https://www.yelp.com/biz/finkenwerder-fischbr%C3%B6tchen-hamburg?adjust_creative=hBJOknVQJ58S5goQyjmwRw&utm_campaign=yelp_api_v3&utm_medium=api_v3_business_search&utm_source=hBJOknVQJ58S5goQyjmwRw", "review_count": 1, "categories": [{"alias": "hotdogs", "title": "Fast Food"}], "rating": 5.0, "coordinates": {"latitude": 53.5355, "longitude": 9.87869}, "transactions": [], "price": "\u20ac\u20ac", "location": {"address1": "Finkenwerder Landungsbr\u00fccke", "address2": "Benittstr. 9", "address3": null, "city": "Hamburg", "zip_code": "21129", "country": "DE", "state": "HH", "display_address": ["Finkenwerder Landungsbr\u00fccke", "Benittstr. 9", "21129 Hamburg", "Germany"]}, "phone": "", "display_phone": "", "distance": 3638.4534974767057}, {"id": "lc9AIe9Qg6qoGdP5hmx61w", "alias": "restaurant-finkenwerder-elbblick-hamburg", "name": "Restaurant Finkenwerder Elbblick", "image_url": "https://s3-media1.fl.yelpcdn.com/bphoto/y1tdV5YvlrBHiRgylWPyIA/o.jpg", "is_closed": false, "url": "https://www.yelp.com/biz/restaurant-finkenwerder-elbblick-hamburg?adjust_creative=hBJOknVQJ58S5goQyjmwRw&utm_campaign=yelp_api_v3&utm_medium=api_v3_business_search&utm_source=hBJOknVQJ58S5goQyjmwRw", "review_count": 15, "categories": [{"alias": "coffee", "title": "Coffee & Tea"}, {"alias": "seafood", "title": "Seafood"}, {"alias": "gastropubs", "title": "Gastropubs"}], "rating": 3.5, "coordinates": {"latitude": 53.53864, "longitude": 9.8735199}, "transactions": [], "price": "\u20ac\u20ac\u20ac", "location": {"address1": "Focksweg 42", "address2": null, "address3": null, "city": "Hamburg", "zip_code": "21129", "country": "DE", "state": "HH", "display_address": ["Focksweg 42", "21129 Hamburg", "Germany"]}, "phone": "+49407427095", "display_phone": "+49 40 7427095", "distance": 3996.0365606426976}, {"id": "gLtQQkYai9Znzw4n2GgsUg", "alias": "von-allw\u00f6rden-hamburg-49", "name": "von Allw\u00f6rden", "image_url": "https://s3-media3.fl.yelpcdn.com/bphoto/x77nIJaM6pcGX4nuSdKRvw/o.jpg", "is_closed": false, "url": "https://www.yelp.com/biz/von-allw%C3%B6rden-hamburg-49?adjust_creative=hBJOknVQJ58S5goQyjmwRw&utm_campaign=yelp_api_v3&utm_medium=api_v3_business_search&utm_source=hBJOknVQJ58S5goQyjmwRw", "review_count": 2, "categories": [{"alias": "bakeries", "title": "Bakeries"}, {"alias": "cafes", "title": "Cafes"}], "rating": 4.5, "coordinates": {"latitude": 53.4767872102729, "longitude": 9.85711079392413}, "transactions": [], "location": {"address1": "Torfstecherweg 1", "address2": "", "address3": null, "city": "Hamburg", "zip_code": "21147", "country": "DE", "state": "HH", "display_address": ["Torfstecherweg 1", "21147 Hamburg", "Germany"]}, "phone": "+494086699250", "display_phone": "+49 40 86699250", "distance": 3167.9637962094243}, {"id": "mf57nmVCUd0KL3CdqSIphQ", "alias": "restaurant-deutsches-haus-hamburg", "name": "Restaurant Deutsches Haus", "image_url": "https://s3-media3.fl.yelpcdn.com/bphoto/yG6UsqplWbk-kszw05fBpQ/o.jpg", "is_closed": false, "url": "https://www.yelp.com/biz/restaurant-deutsches-haus-hamburg?adjust_creative=hBJOknVQJ58S5goQyjmwRw&utm_campaign=yelp_api_v3&utm_medium=api_v3_business_search&utm_source=hBJOknVQJ58S5goQyjmwRw", "review_count": 3, "categories": [{"alias": "northerngerman", "title": "Northern German"}], "rating": 4.5, "coordinates": {"latitude": 53.4677, "longitude": 9.85407}, "transactions": [], "location": {"address1": "Bergheide 1", "address2": null, "address3": null, "city": "Hamburg", "zip_code": "21149", "country": "DE", "state": "HH", "display_address": ["Bergheide 1", "21149 Hamburg", "Germany"]}, "phone": "+49407010130", "display_phone": "+49 40 7010130", "distance": 4178.924862060609}, {"id": "8_KCb-X3F6MwPI6ae2tsLQ", "alias": "br\u00fccke-10-im-strandhaus-hamburg", "name": "Br\u00fccke 10 im Strandhaus", "image_url": "https://s3-media1.fl.yelpcdn.com/bphoto/g5C-V5WBMphx0NzzFX3WQg/o.jpg", "is_closed": false, "url": "https://www.yelp.com/biz/br%C3%BCcke-10-im-strandhaus-hamburg?adjust_creative=hBJOknVQJ58S5goQyjmwRw&utm_campaign=yelp_api_v3&utm_medium=api_v3_business_search&utm_source=hBJOknVQJ58S5goQyjmwRw", "review_count": 2, "categories": [{"alias": "bars", "title": "Bars"}, {"alias": "cafes", "title": "Cafes"}], "rating": 4.0, "coordinates": {"latitude": 53.544838, "longitude": 9.892318}, "transactions": [], "location": {"address1": "\u00d6velg\u00f6nner Hohlweg 12", "address2": "", "address3": null, "city": "Hamburg", "zip_code": "22605", "country": "DE", "state": "HH", "display_address": ["\u00d6velg\u00f6nner Hohlweg 12", "22605 Hamburg", "Germany"]}, "phone": "+494085352351", "display_phone": "+49 40 85352351", "distance": 4800.932356757913}, {"id": "_GuX6r6zS913HEFfX_jb9g", "alias": "dampferimbiss-hamburg", "name": "Dampferimbiss", "image_url": "https://s3-media2.fl.yelpcdn.com/bphoto/-MDMDDDCqKzLSCT4iB_-tg/o.jpg", "is_closed": false, "url": "https://www.yelp.com/biz/dampferimbiss-hamburg?adjust_creative=hBJOknVQJ58S5goQyjmwRw&utm_campaign=yelp_api_v3&utm_medium=api_v3_business_search&utm_source=hBJOknVQJ58S5goQyjmwRw", "review_count": 11, "categories": [{"alias": "foodstands", "title": "Food Stands"}, {"alias": "fischbroetchen", "title": "Fischbroetchen"}], "rating": 3.5, "coordinates": {"latitude": 53.53587, "longitude": 9.87823}, "transactions": [], "price": "\u20ac", "location": {"address1": "F\u00e4hranleger", "address2": "Benittstr. 7", "address3": null, "city": "Hamburg", "zip_code": "21129", "country": "DE", "state": "HH", "display_address": ["F\u00e4hranleger", "Benittstr. 7", "21129 Hamburg", "Germany"]}, "phone": "+49407429414", "display_phone": "+49 40 7429414", "distance": 3679.3050845940265}, {"id": "nQ4PwWDBJX1S6HlUaFV-WA", "alias": "welk-bistro-hamburg-2", "name": "Welk Bistro", "image_url": "https://s3-media2.fl.yelpcdn.com/bphoto/8abUEpgfKIDmmt7IUstFuQ/o.jpg", "is_closed": false, "url": "https://www.yelp.com/biz/welk-bistro-hamburg-2?adjust_creative=hBJOknVQJ58S5goQyjmwRw&utm_campaign=yelp_api_v3&utm_medium=api_v3_business_search&utm_source=hBJOknVQJ58S5goQyjmwRw", "review_count": 1, "categories": [{"alias": "sandwiches", "title": "Sandwiches"}, {"alias": "pizza", "title": "Pizza"}], "rating": 5.0, "coordinates": {"latitude": 53.4801385, "longitude": 9.8750162}, "transactions": [], "location": {"address1": "Rehrstieg 54", "address2": "", "address3": null, "city": "Hamburg", "zip_code": "21147", "country": "DE", "state": "HH", "display_address": ["Rehrstieg 54", "21147 Hamburg", "Germany"]}, "phone": "+494079687177", "display_phone": "+49 40 79687177", "distance": 2522.26991067251}, {"id": "_BNYVKl7NdOIzbpEfeFD0Q", "alias": "mundfein-pizzawerkstatt-hamburg-2", "name": "Mundfein Pizzawerkstatt", "image_url": "https://s3-media2.fl.yelpcdn.com/bphoto/V6jQeQHP487aHvucKn_zzg/o.jpg", "is_closed": false, "url": "https://www.yelp.com/biz/mundfein-pizzawerkstatt-hamburg-2?adjust_creative=hBJOknVQJ58S5goQyjmwRw&utm_campaign=yelp_api_v3&utm_medium=api_v3_business_search&utm_source=hBJOknVQJ58S5goQyjmwRw", "review_count": 8, "categories": [{"alias": "pizza", "title": "Pizza"}], "rating": 4.0, "coordinates": {"latitude": 53.4721624, "longitude": 9.8875506}, "transactions": [], "price": "\u20ac\u20ac\u20ac", "location": {"address1": "Cuxhavener Str. 152", "address2": null, "address3": null, "city": "Hamburg", "zip_code": "21149", "country": "DE", "state": "HH", "display_address": ["Cuxhavener Str. 152", "21149 Hamburg", "Germany"]}, "phone": "+494079752777", "display_phone": "+49 40 79752777", "distance": 3482.5749513906103}, {"id": "p154M1TKs2ILBPVdSX9CbA", "alias": "am-falkenberg-hamburg", "name": "Am Falkenberg", "image_url": "", "is_closed": false, "url": "https://www.yelp.com/biz/am-falkenberg-hamburg?adjust_creative=hBJOknVQJ58S5goQyjmwRw&utm_campaign=yelp_api_v3&utm_medium=api_v3_business_search&utm_source=hBJOknVQJ58S5goQyjmwRw", "review_count": 3, "categories": [{"alias": "german", "title": "German"}], "rating": 4.0, "coordinates": {"latitude": 53.46435, "longitude": 9.86563}, "transactions": [], "location": {"address1": "Falkenbergsweg 56", "address2": null, "address3": null, "city": "Hamburg", "zip_code": "21149", "country": "DE", "state": "HH", "display_address": ["Falkenbergsweg 56", "21149 Hamburg", "Germany"]}, "phone": "+49407018655", "display_phone": "+49 40 7018655", "distance": 4344.101098125901}, {"id": "9nxH2XceyoLqm7cYttMa1w", "alias": "dream-d\u00f6ner-hamburg", "name": "Dream D\u00f6ner", "image_url": "", "is_closed": false, "url": "https://www.yelp.com/biz/dream-d%C3%B6ner-hamburg?adjust_creative=hBJOknVQJ58S5goQyjmwRw&utm_campaign=yelp_api_v3&utm_medium=api_v3_business_search&utm_source=hBJOknVQJ58S5goQyjmwRw", "review_count": 6, "categories": [{"alias": "kebab", "title": "Kebab"}, {"alias": "foodstands", "title": "Food Stands"}], "rating": 4.5, "coordinates": {"latitude": 53.48013, "longitude": 9.87479}, "transactions": [], "price": "\u20ac", "location": {"address1": "Rehrstieg 54", "address2": "", "address3": "", "city": "Hamburg", "zip_code": "21147", "country": "DE", "state": "HH", "display_address": ["Rehrstieg 54", "21147 Hamburg", "Germany"]}, "phone": "", "display_phone": "", "distance": 2518.942766718723}, {"id": "kUPu-a5NGKnDVWa4gjoKmQ", "alias": "schweinske-hamburg-24", "name": "Schweinske", "image_url": "https://s3-media3.fl.yelpcdn.com/bphoto/RkExcGcGjdpmyrfr5JpJcA/o.jpg", "is_closed": false, "url": "https://www.yelp.com/biz/schweinske-hamburg-24?adjust_creative=hBJOknVQJ58S5goQyjmwRw&utm_campaign=yelp_api_v3&utm_medium=api_v3_business_search&utm_source=hBJOknVQJ58S5goQyjmwRw", "review_count": 22, "categories": [{"alias": "german", "title": "German"}, {"alias": "breakfast_brunch", "title": "Breakfast & Brunch"}], "rating": 3.0, "coordinates": {"latitude": 53.472818, "longitude": 9.853336}, "transactions": [], "price": "\u20ac\u20ac", "location": {"address1": "Cuxhavener Str. 342", "address2": null, "address3": null, "city": "Hamburg", "zip_code": "21149", "country": "DE", "state": "HH", "display_address": ["Cuxhavener Str. 342", "21149 Hamburg", "Germany"]}, "phone": "+494070381804", "display_phone": "+49 40 70381804", "distance": 3673.1349924505416}]