[{"id": "zrz_KLCNk22s82RPnn8mNw", "alias": "weinkontor-retana-oststeinbek-2", "name": "Weinkontor Retana", "image_url": "https://s3-media2.fl.yelpcdn.com/bphoto/cu9XTncBI584BgUBqQAaJg/o.jpg", "is_closed": false, "url": "https://www.yelp.com/biz/weinkontor-retana-oststeinbek-2?adjust_creative=hBJOknVQJ58S5goQyjmwRw&utm_campaign=yelp_api_v3&utm_medium=api_v3_business_search&utm_source=hBJOknVQJ58S5goQyjmwRw", "review_count": 2, "categories": [{"alias": "tapas", "title": "Tapas Bars"}, {"alias": "wine_bars", "title": "Wine Bars"}, {"alias": "beer_and_wine", "title": "Beer, Wine & Spirits"}], "rating": 5.0, "coordinates": {"latitude": 53.5226187361936, "longitude": 10.1647896319628}, "transactions": [], "location": {"address1": "Dorfstr. 10", "address2": "", "address3": "", "city": "Oststeinbek", "zip_code": "22113", "country": "DE", "state": "SH", "display_address": ["Dorfstr. 10", "22113 Oststeinbek", "Germany"]}, "phone": "+494060174920", "display_phone": "+49 40 60174920", "distance": 1038.1697072016573}, {"id": "ehIPeTZTX2wUv9G75gaRlw", "alias": "restaurant-avantgarde-oststeinbek-2", "name": "Restaurant Avantgarde", "image_url": "https://s3-media1.fl.yelpcdn.com/bphoto/o1qQRcbHntXRepG0fSoYZw/o.jpg", "is_closed": false, "url": "https://www.yelp.com/biz/restaurant-avantgarde-oststeinbek-2?adjust_creative=hBJOknVQJ58S5goQyjmwRw&utm_campaign=yelp_api_v3&utm_medium=api_v3_business_search&utm_source=hBJOknVQJ58S5goQyjmwRw", "review_count": 13, "categories": [{"alias": "mediterranean", "title": "Mediterranean"}, {"alias": "international", "title": "International"}, {"alias": "italian", "title": "Italian"}], "rating": 5.0, "coordinates": {"latitude": 53.54229, "longitude": 10.16505}, "transactions": [], "price": "\u20ac\u20ac", "location": {"address1": "M\u00f6llner Landstr. 53 B", "address2": "", "address3": "", "city": "Oststeinbek", "zip_code": "22113", "country": "DE", "state": "SH", "display_address": ["M\u00f6llner Landstr. 53 B", "22113 Oststeinbek", "Germany"]}, "phone": "+494039909038", "display_phone": "+49 40 39909038", "distance": 2825.6026541594597}, {"id": "rHeMmmhUly1CN1-Ji-_ieA", "alias": "gasthof-schwarzenbeck-oststeinbek-2", "name": "Gasthof Schwarzenbeck", "image_url": "https://s3-media2.fl.yelpcdn.com/bphoto/GyazVxvfgiU9AFwVLyUswA/o.jpg", "is_closed": false, "url": "https://www.yelp.com/biz/gasthof-schwarzenbeck-oststeinbek-2?adjust_creative=hBJOknVQJ58S5goQyjmwRw&utm_campaign=yelp_api_v3&utm_medium=api_v3_business_search&utm_source=hBJOknVQJ58S5goQyjmwRw", "review_count": 5, "categories": [{"alias": "german", "title": "German"}], "rating": 5.0, "coordinates": {"latitude": 53.5258, "longitude": 10.1681}, "transactions": [], "price": "\u20ac", "location": {"address1": "Dorfstr. 26", "address2": null, "address3": null, "city": "Oststeinbek", "zip_code": "22113", "country": "DE", "state": "SH", "display_address": ["Dorfstr. 26", "22113 Oststeinbek", "Germany"]}, "phone": "+49407399494", "display_phone": "+49 40 7399494", "distance": 1095.364271744563}, {"id": "TnDldXThLtvuk08KkL03Hg", "alias": "das-treibhaus-hamburg", "name": "Das Treibhaus", "image_url": "https://s3-media1.fl.yelpcdn.com/bphoto/eBKBu5PUD1k02ejYfYyfLA/o.jpg", "is_closed": false, "url": "https://www.yelp.com/biz/das-treibhaus-hamburg?adjust_creative=hBJOknVQJ58S5goQyjmwRw&utm_campaign=yelp_api_v3&utm_medium=api_v3_business_search&utm_source=hBJOknVQJ58S5goQyjmwRw", "review_count": 30, "categories": [{"alias": "bars", "title": "Bars"}, {"alias": "german", "title": "German"}], "rating": 3.5, "coordinates": {"latitude": 53.5134, "longitude": 10.1746}, "transactions": [], "price": "\u20ac\u20ac", "location": {"address1": "Reinbeker Redder 53", "address2": null, "address3": null, "city": "Hamburg", "zip_code": "21031", "country": "DE", "state": "HH", "display_address": ["Reinbeker Redder 53", "21031 Hamburg", "Germany"]}, "phone": "+494073927127", "display_phone": "+49 40 73927127", "distance": 594.29242331571}, {"id": "VwqglRJ68vEY75bpnNfV4g", "alias": "zur-havighorster-nesthenne-oststeinbek", "name": "zur Havighorster Nesthenne", "image_url": "", "is_closed": false, "url": "https://www.yelp.com/biz/zur-havighorster-nesthenne-oststeinbek?adjust_creative=hBJOknVQJ58S5goQyjmwRw&utm_campaign=yelp_api_v3&utm_medium=api_v3_business_search&utm_source=hBJOknVQJ58S5goQyjmwRw", "review_count": 1, "categories": [{"alias": "german", "title": "German"}], "rating": 5.0, "coordinates": {"latitude": 53.5201, "longitude": 10.1754}, "transactions": [], "location": {"address1": "Am Ohlendiek 33", "address2": null, "address3": null, "city": "Oststeinbek", "zip_code": "22113", "country": "DE", "state": "SH", "display_address": ["Am Ohlendiek 33", "22113 Oststeinbek", "Germany"]}, "phone": "+494071370584", "display_phone": "+49 40 71370584", "distance": 300.6675789008948}, {"id": "uL2lgxX9ZyWuL5b_tM3V7w", "alias": "china-restaurant-allerm\u00f6he-hamburg", "name": "China-Restaurant Allerm\u00f6he", "image_url": "https://s3-media2.fl.yelpcdn.com/bphoto/AbVHJir-u9JuBtyaxLvB4Q/o.jpg", "is_closed": false, "url": "https://www.yelp.com/biz/china-restaurant-allerm%C3%B6he-hamburg?adjust_creative=hBJOknVQJ58S5goQyjmwRw&utm_campaign=yelp_api_v3&utm_medium=api_v3_business_search&utm_source=hBJOknVQJ58S5goQyjmwRw", "review_count": 6, "categories": [{"alias": "chinese", "title": "Chinese"}], "rating": 4.5, "coordinates": {"latitude": 53.4868, "longitude": 10.1803}, "transactions": [], "location": {"address1": "Edith-Stein-Platz 4", "address2": null, "address3": null, "city": "Hamburg", "zip_code": "21035", "country": "DE", "state": "HH", "display_address": ["Edith-Stein-Platz 4", "21035 Hamburg", "Germany"]}, "phone": "+49407353803", "display_phone": "+49 40 7353803", "distance": 3491.495973239708}, {"id": "UZKZlvMH7wgM_xmO7Dmy6A", "alias": "china-restaurant-low-oststeinbek", "name": "China Restaurant Low", "image_url": "https://s3-media3.fl.yelpcdn.com/bphoto/eMmeNRhSJGaEkgDI1psJJQ/o.jpg", "is_closed": false, "url": "https://www.yelp.com/biz/china-restaurant-low-oststeinbek?adjust_creative=hBJOknVQJ58S5goQyjmwRw&utm_campaign=yelp_api_v3&utm_medium=api_v3_business_search&utm_source=hBJOknVQJ58S5goQyjmwRw", "review_count": 10, "categories": [{"alias": "chinese", "title": "Chinese"}], "rating": 4.5, "coordinates": {"latitude": 53.5422, "longitude": 10.1687}, "transactions": [], "price": "\u20ac\u20ac", "location": {"address1": "M\u00f6llner Landstr. 75", "address2": null, "address3": null, "city": "Oststeinbek", "zip_code": "22113", "country": "DE", "state": "SH", "display_address": ["M\u00f6llner Landstr. 75", "22113 Oststeinbek", "Germany"]}, "phone": "+49407132826", "display_phone": "+49 40 7132826", "distance": 2749.618499617312}, {"id": "PdMnHFRCwzO1PGqvfCpnrg", "alias": "mensa-bergedorf-hamburg", "name": "Mensa Bergedorf", "image_url": "https://s3-media3.fl.yelpcdn.com/bphoto/A_DvNmVuKDG-fakHiga7pA/o.jpg", "is_closed": false, "url": "https://www.yelp.com/biz/mensa-bergedorf-hamburg?adjust_creative=hBJOknVQJ58S5goQyjmwRw&utm_campaign=yelp_api_v3&utm_medium=api_v3_business_search&utm_source=hBJOknVQJ58S5goQyjmwRw", "review_count": 3, "categories": [{"alias": "canteen", "title": "Canteen"}], "rating": 5.0, "coordinates": {"latitude": 53.493, "longitude": 10.1984}, "transactions": [], "location": {"address1": "Ulmenliet 20", "address2": null, "address3": null, "city": "Hamburg", "zip_code": "21033", "country": "DE", "state": "HH", "display_address": ["Ulmenliet 20", "21033 Hamburg", "Germany"]}, "phone": "+49407217633", "display_phone": "+49 40 7217633", "distance": 3091.0772562644297}, {"id": "7n3VbNvGndnknyhA1KcYYw", "alias": "akropolis-restaurant-hamburg", "name": "Akropolis Restaurant", "image_url": "", "is_closed": false, "url": "https://www.yelp.com/biz/akropolis-restaurant-hamburg?adjust_creative=hBJOknVQJ58S5goQyjmwRw&utm_campaign=yelp_api_v3&utm_medium=api_v3_business_search&utm_source=hBJOknVQJ58S5goQyjmwRw", "review_count": 2, "categories": [{"alias": "steak", "title": "Steakhouses"}], "rating": 4.0, "coordinates": {"latitude": 53.51469, "longitude": 10.16777}, "transactions": [], "location": {"address1": "Heidhorst 4", "address2": "", "address3": null, "city": "Hamburg", "zip_code": "21031", "country": "DE", "state": "HH", "display_address": ["Heidhorst 4", "21031 Hamburg", "Germany"]}, "phone": "+494018235999", "display_phone": "+49 40 18235999", "distance": 783.4167322081561}, {"id": "dGHvj7ZvUZcTMzLWoNlb0A", "alias": "dorfkrug-hamburg-3", "name": "Dorfkrug", "image_url": "https://s3-media4.fl.yelpcdn.com/bphoto/hlW6I8HGP3zTxxLSTNhBEw/o.jpg", "is_closed": false, "url": "https://www.yelp.com/biz/dorfkrug-hamburg-3?adjust_creative=hBJOknVQJ58S5goQyjmwRw&utm_campaign=yelp_api_v3&utm_medium=api_v3_business_search&utm_source=hBJOknVQJ58S5goQyjmwRw", "review_count": 30, "categories": [{"alias": "german", "title": "German"}], "rating": 3.0, "coordinates": {"latitude": 53.5069, "longitude": 10.1622}, "transactions": [], "price": "\u20ac\u20ac", "location": {"address1": "Boberger Furtweg 1", "address2": null, "address3": null, "city": "Hamburg", "zip_code": "21033", "country": "DE", "state": "HH", "display_address": ["Boberger Furtweg 1", "21033 Hamburg", "Germany"]}, "phone": "+49407398190", "display_phone": "+49 40 7398190", "distance": 1658.7298438021096}, {"id": "ssPTSOBjG7hS3h7hcOHsYQ", "alias": "rindocks-hamburg-3", "name": "Rindock's", "image_url": "https://s3-media2.fl.yelpcdn.com/bphoto/maMn7v-b7qsW214K30FKeQ/o.jpg", "is_closed": false, "url": "https://www.yelp.com/biz/rindocks-hamburg-3?adjust_creative=hBJOknVQJ58S5goQyjmwRw&utm_campaign=yelp_api_v3&utm_medium=api_v3_business_search&utm_source=hBJOknVQJ58S5goQyjmwRw", "review_count": 1, "categories": [{"alias": "steak", "title": "Steakhouses"}], "rating": 4.0, "coordinates": {"latitude": 53.50291, "longitude": 10.19312}, "transactions": [], "location": {"address1": "Lohbr\u00fcgger Landstr. 119", "address2": "", "address3": null, "city": "Hamburg", "zip_code": "21031", "country": "DE", "state": "HH", "display_address": ["Lohbr\u00fcgger Landstr. 119", "21031 Hamburg", "Germany"]}, "phone": "+494072106755", "display_phone": "+49 40 72106755", "distance": 1951.3540650919515}, {"id": "MILCR88NZjj9cKF4jMdhZQ", "alias": "gasthaus-pampilo-oststeinbek-2", "name": "Gasthaus Pampilo", "image_url": "https://s3-media1.fl.yelpcdn.com/bphoto/PC0ouVQsR0-L1AHij4yQsQ/o.jpg", "is_closed": false, "url": "https://www.yelp.com/biz/gasthaus-pampilo-oststeinbek-2?adjust_creative=hBJOknVQJ58S5goQyjmwRw&utm_campaign=yelp_api_v3&utm_medium=api_v3_business_search&utm_source=hBJOknVQJ58S5goQyjmwRw", "review_count": 5, "categories": [{"alias": "steak", "title": "Steakhouses"}, {"alias": "german", "title": "German"}, {"alias": "guesthouses", "title": "Guest Houses"}], "rating": 3.5, "coordinates": {"latitude": 53.5413018185175, "longitude": 10.163794409787}, "transactions": [], "price": "\u20ac\u20ac", "location": {"address1": "M\u00f6llner Landstr. 22", "address2": "", "address3": "", "city": "Oststeinbek", "zip_code": "22113", "country": "DE", "state": "SH", "display_address": ["M\u00f6llner Landstr. 22", "22113 Oststeinbek", "Germany"]}, "phone": "+494071403410", "display_phone": "+49 40 71403410", "distance": 2750.777802265569}, {"id": "mZe6j2QML6tF6d3NR2nbTw", "alias": "akropolis-oststeinbek", "name": "Akropolis", "image_url": "https://s3-media3.fl.yelpcdn.com/bphoto/IRjUlv1doqNVBo9pZ0ynnA/o.jpg", "is_closed": false, "url": "https://www.yelp.com/biz/akropolis-oststeinbek?adjust_creative=hBJOknVQJ58S5goQyjmwRw&utm_campaign=yelp_api_v3&utm_medium=api_v3_business_search&utm_source=hBJOknVQJ58S5goQyjmwRw", "review_count": 19, "categories": [{"alias": "greek", "title": "Greek"}], "rating": 5.0, "coordinates": {"latitude": 53.5424, "longitude": 10.1727}, "transactions": [], "price": "\u20ac\u20ac", "location": {"address1": "M\u00f6llner Landstr.", "address2": null, "address3": null, "city": "Oststeinbek", "zip_code": "22113", "country": "DE", "state": "SH", "display_address": ["M\u00f6llner Landstr.", "22113 Oststeinbek", "Germany"]}, "phone": "+49407133752", "display_phone": "+49 40 7133752", "distance": 2720.8985561322424}, {"id": "-ihNFjY9pJ247MVW51LvEQ", "alias": "sushi-f\u00fcr-hamburg-hamburg", "name": "Sushi f\u00fcr Hamburg", "image_url": "https://s3-media2.fl.yelpcdn.com/bphoto/TIW2Y3kO9P52-2lQFrCqtA/o.jpg", "is_closed": false, "url": "https://www.yelp.com/biz/sushi-f%C3%BCr-hamburg-hamburg?adjust_creative=hBJOknVQJ58S5goQyjmwRw&utm_campaign=yelp_api_v3&utm_medium=api_v3_business_search&utm_source=hBJOknVQJ58S5goQyjmwRw", "review_count": 5, "categories": [{"alias": "sushi", "title": "Sushi Bars"}, {"alias": "buffets", "title": "Buffets"}], "rating": 4.5, "coordinates": {"latitude": 53.48534, "longitude": 10.19983}, "transactions": [], "price": "\u20ac\u20ac", "location": {"address1": "Am G\u00fcterbahnhof 8", "address2": "", "address3": "", "city": "Hamburg", "zip_code": "21035", "country": "DE", "state": "HH", "display_address": ["Am G\u00fcterbahnhof 8", "21035 Hamburg", "Germany"]}, "phone": "+494072545474", "display_phone": "+49 40 72545474", "distance": 3905.2827446309147}, {"id": "W9EAWUwf4GOi5eQkci3bHQ", "alias": "weinhaus-an-der-bergstrasse-hamburg-4", "name": "Weinhaus an der Bergstrasse", "image_url": "https://s3-media3.fl.yelpcdn.com/bphoto/m3tXdKYTsM4UdnF2INBrHg/o.jpg", "is_closed": false, "url": "https://www.yelp.com/biz/weinhaus-an-der-bergstrasse-hamburg-4?adjust_creative=hBJOknVQJ58S5goQyjmwRw&utm_campaign=yelp_api_v3&utm_medium=api_v3_business_search&utm_source=hBJOknVQJ58S5goQyjmwRw", "review_count": 6, "categories": [{"alias": "shopping", "title": "Shopping"}, {"alias": "bistros", "title": "Bistros"}, {"alias": "vacation_rentals", "title": "Vacation Rentals"}], "rating": 4.5, "coordinates": {"latitude": 53.51666, "longitude": 10.1574}, "transactions": [], "location": {"address1": "Am Langberg 104", "address2": "", "address3": "", "city": "Hamburg", "zip_code": "21033", "country": "DE", "state": "HH", "display_address": ["Am Langberg 104", "21033 Hamburg", "Germany"]}, "phone": "+49407399642", "display_phone": "+49 40 7399642", "distance": 1414.4825933962295}, {"id": "gvtbA9qV81QUCbQLCmLJ_A", "alias": "hof-neun-linden-hamburg", "name": "Hof Neun Linden", "image_url": "https://s3-media2.fl.yelpcdn.com/bphoto/WIFol5c1vAeZWyafy6dtzw/o.jpg", "is_closed": false, "url": "https://www.yelp.com/biz/hof-neun-linden-hamburg?adjust_creative=hBJOknVQJ58S5goQyjmwRw&utm_campaign=yelp_api_v3&utm_medium=api_v3_business_search&utm_source=hBJOknVQJ58S5goQyjmwRw", "review_count": 7, "categories": [{"alias": "cafes", "title": "Cafes"}, {"alias": "organic_stores", "title": "Organic Stores"}], "rating": 4.5, "coordinates": {"latitude": 53.5047, "longitude": 10.16919}, "transactions": [], "price": "\u20ac\u20ac\u20ac", "location": {"address1": "Billwerder Billdeich 480", "address2": "", "address3": "", "city": "Hamburg", "zip_code": "21033", "country": "DE", "state": "HH", "display_address": ["Billwerder Billdeich 480", "21033 Hamburg", "Germany"]}, "phone": "+494073928199", "display_phone": "+49 40 73928199", "distance": 1631.0357461465805}, {"id": "uH_upvPztOicOQbLPKIxBg", "alias": "benvenuto-hamburg", "name": "Benvenuto", "image_url": "https://s3-media2.fl.yelpcdn.com/bphoto/WO2Ty4AGyxqQTia9wtCWCg/o.jpg", "is_closed": false, "url": "https://www.yelp.com/biz/benvenuto-hamburg?adjust_creative=hBJOknVQJ58S5goQyjmwRw&utm_campaign=yelp_api_v3&utm_medium=api_v3_business_search&utm_source=hBJOknVQJ58S5goQyjmwRw", "review_count": 1, "categories": [{"alias": "italian", "title": "Italian"}], "rating": 5.0, "coordinates": {"latitude": 53.483309, "longitude": 10.175063}, "transactions": [], "location": {"address1": "Grachtenplatz 11", "address2": "", "address3": "", "city": "Hamburg", "zip_code": "21035", "country": "DE", "state": "HH", "display_address": ["Grachtenplatz 11", "21035 Hamburg", "Germany"]}, "phone": "+494023814224", "display_phone": "+49 40 23814224", "distance": 3852.0283461384397}, {"id": "Cw7U5VNrO8Xc8RbOyv1eGg", "alias": "pi4-greek-soul-food-hamburg-2", "name": "pi4 - greek soul food", "image_url": "https://s3-media3.fl.yelpcdn.com/bphoto/A_3KhSDI4tMTXAeWTA-y8A/o.jpg", "is_closed": false, "url": "https://www.yelp.com/biz/pi4-greek-soul-food-hamburg-2?adjust_creative=hBJOknVQJ58S5goQyjmwRw&utm_campaign=yelp_api_v3&utm_medium=api_v3_business_search&utm_source=hBJOknVQJ58S5goQyjmwRw", "review_count": 3, "categories": [{"alias": "greek", "title": "Greek"}], "rating": 3.5, "coordinates": {"latitude": 53.4832364781722, "longitude": 10.174944403876}, "transactions": [], "price": "\u20ac\u20ac", "location": {"address1": "Grachtenplatz", "address2": "", "address3": "", "city": "Hamburg", "zip_code": "21035", "country": "DE", "state": "HH", "display_address": ["Grachtenplatz", "21035 Hamburg", "Germany"]}, "phone": "+494070103141", "display_phone": "+49 40 70103141", "distance": 3893.4983267493744}, {"id": "r8OhsxjfOVrYibCJAKn9YQ", "alias": "restaurant-hellena-oststeinbek", "name": "Restaurant Hellena", "image_url": "https://s3-media2.fl.yelpcdn.com/bphoto/qZy41WwVa69VMr_5nw30IA/o.jpg", "is_closed": false, "url": "https://www.yelp.com/biz/restaurant-hellena-oststeinbek?adjust_creative=hBJOknVQJ58S5goQyjmwRw&utm_campaign=yelp_api_v3&utm_medium=api_v3_business_search&utm_source=hBJOknVQJ58S5goQyjmwRw", "review_count": 1, "categories": [{"alias": "greek", "title": "Greek"}], "rating": 5.0, "coordinates": {"latitude": 53.548, "longitude": 10.1681}, "transactions": [], "price": "\u20ac\u20ac", "location": {"address1": "Barsb\u00fctteler Weg 30", "address2": null, "address3": null, "city": "Oststeinbek", "zip_code": "22113", "country": "DE", "state": "SH", "display_address": ["Barsb\u00fctteler Weg 30", "22113 Oststeinbek", "Germany"]}, "phone": "+494071009431", "display_phone": "+49 40 71009431", "distance": 3387.3796098537086}, {"id": "f5g2ILmgueS9e83nQ4N77g", "alias": "hhanse-grill-hamburg", "name": "HHanse Grill", "image_url": "https://s3-media3.fl.yelpcdn.com/bphoto/vN7DJ9lHxchQ2eWtCtWHKQ/o.jpg", "is_closed": false, "url": "https://www.yelp.com/biz/hhanse-grill-hamburg?adjust_creative=hBJOknVQJ58S5goQyjmwRw&utm_campaign=yelp_api_v3&utm_medium=api_v3_business_search&utm_source=hBJOknVQJ58S5goQyjmwRw", "review_count": 18, "categories": [{"alias": "hotdogs", "title": "Fast Food"}], "rating": 4.0, "coordinates": {"latitude": 53.48883, "longitude": 10.20283}, "transactions": [], "price": "\u20ac", "location": {"address1": "Kurt-A.-K\u00f6rber-Chaussee 3", "address2": "", "address3": "", "city": "Hamburg", "zip_code": "21033", "country": "DE", "state": "HH", "display_address": ["Kurt-A.-K\u00f6rber-Chaussee 3", "21033 Hamburg", "Germany"]}, "phone": "+494060174990", "display_phone": "+49 40 60174990", "distance": 3640.8269890249635}, {"id": "u3ub5f0MS4qY67Q8XF9ZoA", "alias": "sodemanns-fisch-kutter-nr-1-hamburg", "name": "Sodemann's Fisch-Kutter Nr. 1", "image_url": "https://s3-media3.fl.yelpcdn.com/bphoto/BlysP6fVPaL0eEjKvEbByw/o.jpg", "is_closed": false, "url": "https://www.yelp.com/biz/sodemanns-fisch-kutter-nr-1-hamburg?adjust_creative=hBJOknVQJ58S5goQyjmwRw&utm_campaign=yelp_api_v3&utm_medium=api_v3_business_search&utm_source=hBJOknVQJ58S5goQyjmwRw", "review_count": 3, "categories": [{"alias": "foodtrucks", "title": "Food Trucks"}, {"alias": "fischbroetchen", "title": "Fischbroetchen"}], "rating": 5.0, "coordinates": {"latitude": 53.5537490844727, "longitude": 9.99182987213135}, "transactions": [], "price": "\u20ac\u20ac", "location": {"address1": "", "address2": null, "address3": "", "city": "Hamburg", "zip_code": "", "country": "DE", "state": "HH", "display_address": ["Hamburg", "Germany"]}, "phone": "+491773606663", "display_phone": "+49 177 3606663", "distance": 12757.096653088172}, {"id": "BuWxbW6pbqxsXs0eB7hrWA", "alias": "west-grill-hamburg", "name": "West Grill", "image_url": "", "is_closed": false, "url": "https://www.yelp.com/biz/west-grill-hamburg?adjust_creative=hBJOknVQJ58S5goQyjmwRw&utm_campaign=yelp_api_v3&utm_medium=api_v3_business_search&utm_source=hBJOknVQJ58S5goQyjmwRw", "review_count": 2, "categories": [{"alias": "kebab", "title": "Kebab"}], "rating": 3.5, "coordinates": {"latitude": 53.48927, "longitude": 10.18128}, "transactions": [], "location": {"address1": "Friedrich-Frank-Bogen 49", "address2": null, "address3": null, "city": "Hamburg", "zip_code": "21033", "country": "DE", "state": "HH", "display_address": ["Friedrich-Frank-Bogen 49", "21033 Hamburg", "Germany"]}, "phone": "", "display_phone": "", "distance": 3219.9030036189533}, {"id": "2owx8XU_Kh6NQYkWDCOHfA", "alias": "ristorante-mamma-mia-hamburg-5", "name": "Ristorante Mamma Mia", "image_url": "https://s3-media3.fl.yelpcdn.com/bphoto/64VOXDsDgkuWJbdgQROXFw/o.jpg", "is_closed": false, "url": "https://www.yelp.com/biz/ristorante-mamma-mia-hamburg-5?adjust_creative=hBJOknVQJ58S5goQyjmwRw&utm_campaign=yelp_api_v3&utm_medium=api_v3_business_search&utm_source=hBJOknVQJ58S5goQyjmwRw", "review_count": 2, "categories": [{"alias": "italian", "title": "Italian"}], "rating": 2.5, "coordinates": {"latitude": 53.4852198, "longitude": 10.1994549}, "transactions": [], "price": "\u20ac\u20ac\u20ac", "location": {"address1": "Am G\u00fcterbahnhof 17 e", "address2": "", "address3": "", "city": "Hamburg", "zip_code": "21035", "country": "DE", "state": "HH", "display_address": ["Am G\u00fcterbahnhof 17 e", "21035 Hamburg", "Germany"]}, "phone": "+494072697898", "display_phone": "+49 40 72697898", "distance": 3916.14531173783}, {"id": "wpL3fJmVfD9BxMKKEUnTlg", "alias": "masala-indian-food-express-hamburg", "name": "Masala - Indian Food Express", "image_url": "", "is_closed": false, "url": "https://www.yelp.com/biz/masala-indian-food-express-hamburg?adjust_creative=hBJOknVQJ58S5goQyjmwRw&utm_campaign=yelp_api_v3&utm_medium=api_v3_business_search&utm_source=hBJOknVQJ58S5goQyjmwRw", "review_count": 1, "categories": [{"alias": "indpak", "title": "Indian"}, {"alias": "fooddeliveryservices", "title": "Food Delivery Services"}], "rating": 4.0, "coordinates": {"latitude": 53.50882, "longitude": 10.18629}, "transactions": [], "location": {"address1": "Mendelstra\u00dfe 26D", "address2": "", "address3": null, "city": "Hamburg", "zip_code": "21031", "country": "DE", "state": "HH", "display_address": ["Mendelstra\u00dfe 26D", "21031 Hamburg", "Germany"]}, "phone": "", "display_phone": "", "distance": 1151.3383155155407}, {"id": "EyRhmv16rRxKLtyuVHlaGg", "alias": "panorama-hamburg", "name": "Panorama", "image_url": "https://s3-media2.fl.yelpcdn.com/bphoto/tVnH_ZzV0I7Mdidhd7vgYg/o.jpg", "is_closed": false, "url": "https://www.yelp.com/biz/panorama-hamburg?adjust_creative=hBJOknVQJ58S5goQyjmwRw&utm_campaign=yelp_api_v3&utm_medium=api_v3_business_search&utm_source=hBJOknVQJ58S5goQyjmwRw", "review_count": 2, "categories": [{"alias": "mediterranean", "title": "Mediterranean"}, {"alias": "greek", "title": "Greek"}], "rating": 4.0, "coordinates": {"latitude": 53.4832369247714, "longitude": 10.1749044343861}, "transactions": [], "price": "\u20ac\u20ac", "location": {"address1": "Grachtenplatz 11", "address2": null, "address3": "", "city": "Hamburg", "zip_code": "21035", "country": "DE", "state": "HH", "display_address": ["Grachtenplatz 11", "21035 Hamburg", "Germany"]}, "phone": "+49407211888", "display_phone": "+49 40 7211888", "distance": 3893.6142082692036}, {"id": "wns0tEarHxA0M5UsbrY-XQ", "alias": "lohbr\u00fcgger-grill-hamburg-2", "name": "Lohbr\u00fcgger Grill", "image_url": "https://s3-media2.fl.yelpcdn.com/bphoto/jAbjpc2e08mEWz-0ev9adg/o.jpg", "is_closed": false, "url": "https://www.yelp.com/biz/lohbr%C3%BCgger-grill-hamburg-2?adjust_creative=hBJOknVQJ58S5goQyjmwRw&utm_campaign=yelp_api_v3&utm_medium=api_v3_business_search&utm_source=hBJOknVQJ58S5goQyjmwRw", "review_count": 2, "categories": [{"alias": "foodstands", "title": "Food Stands"}], "rating": 5.0, "coordinates": {"latitude": 53.4982264838837, "longitude": 10.2029393613338}, "transactions": [], "price": "\u20ac", "location": {"address1": "Lohbr\u00fcgger Landstr. 43", "address2": "", "address3": null, "city": "Hamburg", "zip_code": "21031", "country": "DE", "state": "HH", "display_address": ["Lohbr\u00fcgger Landstr. 43", "21031 Hamburg", "Germany"]}, "phone": "+494072005533", "display_phone": "+49 40 72005533", "distance": 2741.041887904951}, {"id": "YwskX4DDso1WQLrpsERCuw", "alias": "aldos-pizzeria-und-more-e-k-hamburg", "name": "Aldo's Pizzeria & More e.K.", "image_url": "https://s3-media2.fl.yelpcdn.com/bphoto/behwUs-gqFl_WC37C2AlfA/o.jpg", "is_closed": false, "url": "https://www.yelp.com/biz/aldos-pizzeria-und-more-e-k-hamburg?adjust_creative=hBJOknVQJ58S5goQyjmwRw&utm_campaign=yelp_api_v3&utm_medium=api_v3_business_search&utm_source=hBJOknVQJ58S5goQyjmwRw", "review_count": 2, "categories": [{"alias": "pizza", "title": "Pizza"}, {"alias": "italian", "title": "Italian"}], "rating": 4.0, "coordinates": {"latitude": 53.5009, "longitude": 10.1984}, "transactions": [], "price": "\u20ac", "location": {"address1": "Lohbr\u00fcgger Landstr. 80", "address2": null, "address3": null, "city": "Hamburg", "zip_code": "21031", "country": "DE", "state": "HH", "display_address": ["Lohbr\u00fcgger Landstr. 80", "21031 Hamburg", "Germany"]}, "phone": "+494089725548", "display_phone": "+49 40 89725548", "distance": 2325.1487825865697}, {"id": "pedUYCXfp2wOXnGQBPfzqw", "alias": "schwarzenbeck-oststeinbek-havighorst", "name": "Schwarzenbeck", "image_url": "https://s3-media2.fl.yelpcdn.com/bphoto/u4ZvIfwyLUJf4bGgxT3unw/o.jpg", "is_closed": false, "url": "https://www.yelp.com/biz/schwarzenbeck-oststeinbek-havighorst?adjust_creative=hBJOknVQJ58S5goQyjmwRw&utm_campaign=yelp_api_v3&utm_medium=api_v3_business_search&utm_source=hBJOknVQJ58S5goQyjmwRw", "review_count": 1, "categories": [{"alias": "german", "title": "German"}], "rating": 5.0, "coordinates": {"latitude": 53.5252914, "longitude": 10.1684103}, "transactions": [], "location": {"address1": "Dorfstr. 26", "address2": null, "address3": "", "city": "Oststeinbek-Havighorst", "zip_code": "22113", "country": "DE", "state": "SH", "display_address": ["Dorfstr. 26", "22113 Oststeinbek-Havighorst", "Germany"]}, "phone": "+49407399494", "display_phone": "+49 40 7399494", "distance": 1051.589982987073}, {"id": "HulzwGeEub08NFh1HaYU4A", "alias": "kliemanns-grill-glinde", "name": "Kliemanns Grill", "image_url": "https://s3-media3.fl.yelpcdn.com/bphoto/IQE5mc9QPXg5pM37n57N6A/o.jpg", "is_closed": false, "url": "https://www.yelp.com/biz/kliemanns-grill-glinde?adjust_creative=hBJOknVQJ58S5goQyjmwRw&utm_campaign=yelp_api_v3&utm_medium=api_v3_business_search&utm_source=hBJOknVQJ58S5goQyjmwRw", "review_count": 7, "categories": [{"alias": "hotdogs", "title": "Fast Food"}, {"alias": "foodstands", "title": "Food Stands"}], "rating": 3.5, "coordinates": {"latitude": 53.540678234906, "longitude": 10.201831846757}, "transactions": [], "price": "\u20ac\u20ac", "location": {"address1": "M\u00f6llner Landstr. 35 B", "address2": null, "address3": null, "city": "Glinde", "zip_code": "21509", "country": "DE", "state": "SH", "display_address": ["M\u00f6llner Landstr. 35 B", "21509 Glinde", "Germany"]}, "phone": "+49407106902", "display_phone": "+49 40 7106902", "distance": 2934.697425116587}, {"id": "Rgpp58Al09G3BqeH6Fjb0A", "alias": "mcdonalds-oststeinbek", "name": "McDonald's", "image_url": "https://s3-media3.fl.yelpcdn.com/bphoto/2TAGvWDAT1uZxiwPFwj5AA/o.jpg", "is_closed": false, "url": "https://www.yelp.com/biz/mcdonalds-oststeinbek?adjust_creative=hBJOknVQJ58S5goQyjmwRw&utm_campaign=yelp_api_v3&utm_medium=api_v3_business_search&utm_source=hBJOknVQJ58S5goQyjmwRw", "review_count": 5, "categories": [{"alias": "hotdogs", "title": "Fast Food"}, {"alias": "burgers", "title": "Burgers"}], "rating": 3.0, "coordinates": {"latitude": 53.54554, "longitude": 10.15259}, "transactions": [], "price": "\u20ac\u20ac", "location": {"address1": "Willinghusener Weg 1", "address2": null, "address3": null, "city": "Oststeinbek", "zip_code": "22113", "country": "DE", "state": "SH", "display_address": ["Willinghusener Weg 1", "22113 Oststeinbek", "Germany"]}, "phone": "", "display_phone": "", "distance": 3590.570209920847}, {"id": "3H_lOdHixjS5Rd5zI3NmQg", "alias": "kinh-do-oststeinbek", "name": "Kinh Do", "image_url": "https://s3-media2.fl.yelpcdn.com/bphoto/1_jRLPtKCnu7AtAO2Ssnzg/o.jpg", "is_closed": false, "url": "https://www.yelp.com/biz/kinh-do-oststeinbek?adjust_creative=hBJOknVQJ58S5goQyjmwRw&utm_campaign=yelp_api_v3&utm_medium=api_v3_business_search&utm_source=hBJOknVQJ58S5goQyjmwRw", "review_count": 15, "categories": [{"alias": "vietnamese", "title": "Vietnamese"}], "rating": 3.5, "coordinates": {"latitude": 53.5499, "longitude": 10.1567}, "transactions": [], "price": "\u20ac\u20ac", "location": {"address1": "Gewerbering 12", "address2": null, "address3": null, "city": "Oststeinbek", "zip_code": "22113", "country": "DE", "state": "SH", "display_address": ["Gewerbering 12", "22113 Oststeinbek", "Germany"]}, "phone": "+494068871334", "display_phone": "+49 40 68871334", "distance": 3812.3399177697875}, {"id": "5hLgt7EOAsakw7gvQXO2hg", "alias": "restaurant-kreta-hamburg-2", "name": "Restaurant Kreta", "image_url": "", "is_closed": false, "url": "https://www.yelp.com/biz/restaurant-kreta-hamburg-2?adjust_creative=hBJOknVQJ58S5goQyjmwRw&utm_campaign=yelp_api_v3&utm_medium=api_v3_business_search&utm_source=hBJOknVQJ58S5goQyjmwRw", "review_count": 1, "categories": [{"alias": "greek", "title": "Greek"}], "rating": 5.0, "coordinates": {"latitude": 53.4833, "longitude": 10.175}, "transactions": [], "price": "\u20ac\u20ac", "location": {"address1": "Grachtenplatz 11", "address2": null, "address3": null, "city": "Hamburg", "zip_code": "21035", "country": "DE", "state": "HH", "display_address": ["Grachtenplatz 11", "21035 Hamburg", "Germany"]}, "phone": "+494028575975", "display_phone": "+49 40 28575975", "distance": 3886.2211760325654}, {"id": "3iOc8w6sYCVtqP43tMLrag", "alias": "holstenhof-hamburg-2", "name": "Holstenhof", "image_url": "https://s3-media3.fl.yelpcdn.com/bphoto/Wlpmq6ruvqigkmtGEf1tcA/o.jpg", "is_closed": false, "url": "https://www.yelp.com/biz/holstenhof-hamburg-2?adjust_creative=hBJOknVQJ58S5goQyjmwRw&utm_campaign=yelp_api_v3&utm_medium=api_v3_business_search&utm_source=hBJOknVQJ58S5goQyjmwRw", "review_count": 8, "categories": [{"alias": "german", "title": "German"}], "rating": 4.0, "coordinates": {"latitude": 53.49846, "longitude": 10.20311}, "transactions": [], "price": "\u20ac\u20ac", "location": {"address1": "Lohbr\u00fcgger Landstr. 38", "address2": null, "address3": null, "city": "Hamburg", "zip_code": "21031", "country": "DE", "state": "HH", "display_address": ["Lohbr\u00fcgger Landstr. 38", "21031 Hamburg", "Germany"]}, "phone": "+49407399428", "display_phone": "+49 40 7399428", "distance": 2726.7499973926715}, {"id": "2jzIbZsfzca5drJYk7JwbQ", "alias": "the-bao-bros-hamburg-2", "name": "The Bao Bros", "image_url": "https://s3-media1.fl.yelpcdn.com/bphoto/vUMA4Y35x3UwZk6fMJfZRw/o.jpg", "is_closed": false, "url": "https://www.yelp.com/biz/the-bao-bros-hamburg-2?adjust_creative=hBJOknVQJ58S5goQyjmwRw&utm_campaign=yelp_api_v3&utm_medium=api_v3_business_search&utm_source=hBJOknVQJ58S5goQyjmwRw", "review_count": 2, "categories": [{"alias": "foodtrucks", "title": "Food Trucks"}, {"alias": "burgers", "title": "Burgers"}], "rating": 4.0, "coordinates": {"latitude": 53.5533409118652, "longitude": 9.99246978759766}, "transactions": [], "price": "\u20ac", "location": {"address1": "", "address2": "", "address3": "", "city": "Hamburg", "zip_code": "", "country": "DE", "state": "HH", "display_address": ["Hamburg", "Germany"]}, "phone": "+4915140700076", "display_phone": "+49 1514 0700076", "distance": 12757.102984219893}, {"id": "5ZD5tiAehHozj6CNAa_57g", "alias": "china-und-thai-lieferservice-hamburg", "name": "China & Thai Lieferservice", "image_url": "https://s3-media2.fl.yelpcdn.com/bphoto/gkXjoR3DDIyBKWvq2YJpOg/o.jpg", "is_closed": false, "url": "https://www.yelp.com/biz/china-und-thai-lieferservice-hamburg?adjust_creative=hBJOknVQJ58S5goQyjmwRw&utm_campaign=yelp_api_v3&utm_medium=api_v3_business_search&utm_source=hBJOknVQJ58S5goQyjmwRw", "review_count": 6, "categories": [{"alias": "panasian", "title": "Pan Asian"}], "rating": 3.5, "coordinates": {"latitude": 53.4881508, "longitude": 10.1970707}, "transactions": [], "price": "\u20ac\u20ac", "location": {"address1": "Kurt-A.-K\u00f6rber-Chaussee 39 d", "address2": null, "address3": null, "city": "Hamburg", "zip_code": "21033", "country": "DE", "state": "HH", "display_address": ["Kurt-A.-K\u00f6rber-Chaussee 39 d", "21033 Hamburg", "Germany"]}, "phone": "", "display_phone": "", "distance": 3555.720603420735}, {"id": "APvIA_7ssxgC0atmQEFMcg", "alias": "burgerkultour-food-truck-hamburg-2", "name": "BurgerKultour Food Truck", "image_url": "https://s3-media4.fl.yelpcdn.com/bphoto/KoAuwalMnlAO8139MmdYBQ/o.jpg", "is_closed": false, "url": "https://www.yelp.com/biz/burgerkultour-food-truck-hamburg-2?adjust_creative=hBJOknVQJ58S5goQyjmwRw&utm_campaign=yelp_api_v3&utm_medium=api_v3_business_search&utm_source=hBJOknVQJ58S5goQyjmwRw", "review_count": 3, "categories": [{"alias": "foodtrucks", "title": "Food Trucks"}, {"alias": "burgers", "title": "Burgers"}], "rating": 4.5, "coordinates": {"latitude": 53.57154, "longitude": 9.95575}, "transactions": [], "price": "\u20ac\u20ac", "location": {"address1": "", "address2": "", "address3": "", "city": "Hamburg", "zip_code": "20259", "country": "DE", "state": "HH", "display_address": ["20259 Hamburg", "Germany"]}, "phone": "+4917626055122", "display_phone": "+49 176 26055122", "distance": 15813.299291046547}, {"id": "QvEg8ddyF1ZbpZ-q1YxnwA", "alias": "asia-center-hamburg", "name": "Asia Center", "image_url": "", "is_closed": false, "url": "https://www.yelp.com/biz/asia-center-hamburg?adjust_creative=hBJOknVQJ58S5goQyjmwRw&utm_campaign=yelp_api_v3&utm_medium=api_v3_business_search&utm_source=hBJOknVQJ58S5goQyjmwRw", "review_count": 1, "categories": [{"alias": "fooddeliveryservices", "title": "Food Delivery Services"}, {"alias": "panasian", "title": "Pan Asian"}], "rating": 5.0, "coordinates": {"latitude": 53.4803637665279, "longitude": 10.1983971129925}, "transactions": [], "location": {"address1": "Randersweide 2 a", "address2": "", "address3": "", "city": "Hamburg", "zip_code": "21035", "country": "DE", "state": "HH", "display_address": ["Randersweide 2 a", "21035 Hamburg", "Germany"]}, "phone": "+4949407397395", "display_phone": "+49 4940 7397395", "distance": 4404.353217879579}, {"id": "n_Yio-a9VzssOtDbgezpRA", "alias": "subu-sushi-burrito-hamburg-3", "name": "Subu Sushi Burrito", "image_url": "https://s3-media3.fl.yelpcdn.com/bphoto/x2oh5mzvkzvrXjswE_MjXQ/o.jpg", "is_closed": false, "url": "https://www.yelp.com/biz/subu-sushi-burrito-hamburg-3?adjust_creative=hBJOknVQJ58S5goQyjmwRw&utm_campaign=yelp_api_v3&utm_medium=api_v3_business_search&utm_source=hBJOknVQJ58S5goQyjmwRw", "review_count": 3, "categories": [{"alias": "foodtrucks", "title": "Food Trucks"}, {"alias": "sushi", "title": "Sushi Bars"}], "rating": 5.0, "coordinates": {"latitude": 53.5526819869811, "longitude": 10.0010880455375}, "transactions": [], "price": "\u20ac", "location": {"address1": "", "address2": "", "address3": "", "city": "Hamburg", "zip_code": "", "country": "DE", "state": "HH", "display_address": ["Hamburg", "Germany"]}, "phone": "+4917670834316", "display_phone": "+49 176 70834316", "distance": 12342.837238255306}, {"id": "pnsy0L9Tq_pRFPNPx7TGFg", "alias": "kayas-feinkost-oststeinbek", "name": "Kayas Feinkost", "image_url": "", "is_closed": false, "url": "https://www.yelp.com/biz/kayas-feinkost-oststeinbek?adjust_creative=hBJOknVQJ58S5goQyjmwRw&utm_campaign=yelp_api_v3&utm_medium=api_v3_business_search&utm_source=hBJOknVQJ58S5goQyjmwRw", "review_count": 1, "categories": [{"alias": "turkish", "title": "Turkish"}, {"alias": "delicatessen", "title": "Delicatessen"}], "rating": 4.0, "coordinates": {"latitude": 53.5455399, "longitude": 10.1525898}, "transactions": [], "location": {"address1": "im Ostkreuz Center", "address2": "Willinghusener Weg 1", "address3": "", "city": "Oststeinbek", "zip_code": "22113", "country": "DE", "state": "SH", "display_address": ["im Ostkreuz Center", "Willinghusener Weg 1", "22113 Oststeinbek", "Germany"]}, "phone": "", "display_phone": "", "distance": 3590.570209920847}, {"id": "fa8IxUKMS_g7Vb5OZM4nrQ", "alias": "bacchus-hamburg-4", "name": "Bacchus", "image_url": "https://s3-media3.fl.yelpcdn.com/bphoto/-I-BNlVpKhsuJNkmmW-tNA/o.jpg", "is_closed": false, "url": "https://www.yelp.com/biz/bacchus-hamburg-4?adjust_creative=hBJOknVQJ58S5goQyjmwRw&utm_campaign=yelp_api_v3&utm_medium=api_v3_business_search&utm_source=hBJOknVQJ58S5goQyjmwRw", "review_count": 4, "categories": [{"alias": "greek", "title": "Greek"}], "rating": 4.0, "coordinates": {"latitude": 53.50132, "longitude": 10.1976}, "transactions": [], "location": {"address1": "Lohbr\u00fcgger Landstr. 90", "address2": "", "address3": null, "city": "Hamburg", "zip_code": "21031", "country": "DE", "state": "HH", "display_address": ["Lohbr\u00fcgger Landstr. 90", "21031 Hamburg", "Germany"]}, "phone": "+49407398990", "display_phone": "+49 40 7398990", "distance": 2256.471258301306}, {"id": "U8ZdmizPZNi-wSW6nyMr5A", "alias": "croque-und-co-hamburg", "name": "Croque & Co.", "image_url": "https://s3-media4.fl.yelpcdn.com/bphoto/PHAgCtgXFSk8DFOajWt9fw/o.jpg", "is_closed": false, "url": "https://www.yelp.com/biz/croque-und-co-hamburg?adjust_creative=hBJOknVQJ58S5goQyjmwRw&utm_campaign=yelp_api_v3&utm_medium=api_v3_business_search&utm_source=hBJOknVQJ58S5goQyjmwRw", "review_count": 2, "categories": [{"alias": "italian", "title": "Italian"}], "rating": 2.0, "coordinates": {"latitude": 53.5008366509923, "longitude": 10.1987437158823}, "transactions": [], "price": "\u20ac\u20ac", "location": {"address1": "Lohbr\u00fcgger Landstr.80", "address2": "", "address3": "", "city": "Hamburg", "zip_code": "21031", "country": "DE", "state": "HH", "display_address": ["Lohbr\u00fcgger Landstr.80", "21031 Hamburg", "Germany"]}, "phone": "+491115x2230", "display_phone": "+49 1115 ext. 2230", "distance": 2343.8115711487}, {"id": "a4PMQ5JQrr6kiNm88A2zCw", "alias": "restaurant-parga-hamburg", "name": "Restaurant Parga", "image_url": "https://s3-media3.fl.yelpcdn.com/bphoto/zxlO_j6Ie2ctSRBzg6BtNA/o.jpg", "is_closed": false, "url": "https://www.yelp.com/biz/restaurant-parga-hamburg?adjust_creative=hBJOknVQJ58S5goQyjmwRw&utm_campaign=yelp_api_v3&utm_medium=api_v3_business_search&utm_source=hBJOknVQJ58S5goQyjmwRw", "review_count": 12, "categories": [{"alias": "greek", "title": "Greek"}], "rating": 3.5, "coordinates": {"latitude": 53.4975104, "longitude": 10.2040032}, "transactions": [], "price": "\u20ac\u20ac", "location": {"address1": "Lohbr\u00fcgger Landstr.  32", "address2": null, "address3": null, "city": "Hamburg", "zip_code": "21031", "country": "DE", "state": "HH", "display_address": ["Lohbr\u00fcgger Landstr.  32", "21031 Hamburg", "Germany"]}, "phone": "+49407242382", "display_phone": "+49 40 7242382", "distance": 2846.8270415055595}, {"id": "xTsKbMgTYm_2OW3Y_LBAEA", "alias": "hei\u00dfe-theke-oststeinbek", "name": "Hei\u00dfe Theke", "image_url": "https://s3-media2.fl.yelpcdn.com/bphoto/NIDTtyhZCWA2ho_-CeoPtA/o.jpg", "is_closed": false, "url": "https://www.yelp.com/biz/hei%C3%9Fe-theke-oststeinbek?adjust_creative=hBJOknVQJ58S5goQyjmwRw&utm_campaign=yelp_api_v3&utm_medium=api_v3_business_search&utm_source=hBJOknVQJ58S5goQyjmwRw", "review_count": 1, "categories": [{"alias": "hotdogs", "title": "Fast Food"}, {"alias": "breakfast_brunch", "title": "Breakfast & Brunch"}], "rating": 3.0, "coordinates": {"latitude": 53.54554, "longitude": 10.15259}, "transactions": [], "price": "\u20ac", "location": {"address1": "Willinghusener Weg 1", "address2": "", "address3": null, "city": "Oststeinbek", "zip_code": "22113", "country": "DE", "state": "SH", "display_address": ["Willinghusener Weg 1", "22113 Oststeinbek", "Germany"]}, "phone": "+491763915382", "display_phone": "+49 176 3915382", "distance": 3590.570209920847}, {"id": "Ei_xSdhQJn3KWWWJmcP8nA", "alias": "asia-fu-loi-oststeinbek", "name": "Asia Fu Loi", "image_url": "https://s3-media1.fl.yelpcdn.com/bphoto/2TkbbYBj8Mj4Lta5BfNdhA/o.jpg", "is_closed": false, "url": "https://www.yelp.com/biz/asia-fu-loi-oststeinbek?adjust_creative=hBJOknVQJ58S5goQyjmwRw&utm_campaign=yelp_api_v3&utm_medium=api_v3_business_search&utm_source=hBJOknVQJ58S5goQyjmwRw", "review_count": 4, "categories": [{"alias": "panasian", "title": "Pan Asian"}, {"alias": "chinese", "title": "Chinese"}], "rating": 3.5, "coordinates": {"latitude": 53.54554, "longitude": 10.15259}, "transactions": [], "price": "\u20ac", "location": {"address1": "Willinghusener Weg 1", "address2": "", "address3": null, "city": "Oststeinbek", "zip_code": "22113", "country": "DE", "state": "SH", "display_address": ["Willinghusener Weg 1", "22113 Oststeinbek", "Germany"]}, "phone": "+494089708589", "display_phone": "+49 40 89708589", "distance": 3590.570209920847}, {"id": "uFh86dusfDcIqUPZlAPWjA", "alias": "panos-grill-spezialit\u00e4ten-hamburg", "name": "Panos Grill Spezialit\u00e4ten", "image_url": "https://s3-media4.fl.yelpcdn.com/bphoto/R0pc3flO-9MYTnple4DP0Q/o.jpg", "is_closed": false, "url": "https://www.yelp.com/biz/panos-grill-spezialit%C3%A4ten-hamburg?adjust_creative=hBJOknVQJ58S5goQyjmwRw&utm_campaign=yelp_api_v3&utm_medium=api_v3_business_search&utm_source=hBJOknVQJ58S5goQyjmwRw", "review_count": 3, "categories": [{"alias": "hotdogs", "title": "Fast Food"}, {"alias": "greek", "title": "Greek"}], "rating": 2.5, "coordinates": {"latitude": 53.4887605, "longitude": 10.1948387}, "transactions": [], "price": "\u20ac\u20ac", "location": {"address1": "Kurt-A.-K\u00f6rber-Chaussee 53", "address2": null, "address3": null, "city": "Hamburg", "zip_code": "21033", "country": "DE", "state": "HH", "display_address": ["Kurt-A.-K\u00f6rber-Chaussee 53", "21033 Hamburg", "Germany"]}, "phone": "+494072541187", "display_phone": "+49 40 72541187", "distance": 3443.2876587188825}, {"id": "WydBmafvTE05XL8cvXh1tg", "alias": "burger-king-hamburg-20", "name": "Burger King", "image_url": "https://s3-media4.fl.yelpcdn.com/bphoto/V3cb0OD0lYxuwjOswhJ4DA/o.jpg", "is_closed": false, "url": "https://www.yelp.com/biz/burger-king-hamburg-20?adjust_creative=hBJOknVQJ58S5goQyjmwRw&utm_campaign=yelp_api_v3&utm_medium=api_v3_business_search&utm_source=hBJOknVQJ58S5goQyjmwRw", "review_count": 21, "categories": [{"alias": "burgers", "title": "Burgers"}, {"alias": "hotdogs", "title": "Fast Food"}], "rating": 2.5, "coordinates": {"latitude": 53.5139571611171, "longitude": 10.1691299087044}, "transactions": [], "price": "\u20ac\u20ac", "location": {"address1": "Reinbeker Redder 2", "address2": "", "address3": "", "city": "Hamburg", "zip_code": "21031", "country": "DE", "state": "HH", "display_address": ["Reinbeker Redder 2", "21031 Hamburg", "Germany"]}, "phone": "+494041092480", "display_phone": "+49 40 41092480", "distance": 783.3354562413557}, {"id": "e6YCSoi5bMOCZVCmxNeunA", "alias": "kliemanns-croque-glinde", "name": "Kliemann's Croque", "image_url": "https://s3-media2.fl.yelpcdn.com/bphoto/L84qpsAnrgiWRarRT1GQbw/o.jpg", "is_closed": false, "url": "https://www.yelp.com/biz/kliemanns-croque-glinde?adjust_creative=hBJOknVQJ58S5goQyjmwRw&utm_campaign=yelp_api_v3&utm_medium=api_v3_business_search&utm_source=hBJOknVQJ58S5goQyjmwRw", "review_count": 10, "categories": [{"alias": "sandwiches", "title": "Sandwiches"}], "rating": 3.0, "coordinates": {"latitude": 53.5406456609283, "longitude": 10.2012315254397}, "transactions": [], "price": "\u20ac\u20ac\u20ac", "location": {"address1": "M\u00f6llner Landstr. 31", "address2": null, "address3": null, "city": "Glinde", "zip_code": "21509", "country": "DE", "state": "SH", "display_address": ["M\u00f6llner Landstr. 31", "21509 Glinde", "Germany"]}, "phone": "+49407101199", "display_phone": "+49 40 7101199", "distance": 2911.0324757862645}, {"id": "SeodQIjOcsrznD7rwIB-Jw", "alias": "the-big-balmy-hamburg-2", "name": "The Big Balmy", "image_url": "https://s3-media2.fl.yelpcdn.com/bphoto/KWUCQvGDONs_iDxlKXzgvQ/o.jpg", "is_closed": false, "url": "https://www.yelp.com/biz/the-big-balmy-hamburg-2?adjust_creative=hBJOknVQJ58S5goQyjmwRw&utm_campaign=yelp_api_v3&utm_medium=api_v3_business_search&utm_source=hBJOknVQJ58S5goQyjmwRw", "review_count": 27, "categories": [{"alias": "burgers", "title": "Burgers"}, {"alias": "foodtrucks", "title": "Food Trucks"}], "rating": 3.5, "coordinates": {"latitude": 53.537786, "longitude": 10.028218}, "transactions": [], "price": "\u20ac\u20ac", "location": {"address1": "", "address2": null, "address3": null, "city": "Hamburg", "zip_code": "", "country": "DE", "state": "HH", "display_address": ["Hamburg", "Germany"]}, "phone": "+494069278630", "display_phone": "+49 40 69278630", "distance": 10176.611690864707}, {"id": "cFLgL5djHrgc4x8w-5SrRw", "alias": "akropolis-grill-bei-tasso-hamburg", "name": "Akropolis Grill bei Tasso", "image_url": "", "is_closed": false, "url": "https://www.yelp.com/biz/akropolis-grill-bei-tasso-hamburg?adjust_creative=hBJOknVQJ58S5goQyjmwRw&utm_campaign=yelp_api_v3&utm_medium=api_v3_business_search&utm_source=hBJOknVQJ58S5goQyjmwRw", "review_count": 1, "categories": [{"alias": "greek", "title": "Greek"}], "rating": 3.0, "coordinates": {"latitude": 53.4867, "longitude": 10.1799}, "transactions": [], "price": "\u20ac", "location": {"address1": "Edith-Stein-Platz 3", "address2": null, "address3": null, "city": "Hamburg", "zip_code": "21035", "country": "DE", "state": "HH", "display_address": ["Edith-Stein-Platz 3", "21035 Hamburg", "Germany"]}, "phone": "+49407353281", "display_phone": "+49 40 7353281", "distance": 3501.8646781584252}, {"id": "cGIKCcR0wZszz8VldC2-7g", "alias": "currywerk-hamburg", "name": "curryWERK", "image_url": "https://s3-media4.fl.yelpcdn.com/bphoto/j_ZPQAB6JrAru84VDuLiRA/o.jpg", "is_closed": false, "url": "https://www.yelp.com/biz/currywerk-hamburg?adjust_creative=hBJOknVQJ58S5goQyjmwRw&utm_campaign=yelp_api_v3&utm_medium=api_v3_business_search&utm_source=hBJOknVQJ58S5goQyjmwRw", "review_count": 1, "categories": [{"alias": "foodtrucks", "title": "Food Trucks"}, {"alias": "currysausage", "title": "Curry Sausage"}], "rating": 4.0, "coordinates": {"latitude": 53.5498886108398, "longitude": 9.94732189178467}, "transactions": [], "price": "\u20ac\u20ac", "location": {"address1": "", "address2": "", "address3": "", "city": "Hamburg", "zip_code": "22767", "country": "DE", "state": "HH", "display_address": ["22767 Hamburg", "Germany"]}, "phone": "+4917632443433", "display_phone": "+49 176 32443433", "distance": 15966.366083323695}]