[{"id": "uwN7W2qQoeTgwR2RtbzE3Q", "alias": "kuhberg-hamburg-2", "name": "Kuhberg", "image_url": "https://s3-media1.fl.yelpcdn.com/bphoto/ocOTFIWwUY2xlqhKaeXctw/o.jpg", "is_closed": false, "url": "https://www.yelp.com/biz/kuhberg-hamburg-2?adjust_creative=hBJOknVQJ58S5goQyjmwRw&utm_campaign=yelp_api_v3&utm_medium=api_v3_business_search&utm_source=hBJOknVQJ58S5goQyjmwRw", "review_count": 7, "categories": [{"alias": "international", "title": "International"}], "rating": 5.0, "coordinates": {"latitude": 53.4879359, "longitude": 10.2114569}, "transactions": [], "price": "\u20ac\u20ac", "location": {"address1": "Wiebekingweg 2a", "address2": null, "address3": null, "city": "Hamburg", "zip_code": "21029", "country": "DE", "state": "HH", "display_address": ["Wiebekingweg 2a", "21029 Hamburg", "Germany"]}, "phone": "+494072698006", "display_phone": "+49 40 72698006", "distance": 3334.6666900135706}, {"id": "aAKi6ncepOps5ayCZfZM8A", "alias": "casareccio-hamburg", "name": "Casareccio", "image_url": "https://s3-media2.fl.yelpcdn.com/bphoto/voClR3mHAFWPNNUol_xMqA/o.jpg", "is_closed": false, "url": "https://www.yelp.com/biz/casareccio-hamburg?adjust_creative=hBJOknVQJ58S5goQyjmwRw&utm_campaign=yelp_api_v3&utm_medium=api_v3_business_search&utm_source=hBJOknVQJ58S5goQyjmwRw", "review_count": 13, "categories": [{"alias": "italian", "title": "Italian"}], "rating": 4.5, "coordinates": {"latitude": 53.4955781280715, "longitude": 10.2065417837382}, "transactions": [], "price": "\u20ac\u20ac", "location": {"address1": "Lohbr\u00fcgger Markt 1", "address2": "", "address3": "", "city": "Hamburg", "zip_code": "21031", "country": "DE", "state": "HH", "display_address": ["Lohbr\u00fcgger Markt 1", "21031 Hamburg", "Germany"]}, "phone": "+494033986569", "display_phone": "+49 40 33986569", "distance": 2484.4958593583115}, {"id": "eB5ZgXwqX4OjH3PjvcVqqw", "alias": "trattoria-olivo-hamburg", "name": "Trattoria Olivo", "image_url": "https://s3-media3.fl.yelpcdn.com/bphoto/azb16-pwIH6-s5zGK2CfIg/o.jpg", "is_closed": false, "url": "https://www.yelp.com/biz/trattoria-olivo-hamburg?adjust_creative=hBJOknVQJ58S5goQyjmwRw&utm_campaign=yelp_api_v3&utm_medium=api_v3_business_search&utm_source=hBJOknVQJ58S5goQyjmwRw", "review_count": 12, "categories": [{"alias": "italian", "title": "Italian"}], "rating": 4.5, "coordinates": {"latitude": 53.48585, "longitude": 10.2173}, "transactions": [], "price": "\u20ac\u20ac", "location": {"address1": "Am Brink 10", "address2": "", "address3": "", "city": "Hamburg", "zip_code": "21029", "country": "DE", "state": "HH", "display_address": ["Am Brink 10", "21029 Hamburg", "Germany"]}, "phone": "+494072106745", "display_phone": "+49 40 72106745", "distance": 3603.586029057333}, {"id": "-y32zu4-y6NOWlPed6dNIQ", "alias": "forsthaus-bergedorf-hamburg", "name": "Forsthaus Bergedorf", "image_url": "https://s3-media3.fl.yelpcdn.com/bphoto/Im-8jxv5Afs-3THncFXKug/o.jpg", "is_closed": false, "url": "https://www.yelp.com/biz/forsthaus-bergedorf-hamburg?adjust_creative=hBJOknVQJ58S5goQyjmwRw&utm_campaign=yelp_api_v3&utm_medium=api_v3_business_search&utm_source=hBJOknVQJ58S5goQyjmwRw", "review_count": 13, "categories": [{"alias": "northerngerman", "title": "Northern German"}], "rating": 4.0, "coordinates": {"latitude": 53.4924, "longitude": 10.2267}, "transactions": [], "price": "\u20ac\u20ac\u20ac", "location": {"address1": "Reinbeker Weg 77", "address2": null, "address3": null, "city": "Hamburg", "zip_code": "21029", "country": "DE", "state": "HH", "display_address": ["Reinbeker Weg 77", "21029 Hamburg", "Germany"]}, "phone": "+49407258890", "display_phone": "+49 40 7258890", "distance": 3071.7370921831066}, {"id": "VL0pEEHT9ogmfMwXwD-5zw", "alias": "achilleon-hamburg", "name": "Achilleon", "image_url": "https://s3-media3.fl.yelpcdn.com/bphoto/DS-m2w61hweUbTPfi9EdrA/o.jpg", "is_closed": false, "url": "https://www.yelp.com/biz/achilleon-hamburg?adjust_creative=hBJOknVQJ58S5goQyjmwRw&utm_campaign=yelp_api_v3&utm_medium=api_v3_business_search&utm_source=hBJOknVQJ58S5goQyjmwRw", "review_count": 30, "categories": [{"alias": "greek", "title": "Greek"}], "rating": 4.5, "coordinates": {"latitude": 53.489276, "longitude": 10.2260726}, "transactions": [], "price": "\u20ac\u20ac", "location": {"address1": "Holtenklinker Str. 74", "address2": "", "address3": null, "city": "Hamburg", "zip_code": "21029", "country": "DE", "state": "HH", "display_address": ["Holtenklinker Str. 74", "21029 Hamburg", "Germany"]}, "phone": "+494072693667", "display_phone": "+49 40 72693667", "distance": 3380.564085230386}, {"id": "5N_GFt0eu3sCXEbvuWF_xA", "alias": "fusion-hamburg-2", "name": "Fusion", "image_url": "https://s3-media4.fl.yelpcdn.com/bphoto/hVwUIu99nh1H2LrCTk-e7g/o.jpg", "is_closed": false, "url": "https://www.yelp.com/biz/fusion-hamburg-2?adjust_creative=hBJOknVQJ58S5goQyjmwRw&utm_campaign=yelp_api_v3&utm_medium=api_v3_business_search&utm_source=hBJOknVQJ58S5goQyjmwRw", "review_count": 16, "categories": [{"alias": "steak", "title": "Steakhouses"}], "rating": 4.5, "coordinates": {"latitude": 53.50163, "longitude": 10.20584}, "transactions": [], "price": "\u20ac\u20ac", "location": {"address1": "Leuschnerstr. 72", "address2": "", "address3": "", "city": "Hamburg", "zip_code": "21031", "country": "DE", "state": "HH", "display_address": ["Leuschnerstr. 72", "21031 Hamburg", "Germany"]}, "phone": "+494038633711", "display_phone": "+49 40 38633711", "distance": 1816.578763952804}, {"id": "QmjFGY9B_GncEmCnrzLhNQ", "alias": "the-burger-lab-hamburg-2", "name": "The Burger Lab", "image_url": "https://s3-media3.fl.yelpcdn.com/bphoto/bu7B2fAQiHP3j0qNR2OqVg/o.jpg", "is_closed": false, "url": "https://www.yelp.com/biz/the-burger-lab-hamburg-2?adjust_creative=hBJOknVQJ58S5goQyjmwRw&utm_campaign=yelp_api_v3&utm_medium=api_v3_business_search&utm_source=hBJOknVQJ58S5goQyjmwRw", "review_count": 10, "categories": [{"alias": "burgers", "title": "Burgers"}], "rating": 4.5, "coordinates": {"latitude": 53.4906929842145, "longitude": 10.2109466396525}, "transactions": [], "price": "\u20ac\u20ac", "location": {"address1": "Ernst-Mantius-Str. 10", "address2": "", "address3": null, "city": "Hamburg", "zip_code": "21029", "country": "DE", "state": "HH", "display_address": ["Ernst-Mantius-Str. 10", "21029 Hamburg", "Germany"]}, "phone": "+494072378210", "display_phone": "+49 40 72378210", "distance": 3026.7785432634346}, {"id": "Lz0Ub6tuzImPgQJZCLv8qA", "alias": "pamukkale-grill-und-backshop-hamburg", "name": "Pamukkale Grill & Backshop", "image_url": "https://s3-media3.fl.yelpcdn.com/bphoto/wosuymQ8MYSdQR0IoqmTfw/o.jpg", "is_closed": false, "url": "https://www.yelp.com/biz/pamukkale-grill-und-backshop-hamburg?adjust_creative=hBJOknVQJ58S5goQyjmwRw&utm_campaign=yelp_api_v3&utm_medium=api_v3_business_search&utm_source=hBJOknVQJ58S5goQyjmwRw", "review_count": 16, "categories": [{"alias": "kebab", "title": "Kebab"}, {"alias": "backshop", "title": "Backshop"}], "rating": 4.5, "coordinates": {"latitude": 53.48945, "longitude": 10.20707}, "transactions": [], "price": "\u20ac", "location": {"address1": "Weidenbaumsweg 14", "address2": "", "address3": "S-Bahnhof Bergedorf, Ausgang Johann-Meyer Stra\u00dfe", "city": "Hamburg", "zip_code": "21029", "country": "DE", "state": "HH", "display_address": ["Weidenbaumsweg 14", "S-Bahnhof Bergedorf, Ausgang Johann-Meyer Stra\u00dfe", "21029 Hamburg", "Germany"]}, "phone": "", "display_phone": "", "distance": 3225.864261293948}, {"id": "iDbFa_QS9dWsxaVWCZjy8Q", "alias": "santa-lucia-hamburg-2", "name": "Santa Lucia", "image_url": "https://s3-media1.fl.yelpcdn.com/bphoto/eSlgAEYc9SSgS5aL19TvgQ/o.jpg", "is_closed": false, "url": "https://www.yelp.com/biz/santa-lucia-hamburg-2?adjust_creative=hBJOknVQJ58S5goQyjmwRw&utm_campaign=yelp_api_v3&utm_medium=api_v3_business_search&utm_source=hBJOknVQJ58S5goQyjmwRw", "review_count": 6, "categories": [{"alias": "italian", "title": "Italian"}, {"alias": "pizza", "title": "Pizza"}], "rating": 4.0, "coordinates": {"latitude": 53.487704, "longitude": 10.214498}, "transactions": [], "price": "\u20ac\u20ac", "location": {"address1": "Bergedorfer Schlo\u00dfstr. 12", "address2": null, "address3": null, "city": "Hamburg", "zip_code": "21029", "country": "DE", "state": "HH", "display_address": ["Bergedorfer Schlo\u00dfstr. 12", "21029 Hamburg", "Germany"]}, "phone": "+494079419349", "display_phone": "+49 40 79419349", "distance": 3377.0461273024384}, {"id": "_2qYJYNRbeHNqB6W6ALWxg", "alias": "lola-bar-hamburg", "name": "Lola Bar", "image_url": "https://s3-media2.fl.yelpcdn.com/bphoto/N58CKa2IAME-PKNivAAhDQ/o.jpg", "is_closed": false, "url": "https://www.yelp.com/biz/lola-bar-hamburg?adjust_creative=hBJOknVQJ58S5goQyjmwRw&utm_campaign=yelp_api_v3&utm_medium=api_v3_business_search&utm_source=hBJOknVQJ58S5goQyjmwRw", "review_count": 4, "categories": [{"alias": "bars", "title": "Bars"}, {"alias": "modern_european", "title": "Modern European"}], "rating": 4.5, "coordinates": {"latitude": 53.49544, "longitude": 10.20572}, "transactions": [], "price": "\u20ac\u20ac", "location": {"address1": "Lohbr\u00fcgger Landstr. 8", "address2": null, "address3": null, "city": "Hamburg", "zip_code": "21031", "country": "DE", "state": "HH", "display_address": ["Lohbr\u00fcgger Landstr. 8", "21031 Hamburg", "Germany"]}, "phone": "+49407249663", "display_phone": "+49 40 7249663", "distance": 2507.876046700181}, {"id": "nPPmY-N0ALc-bfAz7huaQg", "alias": "huang-hamburg-5", "name": "Huang", "image_url": "https://s3-media2.fl.yelpcdn.com/bphoto/sPMm3R_AN9zYu7K7ptfoeQ/o.jpg", "is_closed": false, "url": "https://www.yelp.com/biz/huang-hamburg-5?adjust_creative=hBJOknVQJ58S5goQyjmwRw&utm_campaign=yelp_api_v3&utm_medium=api_v3_business_search&utm_source=hBJOknVQJ58S5goQyjmwRw", "review_count": 15, "categories": [{"alias": "chinese", "title": "Chinese"}, {"alias": "panasian", "title": "Pan Asian"}], "rating": 4.0, "coordinates": {"latitude": 53.491429, "longitude": 10.207438}, "transactions": [], "price": "\u20ac", "location": {"address1": "Alte Holstenstr. 42", "address2": "", "address3": "", "city": "Hamburg", "zip_code": "21031", "country": "DE", "state": "HH", "display_address": ["Alte Holstenstr. 42", "21031 Hamburg", "Germany"]}, "phone": "+494032513477", "display_phone": "+49 40 32513477", "distance": 2941.2701344484517}, {"id": "PdMnHFRCwzO1PGqvfCpnrg", "alias": "mensa-bergedorf-hamburg", "name": "Mensa Bergedorf", "image_url": "https://s3-media3.fl.yelpcdn.com/bphoto/A_DvNmVuKDG-fakHiga7pA/o.jpg", "is_closed": false, "url": "https://www.yelp.com/biz/mensa-bergedorf-hamburg?adjust_creative=hBJOknVQJ58S5goQyjmwRw&utm_campaign=yelp_api_v3&utm_medium=api_v3_business_search&utm_source=hBJOknVQJ58S5goQyjmwRw", "review_count": 3, "categories": [{"alias": "canteen", "title": "Canteen"}], "rating": 5.0, "coordinates": {"latitude": 53.493, "longitude": 10.1984}, "transactions": [], "location": {"address1": "Ulmenliet 20", "address2": null, "address3": null, "city": "Hamburg", "zip_code": "21033", "country": "DE", "state": "HH", "display_address": ["Ulmenliet 20", "21033 Hamburg", "Germany"]}, "phone": "+49407217633", "display_phone": "+49 40 7217633", "distance": 2850.4739832529217}, {"id": "Zz4ls--O20WxfSrE-Mardg", "alias": "sushi-und-asia-lounge-hamburg-2", "name": "Sushi & Asia Lounge", "image_url": "https://s3-media3.fl.yelpcdn.com/bphoto/8F0iJS0GH_Mm4E1G8XrRCA/o.jpg", "is_closed": false, "url": "https://www.yelp.com/biz/sushi-und-asia-lounge-hamburg-2?adjust_creative=hBJOknVQJ58S5goQyjmwRw&utm_campaign=yelp_api_v3&utm_medium=api_v3_business_search&utm_source=hBJOknVQJ58S5goQyjmwRw", "review_count": 14, "categories": [{"alias": "sushi", "title": "Sushi Bars"}, {"alias": "fooddeliveryservices", "title": "Food Delivery Services"}, {"alias": "panasian", "title": "Pan Asian"}], "rating": 4.0, "coordinates": {"latitude": 53.4859099, "longitude": 10.21034}, "transactions": [], "price": "\u20ac\u20ac", "location": {"address1": "Vierlandenstr. 31", "address2": "", "address3": "", "city": "Hamburg", "zip_code": "21029", "country": "DE", "state": "HH", "display_address": ["Vierlandenstr. 31", "21029 Hamburg", "Germany"]}, "phone": "+494032036711", "display_phone": "+49 40 32036711", "distance": 3557.028677949072}, {"id": "zonrbXJvqBtw1CA_5YMJRQ", "alias": "locanda-riva-hamburg-4", "name": "Locanda Riva", "image_url": "https://s3-media1.fl.yelpcdn.com/bphoto/tUbPNJc59zHLy3dPyExe4Q/o.jpg", "is_closed": false, "url": "https://www.yelp.com/biz/locanda-riva-hamburg-4?adjust_creative=hBJOknVQJ58S5goQyjmwRw&utm_campaign=yelp_api_v3&utm_medium=api_v3_business_search&utm_source=hBJOknVQJ58S5goQyjmwRw", "review_count": 9, "categories": [{"alias": "mediterranean", "title": "Mediterranean"}, {"alias": "italian", "title": "Italian"}], "rating": 4.0, "coordinates": {"latitude": 53.49331, "longitude": 10.21416}, "transactions": [], "price": "\u20ac\u20ac\u20ac", "location": {"address1": "Schillerufer 41", "address2": "", "address3": "", "city": "Hamburg", "zip_code": "21029", "country": "DE", "state": "HH", "display_address": ["Schillerufer 41", "21029 Hamburg", "Germany"]}, "phone": "+494075111933", "display_phone": "+49 40 75111933", "distance": 2755.5297260005095}, {"id": "-ihNFjY9pJ247MVW51LvEQ", "alias": "sushi-f\u00fcr-hamburg-hamburg", "name": "Sushi f\u00fcr Hamburg", "image_url": "https://s3-media2.fl.yelpcdn.com/bphoto/TIW2Y3kO9P52-2lQFrCqtA/o.jpg", "is_closed": false, "url": "https://www.yelp.com/biz/sushi-f%C3%BCr-hamburg-hamburg?adjust_creative=hBJOknVQJ58S5goQyjmwRw&utm_campaign=yelp_api_v3&utm_medium=api_v3_business_search&utm_source=hBJOknVQJ58S5goQyjmwRw", "review_count": 5, "categories": [{"alias": "sushi", "title": "Sushi Bars"}, {"alias": "buffets", "title": "Buffets"}], "rating": 4.5, "coordinates": {"latitude": 53.48534, "longitude": 10.19983}, "transactions": [], "price": "\u20ac\u20ac", "location": {"address1": "Am G\u00fcterbahnhof 8", "address2": "", "address3": "", "city": "Hamburg", "zip_code": "21035", "country": "DE", "state": "HH", "display_address": ["Am G\u00fcterbahnhof 8", "21035 Hamburg", "Germany"]}, "phone": "+494072545474", "display_phone": "+49 40 72545474", "distance": 3666.0348313232603}, {"id": "Zv1LeZIpUf-fgVDZnfsTyg", "alias": "vapiano-hamburg-11", "name": "Vapiano", "image_url": "https://s3-media2.fl.yelpcdn.com/bphoto/yjG-y_zly9_YaRjRwLAHOw/o.jpg", "is_closed": false, "url": "https://www.yelp.com/biz/vapiano-hamburg-11?adjust_creative=hBJOknVQJ58S5goQyjmwRw&utm_campaign=yelp_api_v3&utm_medium=api_v3_business_search&utm_source=hBJOknVQJ58S5goQyjmwRw", "review_count": 5, "categories": [{"alias": "italian", "title": "Italian"}], "rating": 3.0, "coordinates": {"latitude": 53.4865151843347, "longitude": 10.213736811045}, "transactions": [], "price": "\u20ac\u20ac", "location": {"address1": "Bergedorfer Str. 131 - 135", "address2": "", "address3": null, "city": "Hamburg", "zip_code": "21029", "country": "DE", "state": "HH", "display_address": ["Bergedorfer Str. 131 - 135", "21029 Hamburg", "Germany"]}, "phone": "+4940609436970", "display_phone": "+49 40 609436970", "distance": 3503.350305888494}, {"id": "GK_fTWOJbRbQO30X1t58-A", "alias": "mahal-express-hamburg", "name": "Mahal Express", "image_url": "https://s3-media1.fl.yelpcdn.com/bphoto/5UNNy-7w_EtgWaXytdiYBw/o.jpg", "is_closed": false, "url": "https://www.yelp.com/biz/mahal-express-hamburg?adjust_creative=hBJOknVQJ58S5goQyjmwRw&utm_campaign=yelp_api_v3&utm_medium=api_v3_business_search&utm_source=hBJOknVQJ58S5goQyjmwRw", "review_count": 3, "categories": [{"alias": "indpak", "title": "Indian"}], "rating": 4.0, "coordinates": {"latitude": 53.4881883959455, "longitude": 10.2086662854583}, "transactions": [], "location": {"address1": "Weidenbaumsweg 21", "address2": "", "address3": "", "city": "Hamburg", "zip_code": "21029", "country": "DE", "state": "HH", "display_address": ["Weidenbaumsweg 21", "21029 Hamburg", "Germany"]}, "phone": "", "display_phone": "", "distance": 3301.8445549680996}, {"id": "ro0WL2LKDt9QzdE4QnuzoQ", "alias": "taverna-nostos-hamburg", "name": "Taverna Nostos", "image_url": "https://s3-media3.fl.yelpcdn.com/bphoto/txGbzBwUSbZ_yt_WEgWYFA/o.jpg", "is_closed": false, "url": "https://www.yelp.com/biz/taverna-nostos-hamburg?adjust_creative=hBJOknVQJ58S5goQyjmwRw&utm_campaign=yelp_api_v3&utm_medium=api_v3_business_search&utm_source=hBJOknVQJ58S5goQyjmwRw", "review_count": 12, "categories": [{"alias": "greek", "title": "Greek"}], "rating": 4.0, "coordinates": {"latitude": 53.4947, "longitude": 10.2062}, "transactions": [], "price": "\u20ac\u20ac", "location": {"address1": "Lohbr\u00fcgger Landstr. 1", "address2": null, "address3": null, "city": "Hamburg", "zip_code": "21031", "country": "DE", "state": "HH", "display_address": ["Lohbr\u00fcgger Landstr. 1", "21031 Hamburg", "Germany"]}, "phone": "+494072004128", "display_phone": "+49 40 72004128", "distance": 2583.3606009407436}, {"id": "KaiHkk0dt2F3_zea9RbbMA", "alias": "san-lorenzo-ristorante-caff\u00e9-in-der-villa-bode-glinde", "name": "San Lorenzo Ristorante Caff\u00e9 in der Villa Bode", "image_url": "https://s3-media2.fl.yelpcdn.com/bphoto/s33hPN5pmiMmjz1U04z7eA/o.jpg", "is_closed": false, "url": "https://www.yelp.com/biz/san-lorenzo-ristorante-caff%C3%A9-in-der-villa-bode-glinde?adjust_creative=hBJOknVQJ58S5goQyjmwRw&utm_campaign=yelp_api_v3&utm_medium=api_v3_business_search&utm_source=hBJOknVQJ58S5goQyjmwRw", "review_count": 44, "categories": [{"alias": "italian", "title": "Italian"}], "rating": 4.5, "coordinates": {"latitude": 53.5488, "longitude": 10.2118}, "transactions": [], "price": "\u20ac\u20ac\u20ac", "location": {"address1": "Kupferm\u00fchlenweg 2", "address2": null, "address3": null, "city": "Glinde", "zip_code": "21509", "country": "DE", "state": "SH", "display_address": ["Kupferm\u00fchlenweg 2", "21509 Glinde", "Germany"]}, "phone": "+49407112424", "display_phone": "+49 40 7112424", "distance": 3443.7001614889173}, {"id": "JfKWYXLZiYXl_51QhxdYaQ", "alias": "restaurant-bergedorfer-h\u00f6he-hamburg", "name": "Restaurant Bergedorfer H\u00f6he", "image_url": "https://s3-media1.fl.yelpcdn.com/bphoto/Yvbz2pxUkaT06u9zlRO1QA/o.jpg", "is_closed": false, "url": "https://www.yelp.com/biz/restaurant-bergedorfer-h%C3%B6he-hamburg?adjust_creative=hBJOknVQJ58S5goQyjmwRw&utm_campaign=yelp_api_v3&utm_medium=api_v3_business_search&utm_source=hBJOknVQJ58S5goQyjmwRw", "review_count": 2, "categories": [{"alias": "german", "title": "German"}], "rating": 4.5, "coordinates": {"latitude": 53.4922, "longitude": 10.2244}, "transactions": [], "price": "\u20ac\u20ac", "location": {"address1": "Reinbeker Weg 59", "address2": null, "address3": null, "city": "Hamburg", "zip_code": "21029", "country": "DE", "state": "HH", "display_address": ["Reinbeker Weg 59", "21029 Hamburg", "Germany"]}, "phone": "+494072004400", "display_phone": "+49 40 72004400", "distance": 3037.174237333165}, {"id": "8RTFCEVFVel7jHWdyzyS7g", "alias": "ha-dang-dung-hamburg", "name": "Ha Dang Dung", "image_url": "https://s3-media3.fl.yelpcdn.com/bphoto/Badnhs7BNcNC3eSVURl_2A/o.jpg", "is_closed": false, "url": "https://www.yelp.com/biz/ha-dang-dung-hamburg?adjust_creative=hBJOknVQJ58S5goQyjmwRw&utm_campaign=yelp_api_v3&utm_medium=api_v3_business_search&utm_source=hBJOknVQJ58S5goQyjmwRw", "review_count": 1, "categories": [{"alias": "vietnamese", "title": "Vietnamese"}], "rating": 4.0, "coordinates": {"latitude": 53.486007, "longitude": 10.214888}, "transactions": [], "location": {"address1": "Bergedorfer Str 152", "address2": "", "address3": null, "city": "Hamburg", "zip_code": "21029", "country": "DE", "state": "HH", "display_address": ["Bergedorfer Str 152", "21029 Hamburg", "Germany"]}, "phone": "+494072105999", "display_phone": "+49 40 72105999", "distance": 3567.450170741947}, {"id": "F72nVfcfUXIn2CzO9uLBaw", "alias": "marktst\u00fcbchen-glinde", "name": "Marktst\u00fcbchen", "image_url": "", "is_closed": false, "url": "https://www.yelp.com/biz/marktst%C3%BCbchen-glinde?adjust_creative=hBJOknVQJ58S5goQyjmwRw&utm_campaign=yelp_api_v3&utm_medium=api_v3_business_search&utm_source=hBJOknVQJ58S5goQyjmwRw", "review_count": 2, "categories": [{"alias": "restaurants", "title": "Restaurants"}], "rating": 4.5, "coordinates": {"latitude": 53.54015, "longitude": 10.21285}, "transactions": [], "price": "\u20ac\u20ac", "location": {"address1": "Avenue St. Sebastien 8", "address2": null, "address3": null, "city": "Glinde", "zip_code": "21509", "country": "DE", "state": "SH", "display_address": ["Avenue St. Sebastien 8", "21509 Glinde", "Germany"]}, "phone": "+494071009988", "display_phone": "+49 40 71009988", "distance": 2490.693389284147}, {"id": "uvR7nZx1CY5pKQIM48ZZGA", "alias": "restaurant-alt-lohbr\u00fcgger-hof-hamburg", "name": "Restaurant Alt Lohbr\u00fcgger Hof", "image_url": "https://s3-media4.fl.yelpcdn.com/bphoto/Z_xhXthXpDjX4cWGx3JJsw/o.jpg", "is_closed": false, "url": "https://www.yelp.com/biz/restaurant-alt-lohbr%C3%BCgger-hof-hamburg?adjust_creative=hBJOknVQJ58S5goQyjmwRw&utm_campaign=yelp_api_v3&utm_medium=api_v3_business_search&utm_source=hBJOknVQJ58S5goQyjmwRw", "review_count": 10, "categories": [{"alias": "german", "title": "German"}], "rating": 3.5, "coordinates": {"latitude": 53.502, "longitude": 10.2054}, "transactions": [], "price": "\u20ac\u20ac\u20ac", "location": {"address1": "Leuschnerstr. 76", "address2": null, "address3": null, "city": "Hamburg", "zip_code": "21031", "country": "DE", "state": "HH", "display_address": ["Leuschnerstr. 76", "21031 Hamburg", "Germany"]}, "phone": "+49407396000", "display_phone": "+49 40 7396000", "distance": 1780.029761941514}, {"id": "VYiOF0mjK_FuOVMWxSs-Ag", "alias": "fidelio-hamburg-2", "name": "Fidelio", "image_url": "https://s3-media2.fl.yelpcdn.com/bphoto/pKzIFFExzuRnpFGPCDJrUQ/o.jpg", "is_closed": false, "url": "https://www.yelp.com/biz/fidelio-hamburg-2?adjust_creative=hBJOknVQJ58S5goQyjmwRw&utm_campaign=yelp_api_v3&utm_medium=api_v3_business_search&utm_source=hBJOknVQJ58S5goQyjmwRw", "review_count": 29, "categories": [{"alias": "international", "title": "International"}], "rating": 3.5, "coordinates": {"latitude": 53.488404, "longitude": 10.2135165}, "transactions": [], "price": "\u20ac\u20ac", "location": {"address1": "Bergedorfer Schlo\u00dfstr. 15", "address2": "", "address3": "", "city": "Hamburg", "zip_code": "21029", "country": "DE", "state": "HH", "display_address": ["Bergedorfer Schlo\u00dfstr. 15", "21029 Hamburg", "Germany"]}, "phone": "+494072008855", "display_phone": "+49 40 72008855", "distance": 3292.886726296964}, {"id": "nPQLEHdNcxG1ggK21Jg0og", "alias": "curryph\u00e4e-reinbek", "name": "Curryph\u00e4e", "image_url": "https://s3-media4.fl.yelpcdn.com/bphoto/c9l03AUzyV9TFWLLJBjNMA/o.jpg", "is_closed": false, "url": "https://www.yelp.com/biz/curryph%C3%A4e-reinbek?adjust_creative=hBJOknVQJ58S5goQyjmwRw&utm_campaign=yelp_api_v3&utm_medium=api_v3_business_search&utm_source=hBJOknVQJ58S5goQyjmwRw", "review_count": 4, "categories": [{"alias": "foodstands", "title": "Food Stands"}, {"alias": "bbq", "title": "Barbeque"}], "rating": 5.0, "coordinates": {"latitude": 53.52179, "longitude": 10.2319}, "transactions": [], "price": "\u20ac", "location": {"address1": "Liebigstr. 2", "address2": "", "address3": "", "city": "Reinbek", "zip_code": "21465", "country": "DE", "state": "SH", "display_address": ["Liebigstr. 2", "21465 Reinbek", "Germany"]}, "phone": "+494027824762", "display_phone": "+49 40 27824762", "distance": 1534.6741036101605}, {"id": "hG3SYB9Q99Y9Y1nN7UqblQ", "alias": "caf\u00e9-chrysander-hamburg", "name": "Caf\u00e9 Chrysander", "image_url": "https://s3-media4.fl.yelpcdn.com/bphoto/noJgmaj6eeFrqPgtEZd5wg/o.jpg", "is_closed": false, "url": "https://www.yelp.com/biz/caf%C3%A9-chrysander-hamburg?adjust_creative=hBJOknVQJ58S5goQyjmwRw&utm_campaign=yelp_api_v3&utm_medium=api_v3_business_search&utm_source=hBJOknVQJ58S5goQyjmwRw", "review_count": 2, "categories": [{"alias": "cafes", "title": "Cafes"}], "rating": 4.5, "coordinates": {"latitude": 53.4895058007076, "longitude": 10.2154295946289}, "transactions": [], "price": "\u20ac", "location": {"address1": "Chrysanderstr. 61", "address2": "", "address3": null, "city": "Hamburg", "zip_code": "21029", "country": "DE", "state": "HH", "display_address": ["Chrysanderstr. 61", "21029 Hamburg", "Germany"]}, "phone": "+494038073657", "display_phone": "+49 40 38073657", "distance": 3185.9768633809254}, {"id": "zSJs6UlQpjoeyYtP0KmIXw", "alias": "sushibar-bergedorf-hamburg", "name": "sushibar bergedorf", "image_url": "https://s3-media4.fl.yelpcdn.com/bphoto/C8iFPvFJzRKix6tiM3SnOg/o.jpg", "is_closed": false, "url": "https://www.yelp.com/biz/sushibar-bergedorf-hamburg?adjust_creative=hBJOknVQJ58S5goQyjmwRw&utm_campaign=yelp_api_v3&utm_medium=api_v3_business_search&utm_source=hBJOknVQJ58S5goQyjmwRw", "review_count": 53, "categories": [{"alias": "sushi", "title": "Sushi Bars"}], "rating": 4.0, "coordinates": {"latitude": 53.48635, "longitude": 10.21301}, "transactions": [], "price": "\u20ac\u20ac", "location": {"address1": "Bergedorfer Str. 138", "address2": null, "address3": null, "city": "Hamburg", "zip_code": "21029", "country": "DE", "state": "HH", "display_address": ["Bergedorfer Str. 138", "21029 Hamburg", "Germany"]}, "phone": "+494018073686", "display_phone": "+49 40 18073686", "distance": 3531.129939392027}, {"id": "mOPs94-ltSa41cqVn9hGIQ", "alias": "seemannsgarn-hamburg", "name": "Seemannsgarn", "image_url": "https://s3-media4.fl.yelpcdn.com/bphoto/8EiltmETvlISJppweu-R7g/o.jpg", "is_closed": false, "url": "https://www.yelp.com/biz/seemannsgarn-hamburg?adjust_creative=hBJOknVQJ58S5goQyjmwRw&utm_campaign=yelp_api_v3&utm_medium=api_v3_business_search&utm_source=hBJOknVQJ58S5goQyjmwRw", "review_count": 1, "categories": [{"alias": "cafes", "title": "Cafes"}, {"alias": "knittingsupplies", "title": "Knitting Supplies"}], "rating": 5.0, "coordinates": {"latitude": 53.49048, "longitude": 10.20915}, "transactions": [], "price": "\u20ac\u20ac", "location": {"address1": "Reetwerder 2", "address2": "", "address3": "", "city": "Hamburg", "zip_code": "21029", "country": "DE", "state": "HH", "display_address": ["Reetwerder 2", "21029 Hamburg", "Germany"]}, "phone": "+494063910220", "display_phone": "+49 40 63910220", "distance": 3048.23583572192}, {"id": "ssPTSOBjG7hS3h7hcOHsYQ", "alias": "rindocks-hamburg-3", "name": "Rindock's", "image_url": "https://s3-media2.fl.yelpcdn.com/bphoto/maMn7v-b7qsW214K30FKeQ/o.jpg", "is_closed": false, "url": "https://www.yelp.com/biz/rindocks-hamburg-3?adjust_creative=hBJOknVQJ58S5goQyjmwRw&utm_campaign=yelp_api_v3&utm_medium=api_v3_business_search&utm_source=hBJOknVQJ58S5goQyjmwRw", "review_count": 1, "categories": [{"alias": "steak", "title": "Steakhouses"}], "rating": 4.0, "coordinates": {"latitude": 53.50291, "longitude": 10.19312}, "transactions": [], "location": {"address1": "Lohbr\u00fcgger Landstr. 119", "address2": "", "address3": null, "city": "Hamburg", "zip_code": "21031", "country": "DE", "state": "HH", "display_address": ["Lohbr\u00fcgger Landstr. 119", "21031 Hamburg", "Germany"]}, "phone": "+494072106755", "display_phone": "+49 40 72106755", "distance": 1962.742724997842}, {"id": "oPW51OhB-6g_olx51q2kTw", "alias": "meyrs-reinbek", "name": "Meyr's", "image_url": "https://s3-media3.fl.yelpcdn.com/bphoto/H3xPqsHQ6xAIX7iqWRnINQ/o.jpg", "is_closed": false, "url": "https://www.yelp.com/biz/meyrs-reinbek?adjust_creative=hBJOknVQJ58S5goQyjmwRw&utm_campaign=yelp_api_v3&utm_medium=api_v3_business_search&utm_source=hBJOknVQJ58S5goQyjmwRw", "review_count": 5, "categories": [{"alias": "german", "title": "German"}, {"alias": "bistros", "title": "Bistros"}], "rating": 4.5, "coordinates": {"latitude": 53.5152, "longitude": 10.2278}, "transactions": [], "price": "\u20ac\u20ac\u20ac", "location": {"address1": "Glinder Weg 25", "address2": null, "address3": null, "city": "Reinbek", "zip_code": "21465", "country": "DE", "state": "SH", "display_address": ["Glinder Weg 25", "21465 Reinbek", "Germany"]}, "phone": "+494072811257", "display_phone": "+49 40 72811257", "distance": 1293.3116003473024}, {"id": "OKLnmkZ6bYNYDAEjW6U0Cw", "alias": "restaurant-bergers-hamburg", "name": "Restaurant Berger's", "image_url": "https://s3-media2.fl.yelpcdn.com/bphoto/RtOOYs_u28UvzhFIxydQkw/o.jpg", "is_closed": false, "url": "https://www.yelp.com/biz/restaurant-bergers-hamburg?adjust_creative=hBJOknVQJ58S5goQyjmwRw&utm_campaign=yelp_api_v3&utm_medium=api_v3_business_search&utm_source=hBJOknVQJ58S5goQyjmwRw", "review_count": 6, "categories": [{"alias": "mediterranean", "title": "Mediterranean"}], "rating": 4.0, "coordinates": {"latitude": 53.489514, "longitude": 10.209249}, "transactions": [], "price": "\u20ac\u20ac", "location": {"address1": "Serrahnstr. 2", "address2": "", "address3": null, "city": "Hamburg", "zip_code": "21029", "country": "DE", "state": "HH", "display_address": ["Serrahnstr. 2", "21029 Hamburg", "Germany"]}, "phone": "+494085405184", "display_phone": "+49 40 85405184", "distance": 3154.5994535377963}, {"id": "2owx8XU_Kh6NQYkWDCOHfA", "alias": "ristorante-mamma-mia-hamburg-5", "name": "Ristorante Mamma Mia", "image_url": "https://s3-media3.fl.yelpcdn.com/bphoto/64VOXDsDgkuWJbdgQROXFw/o.jpg", "is_closed": false, "url": "https://www.yelp.com/biz/ristorante-mamma-mia-hamburg-5?adjust_creative=hBJOknVQJ58S5goQyjmwRw&utm_campaign=yelp_api_v3&utm_medium=api_v3_business_search&utm_source=hBJOknVQJ58S5goQyjmwRw", "review_count": 2, "categories": [{"alias": "italian", "title": "Italian"}], "rating": 2.5, "coordinates": {"latitude": 53.4852198, "longitude": 10.1994549}, "transactions": [], "price": "\u20ac\u20ac\u20ac", "location": {"address1": "Am G\u00fcterbahnhof 17 e", "address2": "", "address3": "", "city": "Hamburg", "zip_code": "21035", "country": "DE", "state": "HH", "display_address": ["Am G\u00fcterbahnhof 17 e", "21035 Hamburg", "Germany"]}, "phone": "+494072697898", "display_phone": "+49 40 72697898", "distance": 3683.7691730566103}, {"id": "Fr2vBIGYy5vB55SJYItQ9g", "alias": "soulkebab-hamburg-2", "name": "Soulkebab", "image_url": "https://s3-media1.fl.yelpcdn.com/bphoto/cIYMgP0SZ0aEv0TBnXbY9g/o.jpg", "is_closed": false, "url": "https://www.yelp.com/biz/soulkebab-hamburg-2?adjust_creative=hBJOknVQJ58S5goQyjmwRw&utm_campaign=yelp_api_v3&utm_medium=api_v3_business_search&utm_source=hBJOknVQJ58S5goQyjmwRw", "review_count": 4, "categories": [{"alias": "kebab", "title": "Kebab"}, {"alias": "turkish", "title": "Turkish"}], "rating": 4.5, "coordinates": {"latitude": 53.4891396, "longitude": 10.2075195}, "transactions": [], "price": "\u20ac", "location": {"address1": "Weidenbaumsweg 19", "address2": "", "address3": "", "city": "Hamburg", "zip_code": "21029", "country": "DE", "state": "HH", "display_address": ["Weidenbaumsweg 19", "21029 Hamburg", "Germany"]}, "phone": "", "display_phone": "", "distance": 3212.0231873002654}, {"id": "8KfeWOJl-gMUhwRXmWJ1pA", "alias": "bergedorfer-schlo\u00dfcaf\u00e9-hamburg", "name": "Bergedorfer Schlo\u00dfcaf\u00e9", "image_url": "https://s3-media1.fl.yelpcdn.com/bphoto/csKkuOcZ6ERm9_CC0UBafQ/o.jpg", "is_closed": false, "url": "https://www.yelp.com/biz/bergedorfer-schlo%C3%9Fcaf%C3%A9-hamburg?adjust_creative=hBJOknVQJ58S5goQyjmwRw&utm_campaign=yelp_api_v3&utm_medium=api_v3_business_search&utm_source=hBJOknVQJ58S5goQyjmwRw", "review_count": 2, "categories": [{"alias": "cafes", "title": "Cafes"}, {"alias": "breakfast_brunch", "title": "Breakfast & Brunch"}], "rating": 3.5, "coordinates": {"latitude": 53.4896544436104, "longitude": 10.2123371726824}, "transactions": [], "location": {"address1": "Bergedorfer Schlo\u00dfstr. 4", "address2": "", "address3": null, "city": "Hamburg", "zip_code": "21029", "country": "DE", "state": "HH", "display_address": ["Bergedorfer Schlo\u00dfstr. 4", "21029 Hamburg", "Germany"]}, "phone": "+494078011100", "display_phone": "+49 40 78011100", "distance": 3147.694464907298}, {"id": "0_c6d99SgBjPbOBstwaBcA", "alias": "sirtaki-glinde-2", "name": "Sirtaki", "image_url": "https://s3-media4.fl.yelpcdn.com/bphoto/4x3EMcd21rstF1FVmtv5ow/o.jpg", "is_closed": false, "url": "https://www.yelp.com/biz/sirtaki-glinde-2?adjust_creative=hBJOknVQJ58S5goQyjmwRw&utm_campaign=yelp_api_v3&utm_medium=api_v3_business_search&utm_source=hBJOknVQJ58S5goQyjmwRw", "review_count": 19, "categories": [{"alias": "greek", "title": "Greek"}], "rating": 4.5, "coordinates": {"latitude": 53.5411, "longitude": 10.2132}, "transactions": [], "price": "\u20ac\u20ac", "location": {"address1": "Markt 4h", "address2": null, "address3": null, "city": "Glinde", "zip_code": "21509", "country": "DE", "state": "SH", "display_address": ["Markt 4h", "21509 Glinde", "Germany"]}, "phone": "+49407107076", "display_phone": "+49 40 7107076", "distance": 2598.238711803151}, {"id": "f5g2ILmgueS9e83nQ4N77g", "alias": "hhanse-grill-hamburg", "name": "HHanse Grill", "image_url": "https://s3-media3.fl.yelpcdn.com/bphoto/vN7DJ9lHxchQ2eWtCtWHKQ/o.jpg", "is_closed": false, "url": "https://www.yelp.com/biz/hhanse-grill-hamburg?adjust_creative=hBJOknVQJ58S5goQyjmwRw&utm_campaign=yelp_api_v3&utm_medium=api_v3_business_search&utm_source=hBJOknVQJ58S5goQyjmwRw", "review_count": 18, "categories": [{"alias": "hotdogs", "title": "Fast Food"}], "rating": 4.0, "coordinates": {"latitude": 53.48883, "longitude": 10.20283}, "transactions": [], "price": "\u20ac", "location": {"address1": "Kurt-A.-K\u00f6rber-Chaussee 3", "address2": "", "address3": "", "city": "Hamburg", "zip_code": "21033", "country": "DE", "state": "HH", "display_address": ["Kurt-A.-K\u00f6rber-Chaussee 3", "21033 Hamburg", "Germany"]}, "phone": "+494060174990", "display_phone": "+49 40 60174990", "distance": 3259.559473049259}, {"id": "blvC5dh9IP8TFla2vjk7Pg", "alias": "restaurant-opatija-glinde", "name": "Restaurant Opatija", "image_url": "https://s3-media2.fl.yelpcdn.com/bphoto/hCXY0hs-kpBTVffyp8spuA/o.jpg", "is_closed": false, "url": "https://www.yelp.com/biz/restaurant-opatija-glinde?adjust_creative=hBJOknVQJ58S5goQyjmwRw&utm_campaign=yelp_api_v3&utm_medium=api_v3_business_search&utm_source=hBJOknVQJ58S5goQyjmwRw", "review_count": 7, "categories": [{"alias": "international", "title": "International"}], "rating": 4.5, "coordinates": {"latitude": 53.5474, "longitude": 10.2176}, "transactions": [], "price": "\u20ac\u20ac", "location": {"address1": "Am Sportplatz 98", "address2": null, "address3": null, "city": "Glinde", "zip_code": "21509", "country": "DE", "state": "SH", "display_address": ["Am Sportplatz 98", "21509 Glinde", "Germany"]}, "phone": "+49407108388", "display_phone": "+49 40 7108388", "distance": 3333.7081957208443}, {"id": "1mSvHvNrgw8QDONThwxEMQ", "alias": "jim-block-hamburg-9", "name": "Jim Block", "image_url": "https://s3-media3.fl.yelpcdn.com/bphoto/ohfrPAjAgTxff6V9arv1MA/o.jpg", "is_closed": false, "url": "https://www.yelp.com/biz/jim-block-hamburg-9?adjust_creative=hBJOknVQJ58S5goQyjmwRw&utm_campaign=yelp_api_v3&utm_medium=api_v3_business_search&utm_source=hBJOknVQJ58S5goQyjmwRw", "review_count": 98, "categories": [{"alias": "hotdogs", "title": "Fast Food"}, {"alias": "burgers", "title": "Burgers"}], "rating": 4.5, "coordinates": {"latitude": 53.4885266, "longitude": 10.2113464}, "transactions": [], "price": "\u20ac\u20ac", "location": {"address1": "Sachsentor 2", "address2": "", "address3": "", "city": "Hamburg", "zip_code": "21029", "country": "DE", "state": "HH", "display_address": ["Sachsentor 2", "21029 Hamburg", "Germany"]}, "phone": "+49407212425", "display_phone": "+49 40 7212425", "distance": 3268.689636255778}, {"id": "nuC2B4JHpAGoRMq5FUCeRw", "alias": "hikari-hamburg", "name": "Hikari", "image_url": "https://s3-media2.fl.yelpcdn.com/bphoto/LY2aW4wS7FBIID2ZTBa6ig/o.jpg", "is_closed": false, "url": "https://www.yelp.com/biz/hikari-hamburg?adjust_creative=hBJOknVQJ58S5goQyjmwRw&utm_campaign=yelp_api_v3&utm_medium=api_v3_business_search&utm_source=hBJOknVQJ58S5goQyjmwRw", "review_count": 1, "categories": [{"alias": "panasian", "title": "Pan Asian"}], "rating": 3.0, "coordinates": {"latitude": 53.48893, "longitude": 10.20687}, "transactions": [], "price": "\u20ac\u20ac", "location": {"address1": "Weidenbaumsweg 21", "address2": "", "address3": "", "city": "Hamburg", "zip_code": "21029", "country": "DE", "state": "HH", "display_address": ["Weidenbaumsweg 21", "21029 Hamburg", "Germany"]}, "phone": "", "display_phone": "", "distance": 3264.0386378788157}, {"id": "ECY6Bpg-yRIOkLiePIWplw", "alias": "schweinske-hamburg-25", "name": "Schweinske", "image_url": "https://s3-media1.fl.yelpcdn.com/bphoto/fHgtyH8f7T66J1ZlxPzwFg/o.jpg", "is_closed": false, "url": "https://www.yelp.com/biz/schweinske-hamburg-25?adjust_creative=hBJOknVQJ58S5goQyjmwRw&utm_campaign=yelp_api_v3&utm_medium=api_v3_business_search&utm_source=hBJOknVQJ58S5goQyjmwRw", "review_count": 13, "categories": [{"alias": "german", "title": "German"}, {"alias": "breakfast_brunch", "title": "Breakfast & Brunch"}], "rating": 3.5, "coordinates": {"latitude": 53.494164, "longitude": 10.206469}, "transactions": [], "price": "\u20ac\u20ac", "location": {"address1": "Alte Holstenstr. 2", "address2": null, "address3": null, "city": "Hamburg", "zip_code": "21031", "country": "DE", "state": "HH", "display_address": ["Alte Holstenstr. 2", "21031 Hamburg", "Germany"]}, "phone": "+494072697204", "display_phone": "+49 40 72697204", "distance": 2660.172843847467}, {"id": "XguDzRJ2azu46Kze_kRgCA", "alias": "taverna-corfu-hamburg-2", "name": "Taverna Corfu", "image_url": "https://s3-media2.fl.yelpcdn.com/bphoto/YDAiBOH8-f7CBqW1LNpJ9w/o.jpg", "is_closed": false, "url": "https://www.yelp.com/biz/taverna-corfu-hamburg-2?adjust_creative=hBJOknVQJ58S5goQyjmwRw&utm_campaign=yelp_api_v3&utm_medium=api_v3_business_search&utm_source=hBJOknVQJ58S5goQyjmwRw", "review_count": 8, "categories": [{"alias": "greek", "title": "Greek"}], "rating": 4.0, "coordinates": {"latitude": 53.4857, "longitude": 10.2178}, "transactions": [], "price": "\u20ac\u20ac", "location": {"address1": "Am Brink 14", "address2": null, "address3": null, "city": "Hamburg", "zip_code": "21029", "country": "DE", "state": "HH", "display_address": ["Am Brink 14", "21029 Hamburg", "Germany"]}, "phone": "+49407214342", "display_phone": "+49 40 7214342", "distance": 3628.0729249422525}, {"id": "FuDqMFs1-ce6w0Pi8NCU1w", "alias": "pamukkale-k\u00f6z-bergedorf-hamburg", "name": "Pamukkale K\u00f6z Bergedorf", "image_url": "https://s3-media2.fl.yelpcdn.com/bphoto/VWeYy47Rwu6VZjfPEHKG2A/o.jpg", "is_closed": false, "url": "https://www.yelp.com/biz/pamukkale-k%C3%B6z-bergedorf-hamburg?adjust_creative=hBJOknVQJ58S5goQyjmwRw&utm_campaign=yelp_api_v3&utm_medium=api_v3_business_search&utm_source=hBJOknVQJ58S5goQyjmwRw", "review_count": 9, "categories": [{"alias": "turkish", "title": "Turkish"}, {"alias": "kebab", "title": "Kebab"}], "rating": 3.5, "coordinates": {"latitude": 53.4901627722898, "longitude": 10.2086043771255}, "transactions": [], "price": "\u20ac", "location": {"address1": "Alte Holstenstr. 56", "address2": null, "address3": null, "city": "Hamburg", "zip_code": "21029", "country": "DE", "state": "HH", "display_address": ["Alte Holstenstr. 56", "21029 Hamburg", "Germany"]}, "phone": "+49407245982", "display_phone": "+49 40 7245982", "distance": 3082.316109467302}, {"id": "eaar-pJ3iU3FLRGcMykupw", "alias": "quicks-hamburg", "name": "Quick's", "image_url": "https://s3-media2.fl.yelpcdn.com/bphoto/ICpOFjNZ5_1XoHqlZG3EqQ/o.jpg", "is_closed": false, "url": "https://www.yelp.com/biz/quicks-hamburg?adjust_creative=hBJOknVQJ58S5goQyjmwRw&utm_campaign=yelp_api_v3&utm_medium=api_v3_business_search&utm_source=hBJOknVQJ58S5goQyjmwRw", "review_count": 21, "categories": [{"alias": "burgers", "title": "Burgers"}, {"alias": "hotdogs", "title": "Fast Food"}], "rating": 4.0, "coordinates": {"latitude": 53.49057, "longitude": 10.20844}, "transactions": [], "price": "\u20ac\u20ac", "location": {"address1": "Alte Holstenstr. 57", "address2": "", "address3": "", "city": "Hamburg", "zip_code": "21029", "country": "DE", "state": "HH", "display_address": ["Alte Holstenstr. 57", "21029 Hamburg", "Germany"]}, "phone": "+494072008595", "display_phone": "+49 40 72008595", "distance": 3036.679896150157}, {"id": "XUkBWdxfYvIQ9J3Dq5BtIw", "alias": "lavastein-hamburg", "name": "Lavastein", "image_url": "https://s3-media3.fl.yelpcdn.com/bphoto/3qT31aOkNq5JDpMbc96mng/o.jpg", "is_closed": false, "url": "https://www.yelp.com/biz/lavastein-hamburg?adjust_creative=hBJOknVQJ58S5goQyjmwRw&utm_campaign=yelp_api_v3&utm_medium=api_v3_business_search&utm_source=hBJOknVQJ58S5goQyjmwRw", "review_count": 42, "categories": [{"alias": "international", "title": "International"}, {"alias": "german", "title": "German"}], "rating": 3.0, "coordinates": {"latitude": 53.48894, "longitude": 10.20833}, "transactions": [], "price": "\u20ac\u20ac", "location": {"address1": "Serrahnstr. 3 - 5", "address2": null, "address3": null, "city": "Hamburg", "zip_code": "21029", "country": "DE", "state": "HH", "display_address": ["Serrahnstr. 3 - 5", "21029 Hamburg", "Germany"]}, "phone": "+49407212233", "display_phone": "+49 40 7212233", "distance": 3223.263717015884}, {"id": "e7ddDbWUKeYiuy4cGDTUdw", "alias": "pane-und-vino-hamburg", "name": "Pane & Vino", "image_url": "https://s3-media3.fl.yelpcdn.com/bphoto/u2oz9FrAD1xCcJWmZIlAPA/o.jpg", "is_closed": false, "url": "https://www.yelp.com/biz/pane-und-vino-hamburg?adjust_creative=hBJOknVQJ58S5goQyjmwRw&utm_campaign=yelp_api_v3&utm_medium=api_v3_business_search&utm_source=hBJOknVQJ58S5goQyjmwRw", "review_count": 5, "categories": [{"alias": "divebars", "title": "Dive Bars"}, {"alias": "italian", "title": "Italian"}], "rating": 3.5, "coordinates": {"latitude": 53.4882539, "longitude": 10.2094553}, "transactions": [], "price": "\u20ac\u20ac", "location": {"address1": "Kupferhof 4", "address2": "", "address3": "EG", "city": "Hamburg", "zip_code": "21029", "country": "DE", "state": "HH", "display_address": ["Kupferhof 4", "EG", "21029 Hamburg", "Germany"]}, "phone": "+49407244138", "display_phone": "+49 40 7244138", "distance": 3294.869693809807}, {"id": "UsN7oty__ct1qIZLJ2SSkQ", "alias": "caf\u00e9-la-petite-rue-hamburg", "name": "Caf\u00e9 La Petite Rue", "image_url": "https://s3-media1.fl.yelpcdn.com/bphoto/2r1JCwoBnwdnpjiKD-zpjQ/o.jpg", "is_closed": false, "url": "https://www.yelp.com/biz/caf%C3%A9-la-petite-rue-hamburg?adjust_creative=hBJOknVQJ58S5goQyjmwRw&utm_campaign=yelp_api_v3&utm_medium=api_v3_business_search&utm_source=hBJOknVQJ58S5goQyjmwRw", "review_count": 5, "categories": [{"alias": "cafes", "title": "Cafes"}], "rating": 4.0, "coordinates": {"latitude": 53.488, "longitude": 10.213}, "transactions": [], "price": "\u20ac\u20ac\u20ac", "location": {"address1": "Sachsentor 29", "address2": null, "address3": null, "city": "Hamburg", "zip_code": "21029", "country": "DE", "state": "HH", "display_address": ["Sachsentor 29", "21029 Hamburg", "Germany"]}, "phone": "+494098769802", "display_phone": "+49 40 98769802", "distance": 3334.565194209309}, {"id": "YvxXpdzIc8JEAs5LrzePDQ", "alias": "ma-maison-hamburg-2", "name": "Ma Maison", "image_url": "https://s3-media4.fl.yelpcdn.com/bphoto/Rcs6oRdiwbAxRI6REbTPvw/o.jpg", "is_closed": false, "url": "https://www.yelp.com/biz/ma-maison-hamburg-2?adjust_creative=hBJOknVQJ58S5goQyjmwRw&utm_campaign=yelp_api_v3&utm_medium=api_v3_business_search&utm_source=hBJOknVQJ58S5goQyjmwRw", "review_count": 8, "categories": [{"alias": "cafes", "title": "Cafes"}, {"alias": "tapas", "title": "Tapas Bars"}], "rating": 3.0, "coordinates": {"latitude": 53.4873, "longitude": 10.21339}, "transactions": [], "price": "\u20ac\u20ac", "location": {"address1": "Hintern Graben 21", "address2": "", "address3": "", "city": "Hamburg", "zip_code": "21029", "country": "DE", "state": "HH", "display_address": ["Hintern Graben 21", "21029 Hamburg", "Germany"]}, "phone": "+494036911990", "display_phone": "+49 40 36911990", "distance": 3411.262839763405}, {"id": "HyAhvvMP0iVtRYjm6VWyGA", "alias": "schweinske-hamburg-27", "name": "Schweinske", "image_url": "https://s3-media2.fl.yelpcdn.com/bphoto/wWa5iaJObE_DxT8ohqNowA/o.jpg", "is_closed": false, "url": "https://www.yelp.com/biz/schweinske-hamburg-27?adjust_creative=hBJOknVQJ58S5goQyjmwRw&utm_campaign=yelp_api_v3&utm_medium=api_v3_business_search&utm_source=hBJOknVQJ58S5goQyjmwRw", "review_count": 42, "categories": [{"alias": "german", "title": "German"}], "rating": 3.0, "coordinates": {"latitude": 53.48747, "longitude": 10.2099499}, "transactions": [], "price": "\u20ac\u20ac", "location": {"address1": "Bergedorfer Str. 112", "address2": null, "address3": null, "city": "Hamburg", "zip_code": "21029", "country": "DE", "state": "HH", "display_address": ["Bergedorfer Str. 112", "21029 Hamburg", "Germany"]}, "phone": "+494079685768", "display_phone": "+49 40 79685768", "distance": 3384.2421307745126}, {"id": "LPscYMQOIhBdkNmYsBSitw", "alias": "taverna-alexandros-hamburg", "name": "Taverna Alexandros", "image_url": "", "is_closed": false, "url": "https://www.yelp.com/biz/taverna-alexandros-hamburg?adjust_creative=hBJOknVQJ58S5goQyjmwRw&utm_campaign=yelp_api_v3&utm_medium=api_v3_business_search&utm_source=hBJOknVQJ58S5goQyjmwRw", "review_count": 1, "categories": [{"alias": "greek", "title": "Greek"}], "rating": 4.0, "coordinates": {"latitude": 53.4972, "longitude": 10.2042}, "transactions": [], "price": "\u20ac\u20ac", "location": {"address1": "Lohbr\u00fcgger Landstr. 26", "address2": null, "address3": null, "city": "Hamburg", "zip_code": "21031", "country": "DE", "state": "HH", "display_address": ["Lohbr\u00fcgger Landstr. 26", "21031 Hamburg", "Germany"]}, "phone": "+49407215680", "display_phone": "+49 40 7215680", "distance": 2319.531154278429}, {"id": "wns0tEarHxA0M5UsbrY-XQ", "alias": "lohbr\u00fcgger-grill-hamburg-2", "name": "Lohbr\u00fcgger Grill", "image_url": "https://s3-media2.fl.yelpcdn.com/bphoto/jAbjpc2e08mEWz-0ev9adg/o.jpg", "is_closed": false, "url": "https://www.yelp.com/biz/lohbr%C3%BCgger-grill-hamburg-2?adjust_creative=hBJOknVQJ58S5goQyjmwRw&utm_campaign=yelp_api_v3&utm_medium=api_v3_business_search&utm_source=hBJOknVQJ58S5goQyjmwRw", "review_count": 2, "categories": [{"alias": "foodstands", "title": "Food Stands"}], "rating": 5.0, "coordinates": {"latitude": 53.4982264838837, "longitude": 10.2029393613338}, "transactions": [], "price": "\u20ac", "location": {"address1": "Lohbr\u00fcgger Landstr. 43", "address2": "", "address3": null, "city": "Hamburg", "zip_code": "21031", "country": "DE", "state": "HH", "display_address": ["Lohbr\u00fcgger Landstr. 43", "21031 Hamburg", "Germany"]}, "phone": "+494072005533", "display_phone": "+49 40 72005533", "distance": 2219.357252174796}, {"id": "wpL3fJmVfD9BxMKKEUnTlg", "alias": "masala-indian-food-express-hamburg", "name": "Masala - Indian Food Express", "image_url": "", "is_closed": false, "url": "https://www.yelp.com/biz/masala-indian-food-express-hamburg?adjust_creative=hBJOknVQJ58S5goQyjmwRw&utm_campaign=yelp_api_v3&utm_medium=api_v3_business_search&utm_source=hBJOknVQJ58S5goQyjmwRw", "review_count": 1, "categories": [{"alias": "indpak", "title": "Indian"}, {"alias": "fooddeliveryservices", "title": "Food Delivery Services"}], "rating": 4.0, "coordinates": {"latitude": 53.50882, "longitude": 10.18629}, "transactions": [], "location": {"address1": "Mendelstra\u00dfe 26D", "address2": "", "address3": null, "city": "Hamburg", "zip_code": "21031", "country": "DE", "state": "HH", "display_address": ["Mendelstra\u00dfe 26D", "21031 Hamburg", "Germany"]}, "phone": "", "display_phone": "", "distance": 1822.2467227615675}, {"id": "nXrodL-98LfldQ-dJfmxdw", "alias": "block-house-hamburg-11", "name": "Block House", "image_url": "https://s3-media4.fl.yelpcdn.com/bphoto/qAJuODl1msQqhJSY8wya0g/o.jpg", "is_closed": false, "url": "https://www.yelp.com/biz/block-house-hamburg-11?adjust_creative=hBJOknVQJ58S5goQyjmwRw&utm_campaign=yelp_api_v3&utm_medium=api_v3_business_search&utm_source=hBJOknVQJ58S5goQyjmwRw", "review_count": 75, "categories": [{"alias": "steak", "title": "Steakhouses"}], "rating": 4.0, "coordinates": {"latitude": 53.4885243515164, "longitude": 10.2110642107037}, "transactions": [], "price": "\u20ac\u20ac", "location": {"address1": "Sachsentor 2", "address2": "", "address3": "", "city": "Hamburg", "zip_code": "21029", "country": "DE", "state": "HH", "display_address": ["Sachsentor 2", "21029 Hamburg", "Germany"]}, "phone": "+49407217171", "display_phone": "+49 40 7217171", "distance": 3268.018130112413}, {"id": "5ZD5tiAehHozj6CNAa_57g", "alias": "china-und-thai-lieferservice-hamburg", "name": "China & Thai Lieferservice", "image_url": "https://s3-media2.fl.yelpcdn.com/bphoto/gkXjoR3DDIyBKWvq2YJpOg/o.jpg", "is_closed": false, "url": "https://www.yelp.com/biz/china-und-thai-lieferservice-hamburg?adjust_creative=hBJOknVQJ58S5goQyjmwRw&utm_campaign=yelp_api_v3&utm_medium=api_v3_business_search&utm_source=hBJOknVQJ58S5goQyjmwRw", "review_count": 6, "categories": [{"alias": "panasian", "title": "Pan Asian"}], "rating": 3.5, "coordinates": {"latitude": 53.4881508, "longitude": 10.1970707}, "transactions": [], "price": "\u20ac\u20ac", "location": {"address1": "Kurt-A.-K\u00f6rber-Chaussee 39 d", "address2": null, "address3": null, "city": "Hamburg", "zip_code": "21033", "country": "DE", "state": "HH", "display_address": ["Kurt-A.-K\u00f6rber-Chaussee 39 d", "21033 Hamburg", "Germany"]}, "phone": "", "display_phone": "", "distance": 3395.2959376529557}, {"id": "ix7ng86Ou7GMvjGdzhwNaQ", "alias": "restaurant-golf-gut-glinde-glinde", "name": "Restaurant Golf Gut Glinde", "image_url": "https://s3-media2.fl.yelpcdn.com/bphoto/OQkLvbD1PVSqyhc7F741qQ/o.jpg", "is_closed": false, "url": "https://www.yelp.com/biz/restaurant-golf-gut-glinde-glinde?adjust_creative=hBJOknVQJ58S5goQyjmwRw&utm_campaign=yelp_api_v3&utm_medium=api_v3_business_search&utm_source=hBJOknVQJ58S5goQyjmwRw", "review_count": 3, "categories": [{"alias": "german", "title": "German"}], "rating": 4.0, "coordinates": {"latitude": 53.53165, "longitude": 10.20683}, "transactions": [], "price": "\u20ac\u20ac", "location": {"address1": "In der Trift 4", "address2": "", "address3": "", "city": "Glinde", "zip_code": "21509", "country": "DE", "state": "SH", "display_address": ["In der Trift 4", "21509 Glinde", "Germany"]}, "phone": "+49407100506", "display_phone": "+49 40 7100506", "distance": 1536.2060894103254}, {"id": "TttYOxgubZqsIApBXps3xw", "alias": "belami-hamburg", "name": "Belami", "image_url": "https://s3-media3.fl.yelpcdn.com/bphoto/8FOHa1w4wwLiUiW8QzdIdQ/o.jpg", "is_closed": false, "url": "https://www.yelp.com/biz/belami-hamburg?adjust_creative=hBJOknVQJ58S5goQyjmwRw&utm_campaign=yelp_api_v3&utm_medium=api_v3_business_search&utm_source=hBJOknVQJ58S5goQyjmwRw", "review_count": 15, "categories": [{"alias": "bars", "title": "Bars"}, {"alias": "beergarden", "title": "Beer Garden"}, {"alias": "german", "title": "German"}], "rating": 3.0, "coordinates": {"latitude": 53.4847, "longitude": 10.2187}, "transactions": [], "price": "\u20ac\u20ac", "location": {"address1": "Holtenklinker Str. 26", "address2": null, "address3": null, "city": "Hamburg", "zip_code": "21029", "country": "DE", "state": "HH", "display_address": ["Holtenklinker Str. 26", "21029 Hamburg", "Germany"]}, "phone": "+494072699173", "display_phone": "+49 40 72699173", "distance": 3747.7714985677917}, {"id": "po87ojNd_qixKGwCCQboLQ", "alias": "p\u00e2tisserie-andreas-hamburg", "name": "P\u00e2tisserie Andreas", "image_url": "https://s3-media4.fl.yelpcdn.com/bphoto/r3A4KFJ9nm1uGq4g7zu0gA/o.jpg", "is_closed": false, "url": "https://www.yelp.com/biz/p%C3%A2tisserie-andreas-hamburg?adjust_creative=hBJOknVQJ58S5goQyjmwRw&utm_campaign=yelp_api_v3&utm_medium=api_v3_business_search&utm_source=hBJOknVQJ58S5goQyjmwRw", "review_count": 2, "categories": [{"alias": "cafes", "title": "Cafes"}, {"alias": "cakeshop", "title": "Patisserie/Cake Shop"}, {"alias": "icecream", "title": "Ice Cream & Frozen Yogurt"}], "rating": 4.0, "coordinates": {"latitude": 53.488492, "longitude": 10.2103728794484}, "transactions": [], "price": "\u20ac\u20ac", "location": {"address1": "Kupferhof 1", "address2": "", "address3": null, "city": "Hamburg", "zip_code": "21029", "country": "DE", "state": "HH", "display_address": ["Kupferhof 1", "21029 Hamburg", "Germany"]}, "phone": "+494072378106", "display_phone": "+49 40 72378106", "distance": 3269.80633101984}, {"id": "ipf3737p-Jpij5seiTyztg", "alias": "november-hamburg", "name": "November", "image_url": "https://s3-media1.fl.yelpcdn.com/bphoto/Ea5h-2cr_6mpuwtUwtMqQg/o.jpg", "is_closed": false, "url": "https://www.yelp.com/biz/november-hamburg?adjust_creative=hBJOknVQJ58S5goQyjmwRw&utm_campaign=yelp_api_v3&utm_medium=api_v3_business_search&utm_source=hBJOknVQJ58S5goQyjmwRw", "review_count": 50, "categories": [{"alias": "german", "title": "German"}, {"alias": "cafes", "title": "Cafes"}, {"alias": "coffee", "title": "Coffee & Tea"}], "rating": 3.0, "coordinates": {"latitude": 53.48706, "longitude": 10.2119}, "transactions": [], "price": "\u20ac\u20ac", "location": {"address1": "Bergedorfer Str. 125", "address2": null, "address3": null, "city": "Hamburg", "zip_code": "21029", "country": "DE", "state": "HH", "display_address": ["Bergedorfer Str. 125", "21029 Hamburg", "Germany"]}, "phone": "+494073937937", "display_phone": "+49 40 73937937", "distance": 3434.3934976826154}, {"id": "qYs2XBBr-SN0Lvz_VnhBiw", "alias": "tungs-asia-hamburg-2", "name": "Tung's Asia", "image_url": "https://s3-media1.fl.yelpcdn.com/bphoto/6rO7lxvjiy8Rlv4_lTzyvw/o.jpg", "is_closed": false, "url": "https://www.yelp.com/biz/tungs-asia-hamburg-2?adjust_creative=hBJOknVQJ58S5goQyjmwRw&utm_campaign=yelp_api_v3&utm_medium=api_v3_business_search&utm_source=hBJOknVQJ58S5goQyjmwRw", "review_count": 4, "categories": [{"alias": "vietnamese", "title": "Vietnamese"}], "rating": 3.5, "coordinates": {"latitude": 53.4890291906508, "longitude": 10.2070283889771}, "transactions": [], "location": {"address1": "Weidenbaumsweg 17", "address2": "", "address3": "", "city": "Hamburg", "zip_code": "21029", "country": "DE", "state": "HH", "display_address": ["Weidenbaumsweg 17", "21029 Hamburg", "Germany"]}, "phone": "", "display_phone": "", "distance": 3210.403318571503}, {"id": "3iOc8w6sYCVtqP43tMLrag", "alias": "holstenhof-hamburg-2", "name": "Holstenhof", "image_url": "https://s3-media3.fl.yelpcdn.com/bphoto/Wlpmq6ruvqigkmtGEf1tcA/o.jpg", "is_closed": false, "url": "https://www.yelp.com/biz/holstenhof-hamburg-2?adjust_creative=hBJOknVQJ58S5goQyjmwRw&utm_campaign=yelp_api_v3&utm_medium=api_v3_business_search&utm_source=hBJOknVQJ58S5goQyjmwRw", "review_count": 8, "categories": [{"alias": "german", "title": "German"}], "rating": 4.0, "coordinates": {"latitude": 53.49846, "longitude": 10.20311}, "transactions": [], "price": "\u20ac\u20ac", "location": {"address1": "Lohbr\u00fcgger Landstr. 38", "address2": null, "address3": null, "city": "Hamburg", "zip_code": "21031", "country": "DE", "state": "HH", "display_address": ["Lohbr\u00fcgger Landstr. 38", "21031 Hamburg", "Germany"]}, "phone": "+49407399428", "display_phone": "+49 40 7399428", "distance": 2191.8365129637923}, {"id": "fa8IxUKMS_g7Vb5OZM4nrQ", "alias": "bacchus-hamburg-4", "name": "Bacchus", "image_url": "https://s3-media3.fl.yelpcdn.com/bphoto/-I-BNlVpKhsuJNkmmW-tNA/o.jpg", "is_closed": false, "url": "https://www.yelp.com/biz/bacchus-hamburg-4?adjust_creative=hBJOknVQJ58S5goQyjmwRw&utm_campaign=yelp_api_v3&utm_medium=api_v3_business_search&utm_source=hBJOknVQJ58S5goQyjmwRw", "review_count": 4, "categories": [{"alias": "greek", "title": "Greek"}], "rating": 4.0, "coordinates": {"latitude": 53.50132, "longitude": 10.1976}, "transactions": [], "location": {"address1": "Lohbr\u00fcgger Landstr. 90", "address2": "", "address3": null, "city": "Hamburg", "zip_code": "21031", "country": "DE", "state": "HH", "display_address": ["Lohbr\u00fcgger Landstr. 90", "21031 Hamburg", "Germany"]}, "phone": "+49407398990", "display_phone": "+49 40 7398990", "distance": 1978.894972891279}, {"id": "MjvA08ZvJZu0J29TPqUS-Q", "alias": "caf\u00e9-flop-hamburg-2", "name": "Caf\u00e9 Flop", "image_url": "", "is_closed": false, "url": "https://www.yelp.com/biz/caf%C3%A9-flop-hamburg-2?adjust_creative=hBJOknVQJ58S5goQyjmwRw&utm_campaign=yelp_api_v3&utm_medium=api_v3_business_search&utm_source=hBJOknVQJ58S5goQyjmwRw", "review_count": 2, "categories": [{"alias": "cafes", "title": "Cafes"}, {"alias": "vegan", "title": "Vegan"}], "rating": 3.5, "coordinates": {"latitude": 53.4872, "longitude": 10.2192}, "transactions": [], "price": "\u20ac", "location": {"address1": "Wentorfer Str. 26", "address2": null, "address3": null, "city": "Hamburg", "zip_code": "21029", "country": "DE", "state": "HH", "display_address": ["Wentorfer Str. 26", "21029 Hamburg", "Germany"]}, "phone": "", "display_phone": "", "distance": 3480.8325409566096}, {"id": "a4PMQ5JQrr6kiNm88A2zCw", "alias": "restaurant-parga-hamburg", "name": "Restaurant Parga", "image_url": "https://s3-media3.fl.yelpcdn.com/bphoto/zxlO_j6Ie2ctSRBzg6BtNA/o.jpg", "is_closed": false, "url": "https://www.yelp.com/biz/restaurant-parga-hamburg?adjust_creative=hBJOknVQJ58S5goQyjmwRw&utm_campaign=yelp_api_v3&utm_medium=api_v3_business_search&utm_source=hBJOknVQJ58S5goQyjmwRw", "review_count": 12, "categories": [{"alias": "greek", "title": "Greek"}], "rating": 3.5, "coordinates": {"latitude": 53.4975104, "longitude": 10.2040032}, "transactions": [], "price": "\u20ac\u20ac", "location": {"address1": "Lohbr\u00fcgger Landstr.  32", "address2": null, "address3": null, "city": "Hamburg", "zip_code": "21031", "country": "DE", "state": "HH", "display_address": ["Lohbr\u00fcgger Landstr.  32", "21031 Hamburg", "Germany"]}, "phone": "+49407242382", "display_phone": "+49 40 7242382", "distance": 2287.0701058085274}, {"id": "ZZZQ923szOGq3s-8Po7SxA", "alias": "krabbenfischer-hamburg", "name": "Krabbenfischer", "image_url": "", "is_closed": false, "url": "https://www.yelp.com/biz/krabbenfischer-hamburg?adjust_creative=hBJOknVQJ58S5goQyjmwRw&utm_campaign=yelp_api_v3&utm_medium=api_v3_business_search&utm_source=hBJOknVQJ58S5goQyjmwRw", "review_count": 2, "categories": [{"alias": "fishnchips", "title": "Fish & Chips"}], "rating": 5.0, "coordinates": {"latitude": 53.4923, "longitude": 10.2073}, "transactions": [], "price": "\u20ac", "location": {"address1": "Alte Holstenstra\u00dfe 30 - 32", "address2": "", "address3": null, "city": "Hamburg", "zip_code": "21031", "country": "DE", "state": "HH", "display_address": ["Alte Holstenstra\u00dfe 30 - 32", "21031 Hamburg", "Germany"]}, "phone": "+494072542418", "display_phone": "+49 40 72542418", "distance": 2846.300546063298}, {"id": "-p7U_9yGdzmIC6cm0TBfwA", "alias": "nomis-pizza-lieferservice-glinde", "name": "Nomi's Pizza Lieferservice", "image_url": "", "is_closed": false, "url": "https://www.yelp.com/biz/nomis-pizza-lieferservice-glinde?adjust_creative=hBJOknVQJ58S5goQyjmwRw&utm_campaign=yelp_api_v3&utm_medium=api_v3_business_search&utm_source=hBJOknVQJ58S5goQyjmwRw", "review_count": 1, "categories": [{"alias": "fooddeliveryservices", "title": "Food Delivery Services"}, {"alias": "italian", "title": "Italian"}], "rating": 3.0, "coordinates": {"latitude": 53.5341, "longitude": 10.2256}, "transactions": [], "location": {"address1": "Holstenkamp 11", "address2": null, "address3": null, "city": "Glinde", "zip_code": "21509", "country": "DE", "state": "SH", "display_address": ["Holstenkamp 11", "21509 Glinde", "Germany"]}, "phone": "+494071143340", "display_phone": "+49 40 71143340", "distance": 2118.976437116214}, {"id": "dNhOqtWOEdQyBNlJAzWGVA", "alias": "castello-glinde-glinde", "name": "Castello Glinde", "image_url": "https://s3-media2.fl.yelpcdn.com/bphoto/JoN2oORyRjbtjXNJwYbNpQ/o.jpg", "is_closed": false, "url": "https://www.yelp.com/biz/castello-glinde-glinde?adjust_creative=hBJOknVQJ58S5goQyjmwRw&utm_campaign=yelp_api_v3&utm_medium=api_v3_business_search&utm_source=hBJOknVQJ58S5goQyjmwRw", "review_count": 7, "categories": [{"alias": "mediterranean", "title": "Mediterranean"}], "rating": 3.5, "coordinates": {"latitude": 53.542474, "longitude": 10.2105752}, "transactions": [], "price": "\u20ac\u20ac\u20ac", "location": {"address1": "Dorf Str. 8", "address2": null, "address3": null, "city": "Glinde", "zip_code": "21509", "country": "DE", "state": "SH", "display_address": ["Dorf Str. 8", "21509 Glinde", "Germany"]}, "phone": "+49406032373", "display_phone": "+49 40 6032373", "distance": 2737.0525330919563}, {"id": "YwskX4DDso1WQLrpsERCuw", "alias": "aldos-pizzeria-und-more-e-k-hamburg", "name": "Aldo's Pizzeria & More e.K.", "image_url": "https://s3-media2.fl.yelpcdn.com/bphoto/behwUs-gqFl_WC37C2AlfA/o.jpg", "is_closed": false, "url": "https://www.yelp.com/biz/aldos-pizzeria-und-more-e-k-hamburg?adjust_creative=hBJOknVQJ58S5goQyjmwRw&utm_campaign=yelp_api_v3&utm_medium=api_v3_business_search&utm_source=hBJOknVQJ58S5goQyjmwRw", "review_count": 2, "categories": [{"alias": "pizza", "title": "Pizza"}, {"alias": "italian", "title": "Italian"}], "rating": 4.0, "coordinates": {"latitude": 53.5009, "longitude": 10.1984}, "transactions": [], "price": "\u20ac", "location": {"address1": "Lohbr\u00fcgger Landstr. 80", "address2": null, "address3": null, "city": "Hamburg", "zip_code": "21031", "country": "DE", "state": "HH", "display_address": ["Lohbr\u00fcgger Landstr. 80", "21031 Hamburg", "Germany"]}, "phone": "+494089725548", "display_phone": "+49 40 89725548", "distance": 2008.9344064571212}, {"id": "QzVpEFaN0XZe6jALMZg1sQ", "alias": "caf\u00e9-bouquet-hamburg", "name": "Caf\u00e9 Bouquet", "image_url": "https://s3-media3.fl.yelpcdn.com/bphoto/Gt8CTT1t8N0YpCjmq4d-NQ/o.jpg", "is_closed": false, "url": "https://www.yelp.com/biz/caf%C3%A9-bouquet-hamburg?adjust_creative=hBJOknVQJ58S5goQyjmwRw&utm_campaign=yelp_api_v3&utm_medium=api_v3_business_search&utm_source=hBJOknVQJ58S5goQyjmwRw", "review_count": 7, "categories": [{"alias": "cafes", "title": "Cafes"}, {"alias": "breakfast_brunch", "title": "Breakfast & Brunch"}], "rating": 3.5, "coordinates": {"latitude": 53.4897505474139, "longitude": 10.2092158440421}, "transactions": [], "price": "\u20ac\u20ac", "location": {"address1": "Alte Holstenstr. 62", "address2": "", "address3": null, "city": "Hamburg", "zip_code": "21029", "country": "DE", "state": "HH", "display_address": ["Alte Holstenstr. 62", "21029 Hamburg", "Germany"]}, "phone": "+491728630371", "display_phone": "+49 172 8630371", "distance": 3128.276345433192}, {"id": "DEm3YYWieo1IwwnNsCMWQw", "alias": "la-puglia-hamburg", "name": "La Puglia", "image_url": "https://s3-media1.fl.yelpcdn.com/bphoto/ivRSgTjT3Jw2OWOygwZdTQ/o.jpg", "is_closed": false, "url": "https://www.yelp.com/biz/la-puglia-hamburg?adjust_creative=hBJOknVQJ58S5goQyjmwRw&utm_campaign=yelp_api_v3&utm_medium=api_v3_business_search&utm_source=hBJOknVQJ58S5goQyjmwRw", "review_count": 17, "categories": [{"alias": "italian", "title": "Italian"}], "rating": 3.0, "coordinates": {"latitude": 53.4885, "longitude": 10.2115}, "transactions": [], "price": "\u20ac\u20ac\u20ac", "location": {"address1": "Sachsentor 6", "address2": null, "address3": null, "city": "Hamburg", "zip_code": "21029", "country": "DE", "state": "HH", "display_address": ["Sachsentor 6", "21029 Hamburg", "Germany"]}, "phone": "+49407216895", "display_phone": "+49 40 7216895", "distance": 3272.1890210041533}, {"id": "K4QqypO8q9mIwuqtDenVyQ", "alias": "zimmer-glinde", "name": "Zimmer", "image_url": "https://s3-media4.fl.yelpcdn.com/bphoto/aWZvAp3CE1EziB1yFzhZVg/o.jpg", "is_closed": false, "url": "https://www.yelp.com/biz/zimmer-glinde?adjust_creative=hBJOknVQJ58S5goQyjmwRw&utm_campaign=yelp_api_v3&utm_medium=api_v3_business_search&utm_source=hBJOknVQJ58S5goQyjmwRw", "review_count": 3, "categories": [{"alias": "cafes", "title": "Cafes"}, {"alias": "bakeries", "title": "Bakeries"}], "rating": 4.5, "coordinates": {"latitude": 53.5415, "longitude": 10.2134}, "transactions": [], "price": "\u20ac", "location": {"address1": "Markt 6", "address2": null, "address3": null, "city": "Glinde", "zip_code": "21509", "country": "DE", "state": "SH", "display_address": ["Markt 6", "21509 Glinde", "Germany"]}, "phone": "+494071001200", "display_phone": "+49 40 71001200", "distance": 2643.9361247411175}, {"id": "2Qg2-LgGVjSclZT_TRpo0Q", "alias": "city-d\u00f6ner-hamburg-2", "name": "City D\u00f6ner", "image_url": "https://s3-media2.fl.yelpcdn.com/bphoto/Y4QcMGHqb73zdl87tMOuoQ/o.jpg", "is_closed": false, "url": "https://www.yelp.com/biz/city-d%C3%B6ner-hamburg-2?adjust_creative=hBJOknVQJ58S5goQyjmwRw&utm_campaign=yelp_api_v3&utm_medium=api_v3_business_search&utm_source=hBJOknVQJ58S5goQyjmwRw", "review_count": 10, "categories": [{"alias": "kebab", "title": "Kebab"}], "rating": 3.5, "coordinates": {"latitude": 53.4899, "longitude": 10.2091}, "transactions": [], "price": "\u20ac\u20ac", "location": {"address1": "Ecke Dresdner Kult", "address2": null, "address3": null, "city": "Hamburg", "zip_code": "21029", "country": "DE", "state": "HH", "display_address": ["Ecke Dresdner Kult", "21029 Hamburg", "Germany"]}, "phone": "", "display_phone": "", "distance": 3111.594923914846}, {"id": "IDjcVVGyESwwvbvN1bLjuQ", "alias": "baris-grillhaus-hamburg-5", "name": "Baris Grillhaus", "image_url": "https://s3-media2.fl.yelpcdn.com/bphoto/pFuuUOxqNdHImZz6hAMR6g/o.jpg", "is_closed": false, "url": "https://www.yelp.com/biz/baris-grillhaus-hamburg-5?adjust_creative=hBJOknVQJ58S5goQyjmwRw&utm_campaign=yelp_api_v3&utm_medium=api_v3_business_search&utm_source=hBJOknVQJ58S5goQyjmwRw", "review_count": 1, "categories": [{"alias": "kebab", "title": "Kebab"}], "rating": 4.0, "coordinates": {"latitude": 53.4914, "longitude": 10.2078}, "transactions": [], "location": {"address1": "Alte Holstenstr.  47", "address2": null, "address3": null, "city": "Hamburg", "zip_code": "21031", "country": "DE", "state": "HH", "display_address": ["Alte Holstenstr.  47", "21031 Hamburg", "Germany"]}, "phone": "", "display_phone": "", "distance": 2945.4171451260595}, {"id": "cdWS6qwEh-jc4AV1LgSyMg", "alias": "d\u00f6nermann-reinbek", "name": "D\u00f6nermann", "image_url": "", "is_closed": false, "url": "https://www.yelp.com/biz/d%C3%B6nermann-reinbek?adjust_creative=hBJOknVQJ58S5goQyjmwRw&utm_campaign=yelp_api_v3&utm_medium=api_v3_business_search&utm_source=hBJOknVQJ58S5goQyjmwRw", "review_count": 4, "categories": [{"alias": "kebab", "title": "Kebab"}, {"alias": "turkish", "title": "Turkish"}], "rating": 4.0, "coordinates": {"latitude": 53.5234, "longitude": 10.2335}, "transactions": [], "price": "\u20ac\u20ac\u20ac\u20ac", "location": {"address1": "Gutenbergstr. 11", "address2": null, "address3": null, "city": "Reinbek", "zip_code": "21465", "country": "DE", "state": "SH", "display_address": ["Gutenbergstr. 11", "21465 Reinbek", "Germany"]}, "phone": "+494037084660", "display_phone": "+49 40 37084660", "distance": 1746.449342507191}, {"id": "7EHpIWHvoW_oPx26KcXTRg", "alias": "hallo-pizza-hamburg-6", "name": "Hallo Pizza!", "image_url": "https://s3-media4.fl.yelpcdn.com/bphoto/qjHwhE3eheJPTrEzRdADEQ/o.jpg", "is_closed": false, "url": "https://www.yelp.com/biz/hallo-pizza-hamburg-6?adjust_creative=hBJOknVQJ58S5goQyjmwRw&utm_campaign=yelp_api_v3&utm_medium=api_v3_business_search&utm_source=hBJOknVQJ58S5goQyjmwRw", "review_count": 5, "categories": [{"alias": "pizza", "title": "Pizza"}], "rating": 3.0, "coordinates": {"latitude": 53.49397, "longitude": 10.2071}, "transactions": [], "location": {"address1": "Alte Holstenstr. 9", "address2": "", "address3": "", "city": "Hamburg", "zip_code": "21031", "country": "DE", "state": "HH", "display_address": ["Alte Holstenstr. 9", "21031 Hamburg", "Germany"]}, "phone": "+494081974880", "display_phone": "+49 40 81974880", "distance": 2650.2365440508343}, {"id": "u3ub5f0MS4qY67Q8XF9ZoA", "alias": "sodemanns-fisch-kutter-nr-1-hamburg", "name": "Sodemann's Fisch-Kutter Nr. 1", "image_url": "https://s3-media3.fl.yelpcdn.com/bphoto/BlysP6fVPaL0eEjKvEbByw/o.jpg", "is_closed": false, "url": "https://www.yelp.com/biz/sodemanns-fisch-kutter-nr-1-hamburg?adjust_creative=hBJOknVQJ58S5goQyjmwRw&utm_campaign=yelp_api_v3&utm_medium=api_v3_business_search&utm_source=hBJOknVQJ58S5goQyjmwRw", "review_count": 3, "categories": [{"alias": "foodtrucks", "title": "Food Trucks"}, {"alias": "fischbroetchen", "title": "Fischbroetchen"}], "rating": 5.0, "coordinates": {"latitude": 53.5537490844727, "longitude": 9.99182987213135}, "transactions": [], "price": "\u20ac\u20ac", "location": {"address1": "", "address2": null, "address3": "", "city": "Hamburg", "zip_code": "", "country": "DE", "state": "HH", "display_address": ["Hamburg", "Germany"]}, "phone": "+491773606663", "display_phone": "+49 177 3606663", "distance": 14685.962291496415}, {"id": "QvEg8ddyF1ZbpZ-q1YxnwA", "alias": "asia-center-hamburg", "name": "Asia Center", "image_url": "", "is_closed": false, "url": "https://www.yelp.com/biz/asia-center-hamburg?adjust_creative=hBJOknVQJ58S5goQyjmwRw&utm_campaign=yelp_api_v3&utm_medium=api_v3_business_search&utm_source=hBJOknVQJ58S5goQyjmwRw", "review_count": 1, "categories": [{"alias": "fooddeliveryservices", "title": "Food Delivery Services"}, {"alias": "panasian", "title": "Pan Asian"}], "rating": 5.0, "coordinates": {"latitude": 53.4803637665279, "longitude": 10.1983971129925}, "transactions": [], "location": {"address1": "Randersweide 2 a", "address2": "", "address3": "", "city": "Hamburg", "zip_code": "21035", "country": "DE", "state": "HH", "display_address": ["Randersweide 2 a", "21035 Hamburg", "Germany"]}, "phone": "+4949407397395", "display_phone": "+49 4940 7397395", "distance": 4227.891784895749}, {"id": "5ofzRX3nd1gxx9e9z7MASw", "alias": "pizza-max-hamburg-9", "name": "Pizza Max", "image_url": "https://s3-media3.fl.yelpcdn.com/bphoto/5laqwogK0AddypFaUxxNOg/o.jpg", "is_closed": false, "url": "https://www.yelp.com/biz/pizza-max-hamburg-9?adjust_creative=hBJOknVQJ58S5goQyjmwRw&utm_campaign=yelp_api_v3&utm_medium=api_v3_business_search&utm_source=hBJOknVQJ58S5goQyjmwRw", "review_count": 5, "categories": [{"alias": "pizza", "title": "Pizza"}], "rating": 3.5, "coordinates": {"latitude": 53.4871, "longitude": 10.2123}, "transactions": [], "price": "\u20ac\u20ac", "location": {"address1": "Bergedorfer Str. 127", "address2": null, "address3": null, "city": "Hamburg", "zip_code": "21029", "country": "DE", "state": "HH", "display_address": ["Bergedorfer Str. 127", "21029 Hamburg", "Germany"]}, "phone": "+4940720044444", "display_phone": "+49 40 720044444", "distance": 3430.8329250304473}, {"id": "U8ZdmizPZNi-wSW6nyMr5A", "alias": "croque-und-co-hamburg", "name": "Croque & Co.", "image_url": "https://s3-media4.fl.yelpcdn.com/bphoto/PHAgCtgXFSk8DFOajWt9fw/o.jpg", "is_closed": false, "url": "https://www.yelp.com/biz/croque-und-co-hamburg?adjust_creative=hBJOknVQJ58S5goQyjmwRw&utm_campaign=yelp_api_v3&utm_medium=api_v3_business_search&utm_source=hBJOknVQJ58S5goQyjmwRw", "review_count": 2, "categories": [{"alias": "italian", "title": "Italian"}], "rating": 2.0, "coordinates": {"latitude": 53.5008366509923, "longitude": 10.1987437158823}, "transactions": [], "price": "\u20ac\u20ac", "location": {"address1": "Lohbr\u00fcgger Landstr.80", "address2": "", "address3": "", "city": "Hamburg", "zip_code": "21031", "country": "DE", "state": "HH", "display_address": ["Lohbr\u00fcgger Landstr.80", "21031 Hamburg", "Germany"]}, "phone": "+491115x2230", "display_phone": "+49 1115 ext. 2230", "distance": 2007.9413614103808}, {"id": "p0Bm5o6fbrknwGEVtzikRA", "alias": "bax-cafe-creme-hamburg", "name": "Bax Cafe Creme", "image_url": "https://s3-media1.fl.yelpcdn.com/bphoto/-0hGdxwUbHc8kKRghDaiIA/o.jpg", "is_closed": false, "url": "https://www.yelp.com/biz/bax-cafe-creme-hamburg?adjust_creative=hBJOknVQJ58S5goQyjmwRw&utm_campaign=yelp_api_v3&utm_medium=api_v3_business_search&utm_source=hBJOknVQJ58S5goQyjmwRw", "review_count": 6, "categories": [{"alias": "cakeshop", "title": "Patisserie/Cake Shop"}, {"alias": "cafes", "title": "Cafes"}], "rating": 4.0, "coordinates": {"latitude": 53.4923, "longitude": 10.20734}, "transactions": [], "price": "\u20ac\u20ac", "location": {"address1": "Alte Holstenstr. 30 - 32", "address2": null, "address3": null, "city": "Hamburg", "zip_code": "21031", "country": "DE", "state": "HH", "display_address": ["Alte Holstenstr. 30 - 32", "21031 Hamburg", "Germany"]}, "phone": "+49407217101", "display_phone": "+49 40 7217101", "distance": 2902.2098987209592}, {"id": "Rrh0HV26K299ffOtiycYKw", "alias": "caf\u00e9-greco-hamburg-2", "name": "Caf\u00e9 Greco", "image_url": "https://s3-media2.fl.yelpcdn.com/bphoto/MQ6PZ8bsIdb3kDh4K578mQ/o.jpg", "is_closed": false, "url": "https://www.yelp.com/biz/caf%C3%A9-greco-hamburg-2?adjust_creative=hBJOknVQJ58S5goQyjmwRw&utm_campaign=yelp_api_v3&utm_medium=api_v3_business_search&utm_source=hBJOknVQJ58S5goQyjmwRw", "review_count": 26, "categories": [{"alias": "cafes", "title": "Cafes"}, {"alias": "coffee", "title": "Coffee & Tea"}], "rating": 3.0, "coordinates": {"latitude": 53.4888543, "longitude": 10.2115911}, "transactions": [], "price": "\u20ac\u20ac", "location": {"address1": "Bergedorfer Schlo\u00dfstr. 5", "address2": null, "address3": null, "city": "Hamburg", "zip_code": "21029", "country": "DE", "state": "HH", "display_address": ["Bergedorfer Schlo\u00dfstr. 5", "21029 Hamburg", "Germany"]}, "phone": "+49407247730", "display_phone": "+49 40 7247730", "distance": 3233.1961719129545}, {"id": "lASijVWpxLOBPX-oEzxx7g", "alias": "mcdonalds-glinde", "name": "McDonald's", "image_url": "https://s3-media2.fl.yelpcdn.com/bphoto/gAKejvk11mFZv12fuhgtew/o.jpg", "is_closed": false, "url": "https://www.yelp.com/biz/mcdonalds-glinde?adjust_creative=hBJOknVQJ58S5goQyjmwRw&utm_campaign=yelp_api_v3&utm_medium=api_v3_business_search&utm_source=hBJOknVQJ58S5goQyjmwRw", "review_count": 6, "categories": [{"alias": "hotdogs", "title": "Fast Food"}, {"alias": "burgers", "title": "Burgers"}], "rating": 4.0, "coordinates": {"latitude": 53.5236945069808, "longitude": 10.2284587453782}, "transactions": [], "price": "\u20ac", "location": {"address1": "Gutenbergstr. 1 a", "address2": null, "address3": null, "city": "Glinde", "zip_code": "21509", "country": "DE", "state": "SH", "display_address": ["Gutenbergstr. 1 a", "21509 Glinde", "Germany"]}, "phone": "+494072813081", "display_phone": "+49 40 72813081", "distance": 1453.4451747399225}, {"id": "UoVGXTMIpmIyl4eYseiGHw", "alias": "grando-sukredo-glinde", "name": "Grando Sukredo", "image_url": "https://s3-media2.fl.yelpcdn.com/bphoto/cMADuZwl8fW8xF2JLeX7Bg/o.jpg", "is_closed": false, "url": "https://www.yelp.com/biz/grando-sukredo-glinde?adjust_creative=hBJOknVQJ58S5goQyjmwRw&utm_campaign=yelp_api_v3&utm_medium=api_v3_business_search&utm_source=hBJOknVQJ58S5goQyjmwRw", "review_count": 19, "categories": [{"alias": "steak", "title": "Steakhouses"}], "rating": 3.5, "coordinates": {"latitude": 53.5400263, "longitude": 10.2100768}, "transactions": [], "price": "\u20ac\u20ac", "location": {"address1": "M\u00f6llner Landstr. 55", "address2": null, "address3": null, "city": "Glinde", "zip_code": "21509", "country": "DE", "state": "SH", "display_address": ["M\u00f6llner Landstr. 55", "21509 Glinde", "Germany"]}, "phone": "+494089708292", "display_phone": "+49 40 89708292", "distance": 2463.791453205314}, {"id": "edje85kZBoKiccEv6Wo4mQ", "alias": "grill-shop-hamburg-2", "name": "Grill Shop", "image_url": "https://s3-media4.fl.yelpcdn.com/bphoto/ODHOBZBuD4fTiVATuCUGAA/o.jpg", "is_closed": false, "url": "https://www.yelp.com/biz/grill-shop-hamburg-2?adjust_creative=hBJOknVQJ58S5goQyjmwRw&utm_campaign=yelp_api_v3&utm_medium=api_v3_business_search&utm_source=hBJOknVQJ58S5goQyjmwRw", "review_count": 6, "categories": [{"alias": "currysausage", "title": "Curry Sausage"}, {"alias": "german", "title": "German"}], "rating": 4.5, "coordinates": {"latitude": 53.48713, "longitude": 10.21846}, "transactions": [], "price": "\u20ac\u20ac", "location": {"address1": "Wentorfer Str. 20", "address2": null, "address3": null, "city": "Hamburg", "zip_code": "21029", "country": "DE", "state": "HH", "display_address": ["Wentorfer Str. 20", "21029 Hamburg", "Germany"]}, "phone": "+49407247337", "display_phone": "+49 40 7247337", "distance": 3479.1114099783567}, {"id": "OakpPP3OESsTSLAoX0AXCg", "alias": "kumpir-first-hamburg", "name": "Kumpir First", "image_url": "", "is_closed": false, "url": "https://www.yelp.com/biz/kumpir-first-hamburg?adjust_creative=hBJOknVQJ58S5goQyjmwRw&utm_campaign=yelp_api_v3&utm_medium=api_v3_business_search&utm_source=hBJOknVQJ58S5goQyjmwRw", "review_count": 2, "categories": [{"alias": "potatoes", "title": "Potatoes"}], "rating": 3.5, "coordinates": {"latitude": 53.493, "longitude": 10.2071}, "transactions": [], "price": "\u20ac\u20ac", "location": {"address1": "Ale Holstenstr. 22", "address2": null, "address3": null, "city": "Hamburg", "zip_code": "21031", "country": "DE", "state": "HH", "display_address": ["Ale Holstenstr. 22", "21031 Hamburg", "Germany"]}, "phone": "", "display_phone": "", "distance": 2769.00530820238}, {"id": "e6YCSoi5bMOCZVCmxNeunA", "alias": "kliemanns-croque-glinde", "name": "Kliemann's Croque", "image_url": "https://s3-media2.fl.yelpcdn.com/bphoto/L84qpsAnrgiWRarRT1GQbw/o.jpg", "is_closed": false, "url": "https://www.yelp.com/biz/kliemanns-croque-glinde?adjust_creative=hBJOknVQJ58S5goQyjmwRw&utm_campaign=yelp_api_v3&utm_medium=api_v3_business_search&utm_source=hBJOknVQJ58S5goQyjmwRw", "review_count": 10, "categories": [{"alias": "sandwiches", "title": "Sandwiches"}], "rating": 3.0, "coordinates": {"latitude": 53.5406456609283, "longitude": 10.2012315254397}, "transactions": [], "price": "\u20ac\u20ac\u20ac", "location": {"address1": "M\u00f6llner Landstr. 31", "address2": null, "address3": null, "city": "Glinde", "zip_code": "21509", "country": "DE", "state": "SH", "display_address": ["M\u00f6llner Landstr. 31", "21509 Glinde", "Germany"]}, "phone": "+49407101199", "display_phone": "+49 40 7101199", "distance": 2579.661297152349}, {"id": "APvIA_7ssxgC0atmQEFMcg", "alias": "burgerkultour-food-truck-hamburg-2", "name": "BurgerKultour Food Truck", "image_url": "https://s3-media4.fl.yelpcdn.com/bphoto/KoAuwalMnlAO8139MmdYBQ/o.jpg", "is_closed": false, "url": "https://www.yelp.com/biz/burgerkultour-food-truck-hamburg-2?adjust_creative=hBJOknVQJ58S5goQyjmwRw&utm_campaign=yelp_api_v3&utm_medium=api_v3_business_search&utm_source=hBJOknVQJ58S5goQyjmwRw", "review_count": 3, "categories": [{"alias": "foodtrucks", "title": "Food Trucks"}, {"alias": "burgers", "title": "Burgers"}], "rating": 4.5, "coordinates": {"latitude": 53.57154, "longitude": 9.95575}, "transactions": [], "price": "\u20ac\u20ac", "location": {"address1": "", "address2": "", "address3": "", "city": "Hamburg", "zip_code": "20259", "country": "DE", "state": "HH", "display_address": ["20259 Hamburg", "Germany"]}, "phone": "+4917626055122", "display_phone": "+49 176 26055122", "distance": 17690.21891339464}, {"id": "7OmvdNUi9n4EcBLmZUtxMA", "alias": "mai-mai-asia-imbiss-hamburg", "name": "Mai Mai Asia Imbiss", "image_url": "", "is_closed": false, "url": "https://www.yelp.com/biz/mai-mai-asia-imbiss-hamburg?adjust_creative=hBJOknVQJ58S5goQyjmwRw&utm_campaign=yelp_api_v3&utm_medium=api_v3_business_search&utm_source=hBJOknVQJ58S5goQyjmwRw", "review_count": 4, "categories": [{"alias": "chinese", "title": "Chinese"}], "rating": 3.0, "coordinates": {"latitude": 53.4897, "longitude": 10.2073}, "transactions": [], "price": "\u20ac\u20ac", "location": {"address1": "Am Bahnhof", "address2": null, "address3": null, "city": "Hamburg", "zip_code": "21029", "country": "DE", "state": "HH", "display_address": ["Am Bahnhof", "21029 Hamburg", "Germany"]}, "phone": "", "display_phone": "", "distance": 3135.2548360558226}, {"id": "HulzwGeEub08NFh1HaYU4A", "alias": "kliemanns-grill-glinde", "name": "Kliemanns Grill", "image_url": "https://s3-media3.fl.yelpcdn.com/bphoto/IQE5mc9QPXg5pM37n57N6A/o.jpg", "is_closed": false, "url": "https://www.yelp.com/biz/kliemanns-grill-glinde?adjust_creative=hBJOknVQJ58S5goQyjmwRw&utm_campaign=yelp_api_v3&utm_medium=api_v3_business_search&utm_source=hBJOknVQJ58S5goQyjmwRw", "review_count": 7, "categories": [{"alias": "hotdogs", "title": "Fast Food"}, {"alias": "foodstands", "title": "Food Stands"}], "rating": 3.5, "coordinates": {"latitude": 53.540678234906, "longitude": 10.201831846757}, "transactions": [], "price": "\u20ac\u20ac", "location": {"address1": "M\u00f6llner Landstr. 35 B", "address2": null, "address3": null, "city": "Glinde", "zip_code": "21509", "country": "DE", "state": "SH", "display_address": ["M\u00f6llner Landstr. 35 B", "21509 Glinde", "Germany"]}, "phone": "+49407106902", "display_phone": "+49 40 7106902", "distance": 2575.860314087389}, {"id": "uFh86dusfDcIqUPZlAPWjA", "alias": "panos-grill-spezialit\u00e4ten-hamburg", "name": "Panos Grill Spezialit\u00e4ten", "image_url": "https://s3-media4.fl.yelpcdn.com/bphoto/R0pc3flO-9MYTnple4DP0Q/o.jpg", "is_closed": false, "url": "https://www.yelp.com/biz/panos-grill-spezialit%C3%A4ten-hamburg?adjust_creative=hBJOknVQJ58S5goQyjmwRw&utm_campaign=yelp_api_v3&utm_medium=api_v3_business_search&utm_source=hBJOknVQJ58S5goQyjmwRw", "review_count": 3, "categories": [{"alias": "hotdogs", "title": "Fast Food"}, {"alias": "greek", "title": "Greek"}], "rating": 2.5, "coordinates": {"latitude": 53.4887605, "longitude": 10.1948387}, "transactions": [], "price": "\u20ac\u20ac", "location": {"address1": "Kurt-A.-K\u00f6rber-Chaussee 53", "address2": null, "address3": null, "city": "Hamburg", "zip_code": "21033", "country": "DE", "state": "HH", "display_address": ["Kurt-A.-K\u00f6rber-Chaussee 53", "21033 Hamburg", "Germany"]}, "phone": "+494072541187", "display_phone": "+49 40 72541187", "distance": 3366.675079995595}, {"id": "QOgAHBJ-mrD0tRC3rLOEvg", "alias": "mckumpir-hamburg", "name": "McKumpir", "image_url": "https://s3-media1.fl.yelpcdn.com/bphoto/SREBizanG3oyB-ieR9shXA/o.jpg", "is_closed": false, "url": "https://www.yelp.com/biz/mckumpir-hamburg?adjust_creative=hBJOknVQJ58S5goQyjmwRw&utm_campaign=yelp_api_v3&utm_medium=api_v3_business_search&utm_source=hBJOknVQJ58S5goQyjmwRw", "review_count": 1, "categories": [{"alias": "potatoes", "title": "Potatoes"}], "rating": 5.0, "coordinates": {"latitude": 53.4868849099982, "longitude": 10.2133054286242}, "transactions": [], "location": {"address1": "Bergedorfer Str. 133", "address2": "", "address3": "", "city": "Hamburg", "zip_code": "21029", "country": "DE", "state": "HH", "display_address": ["Bergedorfer Str. 133", "21029 Hamburg", "Germany"]}, "phone": "+494055898666", "display_phone": "+49 40 55898666", "distance": 3459.8297463941367}, {"id": "ssnLRo5BRqn2epOzxnHryg", "alias": "smileys-hamburg-8", "name": "Smiley's", "image_url": "https://s3-media3.fl.yelpcdn.com/bphoto/sOMzVXvslVgd4uQ3GF2pdg/o.jpg", "is_closed": false, "url": "https://www.yelp.com/biz/smileys-hamburg-8?adjust_creative=hBJOknVQJ58S5goQyjmwRw&utm_campaign=yelp_api_v3&utm_medium=api_v3_business_search&utm_source=hBJOknVQJ58S5goQyjmwRw", "review_count": 5, "categories": [{"alias": "pizza", "title": "Pizza"}], "rating": 2.0, "coordinates": {"latitude": 53.504, "longitude": 10.2147}, "transactions": [], "price": "\u20ac\u20ac", "location": {"address1": "Binnenfeldredder 40", "address2": null, "address3": null, "city": "Hamburg", "zip_code": "21031", "country": "DE", "state": "HH", "display_address": ["Binnenfeldredder 40", "21031 Hamburg", "Germany"]}, "phone": "+4940751150303", "display_phone": "+49 40 751150303", "distance": 1592.7589416285705}, {"id": "HzyLYlgBFOHtKIWnc6QkfA", "alias": "frascati-grill-hamburg", "name": "Frascati Grill", "image_url": "https://s3-media4.fl.yelpcdn.com/bphoto/cZ5BVRDntqr5uho2d-bABw/o.jpg", "is_closed": false, "url": "https://www.yelp.com/biz/frascati-grill-hamburg?adjust_creative=hBJOknVQJ58S5goQyjmwRw&utm_campaign=yelp_api_v3&utm_medium=api_v3_business_search&utm_source=hBJOknVQJ58S5goQyjmwRw", "review_count": 3, "categories": [{"alias": "hotdogs", "title": "Fast Food"}], "rating": 3.5, "coordinates": {"latitude": 53.48198, "longitude": 10.20929}, "transactions": [], "price": "\u20ac\u20ac\u20ac", "location": {"address1": "Curslacker Neuer Deich 31", "address2": null, "address3": null, "city": "Hamburg", "zip_code": "21029", "country": "DE", "state": "HH", "display_address": ["Curslacker Neuer Deich 31", "21029 Hamburg", "Germany"]}, "phone": "+49407218324", "display_phone": "+49 40 7218324", "distance": 3992.3298032456096}, {"id": "DzijpgyXpN0nj83FU0wc_g", "alias": "schlemmershop-preuhs-hamburg", "name": "Schlemmershop Preuhs", "image_url": "", "is_closed": false, "url": "https://www.yelp.com/biz/schlemmershop-preuhs-hamburg?adjust_creative=hBJOknVQJ58S5goQyjmwRw&utm_campaign=yelp_api_v3&utm_medium=api_v3_business_search&utm_source=hBJOknVQJ58S5goQyjmwRw", "review_count": 1, "categories": [{"alias": "food", "title": "Food"}, {"alias": "delis", "title": "Delis"}], "rating": 5.0, "coordinates": {"latitude": 53.48803, "longitude": 10.20917}, "transactions": [], "location": {"address1": "Bergedorfer Str. 105", "address2": null, "address3": null, "city": "Hamburg", "zip_code": "21029", "country": "DE", "state": "HH", "display_address": ["Bergedorfer Str. 105", "21029 Hamburg", "Germany"]}, "phone": "+49407246603", "display_phone": "+49 40 7246603", "distance": 3245.1455157284427}, {"id": "JayE4rK3kl3b6_gNXpqqQw", "alias": "bla-bla-gastst\u00e4tte-hamburg-2", "name": "Bla bla Gastst\u00e4tte", "image_url": "https://s3-media4.fl.yelpcdn.com/bphoto/ZAPXKJ0xunxGQhSXkkFZAw/o.jpg", "is_closed": false, "url": "https://www.yelp.com/biz/bla-bla-gastst%C3%A4tte-hamburg-2?adjust_creative=hBJOknVQJ58S5goQyjmwRw&utm_campaign=yelp_api_v3&utm_medium=api_v3_business_search&utm_source=hBJOknVQJ58S5goQyjmwRw", "review_count": 1, "categories": [{"alias": "german", "title": "German"}], "rating": 4.0, "coordinates": {"latitude": 53.48488, "longitude": 10.2184414}, "transactions": [], "price": "\u20ac", "location": {"address1": "Holtenklinker Str.22", "address2": "", "address3": "", "city": "Hamburg", "zip_code": "21029", "country": "DE", "state": "HH", "display_address": ["Holtenklinker Str.22", "21029 Hamburg", "Germany"]}, "phone": "+49407243714", "display_phone": "+49 40 7243714", "distance": 3725.091559979822}, {"id": "tGQv0AasqyralxGUsJIZqQ", "alias": "restaurant-ramada-hamburg", "name": "Restaurant Ramada", "image_url": "https://s3-media4.fl.yelpcdn.com/bphoto/-O_1gtKPX_JM93I6Y30oAA/o.jpg", "is_closed": false, "url": "https://www.yelp.com/biz/restaurant-ramada-hamburg?adjust_creative=hBJOknVQJ58S5goQyjmwRw&utm_campaign=yelp_api_v3&utm_medium=api_v3_business_search&utm_source=hBJOknVQJ58S5goQyjmwRw", "review_count": 2, "categories": [{"alias": "international", "title": "International"}, {"alias": "german", "title": "German"}], "rating": 3.0, "coordinates": {"latitude": 53.4865, "longitude": 10.2093}, "transactions": [], "location": {"address1": "Holzhude 2", "address2": null, "address3": null, "city": "Hamburg", "zip_code": "21029", "country": "DE", "state": "HH", "display_address": ["Holzhude 2", "21029 Hamburg", "Germany"]}, "phone": "+4940725950", "display_phone": "+49 40 725950", "distance": 3489.757575106814}, {"id": "9S37wxwpvOG8JMS2LNEH3A", "alias": "mcdonalds-hamburg-25", "name": "McDonald's", "image_url": "https://s3-media3.fl.yelpcdn.com/bphoto/L2POYkhCXoxfOOVpE-by7g/o.jpg", "is_closed": false, "url": "https://www.yelp.com/biz/mcdonalds-hamburg-25?adjust_creative=hBJOknVQJ58S5goQyjmwRw&utm_campaign=yelp_api_v3&utm_medium=api_v3_business_search&utm_source=hBJOknVQJ58S5goQyjmwRw", "review_count": 10, "categories": [{"alias": "hotdogs", "title": "Fast Food"}, {"alias": "burgers", "title": "Burgers"}], "rating": 2.5, "coordinates": {"latitude": 53.4806, "longitude": 10.2069}, "transactions": [], "price": "\u20ac\u20ac", "location": {"address1": "Lehfeld 2", "address2": null, "address3": null, "city": "Hamburg", "zip_code": "21029", "country": "DE", "state": "HH", "display_address": ["Lehfeld 2", "21029 Hamburg", "Germany"]}, "phone": "+49407217676", "display_phone": "+49 40 7217676", "distance": 4147.464906650828}, {"id": "cGIKCcR0wZszz8VldC2-7g", "alias": "currywerk-hamburg", "name": "curryWERK", "image_url": "https://s3-media4.fl.yelpcdn.com/bphoto/j_ZPQAB6JrAru84VDuLiRA/o.jpg", "is_closed": false, "url": "https://www.yelp.com/biz/currywerk-hamburg?adjust_creative=hBJOknVQJ58S5goQyjmwRw&utm_campaign=yelp_api_v3&utm_medium=api_v3_business_search&utm_source=hBJOknVQJ58S5goQyjmwRw", "review_count": 1, "categories": [{"alias": "foodtrucks", "title": "Food Trucks"}, {"alias": "currysausage", "title": "Curry Sausage"}], "rating": 4.0, "coordinates": {"latitude": 53.5498886108398, "longitude": 9.94732189178467}, "transactions": [], "price": "\u20ac\u20ac", "location": {"address1": "", "address2": "", "address3": "", "city": "Hamburg", "zip_code": "22767", "country": "DE", "state": "HH", "display_address": ["22767 Hamburg", "Germany"]}, "phone": "+4917632443433", "display_phone": "+49 176 32443433", "distance": 17924.869347870266}, {"id": "-FGEmzXxd6vzetcdQNksdg", "alias": "taverna-dimi-hamburg", "name": "Taverna Dimi", "image_url": "https://s3-media2.fl.yelpcdn.com/bphoto/T6j4KRaz6NhKa49FCqLpmA/o.jpg", "is_closed": false, "url": "https://www.yelp.com/biz/taverna-dimi-hamburg?adjust_creative=hBJOknVQJ58S5goQyjmwRw&utm_campaign=yelp_api_v3&utm_medium=api_v3_business_search&utm_source=hBJOknVQJ58S5goQyjmwRw", "review_count": 1, "categories": [{"alias": "greek", "title": "Greek"}], "rating": 1.0, "coordinates": {"latitude": 53.48597, "longitude": 10.2134}, "transactions": [], "location": {"address1": "Neuer Weg 19", "address2": null, "address3": null, "city": "Hamburg", "zip_code": "21029", "country": "DE", "state": "HH", "display_address": ["Neuer Weg 19", "21029 Hamburg", "Germany"]}, "phone": "", "display_phone": "", "distance": 3547.3600784532314}, {"id": "XF9HfsuWnwXbZhb73aoGXw", "alias": "nordsee-hamburg-13", "name": "Nordsee", "image_url": "https://s3-media3.fl.yelpcdn.com/bphoto/9sQl-z4MHyvvEYe8pf1q-g/o.jpg", "is_closed": false, "url": "https://www.yelp.com/biz/nordsee-hamburg-13?adjust_creative=hBJOknVQJ58S5goQyjmwRw&utm_campaign=yelp_api_v3&utm_medium=api_v3_business_search&utm_source=hBJOknVQJ58S5goQyjmwRw", "review_count": 4, "categories": [{"alias": "fischbroetchen", "title": "Fischbroetchen"}, {"alias": "seafood", "title": "Seafood"}], "rating": 3.0, "coordinates": {"latitude": 53.4885394888607, "longitude": 10.2072608079345}, "transactions": [], "price": "\u20ac\u20ac", "location": {"address1": "Weidenbaumsweg 21", "address2": "", "address3": null, "city": "Hamburg", "zip_code": "21029", "country": "DE", "state": "HH", "display_address": ["Weidenbaumsweg 21", "21029 Hamburg", "Germany"]}, "phone": "+494072004985", "display_phone": "+49 40 72004985", "distance": 3264.31642506111}]