[{"id": "d3IaAPXLTYkqGqukAB81ig", "alias": "restaurant-rhodos-hamburg", "name": "Restaurant Rhodos", "image_url": "https://s3-media1.fl.yelpcdn.com/bphoto/BAyl-tsBuGD2Ja-FqHzoFQ/o.jpg", "is_closed": false, "url": "https://www.yelp.com/biz/restaurant-rhodos-hamburg?adjust_creative=hBJOknVQJ58S5goQyjmwRw&utm_campaign=yelp_api_v3&utm_medium=api_v3_business_search&utm_source=hBJOknVQJ58S5goQyjmwRw", "review_count": 12, "categories": [{"alias": "greek", "title": "Greek"}], "rating": 4.5, "coordinates": {"latitude": 53.5307, "longitude": 10.1257}, "transactions": [], "price": "\u20ac\u20ac", "location": {"address1": "Steinbeker Hauptstr. 75", "address2": "", "address3": null, "city": "Hamburg", "zip_code": "22117", "country": "DE", "state": "HH", "display_address": ["Steinbeker Hauptstr. 75", "22117 Hamburg", "Germany"]}, "phone": "+49407125732", "display_phone": "+49 40 7125732", "distance": 1414.7638061937544}, {"id": "SNPvqQxaRxQIra7hgjev2Q", "alias": "zum-kl\u00f6nschnack-hamburg", "name": "Zum Kl\u00f6nschnack", "image_url": "", "is_closed": false, "url": "https://www.yelp.com/biz/zum-kl%C3%B6nschnack-hamburg?adjust_creative=hBJOknVQJ58S5goQyjmwRw&utm_campaign=yelp_api_v3&utm_medium=api_v3_business_search&utm_source=hBJOknVQJ58S5goQyjmwRw", "review_count": 1, "categories": [{"alias": "currysausage", "title": "Curry Sausage"}], "rating": 4.0, "coordinates": {"latitude": 53.5333, "longitude": 10.097}, "transactions": [], "price": "\u20ac\u20ac", "location": {"address1": "Moorfleeter Str. 25", "address2": null, "address3": null, "city": "Hamburg", "zip_code": "22113", "country": "DE", "state": "HH", "display_address": ["Moorfleeter Str. 25", "22113 Hamburg", "Germany"]}, "phone": "", "display_phone": "", "distance": 2143.2890037788006}, {"id": "dpRmaAsro244woCbG-KXsQ", "alias": "zum-eichbaum-hamburg", "name": "Zum Eichbaum", "image_url": "https://s3-media3.fl.yelpcdn.com/bphoto/7sVtbVfEtQKroT84_5DbYA/o.jpg", "is_closed": false, "url": "https://www.yelp.com/biz/zum-eichbaum-hamburg?adjust_creative=hBJOknVQJ58S5goQyjmwRw&utm_campaign=yelp_api_v3&utm_medium=api_v3_business_search&utm_source=hBJOknVQJ58S5goQyjmwRw", "review_count": 46, "categories": [{"alias": "german", "title": "German"}, {"alias": "hotels", "title": "Hotels"}], "rating": 4.0, "coordinates": {"latitude": 53.4881351625541, "longitude": 10.1045254522435}, "transactions": [], "price": "\u20ac\u20ac", "location": {"address1": "Moorfleeter Deich 477", "address2": "", "address3": "", "city": "Hamburg", "zip_code": "21037", "country": "DE", "state": "HH", "display_address": ["Moorfleeter Deich 477", "21037 Hamburg", "Germany"]}, "phone": "+49407372655", "display_phone": "+49 40 7372655", "distance": 3525.2732787026202}, {"id": "nUOFGotik8BYpYlFNev2wQ", "alias": "orkinus-fisch-grill-haus-hamburg", "name": "Orkinus Fisch-Grill-Haus", "image_url": "https://s3-media1.fl.yelpcdn.com/bphoto/hgzwti95kpzVl4LcuUSIew/o.jpg", "is_closed": false, "url": "https://www.yelp.com/biz/orkinus-fisch-grill-haus-hamburg?adjust_creative=hBJOknVQJ58S5goQyjmwRw&utm_campaign=yelp_api_v3&utm_medium=api_v3_business_search&utm_source=hBJOknVQJ58S5goQyjmwRw", "review_count": 36, "categories": [{"alias": "seafood", "title": "Seafood"}], "rating": 4.5, "coordinates": {"latitude": 53.5403374, "longitude": 10.1013957}, "transactions": [], "price": "\u20ac\u20ac", "location": {"address1": "Billstedter Hauptstr. 43", "address2": "", "address3": "", "city": "Hamburg", "zip_code": "22111", "country": "DE", "state": "HH", "display_address": ["Billstedter Hauptstr. 43", "22111 Hamburg", "Germany"]}, "phone": "+494032841201", "display_phone": "+49 40 32841201", "distance": 2646.1564925167845}, {"id": "RXRh4Wb1Os3YT2Fam1swVA", "alias": "sel-kebaps-hamburg-3", "name": "Sel Kebap's", "image_url": "https://s3-media4.fl.yelpcdn.com/bphoto/PUU457LahpNwzeysKymIJg/o.jpg", "is_closed": false, "url": "https://www.yelp.com/biz/sel-kebaps-hamburg-3?adjust_creative=hBJOknVQJ58S5goQyjmwRw&utm_campaign=yelp_api_v3&utm_medium=api_v3_business_search&utm_source=hBJOknVQJ58S5goQyjmwRw", "review_count": 1, "categories": [{"alias": "kebab", "title": "Kebab"}, {"alias": "turkish", "title": "Turkish"}], "rating": 5.0, "coordinates": {"latitude": 53.5400121164517, "longitude": 10.1023189723492}, "transactions": [], "location": {"address1": "Billstedter Hauptstr. 51", "address2": "", "address3": "", "city": "Hamburg", "zip_code": "22111", "country": "DE", "state": "HH", "display_address": ["Billstedter Hauptstr. 51", "22111 Hamburg", "Germany"]}, "phone": "", "display_phone": "", "distance": 2587.923071425798}, {"id": "SlTXq8HEtujfMAVIyvBYHg", "alias": "cevapcici-und-burek-hamburg", "name": "Cevapcici & Burek", "image_url": "https://s3-media3.fl.yelpcdn.com/bphoto/-TKeutnVAgeqUB9XllvCww/o.jpg", "is_closed": false, "url": "https://www.yelp.com/biz/cevapcici-und-burek-hamburg?adjust_creative=hBJOknVQJ58S5goQyjmwRw&utm_campaign=yelp_api_v3&utm_medium=api_v3_business_search&utm_source=hBJOknVQJ58S5goQyjmwRw", "review_count": 3, "categories": [{"alias": "german", "title": "German"}], "rating": 4.5, "coordinates": {"latitude": 53.54102, "longitude": 10.10102}, "transactions": [], "price": "\u20ac\u20ac", "location": {"address1": "Schiffbeker Weg 3", "address2": "", "address3": null, "city": "Hamburg", "zip_code": "22111", "country": "DE", "state": "HH", "display_address": ["Schiffbeker Weg 3", "22111 Hamburg", "Germany"]}, "phone": "+494023954224", "display_phone": "+49 40 23954224", "distance": 2723.80673171691}, {"id": "XPuVFytYhvVWWXO01qGyew", "alias": "pascha-d\u00f6ner-hamburg", "name": "Pascha D\u00f6ner", "image_url": "https://s3-media3.fl.yelpcdn.com/bphoto/olRB1zRRp9rBuXoIrf9kKg/o.jpg", "is_closed": false, "url": "https://www.yelp.com/biz/pascha-d%C3%B6ner-hamburg?adjust_creative=hBJOknVQJ58S5goQyjmwRw&utm_campaign=yelp_api_v3&utm_medium=api_v3_business_search&utm_source=hBJOknVQJ58S5goQyjmwRw", "review_count": 2, "categories": [{"alias": "kebab", "title": "Kebab"}], "rating": 3.5, "coordinates": {"latitude": 53.53844, "longitude": 10.12413}, "transactions": [], "price": "\u20ac", "location": {"address1": "M\u00f6llner Landstr. 130", "address2": "", "address3": "", "city": "Hamburg", "zip_code": "22117", "country": "DE", "state": "HH", "display_address": ["M\u00f6llner Landstr. 130", "22117 Hamburg", "Germany"]}, "phone": "", "display_phone": "", "distance": 2221.7303685978745}, {"id": "cENV4e-uYI6n9rz-djMLpg", "alias": "fresh-factory-hamburg", "name": "Fresh Factory", "image_url": "", "is_closed": false, "url": "https://www.yelp.com/biz/fresh-factory-hamburg?adjust_creative=hBJOknVQJ58S5goQyjmwRw&utm_campaign=yelp_api_v3&utm_medium=api_v3_business_search&utm_source=hBJOknVQJ58S5goQyjmwRw", "review_count": 1, "categories": [{"alias": "salad", "title": "Salad"}, {"alias": "juicebars", "title": "Juice Bars & Smoothies"}], "rating": 4.0, "coordinates": {"latitude": 53.52276, "longitude": 10.09576}, "transactions": [], "location": {"address1": "Porgesring 11", "address2": "", "address3": "", "city": "Hamburg", "zip_code": "22113", "country": "DE", "state": "HH", "display_address": ["Porgesring 11", "22113 Hamburg", "Germany"]}, "phone": "+494054750750", "display_phone": "+49 40 54750750", "distance": 1529.236777687765}, {"id": "e1MAQ0OCg675wVd3DeB3Tw", "alias": "meram-restaurant-hamburg-2", "name": "Meram Restaurant", "image_url": "https://s3-media2.fl.yelpcdn.com/bphoto/wJV0u3WzHA11nTdGmfA9wg/o.jpg", "is_closed": false, "url": "https://www.yelp.com/biz/meram-restaurant-hamburg-2?adjust_creative=hBJOknVQJ58S5goQyjmwRw&utm_campaign=yelp_api_v3&utm_medium=api_v3_business_search&utm_source=hBJOknVQJ58S5goQyjmwRw", "review_count": 61, "categories": [{"alias": "turkish", "title": "Turkish"}], "rating": 4.0, "coordinates": {"latitude": 53.54025, "longitude": 10.10179}, "transactions": [], "price": "\u20ac\u20ac", "location": {"address1": "Billstedter Hauptstr. 47", "address2": "", "address3": null, "city": "Hamburg", "zip_code": "22111", "country": "DE", "state": "HH", "display_address": ["Billstedter Hauptstr. 47", "22111 Hamburg", "Germany"]}, "phone": "+49407314656", "display_phone": "+49 40 7314656", "distance": 2629.080440455119}, {"id": "FRmfMd1RyzCEGobD0V4SwQ", "alias": "anatolya-grill-haus-hamburg", "name": "Anatolya Grill-Haus", "image_url": "https://s3-media2.fl.yelpcdn.com/bphoto/t5sUs72PtLkdRk7aAjl68A/o.jpg", "is_closed": false, "url": "https://www.yelp.com/biz/anatolya-grill-haus-hamburg?adjust_creative=hBJOknVQJ58S5goQyjmwRw&utm_campaign=yelp_api_v3&utm_medium=api_v3_business_search&utm_source=hBJOknVQJ58S5goQyjmwRw", "review_count": 2, "categories": [{"alias": "kebab", "title": "Kebab"}], "rating": 2.5, "coordinates": {"latitude": 53.5404, "longitude": 10.1012}, "transactions": [], "price": "\u20ac\u20ac", "location": {"address1": "Billstedter Hauptstr.", "address2": null, "address3": null, "city": "Hamburg", "zip_code": "22111", "country": "DE", "state": "HH", "display_address": ["Billstedter Hauptstr.", "22111 Hamburg", "Germany"]}, "phone": "", "display_phone": "", "distance": 2657.9401488956623}, {"id": "zDBc6IZrtooKf3VIjwNbIA", "alias": "apollo-pizza-hamburg", "name": "Apollo Pizza", "image_url": "https://s3-media3.fl.yelpcdn.com/bphoto/bmlAoSkT98rY5_ArvhGK8Q/o.jpg", "is_closed": false, "url": "https://www.yelp.com/biz/apollo-pizza-hamburg?adjust_creative=hBJOknVQJ58S5goQyjmwRw&utm_campaign=yelp_api_v3&utm_medium=api_v3_business_search&utm_source=hBJOknVQJ58S5goQyjmwRw", "review_count": 8, "categories": [{"alias": "pizza", "title": "Pizza"}], "rating": 3.0, "coordinates": {"latitude": 53.5377, "longitude": 10.1118}, "transactions": [], "price": "\u20ac", "location": {"address1": "Sp\u00f6kelbarg 20", "address2": null, "address3": null, "city": "Hamburg", "zip_code": "22117", "country": "DE", "state": "HH", "display_address": ["Sp\u00f6kelbarg 20", "22117 Hamburg", "Germany"]}, "phone": "+494021987411", "display_phone": "+49 40 21987411", "distance": 2148.963208513754}, {"id": "3nKXBJvBXNiYggCiTC1dXw", "alias": "sunar-kebap-haus-hamburg", "name": "Sunar Kebap Haus", "image_url": "https://s3-media2.fl.yelpcdn.com/bphoto/QxvXwV4fZc6eF47X0rz4lw/o.jpg", "is_closed": false, "url": "https://www.yelp.com/biz/sunar-kebap-haus-hamburg?adjust_creative=hBJOknVQJ58S5goQyjmwRw&utm_campaign=yelp_api_v3&utm_medium=api_v3_business_search&utm_source=hBJOknVQJ58S5goQyjmwRw", "review_count": 2, "categories": [{"alias": "kebab", "title": "Kebab"}], "rating": 4.5, "coordinates": {"latitude": 53.5599, "longitude": 10.1086}, "transactions": [], "price": "\u20ac\u20ac", "location": {"address1": "Dannerallee 1a", "address2": null, "address3": null, "city": "Hamburg", "zip_code": "22119", "country": "DE", "state": "HH", "display_address": ["Dannerallee 1a", "22119 Hamburg", "Germany"]}, "phone": "+494088155672", "display_phone": "+49 40 88155672", "distance": 4618.827258592271}, {"id": "FvpTumAZMtccgdMlUkSr2A", "alias": "hallo-pizza-hamburg-7", "name": "Hallo Pizza!", "image_url": "https://s3-media2.fl.yelpcdn.com/bphoto/U-MQv6oe7Kn8i7P9yqdCUA/o.jpg", "is_closed": false, "url": "https://www.yelp.com/biz/hallo-pizza-hamburg-7?adjust_creative=hBJOknVQJ58S5goQyjmwRw&utm_campaign=yelp_api_v3&utm_medium=api_v3_business_search&utm_source=hBJOknVQJ58S5goQyjmwRw", "review_count": 7, "categories": [{"alias": "pizza", "title": "Pizza"}], "rating": 3.5, "coordinates": {"latitude": 53.5487, "longitude": 10.1089}, "transactions": [], "price": "\u20ac\u20ac", "location": {"address1": "Schiffbeker Weg 94", "address2": null, "address3": null, "city": "Hamburg", "zip_code": "22119", "country": "DE", "state": "HH", "display_address": ["Schiffbeker Weg 94", "22119 Hamburg", "Germany"]}, "phone": "+494081995800", "display_phone": "+49 40 81995800", "distance": 3386.203365197486}, {"id": "qYozPFddHgpXS-_RSZ7Tgg", "alias": "corfu-grill-hamburg-4", "name": "Corfu Grill", "image_url": "https://s3-media3.fl.yelpcdn.com/bphoto/Xm2njL2L4yVCzk9AvmWJlQ/o.jpg", "is_closed": false, "url": "https://www.yelp.com/biz/corfu-grill-hamburg-4?adjust_creative=hBJOknVQJ58S5goQyjmwRw&utm_campaign=yelp_api_v3&utm_medium=api_v3_business_search&utm_source=hBJOknVQJ58S5goQyjmwRw", "review_count": 43, "categories": [{"alias": "greek", "title": "Greek"}], "rating": 4.5, "coordinates": {"latitude": 53.54598, "longitude": 10.106358}, "transactions": [], "price": "\u20ac\u20ac", "location": {"address1": "Schiffbeker Weg 66", "address2": "", "address3": "", "city": "Hamburg", "zip_code": "22119", "country": "DE", "state": "HH", "display_address": ["Schiffbeker Weg 66", "22119 Hamburg", "Germany"]}, "phone": "+494029810001", "display_phone": "+49 40 29810001", "distance": 3124.305262280134}, {"id": "0Dq2u8WaFJlQnWTVpIHsDw", "alias": "bermudadreieck-hamburg", "name": "Bermudadreieck", "image_url": "https://s3-media1.fl.yelpcdn.com/bphoto/Il20waVhS8IK9_oTX9TOLw/o.jpg", "is_closed": false, "url": "https://www.yelp.com/biz/bermudadreieck-hamburg?adjust_creative=hBJOknVQJ58S5goQyjmwRw&utm_campaign=yelp_api_v3&utm_medium=api_v3_business_search&utm_source=hBJOknVQJ58S5goQyjmwRw", "review_count": 2, "categories": [{"alias": "restaurants", "title": "Restaurants"}], "rating": 3.0, "coordinates": {"latitude": 53.52567, "longitude": 10.11074}, "transactions": [], "price": "\u20ac", "location": {"address1": "Billwerder Billdeich 1", "address2": "", "address3": "", "city": "Hamburg", "zip_code": "22113", "country": "DE", "state": "HH", "display_address": ["Billwerder Billdeich 1", "22113 Hamburg", "Germany"]}, "phone": "", "display_phone": "", "distance": 908.5404730511598}, {"id": "Fay28Bc25iicsyM_EEI1tQ", "alias": "pink-balkan-imbiss-hamburg", "name": "Pink Balkan Imbiss", "image_url": "https://s3-media1.fl.yelpcdn.com/bphoto/-U63FrCtE8eUws3FvxF_9A/o.jpg", "is_closed": false, "url": "https://www.yelp.com/biz/pink-balkan-imbiss-hamburg?adjust_creative=hBJOknVQJ58S5goQyjmwRw&utm_campaign=yelp_api_v3&utm_medium=api_v3_business_search&utm_source=hBJOknVQJ58S5goQyjmwRw", "review_count": 12, "categories": [{"alias": "bbq", "title": "Barbeque"}, {"alias": "serbocroatian", "title": "Serbo Croatian"}], "rating": 4.0, "coordinates": {"latitude": 53.5562, "longitude": 10.0974}, "transactions": [], "price": "\u20ac\u20ac", "location": {"address1": "Manshardtstr. 66", "address2": null, "address3": null, "city": "Hamburg", "zip_code": "22119", "country": "DE", "state": "HH", "display_address": ["Manshardtstr. 66", "22119 Hamburg", "Germany"]}, "phone": "+494067109502", "display_phone": "+49 40 67109502", "distance": 4385.760126123136}, {"id": "xwj4BT0-5XSoAJb03OJW0g", "alias": "kneipe-leos-hamburg", "name": "Kneipe Leo's", "image_url": "", "is_closed": false, "url": "https://www.yelp.com/biz/kneipe-leos-hamburg?adjust_creative=hBJOknVQJ58S5goQyjmwRw&utm_campaign=yelp_api_v3&utm_medium=api_v3_business_search&utm_source=hBJOknVQJ58S5goQyjmwRw", "review_count": 6, "categories": [{"alias": "divebars", "title": "Dive Bars"}, {"alias": "gastropubs", "title": "Gastropubs"}], "rating": 5.0, "coordinates": {"latitude": 53.5596114, "longitude": 10.0956549}, "transactions": [], "price": "\u20ac\u20ac\u20ac", "location": {"address1": "Stoltenstr. 26", "address2": "", "address3": null, "city": "Hamburg", "zip_code": "22119", "country": "DE", "state": "HH", "display_address": ["Stoltenstr. 26", "22119 Hamburg", "Germany"]}, "phone": "+49406513808", "display_phone": "+49 40 6513808", "distance": 4782.098773024581}, {"id": "V4bKMm8OGNYtdGsZNyt5fg", "alias": "nordsee-hamburg-19", "name": "Nordsee", "image_url": "https://s3-media1.fl.yelpcdn.com/bphoto/zagNky8-J7YRTkIlytvZKA/o.jpg", "is_closed": false, "url": "https://www.yelp.com/biz/nordsee-hamburg-19?adjust_creative=hBJOknVQJ58S5goQyjmwRw&utm_campaign=yelp_api_v3&utm_medium=api_v3_business_search&utm_source=hBJOknVQJ58S5goQyjmwRw", "review_count": 5, "categories": [{"alias": "fischbroetchen", "title": "Fischbroetchen"}], "rating": 4.0, "coordinates": {"latitude": 53.5409, "longitude": 10.1055}, "transactions": [], "price": "\u20ac\u20ac", "location": {"address1": "M\u00f6llner Landstr. 3", "address2": "", "address3": null, "city": "Hamburg", "zip_code": "22111", "country": "DE", "state": "HH", "display_address": ["M\u00f6llner Landstr. 3", "22111 Hamburg", "Germany"]}, "phone": "+494073670510", "display_phone": "+49 40 73670510", "distance": 2602.6678708914988}, {"id": "iky1wcqgbisBxoQR-AS4kQ", "alias": "ach-der-deniz-hamburg-3", "name": "Ach Der Deniz", "image_url": "https://s3-media3.fl.yelpcdn.com/bphoto/Lhdt9WtcMIaKKNkqKqIAzw/o.jpg", "is_closed": false, "url": "https://www.yelp.com/biz/ach-der-deniz-hamburg-3?adjust_creative=hBJOknVQJ58S5goQyjmwRw&utm_campaign=yelp_api_v3&utm_medium=api_v3_business_search&utm_source=hBJOknVQJ58S5goQyjmwRw", "review_count": 2, "categories": [{"alias": "kebab", "title": "Kebab"}], "rating": 3.5, "coordinates": {"latitude": 53.538735, "longitude": 10.122476}, "transactions": [], "location": {"address1": "M\u00f6llner Landstr. 123", "address2": "", "address3": null, "city": "Hamburg", "zip_code": "22117", "country": "DE", "state": "HH", "display_address": ["M\u00f6llner Landstr. 123", "22117 Hamburg", "Germany"]}, "phone": "", "display_phone": "", "distance": 2235.263759552759}, {"id": "rDlxd3UlHXEkW57iYRzuRw", "alias": "arams-pizzaservice-hamburg", "name": "Arams Pizzaservice", "image_url": "https://s3-media1.fl.yelpcdn.com/bphoto/sbiCVzLNTTBYfVJ-c9h49A/o.jpg", "is_closed": false, "url": "https://www.yelp.com/biz/arams-pizzaservice-hamburg?adjust_creative=hBJOknVQJ58S5goQyjmwRw&utm_campaign=yelp_api_v3&utm_medium=api_v3_business_search&utm_source=hBJOknVQJ58S5goQyjmwRw", "review_count": 8, "categories": [{"alias": "italian", "title": "Italian"}, {"alias": "hotdogs", "title": "Fast Food"}], "rating": 4.5, "coordinates": {"latitude": 53.5293, "longitude": 10.1262}, "transactions": [], "price": "\u20ac\u20ac", "location": {"address1": "Steinbeker Hauptstr. 70", "address2": null, "address3": null, "city": "Hamburg", "zip_code": "22117", "country": "DE", "state": "HH", "display_address": ["Steinbeker Hauptstr. 70", "22117 Hamburg", "Germany"]}, "phone": "+494018995618", "display_phone": "+49 40 18995618", "distance": 1282.967604906306}, {"id": "U9PC9xkZgrE_sRpktMvnaA", "alias": "afghanische-konditorei-hamburg", "name": "Afghanische Konditorei", "image_url": "", "is_closed": false, "url": "https://www.yelp.com/biz/afghanische-konditorei-hamburg?adjust_creative=hBJOknVQJ58S5goQyjmwRw&utm_campaign=yelp_api_v3&utm_medium=api_v3_business_search&utm_source=hBJOknVQJ58S5goQyjmwRw", "review_count": 1, "categories": [{"alias": "cakeshop", "title": "Patisserie/Cake Shop"}, {"alias": "afghani", "title": "Afghan"}], "rating": 4.0, "coordinates": {"latitude": 53.5421384684295, "longitude": 10.0963474070709}, "transactions": [], "location": {"address1": "Billstedter Hauptstr. 12", "address2": "", "address3": null, "city": "Hamburg", "zip_code": "22111", "country": "DE", "state": "HH", "display_address": ["Billstedter Hauptstr. 12", "22111 Hamburg", "Germany"]}, "phone": "+494084709732", "display_phone": "+49 40 84709732", "distance": 2976.5135496356606}, {"id": "9nxX8JqkPfknCMZDoDQXbQ", "alias": "k\u00f6z-\u00e1-la-turca-hamburg-2", "name": "K\u00f6z \u00e1 la Turca", "image_url": "https://s3-media4.fl.yelpcdn.com/bphoto/Bie7L6e2PWZoKUBZ4GXgCw/o.jpg", "is_closed": false, "url": "https://www.yelp.com/biz/k%C3%B6z-%C3%A1-la-turca-hamburg-2?adjust_creative=hBJOknVQJ58S5goQyjmwRw&utm_campaign=yelp_api_v3&utm_medium=api_v3_business_search&utm_source=hBJOknVQJ58S5goQyjmwRw", "review_count": 2, "categories": [{"alias": "turkish", "title": "Turkish"}, {"alias": "mediterranean", "title": "Mediterranean"}], "rating": 5.0, "coordinates": {"latitude": 53.5401, "longitude": 10.1026}, "transactions": [], "price": "\u20ac\u20ac", "location": {"address1": "Billstedter Hauptstr. 53", "address2": null, "address3": null, "city": "Hamburg", "zip_code": "22111", "country": "DE", "state": "HH", "display_address": ["Billstedter Hauptstr. 53", "22111 Hamburg", "Germany"]}, "phone": "+494070296885", "display_phone": "+49 40 70296885", "distance": 2589.3517651883726}, {"id": "TGllMw7dQQtI2ZvtS868mA", "alias": "billstedter-biergarten-hamburg", "name": "Billstedter Biergarten", "image_url": "https://s3-media3.fl.yelpcdn.com/bphoto/e2ipBAodlvOB-8HO9oN5Hg/o.jpg", "is_closed": false, "url": "https://www.yelp.com/biz/billstedter-biergarten-hamburg?adjust_creative=hBJOknVQJ58S5goQyjmwRw&utm_campaign=yelp_api_v3&utm_medium=api_v3_business_search&utm_source=hBJOknVQJ58S5goQyjmwRw", "review_count": 2, "categories": [{"alias": "beergarden", "title": "Beer Garden"}], "rating": 4.0, "coordinates": {"latitude": 53.53841, "longitude": 10.10607}, "transactions": [], "price": "\u20ac\u20ac", "location": {"address1": "Billstedter Hauptstr. 73", "address2": "", "address3": null, "city": "Hamburg", "zip_code": "22111", "country": "DE", "state": "HH", "display_address": ["Billstedter Hauptstr. 73", "22111 Hamburg", "Germany"]}, "phone": "+49407337958", "display_phone": "+49 40 7337958", "distance": 2333.948221119984}, {"id": "iHJu41roXfxTfqW8EifbVA", "alias": "dolce-italia-hamburg", "name": "Dolce Italia", "image_url": "", "is_closed": false, "url": "https://www.yelp.com/biz/dolce-italia-hamburg?adjust_creative=hBJOknVQJ58S5goQyjmwRw&utm_campaign=yelp_api_v3&utm_medium=api_v3_business_search&utm_source=hBJOknVQJ58S5goQyjmwRw", "review_count": 4, "categories": [{"alias": "italian", "title": "Italian"}], "rating": 4.0, "coordinates": {"latitude": 53.559, "longitude": 10.107}, "transactions": [], "location": {"address1": "Manshardtstr. 111", "address2": null, "address3": null, "city": "Hamburg", "zip_code": "22119", "country": "DE", "state": "HH", "display_address": ["Manshardtstr. 111", "22119 Hamburg", "Germany"]}, "phone": "", "display_phone": "", "distance": 4535.930857071822}, {"id": "vk3-NnVUiAvUP38GlzQzGA", "alias": "stehcafe-melli-hamburg", "name": "Stehcafe Melli", "image_url": "", "is_closed": false, "url": "https://www.yelp.com/biz/stehcafe-melli-hamburg?adjust_creative=hBJOknVQJ58S5goQyjmwRw&utm_campaign=yelp_api_v3&utm_medium=api_v3_business_search&utm_source=hBJOknVQJ58S5goQyjmwRw", "review_count": 1, "categories": [{"alias": "cafes", "title": "Cafes"}], "rating": 5.0, "coordinates": {"latitude": 53.5395851251921, "longitude": 10.0954826433472}, "transactions": [], "location": {"address1": "Billstedter Hauptstr. 1 - 5", "address2": "", "address3": "", "city": "Hamburg", "zip_code": "22111", "country": "DE", "state": "HH", "display_address": ["Billstedter Hauptstr. 1 - 5", "22111 Hamburg", "Germany"]}, "phone": "+494087882430", "display_phone": "+49 40 87882430", "distance": 2762.881202714774}, {"id": "4FpU3bFIM9Qg_WU--dIXMg", "alias": "asiahung-hamburg-18", "name": "asiahung", "image_url": "https://s3-media3.fl.yelpcdn.com/bphoto/xR3SsObZDqrBBHV7p-MkGA/o.jpg", "is_closed": false, "url": "https://www.yelp.com/biz/asiahung-hamburg-18?adjust_creative=hBJOknVQJ58S5goQyjmwRw&utm_campaign=yelp_api_v3&utm_medium=api_v3_business_search&utm_source=hBJOknVQJ58S5goQyjmwRw", "review_count": 8, "categories": [{"alias": "hotdogs", "title": "Fast Food"}, {"alias": "panasian", "title": "Pan Asian"}], "rating": 3.5, "coordinates": {"latitude": 53.5418, "longitude": 10.1061}, "transactions": [], "price": "\u20ac", "location": {"address1": "M\u00f6llner Landstr. 3", "address2": "", "address3": null, "city": "Hamburg", "zip_code": "22111", "country": "DE", "state": "HH", "display_address": ["M\u00f6llner Landstr. 3", "22111 Hamburg", "Germany"]}, "phone": "", "display_phone": "", "distance": 2685.342922710003}, {"id": "tgldf5W4qcSGZElSAqchMg", "alias": "l-italian-hamburg", "name": "L\u00b4Italian", "image_url": "https://s3-media4.fl.yelpcdn.com/bphoto/gYseBdz6ANtBBhY4wjEtcQ/o.jpg", "is_closed": false, "url": "https://www.yelp.com/biz/l-italian-hamburg?adjust_creative=hBJOknVQJ58S5goQyjmwRw&utm_campaign=yelp_api_v3&utm_medium=api_v3_business_search&utm_source=hBJOknVQJ58S5goQyjmwRw", "review_count": 4, "categories": [{"alias": "italian", "title": "Italian"}], "rating": 3.0, "coordinates": {"latitude": 53.53979, "longitude": 10.10457}, "transactions": [], "price": "\u20ac\u20ac", "location": {"address1": "M\u00f6llner Landstr. 3", "address2": "", "address3": "", "city": "Hamburg", "zip_code": "22111", "country": "DE", "state": "HH", "display_address": ["M\u00f6llner Landstr. 3", "22111 Hamburg", "Germany"]}, "phone": "", "display_phone": "", "distance": 2507.83316899129}, {"id": "K4B-CHJDsU_In3DP2LziiA", "alias": "call-a-pizza-hamburg-7", "name": "Call a Pizza", "image_url": "https://s3-media2.fl.yelpcdn.com/bphoto/rELdVa8hQyxKVegEi_LOnw/o.jpg", "is_closed": false, "url": "https://www.yelp.com/biz/call-a-pizza-hamburg-7?adjust_creative=hBJOknVQJ58S5goQyjmwRw&utm_campaign=yelp_api_v3&utm_medium=api_v3_business_search&utm_source=hBJOknVQJ58S5goQyjmwRw", "review_count": 5, "categories": [{"alias": "pizza", "title": "Pizza"}], "rating": 3.5, "coordinates": {"latitude": 53.5428429, "longitude": 10.1028221}, "transactions": [], "price": "\u20ac\u20ac", "location": {"address1": "Schiffbecker Weg 29", "address2": null, "address3": null, "city": "Hamburg", "zip_code": "22111", "country": "DE", "state": "HH", "display_address": ["Schiffbecker Weg 29", "22111 Hamburg", "Germany"]}, "phone": "+494073115181", "display_phone": "+49 40 73115181", "distance": 2866.129755507285}, {"id": "EZILGQV8FIXerqudRluW4Q", "alias": "d\u00f6ner-company-hamburg-2", "name": "D\u00f6ner Company", "image_url": "https://s3-media1.fl.yelpcdn.com/bphoto/MyVEYS5Gdq5FSs6Za7M5kg/o.jpg", "is_closed": false, "url": "https://www.yelp.com/biz/d%C3%B6ner-company-hamburg-2?adjust_creative=hBJOknVQJ58S5goQyjmwRw&utm_campaign=yelp_api_v3&utm_medium=api_v3_business_search&utm_source=hBJOknVQJ58S5goQyjmwRw", "review_count": 6, "categories": [{"alias": "kebab", "title": "Kebab"}], "rating": 3.0, "coordinates": {"latitude": 53.54237, "longitude": 10.10559}, "transactions": [], "price": "\u20ac\u20ac", "location": {"address1": "Reclamstr. 2", "address2": null, "address3": null, "city": "Hamburg", "zip_code": "22111", "country": "DE", "state": "HH", "display_address": ["Reclamstr. 2", "22111 Hamburg", "Germany"]}, "phone": "+494089728833", "display_phone": "+49 40 89728833", "distance": 2693.4358162258313}, {"id": "SGap-Co7AAtFf9Oe8GfH5g", "alias": "palastk\u00fcche-hamburg", "name": "Palastk\u00fcche", "image_url": "https://s3-media1.fl.yelpcdn.com/bphoto/YrX_qatf2-B9JfySCxzD0g/o.jpg", "is_closed": false, "url": "https://www.yelp.com/biz/palastk%C3%BCche-hamburg?adjust_creative=hBJOknVQJ58S5goQyjmwRw&utm_campaign=yelp_api_v3&utm_medium=api_v3_business_search&utm_source=hBJOknVQJ58S5goQyjmwRw", "review_count": 3, "categories": [{"alias": "german", "title": "German"}], "rating": 4.0, "coordinates": {"latitude": 53.54228, "longitude": 10.11027}, "transactions": [], "price": "\u20ac\u20ac\u20ac", "location": {"address1": "\u00d6jendorfer Weg 30 A", "address2": "", "address3": null, "city": "Hamburg", "zip_code": "22119", "country": "DE", "state": "HH", "display_address": ["\u00d6jendorfer Weg 30 A", "22119 Hamburg", "Germany"]}, "phone": "+494028407777", "display_phone": "+49 40 28407777", "distance": 2639.5813770571253}, {"id": "uowcUv_zNFP2MIHxcVMvwQ", "alias": "mcdonalds-hamburg-45", "name": "McDonald's", "image_url": "https://s3-media1.fl.yelpcdn.com/bphoto/81A7pzdZ0CM5ZZztlvbqyg/o.jpg", "is_closed": false, "url": "https://www.yelp.com/biz/mcdonalds-hamburg-45?adjust_creative=hBJOknVQJ58S5goQyjmwRw&utm_campaign=yelp_api_v3&utm_medium=api_v3_business_search&utm_source=hBJOknVQJ58S5goQyjmwRw", "review_count": 11, "categories": [{"alias": "burgers", "title": "Burgers"}, {"alias": "hotdogs", "title": "Fast Food"}], "rating": 2.5, "coordinates": {"latitude": 53.5415, "longitude": 10.0991}, "transactions": [], "price": "\u20ac\u20ac", "location": {"address1": "Billstedter Hauptstr. 23-25", "address2": null, "address3": null, "city": "Hamburg", "zip_code": "22111", "country": "DE", "state": "HH", "display_address": ["Billstedter Hauptstr. 23-25", "22111 Hamburg", "Germany"]}, "phone": "+494021987533", "display_phone": "+49 40 21987533", "distance": 2828.6023323916984}, {"id": "smxdoZuHpRCuDDVqCaqcDQ", "alias": "zenthai-hamburg-3", "name": "Zenthai", "image_url": "https://s3-media3.fl.yelpcdn.com/bphoto/231WD874e1FRLV5x669NlA/o.jpg", "is_closed": false, "url": "https://www.yelp.com/biz/zenthai-hamburg-3?adjust_creative=hBJOknVQJ58S5goQyjmwRw&utm_campaign=yelp_api_v3&utm_medium=api_v3_business_search&utm_source=hBJOknVQJ58S5goQyjmwRw", "review_count": 6, "categories": [{"alias": "panasian", "title": "Pan Asian"}], "rating": 3.0, "coordinates": {"latitude": 53.5397891, "longitude": 10.1045729}, "transactions": [], "price": "\u20ac\u20ac", "location": {"address1": "M\u00f6llner Landstr. 3", "address2": "", "address3": "1. OG", "city": "Hamburg", "zip_code": "22111", "country": "DE", "state": "HH", "display_address": ["M\u00f6llner Landstr. 3", "1. OG", "22111 Hamburg", "Germany"]}, "phone": "+494073675939", "display_phone": "+49 40 73675939", "distance": 2507.6705537138264}, {"id": "BpSJW907Ej6BBEXxNG2gAw", "alias": "suja-hamburg-3", "name": "Suja", "image_url": "https://s3-media3.fl.yelpcdn.com/bphoto/fCqhAhrNmcf_dgzMif1rvQ/o.jpg", "is_closed": false, "url": "https://www.yelp.com/biz/suja-hamburg-3?adjust_creative=hBJOknVQJ58S5goQyjmwRw&utm_campaign=yelp_api_v3&utm_medium=api_v3_business_search&utm_source=hBJOknVQJ58S5goQyjmwRw", "review_count": 4, "categories": [{"alias": "indpak", "title": "Indian"}, {"alias": "fooddeliveryservices", "title": "Food Delivery Services"}], "rating": 2.5, "coordinates": {"latitude": 53.54013, "longitude": 10.10337}, "transactions": [], "price": "\u20ac\u20ac", "location": {"address1": "M\u00f6llner Landstr. 3", "address2": "", "address3": "1. OG", "city": "Hamburg", "zip_code": "22111", "country": "DE", "state": "HH", "display_address": ["M\u00f6llner Landstr. 3", "1. OG", "22111 Hamburg", "Germany"]}, "phone": "+494022610860", "display_phone": "+49 40 22610860", "distance": 2592.441912755178}, {"id": "Yesr7nanDZ6qj_B9KlTWUA", "alias": "vu-imbiss-hamburg-2", "name": "Vu Imbiss", "image_url": "https://s3-media3.fl.yelpcdn.com/bphoto/Efpa3Z_bih_XM9cE3XQEaQ/o.jpg", "is_closed": false, "url": "https://www.yelp.com/biz/vu-imbiss-hamburg-2?adjust_creative=hBJOknVQJ58S5goQyjmwRw&utm_campaign=yelp_api_v3&utm_medium=api_v3_business_search&utm_source=hBJOknVQJ58S5goQyjmwRw", "review_count": 1, "categories": [{"alias": "panasian", "title": "Pan Asian"}, {"alias": "hotdogs", "title": "Fast Food"}], "rating": 3.0, "coordinates": {"latitude": 53.5422748, "longitude": 10.1404382}, "transactions": [], "location": {"address1": "M\u00f6llner Landstr. 240", "address2": "", "address3": null, "city": "Hamburg", "zip_code": "22117", "country": "DE", "state": "HH", "display_address": ["M\u00f6llner Landstr. 240", "22117 Hamburg", "Germany"]}, "phone": "", "display_phone": "", "distance": 2996.2316918168344}, {"id": "Sj3UwAhi9vGlIKnXqkeRxQ", "alias": "grill-j\u00fcrs-hamburg", "name": "Grill J\u00fcrs", "image_url": "https://s3-media3.fl.yelpcdn.com/bphoto/-lm-EJQXLT887MJqjQObXw/o.jpg", "is_closed": false, "url": "https://www.yelp.com/biz/grill-j%C3%BCrs-hamburg?adjust_creative=hBJOknVQJ58S5goQyjmwRw&utm_campaign=yelp_api_v3&utm_medium=api_v3_business_search&utm_source=hBJOknVQJ58S5goQyjmwRw", "review_count": 3, "categories": [{"alias": "chickenshop", "title": "Chicken Shop"}, {"alias": "hotdogs", "title": "Fast Food"}], "rating": 2.5, "coordinates": {"latitude": 53.53276, "longitude": 10.127}, "transactions": [], "price": "\u20ac\u20ac", "location": {"address1": "Kapellenstr. 95", "address2": "", "address3": null, "city": "Hamburg", "zip_code": "22117", "country": "DE", "state": "HH", "display_address": ["Kapellenstr. 95", "22117 Hamburg", "Germany"]}, "phone": "", "display_phone": "", "distance": 1659.6352255610589}, {"id": "HNqlIYhxzjON1G_cQ6ilbw", "alias": "kapelleneck-hamburg", "name": "Kapelleneck", "image_url": "https://s3-media2.fl.yelpcdn.com/bphoto/kGZCIcicPFPngv0eUX0pXQ/o.jpg", "is_closed": false, "url": "https://www.yelp.com/biz/kapelleneck-hamburg?adjust_creative=hBJOknVQJ58S5goQyjmwRw&utm_campaign=yelp_api_v3&utm_medium=api_v3_business_search&utm_source=hBJOknVQJ58S5goQyjmwRw", "review_count": 2, "categories": [{"alias": "gastropubs", "title": "Gastropubs"}, {"alias": "divebars", "title": "Dive Bars"}], "rating": 2.0, "coordinates": {"latitude": 53.53252, "longitude": 10.12782}, "transactions": [], "price": "\u20ac\u20ac", "location": {"address1": "Kapellenstr. 101", "address2": "", "address3": "", "city": "Hamburg", "zip_code": "22117", "country": "DE", "state": "HH", "display_address": ["Kapellenstr. 101", "22117 Hamburg", "Germany"]}, "phone": "", "display_phone": "", "distance": 1657.5400687252743}, {"id": "gIrRs118ZpavQ1dFibXAlA", "alias": "rose-rote-veranstaltungs-center-hamburg", "name": "Rose Rote Veranstaltungs Center", "image_url": "", "is_closed": false, "url": "https://www.yelp.com/biz/rose-rote-veranstaltungs-center-hamburg?adjust_creative=hBJOknVQJ58S5goQyjmwRw&utm_campaign=yelp_api_v3&utm_medium=api_v3_business_search&utm_source=hBJOknVQJ58S5goQyjmwRw", "review_count": 1, "categories": [{"alias": "hotelstravel", "title": "Hotels & Travel"}, {"alias": "restaurants", "title": "Restaurants"}], "rating": 4.0, "coordinates": {"latitude": 53.5401, "longitude": 10.1024}, "transactions": [], "price": "\u20ac", "location": {"address1": "Billstedter Hauptstr. 51", "address2": null, "address3": null, "city": "Hamburg", "zip_code": "22111", "country": "DE", "state": "HH", "display_address": ["Billstedter Hauptstr. 51", "22111 Hamburg", "Germany"]}, "phone": "", "display_phone": "", "distance": 2594.6750162105473}, {"id": "YljwUsa40IemittL_EO12w", "alias": "donja-hamburg", "name": "Donja", "image_url": "https://s3-media4.fl.yelpcdn.com/bphoto/IgSijvZnjPBzvHyEhYkT6g/o.jpg", "is_closed": false, "url": "https://www.yelp.com/biz/donja-hamburg?adjust_creative=hBJOknVQJ58S5goQyjmwRw&utm_campaign=yelp_api_v3&utm_medium=api_v3_business_search&utm_source=hBJOknVQJ58S5goQyjmwRw", "review_count": 9, "categories": [{"alias": "afghani", "title": "Afghan"}], "rating": 4.0, "coordinates": {"latitude": 53.54197, "longitude": 10.09844}, "transactions": [], "price": "\u20ac\u20ac", "location": {"address1": "Billstedter Hauptstr. 17", "address2": "", "address3": "", "city": "Hamburg", "zip_code": "22111", "country": "DE", "state": "HH", "display_address": ["Billstedter Hauptstr. 17", "22111 Hamburg", "Germany"]}, "phone": "+494073677417", "display_phone": "+49 40 73677417", "distance": 2876.762869044065}, {"id": "e0VSS8cgiOI05OFDJTtcJA", "alias": "zum-pr\u00f6sterchen-hamburg", "name": "Zum Pr\u00f6sterchen", "image_url": "https://s3-media2.fl.yelpcdn.com/bphoto/-Fs69fMD4Vm4XESapntCkQ/o.jpg", "is_closed": false, "url": "https://www.yelp.com/biz/zum-pr%C3%B6sterchen-hamburg?adjust_creative=hBJOknVQJ58S5goQyjmwRw&utm_campaign=yelp_api_v3&utm_medium=api_v3_business_search&utm_source=hBJOknVQJ58S5goQyjmwRw", "review_count": 1, "categories": [{"alias": "beerbar", "title": "Beer Bar"}, {"alias": "northerngerman", "title": "Northern German"}], "rating": 4.0, "coordinates": {"latitude": 53.53928, "longitude": 10.1057}, "transactions": [], "price": "\u20ac", "location": {"address1": "M\u00f6llner Landstr. 18", "address2": "", "address3": null, "city": "Hamburg", "zip_code": "22111", "country": "DE", "state": "HH", "display_address": ["M\u00f6llner Landstr. 18", "22111 Hamburg", "Germany"]}, "phone": "+49407314698", "display_phone": "+49 40 7314698", "distance": 2418.1254202321934}, {"id": "tw9C5ljsuxZHQK4s89LpvA", "alias": "billstedter-bierstube-hamburg", "name": "Billstedter Bierstube", "image_url": "https://s3-media2.fl.yelpcdn.com/bphoto/y60neRVTsKgjRKUp3pZkNA/o.jpg", "is_closed": false, "url": "https://www.yelp.com/biz/billstedter-bierstube-hamburg?adjust_creative=hBJOknVQJ58S5goQyjmwRw&utm_campaign=yelp_api_v3&utm_medium=api_v3_business_search&utm_source=hBJOknVQJ58S5goQyjmwRw", "review_count": 1, "categories": [{"alias": "pubs", "title": "Pubs"}, {"alias": "restaurants", "title": "Restaurants"}], "rating": 3.0, "coordinates": {"latitude": 53.5396, "longitude": 10.1025}, "transactions": [], "location": {"address1": "Billstedter Hauptstr. 52", "address2": null, "address3": null, "city": "Hamburg", "zip_code": "22111", "country": "DE", "state": "HH", "display_address": ["Billstedter Hauptstr. 52", "22111 Hamburg", "Germany"]}, "phone": "+494028097339", "display_phone": "+49 40 28097339", "distance": 2541.2173191510415}, {"id": "QKXV1M2pdEvzJTtJf4ctEA", "alias": "restaurant-panorama-hamburg", "name": "Restaurant Panorama", "image_url": "", "is_closed": false, "url": "https://www.yelp.com/biz/restaurant-panorama-hamburg?adjust_creative=hBJOknVQJ58S5goQyjmwRw&utm_campaign=yelp_api_v3&utm_medium=api_v3_business_search&utm_source=hBJOknVQJ58S5goQyjmwRw", "review_count": 1, "categories": [{"alias": "german", "title": "German"}], "rating": 4.0, "coordinates": {"latitude": 53.5397, "longitude": 10.1014}, "transactions": [], "location": {"address1": "Hotel Panorama Billstedt", "address2": "Billstedter Hauptstr. 44", "address3": null, "city": "Hamburg", "zip_code": "22111", "country": "DE", "state": "HH", "display_address": ["Hotel Panorama Billstedt", "Billstedter Hauptstr. 44", "22111 Hamburg", "Germany"]}, "phone": "+4940733590", "display_phone": "+49 40 733590", "distance": 2581.956225793206}, {"id": "P8P5_LvPRtGXRGJyMs6skg", "alias": "baustellen-casino-hamburg", "name": "Baustellen Casino", "image_url": "https://s3-media4.fl.yelpcdn.com/bphoto/q5Q3sJTyy275JykHLwxJxA/o.jpg", "is_closed": false, "url": "https://www.yelp.com/biz/baustellen-casino-hamburg?adjust_creative=hBJOknVQJ58S5goQyjmwRw&utm_campaign=yelp_api_v3&utm_medium=api_v3_business_search&utm_source=hBJOknVQJ58S5goQyjmwRw", "review_count": 1, "categories": [{"alias": "german", "title": "German"}], "rating": 4.0, "coordinates": {"latitude": 53.542219, "longitude": 10.1101957}, "transactions": [], "price": "\u20ac", "location": {"address1": "\u00d6jendorfer Weg 30a", "address2": null, "address3": null, "city": "Hamburg", "zip_code": "22119", "country": "DE", "state": "HH", "display_address": ["\u00d6jendorfer Weg 30a", "22119 Hamburg", "Germany"]}, "phone": "+494071404155", "display_phone": "+49 40 71404155", "distance": 2662.5036394054932}, {"id": "Rb1tYn5UC6Re9nZvD7hkJg", "alias": "thai-und-wok-hamburg", "name": "Thai & Wok", "image_url": "https://s3-media1.fl.yelpcdn.com/bphoto/ZHkaIOAAntArKo1JVSbZFA/o.jpg", "is_closed": false, "url": "https://www.yelp.com/biz/thai-und-wok-hamburg?adjust_creative=hBJOknVQJ58S5goQyjmwRw&utm_campaign=yelp_api_v3&utm_medium=api_v3_business_search&utm_source=hBJOknVQJ58S5goQyjmwRw", "review_count": 8, "categories": [{"alias": "thai", "title": "Thai"}, {"alias": "wok", "title": "Wok"}], "rating": 2.0, "coordinates": {"latitude": 53.5594, "longitude": 10.1076}, "transactions": [], "price": "\u20ac", "location": {"address1": "Manshardtstr. 115", "address2": null, "address3": null, "city": "Hamburg", "zip_code": "22119", "country": "DE", "state": "HH", "display_address": ["Manshardtstr. 115", "22119 Hamburg", "Germany"]}, "phone": "+494068284641", "display_phone": "+49 40 68284641", "distance": 4573.515460551004}, {"id": "2ncLFilbbL3p2VwDs9fpGQ", "alias": "meyns-hamburg-2", "name": "Meyns", "image_url": "https://s3-media4.fl.yelpcdn.com/bphoto/KpQEGi338DIWzv1yBI2VEQ/o.jpg", "is_closed": false, "url": "https://www.yelp.com/biz/meyns-hamburg-2?adjust_creative=hBJOknVQJ58S5goQyjmwRw&utm_campaign=yelp_api_v3&utm_medium=api_v3_business_search&utm_source=hBJOknVQJ58S5goQyjmwRw", "review_count": 2, "categories": [{"alias": "cafes", "title": "Cafes"}], "rating": 4.5, "coordinates": {"latitude": 53.542, "longitude": 10.1392}, "transactions": [], "price": "\u20ac\u20ac", "location": {"address1": "M\u00f6llner Landstr. 229", "address2": null, "address3": null, "city": "Hamburg", "zip_code": "22117", "country": "DE", "state": "HH", "display_address": ["M\u00f6llner Landstr. 229", "22117 Hamburg", "Germany"]}, "phone": "+494089708422", "display_phone": "+49 40 89708422", "distance": 2930.137414660041}, {"id": "MmYbD5eULMcs2pgW3hOrCw", "alias": "alaturca-hamburg", "name": "Alaturca", "image_url": "https://s3-media4.fl.yelpcdn.com/bphoto/oAaKUiu9XWJcj6VL2F2Ohw/o.jpg", "is_closed": false, "url": "https://www.yelp.com/biz/alaturca-hamburg?adjust_creative=hBJOknVQJ58S5goQyjmwRw&utm_campaign=yelp_api_v3&utm_medium=api_v3_business_search&utm_source=hBJOknVQJ58S5goQyjmwRw", "review_count": 18, "categories": [{"alias": "turkish", "title": "Turkish"}, {"alias": "kebab", "title": "Kebab"}], "rating": 3.0, "coordinates": {"latitude": 53.53974, "longitude": 10.10145}, "transactions": [], "price": "\u20ac\u20ac\u20ac", "location": {"address1": "Billstedter Hauptstr. 48 53", "address2": null, "address3": null, "city": "Hamburg", "zip_code": "22111", "country": "DE", "state": "HH", "display_address": ["Billstedter Hauptstr. 48 53", "22111 Hamburg", "Germany"]}, "phone": "+494070296885", "display_phone": "+49 40 70296885", "distance": 2584.5420229962956}, {"id": "W1elnIGTIpBmYCn11yhzRQ", "alias": "adriatik-hamburg", "name": "Adriatik", "image_url": "", "is_closed": false, "url": "https://www.yelp.com/biz/adriatik-hamburg?adjust_creative=hBJOknVQJ58S5goQyjmwRw&utm_campaign=yelp_api_v3&utm_medium=api_v3_business_search&utm_source=hBJOknVQJ58S5goQyjmwRw", "review_count": 2, "categories": [{"alias": "german", "title": "German"}], "rating": 4.5, "coordinates": {"latitude": 53.559, "longitude": 10.1079}, "transactions": [], "location": {"address1": "Manshardtstr. 115", "address2": null, "address3": null, "city": "Hamburg", "zip_code": "22119", "country": "DE", "state": "HH", "display_address": ["Manshardtstr. 115", "22119 Hamburg", "Germany"]}, "phone": "+494065491678", "display_phone": "+49 40 65491678", "distance": 4526.527306654233}, {"id": "yqk1NxWrR6Jp3IOyks0cSQ", "alias": "schweinske-hamburg-29", "name": "Schweinske", "image_url": "https://s3-media3.fl.yelpcdn.com/bphoto/LWx1Qfrr6CLbQoqxc7GUAQ/o.jpg", "is_closed": false, "url": "https://www.yelp.com/biz/schweinske-hamburg-29?adjust_creative=hBJOknVQJ58S5goQyjmwRw&utm_campaign=yelp_api_v3&utm_medium=api_v3_business_search&utm_source=hBJOknVQJ58S5goQyjmwRw", "review_count": 26, "categories": [{"alias": "german", "title": "German"}], "rating": 2.5, "coordinates": {"latitude": 53.5386279623028, "longitude": 10.1104775816202}, "transactions": [], "price": "\u20ac", "location": {"address1": "M\u00f6llner Landstr. 2", "address2": "", "address3": null, "city": "Hamburg", "zip_code": "22111", "country": "DE", "state": "HH", "display_address": ["M\u00f6llner Landstr. 2", "22111 Hamburg", "Germany"]}, "phone": "+494073433380", "display_phone": "+49 40 73433380", "distance": 2268.4552044803586}, {"id": "6JEBAUugL1Rxwc3-NepyKQ", "alias": "dominos-hamburg-24", "name": "Domino's", "image_url": "", "is_closed": false, "url": "https://www.yelp.com/biz/dominos-hamburg-24?adjust_creative=hBJOknVQJ58S5goQyjmwRw&utm_campaign=yelp_api_v3&utm_medium=api_v3_business_search&utm_source=hBJOknVQJ58S5goQyjmwRw", "review_count": 1, "categories": [{"alias": "pizza", "title": "Pizza"}], "rating": 1.0, "coordinates": {"latitude": 53.55915, "longitude": 10.10594}, "transactions": [], "location": {"address1": "Manshardtstr. 107", "address2": null, "address3": null, "city": "Hamburg", "zip_code": "22119", "country": "DE", "state": "HH", "display_address": ["Manshardtstr. 107", "22119 Hamburg", "Germany"]}, "phone": "+4940777095", "display_phone": "+49 40 777095", "distance": 4566.575848373423}, {"id": "7N9yEdpjKU2hFEhuKJDUsw", "alias": "betriebsrestaurant-billstedt-hamburg", "name": "Betriebsrestaurant Billstedt", "image_url": "https://s3-media2.fl.yelpcdn.com/bphoto/9b8pnnOHIYREqx3PKzBwOg/o.jpg", "is_closed": false, "url": "https://www.yelp.com/biz/betriebsrestaurant-billstedt-hamburg?adjust_creative=hBJOknVQJ58S5goQyjmwRw&utm_campaign=yelp_api_v3&utm_medium=api_v3_business_search&utm_source=hBJOknVQJ58S5goQyjmwRw", "review_count": 2, "categories": [{"alias": "canteen", "title": "Canteen"}], "rating": 4.0, "coordinates": {"latitude": 53.5404399, "longitude": 10.10682}, "transactions": [], "price": "\u20ac", "location": {"address1": "\u00d6jendorferweg 9", "address2": "", "address3": "", "city": "Hamburg", "zip_code": "22111", "country": "DE", "state": "HH", "display_address": ["\u00d6jendorferweg 9", "22111 Hamburg", "Germany"]}, "phone": "+49407314900", "display_phone": "+49 40 7314900", "distance": 2520.985232691853}, {"id": "rAsVelSwPKX0rwgdY9du6A", "alias": "athina-hamburg-2", "name": "Athina", "image_url": "https://s3-media1.fl.yelpcdn.com/bphoto/neJUJ1smDqW-T2KDiInYrw/o.jpg", "is_closed": false, "url": "https://www.yelp.com/biz/athina-hamburg-2?adjust_creative=hBJOknVQJ58S5goQyjmwRw&utm_campaign=yelp_api_v3&utm_medium=api_v3_business_search&utm_source=hBJOknVQJ58S5goQyjmwRw", "review_count": 11, "categories": [{"alias": "greek", "title": "Greek"}], "rating": 3.5, "coordinates": {"latitude": 53.5399168041103, "longitude": 10.1349412213544}, "transactions": [], "price": "\u20ac\u20ac", "location": {"address1": "Wegkoppel 3", "address2": null, "address3": null, "city": "Hamburg", "zip_code": "22117", "country": "DE", "state": "HH", "display_address": ["Wegkoppel 3", "22117 Hamburg", "Germany"]}, "phone": "+494063655580", "display_phone": "+49 40 63655580", "distance": 2596.859755740422}, {"id": "ZowjZ9bdVgxpVWOM4k-1UA", "alias": "subway-hamburg-29", "name": "Subway", "image_url": "https://s3-media2.fl.yelpcdn.com/bphoto/F9xIvjrCfpEPDoFbegH5Dg/o.jpg", "is_closed": false, "url": "https://www.yelp.com/biz/subway-hamburg-29?adjust_creative=hBJOknVQJ58S5goQyjmwRw&utm_campaign=yelp_api_v3&utm_medium=api_v3_business_search&utm_source=hBJOknVQJ58S5goQyjmwRw", "review_count": 7, "categories": [{"alias": "sandwiches", "title": "Sandwiches"}, {"alias": "hotdogs", "title": "Fast Food"}], "rating": 4.0, "coordinates": {"latitude": 53.539943, "longitude": 10.103886}, "transactions": [], "price": "\u20ac\u20ac\u20ac\u20ac", "location": {"address1": "M\u00f6llner Landstr. 3", "address2": "", "address3": "", "city": "Hamburg", "zip_code": "22111", "country": "DE", "state": "HH", "display_address": ["M\u00f6llner Landstr. 3", "22111 Hamburg", "Germany"]}, "phone": "+494033428595", "display_phone": "+49 40 33428595", "distance": 2540.2991082954854}, {"id": "sEkpM7--ZMmNjrVd6MNyOA", "alias": "knappis-imbiss-hamburg-3", "name": "Knappis Imbiss", "image_url": "https://s3-media1.fl.yelpcdn.com/bphoto/5oKcQAiuz9KcJT7y9Bc90g/o.jpg", "is_closed": false, "url": "https://www.yelp.com/biz/knappis-imbiss-hamburg-3?adjust_creative=hBJOknVQJ58S5goQyjmwRw&utm_campaign=yelp_api_v3&utm_medium=api_v3_business_search&utm_source=hBJOknVQJ58S5goQyjmwRw", "review_count": 1, "categories": [{"alias": "currysausage", "title": "Curry Sausage"}], "rating": 5.0, "coordinates": {"latitude": 53.5392586, "longitude": 10.1063802}, "transactions": [], "price": "\u20ac", "location": {"address1": "M\u00f6llner Landstra\u00dfe", "address2": null, "address3": null, "city": "Hamburg", "zip_code": "22111", "country": "DE", "state": "HH", "display_address": ["M\u00f6llner Landstra\u00dfe", "22111 Hamburg", "Germany"]}, "phone": "", "display_phone": "", "distance": 2411.1614907750723}, {"id": "mcoIIcxFqpgcsQsSB7w4gg", "alias": "sel-chicken-hamburg", "name": "Sel Chicken", "image_url": "", "is_closed": false, "url": "https://www.yelp.com/biz/sel-chicken-hamburg?adjust_creative=hBJOknVQJ58S5goQyjmwRw&utm_campaign=yelp_api_v3&utm_medium=api_v3_business_search&utm_source=hBJOknVQJ58S5goQyjmwRw", "review_count": 1, "categories": [{"alias": "chicken_wings", "title": "Chicken Wings"}, {"alias": "hotdogs", "title": "Fast Food"}], "rating": 1.0, "coordinates": {"latitude": 53.540088, "longitude": 10.102545}, "transactions": [], "price": "\u20ac\u20ac", "location": {"address1": "Billstedter Hauptstr. 51", "address2": "", "address3": null, "city": "Hamburg", "zip_code": "22111", "country": "DE", "state": "HH", "display_address": ["Billstedter Hauptstr. 51", "22111 Hamburg", "Germany"]}, "phone": "", "display_phone": "", "distance": 2589.588212593469}, {"id": "ctCDPQumN0wiEQqkEk0Jzw", "alias": "emir-d\u00f6ner-hamburg", "name": "Emir D\u00f6ner", "image_url": "https://s3-media4.fl.yelpcdn.com/bphoto/aID8KlC8L2TLKWGkdpMJIw/o.jpg", "is_closed": false, "url": "https://www.yelp.com/biz/emir-d%C3%B6ner-hamburg?adjust_creative=hBJOknVQJ58S5goQyjmwRw&utm_campaign=yelp_api_v3&utm_medium=api_v3_business_search&utm_source=hBJOknVQJ58S5goQyjmwRw", "review_count": 2, "categories": [{"alias": "kebab", "title": "Kebab"}, {"alias": "cafes", "title": "Cafes"}], "rating": 2.5, "coordinates": {"latitude": 53.5402543935662, "longitude": 10.1050699129701}, "transactions": [], "price": "\u20ac\u20ac", "location": {"address1": "M\u00f6llner Landstr. 3", "address2": "", "address3": "", "city": "Hamburg", "zip_code": "22111", "country": "DE", "state": "HH", "display_address": ["M\u00f6llner Landstr. 3", "22111 Hamburg", "Germany"]}, "phone": "+494023498049", "display_phone": "+49 40 23498049", "distance": 2544.50558056932}, {"id": "Qmu-xTS39IvusBrpQyFjdQ", "alias": "tunicis-restaurant-dubrovnik-hamburg-2", "name": "Tunici's Restaurant Dubrovnik", "image_url": "https://s3-media2.fl.yelpcdn.com/bphoto/A4sPuzVGzxk8pafzIkrWkg/o.jpg", "is_closed": false, "url": "https://www.yelp.com/biz/tunicis-restaurant-dubrovnik-hamburg-2?adjust_creative=hBJOknVQJ58S5goQyjmwRw&utm_campaign=yelp_api_v3&utm_medium=api_v3_business_search&utm_source=hBJOknVQJ58S5goQyjmwRw", "review_count": 21, "categories": [{"alias": "serbocroatian", "title": "Serbo Croatian"}], "rating": 4.0, "coordinates": {"latitude": 53.5491, "longitude": 10.1088}, "transactions": [], "price": "\u20ac\u20ac", "location": {"address1": "Schiffbeker Weg 96", "address2": null, "address3": null, "city": "Hamburg", "zip_code": "22119", "country": "DE", "state": "HH", "display_address": ["Schiffbeker Weg 96", "22119 Hamburg", "Germany"]}, "phone": "+49407314788", "display_phone": "+49 40 7314788", "distance": 3431.138945539923}, {"id": "YegaVSTIXDOqvF4UKbRrwA", "alias": "pizza-max-hamburg-3", "name": "Pizza Max", "image_url": "https://s3-media3.fl.yelpcdn.com/bphoto/6EOS5sWgPWoDUmpMNGtc1Q/o.jpg", "is_closed": false, "url": "https://www.yelp.com/biz/pizza-max-hamburg-3?adjust_creative=hBJOknVQJ58S5goQyjmwRw&utm_campaign=yelp_api_v3&utm_medium=api_v3_business_search&utm_source=hBJOknVQJ58S5goQyjmwRw", "review_count": 27, "categories": [{"alias": "pizza", "title": "Pizza"}, {"alias": "burgers", "title": "Burgers"}], "rating": 3.5, "coordinates": {"latitude": 53.54304, "longitude": 10.09595}, "transactions": [], "price": "\u20ac\u20ac", "location": {"address1": "Washingtonallee 111", "address2": "", "address3": "", "city": "Hamburg", "zip_code": "22111", "country": "DE", "state": "HH", "display_address": ["Washingtonallee 111", "22111 Hamburg", "Germany"]}, "phone": "+494073670849", "display_phone": "+49 40 73670849", "distance": 3075.3812034767834}, {"id": "MCQIuPcvqwbCJPy7ccJ18A", "alias": "sushi-corner-hamburg", "name": "Sushi Corner", "image_url": "https://s3-media3.fl.yelpcdn.com/bphoto/y7ESuSffrY0D0NafEcUyeg/o.jpg", "is_closed": false, "url": "https://www.yelp.com/biz/sushi-corner-hamburg?adjust_creative=hBJOknVQJ58S5goQyjmwRw&utm_campaign=yelp_api_v3&utm_medium=api_v3_business_search&utm_source=hBJOknVQJ58S5goQyjmwRw", "review_count": 2, "categories": [{"alias": "sushi", "title": "Sushi Bars"}], "rating": 2.5, "coordinates": {"latitude": 53.55937, "longitude": 10.10743}, "transactions": [], "location": {"address1": "Manshardtstr. 115 A", "address2": "", "address3": "", "city": "Hamburg", "zip_code": "22119", "country": "DE", "state": "HH", "display_address": ["Manshardtstr. 115 A", "22119 Hamburg", "Germany"]}, "phone": "+494068284641", "display_phone": "+49 40 68284641", "distance": 4562.816915820306}, {"id": "BFSov6Q4m4OGbudFU3DvZA", "alias": "mcdonalds-hamburg-52", "name": "McDonald's", "image_url": "https://s3-media4.fl.yelpcdn.com/bphoto/9z82e7Vdha91FAaOWNZImw/o.jpg", "is_closed": false, "url": "https://www.yelp.com/biz/mcdonalds-hamburg-52?adjust_creative=hBJOknVQJ58S5goQyjmwRw&utm_campaign=yelp_api_v3&utm_medium=api_v3_business_search&utm_source=hBJOknVQJ58S5goQyjmwRw", "review_count": 2, "categories": [{"alias": "hotdogs", "title": "Fast Food"}, {"alias": "burgers", "title": "Burgers"}], "rating": 2.5, "coordinates": {"latitude": 53.5395934, "longitude": 10.1047763}, "transactions": [], "location": {"address1": "M\u00f6llner Landstr. 7a", "address2": null, "address3": null, "city": "Hamburg", "zip_code": "22111", "country": "DE", "state": "HH", "display_address": ["M\u00f6llner Landstr. 7a", "22111 Hamburg", "Germany"]}, "phone": "+49407325722", "display_phone": "+49 40 7325722", "distance": 2510.8114812483263}, {"id": "FgojWBNCA17-6GbHsrDHrQ", "alias": "crazy-croque-hamburg-4", "name": "Crazy Croque", "image_url": "https://s3-media1.fl.yelpcdn.com/bphoto/N8RMFIvPcA3rbOVQbD05_Q/o.jpg", "is_closed": false, "url": "https://www.yelp.com/biz/crazy-croque-hamburg-4?adjust_creative=hBJOknVQJ58S5goQyjmwRw&utm_campaign=yelp_api_v3&utm_medium=api_v3_business_search&utm_source=hBJOknVQJ58S5goQyjmwRw", "review_count": 14, "categories": [{"alias": "sandwiches", "title": "Sandwiches"}, {"alias": "baguettes", "title": "Baguettes"}], "rating": 4.0, "coordinates": {"latitude": 53.5592435, "longitude": 10.1084427}, "transactions": [], "price": "\u20ac", "location": {"address1": "Manshardtstr. 117", "address2": null, "address3": null, "city": "Hamburg", "zip_code": "22119", "country": "DE", "state": "HH", "display_address": ["Manshardtstr. 117", "22119 Hamburg", "Germany"]}, "phone": "+49406532211", "display_phone": "+49 40 6532211", "distance": 4548.020932095679}, {"id": "TGlVX1NeqMNA95qxbES1Rg", "alias": "caf\u00e9-winter-hamburg", "name": "Caf\u00e9 Winter", "image_url": "https://s3-media1.fl.yelpcdn.com/bphoto/ia4QVOBTLuG2yoMpxlaicQ/o.jpg", "is_closed": false, "url": "https://www.yelp.com/biz/caf%C3%A9-winter-hamburg?adjust_creative=hBJOknVQJ58S5goQyjmwRw&utm_campaign=yelp_api_v3&utm_medium=api_v3_business_search&utm_source=hBJOknVQJ58S5goQyjmwRw", "review_count": 2, "categories": [{"alias": "cafes", "title": "Cafes"}, {"alias": "cakeshop", "title": "Patisserie/Cake Shop"}], "rating": 3.5, "coordinates": {"latitude": 53.5403885, "longitude": 10.1359522}, "transactions": [], "location": {"address1": "M\u00f6llner Landstr. 202", "address2": "", "address3": "", "city": "Hamburg", "zip_code": "22117", "country": "DE", "state": "HH", "display_address": ["M\u00f6llner Landstr. 202", "22117 Hamburg", "Germany"]}, "phone": "+49407123388", "display_phone": "+49 40 7123388", "distance": 2672.9550246362105}, {"id": "02tJXWUwOkLqFCIuESVXqw", "alias": "b\u00e4ckerei-caf\u00e9-konditorei-bohnenkamp-hamburg", "name": "B\u00e4ckerei-Caf\u00e9-Konditorei Bohnenkamp", "image_url": "https://s3-media3.fl.yelpcdn.com/bphoto/q110h-dkTJR0w43r6AkTEA/o.jpg", "is_closed": false, "url": "https://www.yelp.com/biz/b%C3%A4ckerei-caf%C3%A9-konditorei-bohnenkamp-hamburg?adjust_creative=hBJOknVQJ58S5goQyjmwRw&utm_campaign=yelp_api_v3&utm_medium=api_v3_business_search&utm_source=hBJOknVQJ58S5goQyjmwRw", "review_count": 9, "categories": [{"alias": "bakeries", "title": "Bakeries"}, {"alias": "cafes", "title": "Cafes"}, {"alias": "cakeshop", "title": "Patisserie/Cake Shop"}], "rating": 4.5, "coordinates": {"latitude": 53.5467, "longitude": 10.1067}, "transactions": [], "price": "\u20ac\u20ac", "location": {"address1": "Schiffbeker Weg 72", "address2": null, "address3": null, "city": "Hamburg", "zip_code": "22119", "country": "DE", "state": "HH", "display_address": ["Schiffbeker Weg 72", "22119 Hamburg", "Germany"]}, "phone": "+494073113790", "display_phone": "+49 40 73113790", "distance": 3199.51618408659}, {"id": "qV3uV0Qds1DSvMobqqNBLA", "alias": "smileys-hamburg-10", "name": "Smiley's", "image_url": "", "is_closed": false, "url": "https://www.yelp.com/biz/smileys-hamburg-10?adjust_creative=hBJOknVQJ58S5goQyjmwRw&utm_campaign=yelp_api_v3&utm_medium=api_v3_business_search&utm_source=hBJOknVQJ58S5goQyjmwRw", "review_count": 14, "categories": [{"alias": "pizza", "title": "Pizza"}], "rating": 3.0, "coordinates": {"latitude": 53.5475, "longitude": 10.1069}, "transactions": [], "price": "\u20ac\u20ac\u20ac", "location": {"address1": "Schiffbeker Weg 85", "address2": null, "address3": null, "city": "Hamburg", "zip_code": "22119", "country": "DE", "state": "HH", "display_address": ["Schiffbeker Weg 85", "22119 Hamburg", "Germany"]}, "phone": "+49407331586", "display_phone": "+49 40 7331586", "distance": 3282.8948763233693}, {"id": "3YztXT5dmOGD-i9ZwYfDWw", "alias": "burger-king-hamburg-12", "name": "Burger King", "image_url": "https://s3-media3.fl.yelpcdn.com/bphoto/_7T-i176DAQ09IW_u9oq3A/o.jpg", "is_closed": false, "url": "https://www.yelp.com/biz/burger-king-hamburg-12?adjust_creative=hBJOknVQJ58S5goQyjmwRw&utm_campaign=yelp_api_v3&utm_medium=api_v3_business_search&utm_source=hBJOknVQJ58S5goQyjmwRw", "review_count": 5, "categories": [{"alias": "burgers", "title": "Burgers"}, {"alias": "hotdogs", "title": "Fast Food"}], "rating": 2.5, "coordinates": {"latitude": 53.54013, "longitude": 10.10337}, "transactions": [], "price": "\u20ac\u20ac", "location": {"address1": "M\u00f6llner Landstr. 3", "address2": "", "address3": null, "city": "Hamburg", "zip_code": "22111", "country": "DE", "state": "HH", "display_address": ["M\u00f6llner Landstr. 3", "22111 Hamburg", "Germany"]}, "phone": "+494073679659", "display_phone": "+49 40 73679659", "distance": 2592.441912755178}, {"id": "il8FEDFNPrw_B8UfjigGkw", "alias": "back-lava-hamburg-3", "name": "Back-Lava", "image_url": "https://s3-media2.fl.yelpcdn.com/bphoto/4dED60GL0dQuN4slUM0Fpg/o.jpg", "is_closed": false, "url": "https://www.yelp.com/biz/back-lava-hamburg-3?adjust_creative=hBJOknVQJ58S5goQyjmwRw&utm_campaign=yelp_api_v3&utm_medium=api_v3_business_search&utm_source=hBJOknVQJ58S5goQyjmwRw", "review_count": 1, "categories": [{"alias": "bakeries", "title": "Bakeries"}, {"alias": "turkish", "title": "Turkish"}, {"alias": "cakeshop", "title": "Patisserie/Cake Shop"}], "rating": 2.0, "coordinates": {"latitude": 53.54084, "longitude": 10.10021}, "transactions": [], "location": {"address1": "Billstedter Hauptstr. 35", "address2": null, "address3": null, "city": "Hamburg", "zip_code": "22111", "country": "DE", "state": "HH", "display_address": ["Billstedter Hauptstr. 35", "22111 Hamburg", "Germany"]}, "phone": "+494051907247", "display_phone": "+49 40 51907247", "distance": 2730.306070745355}, {"id": "xwYBQiBbAXJl3sAZwwsaUg", "alias": "krox-hamburg-7", "name": "Krox", "image_url": "https://s3-media3.fl.yelpcdn.com/bphoto/BHWjik_D16JK44ObnGav7Q/o.jpg", "is_closed": false, "url": "https://www.yelp.com/biz/krox-hamburg-7?adjust_creative=hBJOknVQJ58S5goQyjmwRw&utm_campaign=yelp_api_v3&utm_medium=api_v3_business_search&utm_source=hBJOknVQJ58S5goQyjmwRw", "review_count": 17, "categories": [{"alias": "sandwiches", "title": "Sandwiches"}, {"alias": "creperies", "title": "Creperies"}, {"alias": "pizza", "title": "Pizza"}], "rating": 3.0, "coordinates": {"latitude": 53.538735, "longitude": 10.122476}, "transactions": [], "price": "\u20ac\u20ac", "location": {"address1": "M\u00f6llner Landstr. 123", "address2": "", "address3": "", "city": "Hamburg", "zip_code": "22117", "country": "DE", "state": "HH", "display_address": ["M\u00f6llner Landstr. 123", "22117 Hamburg", "Germany"]}, "phone": "+49407133310", "display_phone": "+49 40 7133310", "distance": 2235.263759552759}]