[{"id": "-T6JvFBrGMa1iS1O5JbJ2g", "alias": "gastst\u00e4tte-zur-m\u00fchlenklause-hamburg", "name": "Gastst\u00e4tte Zur M\u00fchlenklause", "image_url": "https://s3-media2.fl.yelpcdn.com/bphoto/xJ-PNRG2m3Eq0fBNmhCTcQ/o.jpg", "is_closed": false, "url": "https://www.yelp.com/biz/gastst%C3%A4tte-zur-m%C3%BChlenklause-hamburg?adjust_creative=hBJOknVQJ58S5goQyjmwRw&utm_campaign=yelp_api_v3&utm_medium=api_v3_business_search&utm_source=hBJOknVQJ58S5goQyjmwRw", "review_count": 1, "categories": [{"alias": "german", "title": "German"}], "rating": 4.0, "coordinates": {"latitude": 53.53622, "longitude": 10.03305}, "transactions": [], "location": {"address1": "Billhorner M\u00fchlenweg 26", "address2": null, "address3": null, "city": "Hamburg", "zip_code": "20539", "country": "DE", "state": "HH", "display_address": ["Billhorner M\u00fchlenweg 26", "20539 Hamburg", "Germany"]}, "phone": "+4940785192", "display_phone": "+49 40 785192", "distance": 2502.765491366023}, {"id": "g0y_UjeNh4fAs7_1mvQAIg", "alias": "biller-lunch-haus-hamburg-2", "name": "Biller Lunch Haus", "image_url": "https://s3-media4.fl.yelpcdn.com/bphoto/5vNToWhrpNudf0T56hyKsg/o.jpg", "is_closed": false, "url": "https://www.yelp.com/biz/biller-lunch-haus-hamburg-2?adjust_creative=hBJOknVQJ58S5goQyjmwRw&utm_campaign=yelp_api_v3&utm_medium=api_v3_business_search&utm_source=hBJOknVQJ58S5goQyjmwRw", "review_count": 3, "categories": [{"alias": "international", "title": "International"}, {"alias": "italian", "title": "Italian"}], "rating": 5.0, "coordinates": {"latitude": 53.5400009, "longitude": 10.0448599}, "transactions": [], "location": {"address1": "Ausschl\u00e4ger Billdeich 16", "address2": "", "address3": "", "city": "Hamburg", "zip_code": "20539", "country": "DE", "state": "HH", "display_address": ["Ausschl\u00e4ger Billdeich 16", "20539 Hamburg", "Germany"]}, "phone": "+494087600574", "display_phone": "+49 40 87600574", "distance": 2455.575235050595}, {"id": "AFZoPm3Ux2rmR_ajj5iQJg", "alias": "der-chinese-am-fleet-hamburg", "name": "Der Chinese Am Fleet", "image_url": "https://s3-media4.fl.yelpcdn.com/bphoto/7y5nT2ZqfH7iaTd2xvrMVg/o.jpg", "is_closed": false, "url": "https://www.yelp.com/biz/der-chinese-am-fleet-hamburg?adjust_creative=hBJOknVQJ58S5goQyjmwRw&utm_campaign=yelp_api_v3&utm_medium=api_v3_business_search&utm_source=hBJOknVQJ58S5goQyjmwRw", "review_count": 95, "categories": [{"alias": "chinese", "title": "Chinese"}], "rating": 4.5, "coordinates": {"latitude": 53.551, "longitude": 10.0536999}, "transactions": [], "price": "\u20ac\u20ac", "location": {"address1": "Borstelmannsweg 77", "address2": "", "address3": "", "city": "Hamburg", "zip_code": "20537", "country": "DE", "state": "HH", "display_address": ["Borstelmannsweg 77", "20537 Hamburg", "Germany"]}, "phone": "+494021909991", "display_phone": "+49 40 21909991", "distance": 3535.3496593588998}, {"id": "d6pmhcizXtJK3xWm3cUEmA", "alias": "andronaco-hamburg-2", "name": "Andronaco", "image_url": "https://s3-media3.fl.yelpcdn.com/bphoto/M0xG1AeKJYj_fjKcgVqCBA/o.jpg", "is_closed": false, "url": "https://www.yelp.com/biz/andronaco-hamburg-2?adjust_creative=hBJOknVQJ58S5goQyjmwRw&utm_campaign=yelp_api_v3&utm_medium=api_v3_business_search&utm_source=hBJOknVQJ58S5goQyjmwRw", "review_count": 83, "categories": [{"alias": "italian", "title": "Italian"}, {"alias": "intlgrocery", "title": "International Grocery"}], "rating": 4.0, "coordinates": {"latitude": 53.52051, "longitude": 10.08349}, "transactions": [], "price": "\u20ac", "location": {"address1": "Halskestr. 48", "address2": null, "address3": null, "city": "Hamburg", "zip_code": "22113", "country": "DE", "state": "SH", "display_address": ["Halskestr. 48", "22113 Hamburg", "Germany"]}, "phone": "+494078081351", "display_phone": "+49 40 78081351", "distance": 1655.2029988564302}, {"id": "jNjcKjZidgN5OHsg1MatuQ", "alias": "entenwerder1-hamburg", "name": "Entenwerder1", "image_url": "https://s3-media4.fl.yelpcdn.com/bphoto/nVwf_MRHWCZIA1rH92pjgg/o.jpg", "is_closed": false, "url": "https://www.yelp.com/biz/entenwerder1-hamburg?adjust_creative=hBJOknVQJ58S5goQyjmwRw&utm_campaign=yelp_api_v3&utm_medium=api_v3_business_search&utm_source=hBJOknVQJ58S5goQyjmwRw", "review_count": 27, "categories": [{"alias": "bars", "title": "Bars"}, {"alias": "cafes", "title": "Cafes"}], "rating": 3.5, "coordinates": {"latitude": 53.5293485335548, "longitude": 10.0372358486707}, "transactions": [], "price": "\u20ac\u20ac", "location": {"address1": "Entenwerder 1", "address2": "", "address3": "", "city": "Hamburg", "zip_code": "20539", "country": "DE", "state": "HH", "display_address": ["Entenwerder 1", "20539 Hamburg", "Germany"]}, "phone": "+494070293588", "display_phone": "+49 40 70293588", "distance": 1767.6745432525786}, {"id": "vsWVTSqATcZQpJ32vM5pKw", "alias": "j\u00fcrgen-matzen-hamburg", "name": "J\u00fcrgen Matzen", "image_url": "", "is_closed": false, "url": "https://www.yelp.com/biz/j%C3%BCrgen-matzen-hamburg?adjust_creative=hBJOknVQJ58S5goQyjmwRw&utm_campaign=yelp_api_v3&utm_medium=api_v3_business_search&utm_source=hBJOknVQJ58S5goQyjmwRw", "review_count": 1, "categories": [{"alias": "german", "title": "German"}], "rating": 5.0, "coordinates": {"latitude": 53.54746, "longitude": 10.05232}, "transactions": [], "location": {"address1": "S\u00fcderstr. 296", "address2": null, "address3": null, "city": "Hamburg", "zip_code": "20537", "country": "DE", "state": "HH", "display_address": ["S\u00fcderstr. 296", "20537 Hamburg", "Germany"]}, "phone": "+4940214140", "display_phone": "+49 40 214140", "distance": 3148.0641579203207}, {"id": "98aFDKSYZnwJtLLe3Wxf6w", "alias": "d\u00f6nerei-hamburg", "name": "D\u00f6nerei", "image_url": "https://s3-media3.fl.yelpcdn.com/bphoto/f3PUgog-jh2fWrr-o6ntNg/o.jpg", "is_closed": false, "url": "https://www.yelp.com/biz/d%C3%B6nerei-hamburg?adjust_creative=hBJOknVQJ58S5goQyjmwRw&utm_campaign=yelp_api_v3&utm_medium=api_v3_business_search&utm_source=hBJOknVQJ58S5goQyjmwRw", "review_count": 2, "categories": [{"alias": "kebab", "title": "Kebab"}], "rating": 5.0, "coordinates": {"latitude": 53.5338809470294, "longitude": 10.03906685719}, "transactions": [], "price": "\u20ac", "location": {"address1": "Rothenburgsorter Marktplatz 1-3", "address2": "", "address3": "", "city": "Hamburg", "zip_code": "20539", "country": "DE", "state": "HH", "display_address": ["Rothenburgsorter Marktplatz 1-3", "20539 Hamburg", "Germany"]}, "phone": "", "display_phone": "", "distance": 2046.0186173311488}, {"id": "qObfzyVtohgytDmkthcRMA", "alias": "gennos-hamburg", "name": "Genno's", "image_url": "https://s3-media1.fl.yelpcdn.com/bphoto/6yCa_qK2zCKvWbCztLqBfQ/o.jpg", "is_closed": false, "url": "https://www.yelp.com/biz/gennos-hamburg?adjust_creative=hBJOknVQJ58S5goQyjmwRw&utm_campaign=yelp_api_v3&utm_medium=api_v3_business_search&utm_source=hBJOknVQJ58S5goQyjmwRw", "review_count": 63, "categories": [{"alias": "international", "title": "International"}], "rating": 4.5, "coordinates": {"latitude": 53.561663, "longitude": 10.055472}, "transactions": [], "price": "\u20ac\u20ac", "location": {"address1": "Hammer Steindamm 102", "address2": null, "address3": null, "city": "Hamburg", "zip_code": "20535", "country": "DE", "state": "HH", "display_address": ["Hammer Steindamm 102", "20535 Hamburg", "Germany"]}, "phone": "+4940202567", "display_phone": "+49 40 202567", "distance": 4712.098853677928}, {"id": "SEr1KUlFxWKrqsQKhRJbvQ", "alias": "4mosa-hamburg", "name": "4mosa", "image_url": "https://s3-media2.fl.yelpcdn.com/bphoto/Z39tu6JU0Y3Y-7FFqrxCkQ/o.jpg", "is_closed": false, "url": "https://www.yelp.com/biz/4mosa-hamburg?adjust_creative=hBJOknVQJ58S5goQyjmwRw&utm_campaign=yelp_api_v3&utm_medium=api_v3_business_search&utm_source=hBJOknVQJ58S5goQyjmwRw", "review_count": 164, "categories": [{"alias": "panasian", "title": "Pan Asian"}, {"alias": "conveyorsushi", "title": "Conveyor Belt Sushi"}, {"alias": "buffets", "title": "Buffets"}], "rating": 4.5, "coordinates": {"latitude": 53.5523748472439, "longitude": 10.0393259525299}, "transactions": [], "price": "\u20ac\u20ac", "location": {"address1": "Eiffestr. 78", "address2": "", "address3": "", "city": "Hamburg", "zip_code": "20537", "country": "DE", "state": "HH", "display_address": ["Eiffestr. 78", "20537 Hamburg", "Germany"]}, "phone": "+494065910050", "display_phone": "+49 40 65910050", "distance": 3877.451553616461}, {"id": "lb_5Il0RiWf-WYoleqq4SA", "alias": "zur-elbbr\u00fccke-hamburg", "name": "Zur Elbbr\u00fccke", "image_url": "https://s3-media3.fl.yelpcdn.com/bphoto/TRXDcKjduwNa11wWBF1rtA/o.jpg", "is_closed": false, "url": "https://www.yelp.com/biz/zur-elbbr%C3%BCcke-hamburg?adjust_creative=hBJOknVQJ58S5goQyjmwRw&utm_campaign=yelp_api_v3&utm_medium=api_v3_business_search&utm_source=hBJOknVQJ58S5goQyjmwRw", "review_count": 6, "categories": [{"alias": "german", "title": "German"}], "rating": 4.0, "coordinates": {"latitude": 53.501809, "longitude": 10.079916}, "transactions": [], "price": "\u20ac\u20ac", "location": {"address1": "Moorfleeter Deich 259", "address2": "", "address3": "", "city": "Hamburg", "zip_code": "22113", "country": "DE", "state": "HH", "display_address": ["Moorfleeter Deich 259", "22113 Hamburg", "Germany"]}, "phone": "+49407372304", "display_phone": "+49 40 7372304", "distance": 2414.0632260634325}, {"id": "DD2igAC-pU1hlDKYmwxBWg", "alias": "der-grieche-hamburg-2", "name": "Der Grieche", "image_url": "https://s3-media2.fl.yelpcdn.com/bphoto/XS95HWeoCHQLQSDa6IXIEA/o.jpg", "is_closed": false, "url": "https://www.yelp.com/biz/der-grieche-hamburg-2?adjust_creative=hBJOknVQJ58S5goQyjmwRw&utm_campaign=yelp_api_v3&utm_medium=api_v3_business_search&utm_source=hBJOknVQJ58S5goQyjmwRw", "review_count": 114, "categories": [{"alias": "greek", "title": "Greek"}], "rating": 4.5, "coordinates": {"latitude": 53.5551414, "longitude": 10.0509996}, "transactions": [], "price": "\u20ac", "location": {"address1": "Hammer Landstr. 70", "address2": "", "address3": "", "city": "Hamburg", "zip_code": "20537", "country": "DE", "state": "HH", "display_address": ["Hammer Landstr. 70", "20537 Hamburg", "Germany"]}, "phone": "+494021008706", "display_phone": "+49 40 21008706", "distance": 4013.2172149328135}, {"id": "kWJowGmc_ltrgOpxjBtY0g", "alias": "bistro-chaplin-hamburg-2", "name": "Bistro Chaplin", "image_url": "https://s3-media3.fl.yelpcdn.com/bphoto/fDrKUKCgK5bwzb4YH29bKA/o.jpg", "is_closed": false, "url": "https://www.yelp.com/biz/bistro-chaplin-hamburg-2?adjust_creative=hBJOknVQJ58S5goQyjmwRw&utm_campaign=yelp_api_v3&utm_medium=api_v3_business_search&utm_source=hBJOknVQJ58S5goQyjmwRw", "review_count": 8, "categories": [{"alias": "bars", "title": "Bars"}, {"alias": "bistros", "title": "Bistros"}], "rating": 4.5, "coordinates": {"latitude": 53.5335, "longitude": 10.03953}, "transactions": [], "price": "\u20ac\u20ac", "location": {"address1": "Rothenburgsorter Marktplatz 4", "address2": null, "address3": null, "city": "Hamburg", "zip_code": "20539", "country": "DE", "state": "HH", "display_address": ["Rothenburgsorter Marktplatz 4", "20539 Hamburg", "Germany"]}, "phone": "+494098263553", "display_phone": "+49 40 98263553", "distance": 1993.7844113677734}, {"id": "E7-R9bWu4eTxmQ3Na_sYow", "alias": "restaurant-globus-hamburg-2", "name": "Restaurant Globus", "image_url": "https://s3-media3.fl.yelpcdn.com/bphoto/J-YpRl9jCIBKiUAy5WeCFw/o.jpg", "is_closed": false, "url": "https://www.yelp.com/biz/restaurant-globus-hamburg-2?adjust_creative=hBJOknVQJ58S5goQyjmwRw&utm_campaign=yelp_api_v3&utm_medium=api_v3_business_search&utm_source=hBJOknVQJ58S5goQyjmwRw", "review_count": 4, "categories": [{"alias": "german", "title": "German"}, {"alias": "international", "title": "International"}, {"alias": "bars", "title": "Bars"}], "rating": 4.5, "coordinates": {"latitude": 53.5541, "longitude": 10.0624}, "transactions": [], "price": "\u20ac\u20ac\u20ac", "location": {"address1": "Hammer Landstr. 200 - 202", "address2": "", "address3": null, "city": "Hamburg", "zip_code": "20537", "country": "DE", "state": "HH", "display_address": ["Hammer Landstr. 200 - 202", "20537 Hamburg", "Germany"]}, "phone": "+4940210430", "display_phone": "+49 40 210430", "distance": 3879.2747265819676}, {"id": "9loJRC_kmbepFtwT3XutmA", "alias": "kiek-in-hamburg-2", "name": "Kiek in", "image_url": "https://s3-media1.fl.yelpcdn.com/bphoto/4TPjhy2djrP0ykS21_rbag/o.jpg", "is_closed": false, "url": "https://www.yelp.com/biz/kiek-in-hamburg-2?adjust_creative=hBJOknVQJ58S5goQyjmwRw&utm_campaign=yelp_api_v3&utm_medium=api_v3_business_search&utm_source=hBJOknVQJ58S5goQyjmwRw", "review_count": 1, "categories": [{"alias": "bbq", "title": "Barbeque"}], "rating": 4.0, "coordinates": {"latitude": 53.55754, "longitude": 10.05023}, "transactions": [], "location": {"address1": "Carl-Petersen Str. 100", "address2": "", "address3": "", "city": "Hamburg", "zip_code": "20535", "country": "DE", "state": "HH", "display_address": ["Carl-Petersen Str. 100", "20535 Hamburg", "Germany"]}, "phone": "", "display_phone": "", "distance": 4274.448412397354}, {"id": "RM2ODygTWAROCA90gio5_g", "alias": "pamir-kabab-hamburg", "name": "Pamir Kabab", "image_url": "https://s3-media4.fl.yelpcdn.com/bphoto/0ud70QHOjwS07rFoQbti-w/o.jpg", "is_closed": false, "url": "https://www.yelp.com/biz/pamir-kabab-hamburg?adjust_creative=hBJOknVQJ58S5goQyjmwRw&utm_campaign=yelp_api_v3&utm_medium=api_v3_business_search&utm_source=hBJOknVQJ58S5goQyjmwRw", "review_count": 4, "categories": [{"alias": "kebab", "title": "Kebab"}], "rating": 4.5, "coordinates": {"latitude": 53.55787, "longitude": 10.04643}, "transactions": [], "price": "\u20ac", "location": {"address1": "Carl-Pertersen-Str. 74", "address2": null, "address3": null, "city": "Hamburg", "zip_code": "20535", "country": "DE", "state": "HH", "display_address": ["Carl-Pertersen-Str. 74", "20535 Hamburg", "Germany"]}, "phone": "+494088234513", "display_phone": "+49 40 88234513", "distance": 4354.7691745144575}, {"id": "jUPENPA2agvBwm75l0CokQ", "alias": "alt-deutsche-k\u00fcche-elbbr\u00fccken-hamburg", "name": "Alt Deutsche K\u00fcche Elbbr\u00fccken", "image_url": "https://s3-media3.fl.yelpcdn.com/bphoto/Aeqh23mIiMdstatkmYSe2Q/o.jpg", "is_closed": false, "url": "https://www.yelp.com/biz/alt-deutsche-k%C3%BCche-elbbr%C3%BCcken-hamburg?adjust_creative=hBJOknVQJ58S5goQyjmwRw&utm_campaign=yelp_api_v3&utm_medium=api_v3_business_search&utm_source=hBJOknVQJ58S5goQyjmwRw", "review_count": 23, "categories": [{"alias": "northerngerman", "title": "Northern German"}, {"alias": "sportsbars", "title": "Sports Bars"}], "rating": 3.5, "coordinates": {"latitude": 53.5366893475375, "longitude": 10.033874680426}, "transactions": [], "price": "\u20ac\u20ac", "location": {"address1": "Billhorner R\u00f6hrendamm 94", "address2": null, "address3": "", "city": "Hamburg", "zip_code": "20539", "country": "DE", "state": "HH", "display_address": ["Billhorner R\u00f6hrendamm 94", "20539 Hamburg", "Germany"]}, "phone": "+4940786286", "display_phone": "+49 40 786286", "distance": 2504.182512904113}, {"id": "v5SHMTEYFr9nraFY8kmRFA", "alias": "hammer-eck-hamburg", "name": "Hammer Eck", "image_url": "https://s3-media2.fl.yelpcdn.com/bphoto/cuyPQDKoRveofa7_z5tnuA/o.jpg", "is_closed": false, "url": "https://www.yelp.com/biz/hammer-eck-hamburg?adjust_creative=hBJOknVQJ58S5goQyjmwRw&utm_campaign=yelp_api_v3&utm_medium=api_v3_business_search&utm_source=hBJOknVQJ58S5goQyjmwRw", "review_count": 1, "categories": [{"alias": "restaurants", "title": "Restaurants"}], "rating": 4.0, "coordinates": {"latitude": 53.5557299, "longitude": 10.0619}, "transactions": [], "location": {"address1": "Horner Weg 50", "address2": null, "address3": null, "city": "Hamburg", "zip_code": "20535", "country": "DE", "state": "HH", "display_address": ["Horner Weg 50", "20535 Hamburg", "Germany"]}, "phone": "+49402192644", "display_phone": "+49 40 2192644", "distance": 4056.3935162338985}, {"id": "GOJDESC3enoUxwJ6jQjqHQ", "alias": "e-on-hanse-hamburg", "name": "E.On Hanse", "image_url": "https://s3-media2.fl.yelpcdn.com/bphoto/xPQjXnTN7P00HhR7txprnQ/o.jpg", "is_closed": false, "url": "https://www.yelp.com/biz/e-on-hanse-hamburg?adjust_creative=hBJOknVQJ58S5goQyjmwRw&utm_campaign=yelp_api_v3&utm_medium=api_v3_business_search&utm_source=hBJOknVQJ58S5goQyjmwRw", "review_count": 2, "categories": [{"alias": "canteen", "title": "Canteen"}], "rating": 3.0, "coordinates": {"latitude": 53.5289, "longitude": 10.0641}, "transactions": [], "location": {"address1": "Ausschl\u00e4ger Elbdeich 127", "address2": null, "address3": null, "city": "Hamburg", "zip_code": "20539", "country": "DE", "state": "HH", "display_address": ["Ausschl\u00e4ger Elbdeich 127", "20539 Hamburg", "Germany"]}, "phone": "", "display_phone": "", "distance": 1140.4436773123898}, {"id": "Ev4Dof7Rx72ZBsaJTBvJxA", "alias": "kantine-hammer-mahlzeit-iss-mit-sbb-kompetenz-ggmbh-hamburg", "name": "Kantine Hammer Mahlzeit iss mit! Sbb Kompetenz gGmbH", "image_url": "https://s3-media1.fl.yelpcdn.com/bphoto/gX_-Z3elwlfirpfS1bzq8Q/o.jpg", "is_closed": false, "url": "https://www.yelp.com/biz/kantine-hammer-mahlzeit-iss-mit-sbb-kompetenz-ggmbh-hamburg?adjust_creative=hBJOknVQJ58S5goQyjmwRw&utm_campaign=yelp_api_v3&utm_medium=api_v3_business_search&utm_source=hBJOknVQJ58S5goQyjmwRw", "review_count": 4, "categories": [{"alias": "employmentagencies", "title": "Employment Agencies"}, {"alias": "canteen", "title": "Canteen"}], "rating": 4.5, "coordinates": {"latitude": 53.5492, "longitude": 10.0597}, "transactions": [], "price": "\u20ac", "location": {"address1": "Wendenstr. 493", "address2": null, "address3": null, "city": "Hamburg", "zip_code": "20537", "country": "DE", "state": "HH", "display_address": ["Wendenstr. 493", "20537 Hamburg", "Germany"]}, "phone": "+494021112123", "display_phone": "+49 40 21112123", "distance": 3325.3345822547703}, {"id": "4GnO2YzDPOr_0Mbj1iTedw", "alias": "amazing-thai-hamburg", "name": "Amazing Thai", "image_url": "https://s3-media1.fl.yelpcdn.com/bphoto/VRIv4iNlmx-VmYm57LGLiQ/o.jpg", "is_closed": false, "url": "https://www.yelp.com/biz/amazing-thai-hamburg?adjust_creative=hBJOknVQJ58S5goQyjmwRw&utm_campaign=yelp_api_v3&utm_medium=api_v3_business_search&utm_source=hBJOknVQJ58S5goQyjmwRw", "review_count": 3, "categories": [{"alias": "karaoke", "title": "Karaoke"}, {"alias": "thai", "title": "Thai"}], "rating": 4.0, "coordinates": {"latitude": 53.5580466418447, "longitude": 10.0358393901206}, "transactions": [], "price": "\u20ac\u20ac", "location": {"address1": "B\u00fcrgerweide 62", "address2": "", "address3": "", "city": "Hamburg", "zip_code": "20535", "country": "DE", "state": "HH", "display_address": ["B\u00fcrgerweide 62", "20535 Hamburg", "Germany"]}, "phone": "+494025306945", "display_phone": "+49 40 25306945", "distance": 4548.659155880625}, {"id": "j0ysYcDNHxTNKmuAvcgJ4A", "alias": "restaurant-blaue-adria-hamburg", "name": "Restaurant blaue Adria", "image_url": "https://s3-media2.fl.yelpcdn.com/bphoto/sbQfdYTdnDqTJXukxLa_lw/o.jpg", "is_closed": false, "url": "https://www.yelp.com/biz/restaurant-blaue-adria-hamburg?adjust_creative=hBJOknVQJ58S5goQyjmwRw&utm_campaign=yelp_api_v3&utm_medium=api_v3_business_search&utm_source=hBJOknVQJ58S5goQyjmwRw", "review_count": 5, "categories": [{"alias": "german", "title": "German"}], "rating": 4.0, "coordinates": {"latitude": 53.5352, "longitude": 10.0414}, "transactions": [], "price": "\u20ac\u20ac", "location": {"address1": "Marckmannstr. 74", "address2": null, "address3": null, "city": "Hamburg", "zip_code": "20539", "country": "DE", "state": "HH", "display_address": ["Marckmannstr. 74", "20539 Hamburg", "Germany"]}, "phone": "+49407890242", "display_phone": "+49 40 7890242", "distance": 2078.7472346026466}, {"id": "TQZu5TXWITuFj5bqRMVQEw", "alias": "entenwerder-f\u00e4hrhaus-hamburg", "name": "Entenwerder F\u00e4hrhaus", "image_url": "https://s3-media2.fl.yelpcdn.com/bphoto/VB1uXzzWSGKR97ZDzNUs2g/o.jpg", "is_closed": false, "url": "https://www.yelp.com/biz/entenwerder-f%C3%A4hrhaus-hamburg?adjust_creative=hBJOknVQJ58S5goQyjmwRw&utm_campaign=yelp_api_v3&utm_medium=api_v3_business_search&utm_source=hBJOknVQJ58S5goQyjmwRw", "review_count": 5, "categories": [{"alias": "german", "title": "German"}, {"alias": "beergarden", "title": "Beer Garden"}], "rating": 3.5, "coordinates": {"latitude": 53.530194, "longitude": 10.040777}, "transactions": [], "price": "\u20ac", "location": {"address1": "Entenwerder Stieg 6 - 8", "address2": null, "address3": null, "city": "Hamburg", "zip_code": "20539", "country": "DE", "state": "HH", "display_address": ["Entenwerder Stieg 6 - 8", "20539 Hamburg", "Germany"]}, "phone": "", "display_phone": "", "distance": 1660.2206451892107}, {"id": "_M1WzOBE-XxhsHyxrEL6kQ", "alias": "mein-d\u00f6ner-hamburg", "name": "Mein D\u00f6ner", "image_url": "https://s3-media2.fl.yelpcdn.com/bphoto/loDEw0PVlsd3ErHh6ALjNA/o.jpg", "is_closed": false, "url": "https://www.yelp.com/biz/mein-d%C3%B6ner-hamburg?adjust_creative=hBJOknVQJ58S5goQyjmwRw&utm_campaign=yelp_api_v3&utm_medium=api_v3_business_search&utm_source=hBJOknVQJ58S5goQyjmwRw", "review_count": 7, "categories": [{"alias": "kebab", "title": "Kebab"}], "rating": 3.5, "coordinates": {"latitude": 53.5365884457337, "longitude": 10.0344046872517}, "transactions": [], "price": "\u20ac", "location": {"address1": "Billhorner R\u00f6hrendamm 98", "address2": "", "address3": null, "city": "Hamburg", "zip_code": "20539", "country": "DE", "state": "HH", "display_address": ["Billhorner R\u00f6hrendamm 98", "20539 Hamburg", "Germany"]}, "phone": "+494078081199", "display_phone": "+49 40 78081199", "distance": 2473.3226906471314}, {"id": "-0cRZi2NyUk-q27FFxMqSg", "alias": "schweinske-hamburg-26", "name": "Schweinske", "image_url": "https://s3-media1.fl.yelpcdn.com/bphoto/ysjlucXmNeQHP0JO4xDVIQ/o.jpg", "is_closed": false, "url": "https://www.yelp.com/biz/schweinske-hamburg-26?adjust_creative=hBJOknVQJ58S5goQyjmwRw&utm_campaign=yelp_api_v3&utm_medium=api_v3_business_search&utm_source=hBJOknVQJ58S5goQyjmwRw", "review_count": 39, "categories": [{"alias": "german", "title": "German"}], "rating": 3.0, "coordinates": {"latitude": 53.5534, "longitude": 10.067}, "transactions": [], "price": "\u20ac", "location": {"address1": "Hammer Landstr. 242-244", "address2": null, "address3": null, "city": "Hamburg", "zip_code": "20537", "country": "DE", "state": "HH", "display_address": ["Hammer Landstr. 242-244", "20537 Hamburg", "Germany"]}, "phone": "+4940212111", "display_phone": "+49 40 212111", "distance": 3837.042765080008}, {"id": "nqKPgsamKDJCVWZOZbn7RA", "alias": "hammer-pizza-hamburg", "name": "Hammer Pizza", "image_url": "https://s3-media2.fl.yelpcdn.com/bphoto/vBGkC0h28Q0WUogvQzj9Yg/o.jpg", "is_closed": false, "url": "https://www.yelp.com/biz/hammer-pizza-hamburg?adjust_creative=hBJOknVQJ58S5goQyjmwRw&utm_campaign=yelp_api_v3&utm_medium=api_v3_business_search&utm_source=hBJOknVQJ58S5goQyjmwRw", "review_count": 74, "categories": [{"alias": "pizza", "title": "Pizza"}], "rating": 4.5, "coordinates": {"latitude": 53.5557469728551, "longitude": 10.0631953513058}, "transactions": [], "price": "\u20ac\u20ac", "location": {"address1": "Horner Weg 66", "address2": "", "address3": "", "city": "Hamburg", "zip_code": "20535", "country": "DE", "state": "HH", "display_address": ["Horner Weg 66", "20535 Hamburg", "Germany"]}, "phone": "+494021986905", "display_phone": "+49 40 21986905", "distance": 4066.0339374250866}, {"id": "a16kZh83Ee5ZoSjXghj_5A", "alias": "orange-coffee-hamburg", "name": "Orange Coffee", "image_url": "https://s3-media3.fl.yelpcdn.com/bphoto/FtZQ0d-fQW57NOdZLrtiHg/o.jpg", "is_closed": false, "url": "https://www.yelp.com/biz/orange-coffee-hamburg?adjust_creative=hBJOknVQJ58S5goQyjmwRw&utm_campaign=yelp_api_v3&utm_medium=api_v3_business_search&utm_source=hBJOknVQJ58S5goQyjmwRw", "review_count": 2, "categories": [{"alias": "kiosk", "title": "Kiosk"}, {"alias": "backshop", "title": "Backshop"}, {"alias": "cafes", "title": "Cafes"}], "rating": 4.5, "coordinates": {"latitude": 53.5363151285288, "longitude": 10.0347996877954}, "transactions": [], "location": {"address1": "Billhorner R\u00f6hrendamm 104", "address2": "", "address3": "", "city": "Hamburg", "zip_code": "20539", "country": "DE", "state": "HH", "display_address": ["Billhorner R\u00f6hrendamm 104", "20539 Hamburg", "Germany"]}, "phone": "+494084508431", "display_phone": "+49 40 84508431", "distance": 2433.2760005065948}, {"id": "OgffGUDrfAQiBysbCi76uw", "alias": "croques-und-crepes-hamburg-3", "name": "Croques & Crepes", "image_url": "https://s3-media2.fl.yelpcdn.com/bphoto/q287Y69kGOWg3l8OLwwsEw/o.jpg", "is_closed": false, "url": "https://www.yelp.com/biz/croques-und-crepes-hamburg-3?adjust_creative=hBJOknVQJ58S5goQyjmwRw&utm_campaign=yelp_api_v3&utm_medium=api_v3_business_search&utm_source=hBJOknVQJ58S5goQyjmwRw", "review_count": 22, "categories": [{"alias": "creperies", "title": "Creperies"}, {"alias": "baguettes", "title": "Baguettes"}], "rating": 5.0, "coordinates": {"latitude": 53.5563, "longitude": 10.04048}, "transactions": [], "price": "\u20ac", "location": {"address1": "Burgstr. 12", "address2": "", "address3": "", "city": "Hamburg", "zip_code": "20535", "country": "DE", "state": "HH", "display_address": ["Burgstr. 12", "20535 Hamburg", "Germany"]}, "phone": "+494060082463", "display_phone": "+49 40 60082463", "distance": 4268.7681245745025}, {"id": "ffhZvAAPSRewKhW--_4Sgw", "alias": "mcdonalds-hamburg-7", "name": "McDonald's", "image_url": "https://s3-media2.fl.yelpcdn.com/bphoto/Dh77cvy7kepYc7Wo_9Rhrg/o.jpg", "is_closed": false, "url": "https://www.yelp.com/biz/mcdonalds-hamburg-7?adjust_creative=hBJOknVQJ58S5goQyjmwRw&utm_campaign=yelp_api_v3&utm_medium=api_v3_business_search&utm_source=hBJOknVQJ58S5goQyjmwRw", "review_count": 31, "categories": [{"alias": "hotdogs", "title": "Fast Food"}, {"alias": "burgers", "title": "Burgers"}], "rating": 3.0, "coordinates": {"latitude": 53.5521699, "longitude": 10.04641}, "transactions": [], "price": "\u20ac\u20ac", "location": {"address1": "Eiffestr. 440", "address2": null, "address3": null, "city": "Hamburg", "zip_code": "20537", "country": "DE", "state": "HH", "display_address": ["Eiffestr. 440", "20537 Hamburg", "Germany"]}, "phone": "+49402503903", "display_phone": "+49 40 2503903", "distance": 3721.387526087305}, {"id": "v9R3CvC60aay86M7dz0m2Q", "alias": "akropolis-hamburg", "name": "Akropolis", "image_url": "https://s3-media2.fl.yelpcdn.com/bphoto/wZmxnrVtVQ-qCK8jTVMzDg/o.jpg", "is_closed": false, "url": "https://www.yelp.com/biz/akropolis-hamburg?adjust_creative=hBJOknVQJ58S5goQyjmwRw&utm_campaign=yelp_api_v3&utm_medium=api_v3_business_search&utm_source=hBJOknVQJ58S5goQyjmwRw", "review_count": 19, "categories": [{"alias": "greek", "title": "Greek"}, {"alias": "hotdogs", "title": "Fast Food"}], "rating": 4.5, "coordinates": {"latitude": 53.5537599, "longitude": 10.06558}, "transactions": [], "price": "\u20ac", "location": {"address1": "Hammer Landstr. 234", "address2": "", "address3": null, "city": "Hamburg", "zip_code": "20537", "country": "DE", "state": "HH", "display_address": ["Hammer Landstr. 234", "20537 Hamburg", "Germany"]}, "phone": "+4940213711", "display_phone": "+49 40 213711", "distance": 3856.710194411955}, {"id": "5fZ9jkrklSrRyUbPaMAWjQ", "alias": "bamboo-restaurant-hamburg", "name": "Bamboo Restaurant", "image_url": "https://s3-media1.fl.yelpcdn.com/bphoto/CJi4ntAQvSHIw0BhBFiUlA/o.jpg", "is_closed": false, "url": "https://www.yelp.com/biz/bamboo-restaurant-hamburg?adjust_creative=hBJOknVQJ58S5goQyjmwRw&utm_campaign=yelp_api_v3&utm_medium=api_v3_business_search&utm_source=hBJOknVQJ58S5goQyjmwRw", "review_count": 9, "categories": [{"alias": "chinese", "title": "Chinese"}, {"alias": "thai", "title": "Thai"}], "rating": 4.0, "coordinates": {"latitude": 53.5013803, "longitude": 10.0799064}, "transactions": [], "price": "\u20ac\u20ac", "location": {"address1": "Tatenberger Weg 1", "address2": null, "address3": null, "city": "Hamburg", "zip_code": "22113", "country": "DE", "state": "HH", "display_address": ["Tatenberger Weg 1", "22113 Hamburg", "Germany"]}, "phone": "+494078071611", "display_phone": "+49 40 78071611", "distance": 2465.580080454585}, {"id": "5mBaU--To7r_kUBNlvdb4g", "alias": "restaurant-hammer-park-hamburg", "name": "Restaurant Hammer Park", "image_url": "https://s3-media1.fl.yelpcdn.com/bphoto/CLnSMPYvJA8V1HCbvBD9CQ/o.jpg", "is_closed": false, "url": "https://www.yelp.com/biz/restaurant-hammer-park-hamburg?adjust_creative=hBJOknVQJ58S5goQyjmwRw&utm_campaign=yelp_api_v3&utm_medium=api_v3_business_search&utm_source=hBJOknVQJ58S5goQyjmwRw", "review_count": 13, "categories": [{"alias": "german", "title": "German"}], "rating": 4.0, "coordinates": {"latitude": 53.55699, "longitude": 10.0554}, "transactions": [], "price": "\u20ac\u20ac", "location": {"address1": "Hammer Hof  1a", "address2": null, "address3": null, "city": "Hamburg", "zip_code": "20535", "country": "DE", "state": "HH", "display_address": ["Hammer Hof  1a", "20535 Hamburg", "Germany"]}, "phone": "+4940213795", "display_phone": "+49 40 213795", "distance": 4193.035705322394}, {"id": "Zpjl0u3-434EJDryWj1wCw", "alias": "restaurant-inos-hamburg-2", "name": "Restaurant Inos", "image_url": "https://s3-media3.fl.yelpcdn.com/bphoto/wNUV2M8sIuTn0LEUWsWFvQ/o.jpg", "is_closed": false, "url": "https://www.yelp.com/biz/restaurant-inos-hamburg-2?adjust_creative=hBJOknVQJ58S5goQyjmwRw&utm_campaign=yelp_api_v3&utm_medium=api_v3_business_search&utm_source=hBJOknVQJ58S5goQyjmwRw", "review_count": 27, "categories": [{"alias": "greek", "title": "Greek"}], "rating": 4.5, "coordinates": {"latitude": 53.5572302623237, "longitude": 10.0526598840952}, "transactions": [], "price": "\u20ac\u20ac", "location": {"address1": "Carl-Petersen-Str. 124", "address2": "", "address3": "", "city": "Hamburg", "zip_code": "20535", "country": "DE", "state": "HH", "display_address": ["Carl-Petersen-Str. 124", "20535 Hamburg", "Germany"]}, "phone": "+494064837833", "display_phone": "+49 40 64837833", "distance": 4230.898232649356}, {"id": "rijtsEzIST8vpykvvRcneA", "alias": "ristorante-vincenzo-hamburg-2", "name": "Ristorante Vincenzo", "image_url": "https://s3-media3.fl.yelpcdn.com/bphoto/8ow03GVk020BlDO5dM8KKQ/o.jpg", "is_closed": false, "url": "https://www.yelp.com/biz/ristorante-vincenzo-hamburg-2?adjust_creative=hBJOknVQJ58S5goQyjmwRw&utm_campaign=yelp_api_v3&utm_medium=api_v3_business_search&utm_source=hBJOknVQJ58S5goQyjmwRw", "review_count": 2, "categories": [{"alias": "italian", "title": "Italian"}, {"alias": "grocery", "title": "Grocery"}], "rating": 4.0, "coordinates": {"latitude": 53.52051, "longitude": 10.08349}, "transactions": [], "location": {"address1": "Halskestr. 48", "address2": "", "address3": "", "city": "Hamburg", "zip_code": "22113", "country": "DE", "state": "HH", "display_address": ["Halskestr. 48", "22113 Hamburg", "Germany"]}, "phone": "+494078081355", "display_phone": "+49 40 78081355", "distance": 1655.2029988564302}, {"id": "6K3MQSIUC4t-7xsgVctxQg", "alias": "caf\u00e9-auszeit-hamburg", "name": "Caf\u00e9 Auszeit", "image_url": "https://s3-media4.fl.yelpcdn.com/bphoto/vjeiIfgFrolVEP4CcqYU-w/o.jpg", "is_closed": false, "url": "https://www.yelp.com/biz/caf%C3%A9-auszeit-hamburg?adjust_creative=hBJOknVQJ58S5goQyjmwRw&utm_campaign=yelp_api_v3&utm_medium=api_v3_business_search&utm_source=hBJOknVQJ58S5goQyjmwRw", "review_count": 63, "categories": [{"alias": "cafes", "title": "Cafes"}, {"alias": "breakfast_brunch", "title": "Breakfast & Brunch"}], "rating": 4.5, "coordinates": {"latitude": 53.5556198865386, "longitude": 10.0633800008687}, "transactions": [], "price": "\u20ac", "location": {"address1": "Horner Weg 68", "address2": "", "address3": "", "city": "Hamburg", "zip_code": "20535", "country": "DE", "state": "HH", "display_address": ["Horner Weg 68", "20535 Hamburg", "Germany"]}, "phone": "+494057241866", "display_phone": "+49 40 57241866", "distance": 4053.0111308780383}, {"id": "45K9V6Od-olAsZzNnCq1Ew", "alias": "marschl\u00e4nder-elblounge-hamburg", "name": "Marschl\u00e4nder Elblounge", "image_url": "https://s3-media4.fl.yelpcdn.com/bphoto/VlmCBhqXZ0ySgPD7nGTxWg/o.jpg", "is_closed": false, "url": "https://www.yelp.com/biz/marschl%C3%A4nder-elblounge-hamburg?adjust_creative=hBJOknVQJ58S5goQyjmwRw&utm_campaign=yelp_api_v3&utm_medium=api_v3_business_search&utm_source=hBJOknVQJ58S5goQyjmwRw", "review_count": 1, "categories": [{"alias": "cafes", "title": "Cafes"}], "rating": 5.0, "coordinates": {"latitude": 53.478363, "longitude": 10.062896}, "transactions": [], "location": {"address1": "Spadenl\u00e4nder Elbdeich 40", "address2": "", "address3": null, "city": "Hamburg", "zip_code": "21037", "country": "DE", "state": "HH", "display_address": ["Spadenl\u00e4nder Elbdeich 40", "21037 Hamburg", "Germany"]}, "phone": "+494089723000", "display_phone": "+49 40 89723000", "distance": 4564.953406175756}, {"id": "opZw8A9bdxiAtEaK9HsIpg", "alias": "cafe-kaltehofe-hamburg", "name": "Cafe Kaltehofe", "image_url": "https://s3-media1.fl.yelpcdn.com/bphoto/-SBPTxsjwRH5SJYThXwoYA/o.jpg", "is_closed": false, "url": "https://www.yelp.com/biz/cafe-kaltehofe-hamburg?adjust_creative=hBJOknVQJ58S5goQyjmwRw&utm_campaign=yelp_api_v3&utm_medium=api_v3_business_search&utm_source=hBJOknVQJ58S5goQyjmwRw", "review_count": 8, "categories": [{"alias": "cafes", "title": "Cafes"}], "rating": 3.0, "coordinates": {"latitude": 53.5247, "longitude": 10.0508}, "transactions": [], "price": "\u20ac\u20ac\u20ac", "location": {"address1": "Kaltehofe Hauptdeich 6-7", "address2": null, "address3": null, "city": "Hamburg", "zip_code": "20439", "country": "DE", "state": "HH", "display_address": ["Kaltehofe Hauptdeich 6-7", "20439 Hamburg", "Germany"]}, "phone": "+4940788849992", "display_phone": "+49 40 788849992", "distance": 764.0871639274296}, {"id": "JzN975VKHmQyKaV1WCPBeg", "alias": "el-toro-grillwagen-hamburg", "name": "EL Toro Grillwagen", "image_url": "", "is_closed": false, "url": "https://www.yelp.com/biz/el-toro-grillwagen-hamburg?adjust_creative=hBJOknVQJ58S5goQyjmwRw&utm_campaign=yelp_api_v3&utm_medium=api_v3_business_search&utm_source=hBJOknVQJ58S5goQyjmwRw", "review_count": 1, "categories": [{"alias": "currysausage", "title": "Curry Sausage"}, {"alias": "cafes", "title": "Cafes"}], "rating": 5.0, "coordinates": {"latitude": 53.550862, "longitude": 10.048934}, "transactions": [], "location": {"address1": "Ausschl\u00e4ger Weg 100", "address2": "", "address3": "", "city": "Hamburg", "zip_code": "20537", "country": "DE", "state": "HH", "display_address": ["Ausschl\u00e4ger Weg 100", "20537 Hamburg", "Germany"]}, "phone": "+491727236048", "display_phone": "+49 172 7236048", "distance": 3558.68609368401}, {"id": "8cDuG1lWfaZ62oErAN23Hw", "alias": "burg-d\u00f6ner-hamburg", "name": "Burg D\u00f6ner", "image_url": "https://s3-media3.fl.yelpcdn.com/bphoto/HAHou5OBMEjh9J_G8DUlHw/o.jpg", "is_closed": false, "url": "https://www.yelp.com/biz/burg-d%C3%B6ner-hamburg?adjust_creative=hBJOknVQJ58S5goQyjmwRw&utm_campaign=yelp_api_v3&utm_medium=api_v3_business_search&utm_source=hBJOknVQJ58S5goQyjmwRw", "review_count": 9, "categories": [{"alias": "kebab", "title": "Kebab"}, {"alias": "foodstands", "title": "Food Stands"}], "rating": 3.0, "coordinates": {"latitude": 53.555756, "longitude": 10.041575}, "transactions": [], "price": "\u20ac", "location": {"address1": "Burgstr. 1", "address2": "", "address3": "", "city": "Hamburg", "zip_code": "20535", "country": "DE", "state": "HH", "display_address": ["Burgstr. 1", "20535 Hamburg", "Germany"]}, "phone": "", "display_phone": "", "distance": 4194.833967864473}, {"id": "eeAeK-QDo5mwnzxzg42r8w", "alias": "caglar-b\u00e4ckerei-hamburg", "name": "Caglar B\u00e4ckerei", "image_url": "https://s3-media1.fl.yelpcdn.com/bphoto/GDmhQcxZ2VNRUfelgGTYYg/o.jpg", "is_closed": false, "url": "https://www.yelp.com/biz/caglar-b%C3%A4ckerei-hamburg?adjust_creative=hBJOknVQJ58S5goQyjmwRw&utm_campaign=yelp_api_v3&utm_medium=api_v3_business_search&utm_source=hBJOknVQJ58S5goQyjmwRw", "review_count": 4, "categories": [{"alias": "bakeries", "title": "Bakeries"}, {"alias": "cafes", "title": "Cafes"}], "rating": 5.0, "coordinates": {"latitude": 53.5343049084099, "longitude": 10.0415912215949}, "transactions": [], "price": "\u20ac", "location": {"address1": "Vierl\u00e4nder Damm 9", "address2": "", "address3": "", "city": "Hamburg", "zip_code": "20539", "country": "DE", "state": "HH", "display_address": ["Vierl\u00e4nder Damm 9", "20539 Hamburg", "Germany"]}, "phone": "+494038672149", "display_phone": "+49 40 38672149", "distance": 1987.9435877354838}, {"id": "YiUt58qQ2MY9oXGpgaH_1Q", "alias": "hazar-grill-hamburg", "name": "Hazar Grill", "image_url": "https://s3-media1.fl.yelpcdn.com/bphoto/XjhF-iN9GNAgsCj8HsVGgQ/o.jpg", "is_closed": false, "url": "https://www.yelp.com/biz/hazar-grill-hamburg?adjust_creative=hBJOknVQJ58S5goQyjmwRw&utm_campaign=yelp_api_v3&utm_medium=api_v3_business_search&utm_source=hBJOknVQJ58S5goQyjmwRw", "review_count": 1, "categories": [{"alias": "turkish", "title": "Turkish"}], "rating": 4.0, "coordinates": {"latitude": 53.5580593039523, "longitude": 10.0463842444075}, "transactions": [], "location": {"address1": "Carl-Petersen-Str. 74", "address2": "", "address3": null, "city": "Hamburg", "zip_code": "20535", "country": "DE", "state": "HH", "display_address": ["Carl-Petersen-Str. 74", "20535 Hamburg", "Germany"]}, "phone": "+494025332974", "display_phone": "+49 40 25332974", "distance": 4376.022722272754}, {"id": "O4tYTnYL_uOnwpbyaa1AuQ", "alias": "zeder-hamburg-2", "name": "Zeder", "image_url": "https://s3-media1.fl.yelpcdn.com/bphoto/owhLDWPIpThRoF8KJHV9Jw/o.jpg", "is_closed": false, "url": "https://www.yelp.com/biz/zeder-hamburg-2?adjust_creative=hBJOknVQJ58S5goQyjmwRw&utm_campaign=yelp_api_v3&utm_medium=api_v3_business_search&utm_source=hBJOknVQJ58S5goQyjmwRw", "review_count": 4, "categories": [{"alias": "lebanese", "title": "Lebanese"}, {"alias": "oriental", "title": "Oriental"}], "rating": 5.0, "coordinates": {"latitude": 53.5511, "longitude": 10.03586}, "transactions": [], "price": "\u20ac\u20ac", "location": {"address1": "Ausschl\u00e4ger Weg 41", "address2": "", "address3": null, "city": "Hamburg", "zip_code": "20537", "country": "DE", "state": "HH", "display_address": ["Ausschl\u00e4ger Weg 41", "20537 Hamburg", "Germany"]}, "phone": "+494025305650", "display_phone": "+49 40 25305650", "distance": 3826.5765516477422}, {"id": "4bw-Dgc3LsPEJIPiYVKfYw", "alias": "k\u00f6pinsel-hamburg", "name": "K\u00f6pinsel", "image_url": "https://s3-media3.fl.yelpcdn.com/bphoto/lBCH6kWM974xe-63p8W2jA/o.jpg", "is_closed": false, "url": "https://www.yelp.com/biz/k%C3%B6pinsel-hamburg?adjust_creative=hBJOknVQJ58S5goQyjmwRw&utm_campaign=yelp_api_v3&utm_medium=api_v3_business_search&utm_source=hBJOknVQJ58S5goQyjmwRw", "review_count": 1, "categories": [{"alias": "german", "title": "German"}, {"alias": "pubs", "title": "Pubs"}], "rating": 4.0, "coordinates": {"latitude": 53.5589714, "longitude": 10.0400105}, "transactions": [], "location": {"address1": "Carl-Petersen-Str. 2", "address2": "", "address3": "", "city": "Hamburg", "zip_code": "20535", "country": "DE", "state": "HH", "display_address": ["Carl-Petersen-Str. 2", "20535 Hamburg", "Germany"]}, "phone": "+49402542240", "display_phone": "+49 40 2542240", "distance": 4582.74732983187}, {"id": "JtYrbNq9grPeTgBo0UKqcg", "alias": "die-tomate-hamburg", "name": "Die Tomate", "image_url": "", "is_closed": false, "url": "https://www.yelp.com/biz/die-tomate-hamburg?adjust_creative=hBJOknVQJ58S5goQyjmwRw&utm_campaign=yelp_api_v3&utm_medium=api_v3_business_search&utm_source=hBJOknVQJ58S5goQyjmwRw", "review_count": 1, "categories": [{"alias": "hotdogs", "title": "Fast Food"}], "rating": 5.0, "coordinates": {"latitude": 53.552845913437, "longitude": 10.0461900606751}, "transactions": [], "location": {"address1": "Eiffestr. 127", "address2": "", "address3": "", "city": "Hamburg", "zip_code": "20537", "country": "DE", "state": "HH", "display_address": ["Eiffestr. 127", "20537 Hamburg", "Germany"]}, "phone": "+4915202156958", "display_phone": "+49 1520 2156958", "distance": 3809.231940368613}, {"id": "fAE95XczgQHd2FtKmZLR_Q", "alias": "croque-lagune-hamburg", "name": "Croque Lagune", "image_url": "https://s3-media2.fl.yelpcdn.com/bphoto/AeqDA5mR38Bvyr5ld0xBOQ/o.jpg", "is_closed": false, "url": "https://www.yelp.com/biz/croque-lagune-hamburg?adjust_creative=hBJOknVQJ58S5goQyjmwRw&utm_campaign=yelp_api_v3&utm_medium=api_v3_business_search&utm_source=hBJOknVQJ58S5goQyjmwRw", "review_count": 35, "categories": [{"alias": "sandwiches", "title": "Sandwiches"}], "rating": 4.0, "coordinates": {"latitude": 53.550998097917, "longitude": 10.057233461117}, "transactions": [], "price": "\u20ac", "location": {"address1": "Eiffestr. 612", "address2": null, "address3": null, "city": "Hamburg", "zip_code": "20537", "country": "DE", "state": "HH", "display_address": ["Eiffestr. 612", "20537 Hamburg", "Germany"]}, "phone": "+4940218063", "display_phone": "+49 40 218063", "distance": 3523.656075723086}, {"id": "PsyHTuNN8hLO6bbsbz1tCg", "alias": "hollys-grill-hamburg", "name": "Holly's Grill", "image_url": "https://s3-media3.fl.yelpcdn.com/bphoto/DHsgVOwzYHocbOkee7s5jQ/o.jpg", "is_closed": false, "url": "https://www.yelp.com/biz/hollys-grill-hamburg?adjust_creative=hBJOknVQJ58S5goQyjmwRw&utm_campaign=yelp_api_v3&utm_medium=api_v3_business_search&utm_source=hBJOknVQJ58S5goQyjmwRw", "review_count": 1, "categories": [{"alias": "steak", "title": "Steakhouses"}], "rating": 4.0, "coordinates": {"latitude": 53.54159, "longitude": 10.05061}, "transactions": [], "location": {"address1": "Ausschl\u00e4ger Billdeich 52", "address2": "", "address3": null, "city": "Hamburg", "zip_code": "20539", "country": "DE", "state": "HH", "display_address": ["Ausschl\u00e4ger Billdeich 52", "20539 Hamburg", "Germany"]}, "phone": "+494088148259", "display_phone": "+49 40 88148259", "distance": 2519.329375642192}, {"id": "H-mSbykkIjbR2Q2i2blvnQ", "alias": "josephins-hamburg", "name": "Josephin's", "image_url": "https://s3-media3.fl.yelpcdn.com/bphoto/M1lmJO1Zf4LBzcjg_D57wg/o.jpg", "is_closed": false, "url": "https://www.yelp.com/biz/josephins-hamburg?adjust_creative=hBJOknVQJ58S5goQyjmwRw&utm_campaign=yelp_api_v3&utm_medium=api_v3_business_search&utm_source=hBJOknVQJ58S5goQyjmwRw", "review_count": 26, "categories": [{"alias": "cafes", "title": "Cafes"}], "rating": 4.5, "coordinates": {"latitude": 53.5618499, "longitude": 10.0364708}, "transactions": [], "price": "\u20ac", "location": {"address1": "Landwehr 33", "address2": null, "address3": null, "city": "Hamburg", "zip_code": "22087", "country": "DE", "state": "HH", "display_address": ["Landwehr 33", "22087 Hamburg", "Germany"]}, "phone": "+4915750293703", "display_phone": "+49 1575 0293703", "distance": 4938.785063591931}, {"id": "g5MJw-nYVpYra0Ts0zk1Cw", "alias": "\u00f6z-antep-imbis-hamburg", "name": "\u00d6Z-Antep Imbis", "image_url": "https://s3-media2.fl.yelpcdn.com/bphoto/x6tyf9HzwPVqiqdgrltsjw/o.jpg", "is_closed": false, "url": "https://www.yelp.com/biz/%C3%B6z-antep-imbis-hamburg?adjust_creative=hBJOknVQJ58S5goQyjmwRw&utm_campaign=yelp_api_v3&utm_medium=api_v3_business_search&utm_source=hBJOknVQJ58S5goQyjmwRw", "review_count": 1, "categories": [{"alias": "kebab", "title": "Kebab"}], "rating": 5.0, "coordinates": {"latitude": 53.5462, "longitude": 10.0394}, "transactions": [], "location": {"address1": "Brackdamm 18", "address2": null, "address3": null, "city": "Hamburg", "zip_code": "20537", "country": "DE", "state": "HH", "display_address": ["Brackdamm 18", "20537 Hamburg", "Germany"]}, "phone": "+494025498986", "display_phone": "+49 40 25498986", "distance": 3231.9854686212925}, {"id": "9PdMuNA1zYYnDlwF1WPAaw", "alias": "med-grill-haus-hamburg", "name": "MED Grill Haus", "image_url": "https://s3-media4.fl.yelpcdn.com/bphoto/xKgIQfKWBqJXdaq6i7ADXg/o.jpg", "is_closed": false, "url": "https://www.yelp.com/biz/med-grill-haus-hamburg?adjust_creative=hBJOknVQJ58S5goQyjmwRw&utm_campaign=yelp_api_v3&utm_medium=api_v3_business_search&utm_source=hBJOknVQJ58S5goQyjmwRw", "review_count": 1, "categories": [{"alias": "kebab", "title": "Kebab"}], "rating": 4.0, "coordinates": {"latitude": 53.56081, "longitude": 10.038049}, "transactions": [], "location": {"address1": "Landwehr 63", "address2": "", "address3": null, "city": "Hamburg", "zip_code": "22087", "country": "DE", "state": "HH", "display_address": ["Landwehr 63", "22087 Hamburg", "Germany"]}, "phone": "+494060864835", "display_phone": "+49 40 60864835", "distance": 4789.341191826253}, {"id": "JWPB8tllljrqL6yT1Mmn0Q", "alias": "taj-mahal-hamburg-2", "name": "Taj Mahal", "image_url": "https://s3-media4.fl.yelpcdn.com/bphoto/RNGKmsq-9bf-e9BEVfDsIQ/o.jpg", "is_closed": false, "url": "https://www.yelp.com/biz/taj-mahal-hamburg-2?adjust_creative=hBJOknVQJ58S5goQyjmwRw&utm_campaign=yelp_api_v3&utm_medium=api_v3_business_search&utm_source=hBJOknVQJ58S5goQyjmwRw", "review_count": 6, "categories": [{"alias": "indpak", "title": "Indian"}], "rating": 3.0, "coordinates": {"latitude": 53.548735, "longitude": 10.0515452}, "transactions": [], "price": "\u20ac", "location": {"address1": "Borstelmannsweg 145", "address2": "", "address3": "", "city": "Hamburg", "zip_code": "20537", "country": "DE", "state": "HH", "display_address": ["Borstelmannsweg 145", "20537 Hamburg", "Germany"]}, "phone": "+494021984711", "display_phone": "+49 40 21984711", "distance": 3299.1419807938087}, {"id": "ha4VkuMb0QD3ZYbXFQZVTg", "alias": "restaurant-euro-shell-hamburg", "name": "Restaurant Euro Shell", "image_url": "https://s3-media1.fl.yelpcdn.com/bphoto/yxC_vw2P8y6Lw_RK8Be6sw/o.jpg", "is_closed": false, "url": "https://www.yelp.com/biz/restaurant-euro-shell-hamburg?adjust_creative=hBJOknVQJ58S5goQyjmwRw&utm_campaign=yelp_api_v3&utm_medium=api_v3_business_search&utm_source=hBJOknVQJ58S5goQyjmwRw", "review_count": 6, "categories": [{"alias": "servicestations", "title": "Gas Stations"}, {"alias": "restaurants", "title": "Restaurants"}], "rating": 4.5, "coordinates": {"latitude": 53.5465, "longitude": 10.0403}, "transactions": [], "price": "\u20ac", "location": {"address1": "Hammer Deich 1", "address2": null, "address3": null, "city": "Hamburg", "zip_code": "20537", "country": "DE", "state": "HH", "display_address": ["Hammer Deich 1", "20537 Hamburg", "Germany"]}, "phone": "+4940256363", "display_phone": "+49 40 256363", "distance": 3240.958087767667}, {"id": "s_C-gA5P5DMrnwobdvPU7g", "alias": "zum-pferdestall-hamburg", "name": "Zum Pferdestall", "image_url": "https://s3-media3.fl.yelpcdn.com/bphoto/vy2XUi5dg4s_6tgpovSmqQ/o.jpg", "is_closed": false, "url": "https://www.yelp.com/biz/zum-pferdestall-hamburg?adjust_creative=hBJOknVQJ58S5goQyjmwRw&utm_campaign=yelp_api_v3&utm_medium=api_v3_business_search&utm_source=hBJOknVQJ58S5goQyjmwRw", "review_count": 5, "categories": [{"alias": "breakfast_brunch", "title": "Breakfast & Brunch"}, {"alias": "cafes", "title": "Cafes"}, {"alias": "hotdogs", "title": "Fast Food"}], "rating": 4.5, "coordinates": {"latitude": 53.55036, "longitude": 10.0478}, "transactions": [], "price": "\u20ac", "location": {"address1": "Luisenweg 95", "address2": "", "address3": "", "city": "Hamburg", "zip_code": "20537", "country": "DE", "state": "HH", "display_address": ["Luisenweg 95", "20537 Hamburg", "Germany"]}, "phone": "+4940212140", "display_phone": "+49 40 212140", "distance": 3514.8359335567066}, {"id": "QoHDKWzNe2orbOS-0vNYOA", "alias": "drive-pizza-hamburg", "name": "Drive Pizza", "image_url": "https://s3-media1.fl.yelpcdn.com/bphoto/1QT6rQxxBtEjzfyO9FVA-A/o.jpg", "is_closed": false, "url": "https://www.yelp.com/biz/drive-pizza-hamburg?adjust_creative=hBJOknVQJ58S5goQyjmwRw&utm_campaign=yelp_api_v3&utm_medium=api_v3_business_search&utm_source=hBJOknVQJ58S5goQyjmwRw", "review_count": 19, "categories": [{"alias": "italian", "title": "Italian"}, {"alias": "indpak", "title": "Indian"}], "rating": 3.5, "coordinates": {"latitude": 53.55797, "longitude": 10.03565}, "transactions": [], "price": "\u20ac", "location": {"address1": "B\u00fcrgerweide 62", "address2": null, "address3": null, "city": "Hamburg", "zip_code": "20535", "country": "DE", "state": "HH", "display_address": ["B\u00fcrgerweide 62", "20535 Hamburg", "Germany"]}, "phone": "+49402518846", "display_phone": "+49 40 2518846", "distance": 4512.57133264075}, {"id": "5IMS6FBwYW4NvTVvooCr9w", "alias": "steininger-schank-und-speisewirtschaft-hamburg", "name": "Steininger Schank und Speisewirtschaft", "image_url": "https://s3-media2.fl.yelpcdn.com/bphoto/rAlbVwE2uDZ9orgf3HKKzQ/o.jpg", "is_closed": false, "url": "https://www.yelp.com/biz/steininger-schank-und-speisewirtschaft-hamburg?adjust_creative=hBJOknVQJ58S5goQyjmwRw&utm_campaign=yelp_api_v3&utm_medium=api_v3_business_search&utm_source=hBJOknVQJ58S5goQyjmwRw", "review_count": 66, "categories": [{"alias": "international", "title": "International"}], "rating": 3.5, "coordinates": {"latitude": 53.561892, "longitude": 10.04843}, "transactions": [], "price": "\u20ac\u20ac", "location": {"address1": "Riesserstr. 11", "address2": "", "address3": "", "city": "Hamburg", "zip_code": "20535", "country": "DE", "state": "HH", "display_address": ["Riesserstr. 11", "20535 Hamburg", "Germany"]}, "phone": "+494020982460", "display_phone": "+49 40 20982460", "distance": 4775.909456434176}, {"id": "VsU8J4GnEKwbfBbfWU9x2Q", "alias": "stehcafe-horner-hamburg", "name": "Stehcafe Horner", "image_url": "https://s3-media2.fl.yelpcdn.com/bphoto/ZgWlGcq8j98N6ZTiixoRYQ/o.jpg", "is_closed": false, "url": "https://www.yelp.com/biz/stehcafe-horner-hamburg?adjust_creative=hBJOknVQJ58S5goQyjmwRw&utm_campaign=yelp_api_v3&utm_medium=api_v3_business_search&utm_source=hBJOknVQJ58S5goQyjmwRw", "review_count": 2, "categories": [{"alias": "cafes", "title": "Cafes"}], "rating": 5.0, "coordinates": {"latitude": 53.5505, "longitude": 10.0777}, "transactions": [], "price": "\u20ac\u20ac", "location": {"address1": "Horner Landstr. 144", "address2": null, "address3": null, "city": "Hamburg", "zip_code": "22111", "country": "DE", "state": "HH", "display_address": ["Horner Landstr. 144", "22111 Hamburg", "Germany"]}, "phone": "", "display_phone": "", "distance": 3704.8635734440886}, {"id": "upqpZh2h31tnRwox9v5Wqg", "alias": "cafe-may-hamburg-12", "name": "Cafe May", "image_url": "https://s3-media2.fl.yelpcdn.com/bphoto/toFWQ4ygZ5RmxbrptKguXg/o.jpg", "is_closed": false, "url": "https://www.yelp.com/biz/cafe-may-hamburg-12?adjust_creative=hBJOknVQJ58S5goQyjmwRw&utm_campaign=yelp_api_v3&utm_medium=api_v3_business_search&utm_source=hBJOknVQJ58S5goQyjmwRw", "review_count": 30, "categories": [{"alias": "cafes", "title": "Cafes"}], "rating": 3.0, "coordinates": {"latitude": 53.558, "longitude": 10.0754}, "transactions": [], "price": "\u20ac", "location": {"address1": "Sievekingsallee 157", "address2": null, "address3": null, "city": "Hamburg", "zip_code": "22111", "country": "DE", "state": "HH", "display_address": ["Sievekingsallee 157", "22111 Hamburg", "Germany"]}, "phone": "+494065590822", "display_phone": "+49 40 65590822", "distance": 4453.347836176667}, {"id": "LbLFZ8TqNds4YpGfSywChQ", "alias": "bistro-luna-hamburg-2", "name": "Bistro Luna", "image_url": "https://s3-media1.fl.yelpcdn.com/bphoto/h0XGOPVk2XiXD5tmcj_55Q/o.jpg", "is_closed": false, "url": "https://www.yelp.com/biz/bistro-luna-hamburg-2?adjust_creative=hBJOknVQJ58S5goQyjmwRw&utm_campaign=yelp_api_v3&utm_medium=api_v3_business_search&utm_source=hBJOknVQJ58S5goQyjmwRw", "review_count": 1, "categories": [{"alias": "spanish", "title": "Spanish"}, {"alias": "breakfast_brunch", "title": "Breakfast & Brunch"}, {"alias": "cafes", "title": "Cafes"}], "rating": 4.0, "coordinates": {"latitude": 53.55113, "longitude": 10.05338}, "transactions": [], "location": {"address1": "Borstelmannsweg 76", "address2": "", "address3": null, "city": "Hamburg", "zip_code": "20537", "country": "DE", "state": "HH", "display_address": ["Borstelmannsweg 76", "20537 Hamburg", "Germany"]}, "phone": "", "display_phone": "", "distance": 3550.6752424921083}, {"id": "Y1-hi4V6vGglDpGPweLMog", "alias": "sphinx-d\u00f6ner-hamburg", "name": "Sphinx D\u00f6ner", "image_url": "https://s3-media1.fl.yelpcdn.com/bphoto/0BSc2ulicRQFTOrJNsm3Pg/o.jpg", "is_closed": false, "url": "https://www.yelp.com/biz/sphinx-d%C3%B6ner-hamburg?adjust_creative=hBJOknVQJ58S5goQyjmwRw&utm_campaign=yelp_api_v3&utm_medium=api_v3_business_search&utm_source=hBJOknVQJ58S5goQyjmwRw", "review_count": 25, "categories": [{"alias": "kebab", "title": "Kebab"}, {"alias": "mediterranean", "title": "Mediterranean"}], "rating": 4.5, "coordinates": {"latitude": 53.561298, "longitude": 10.0375784}, "transactions": [], "price": "\u20ac", "location": {"address1": "Landwehr 39", "address2": "", "address3": "", "city": "Hamburg", "zip_code": "22087", "country": "DE", "state": "HH", "display_address": ["Landwehr 39", "22087 Hamburg", "Germany"]}, "phone": "+494018046276", "display_phone": "+49 40 18046276", "distance": 4859.240673091428}, {"id": "igC1wZhesml_rTRYpwvvng", "alias": "hellas-pizza-house-hamburg", "name": "Hellas Pizza House", "image_url": "https://s3-media2.fl.yelpcdn.com/bphoto/Oroawwgh88GJel_SeOhsOQ/o.jpg", "is_closed": false, "url": "https://www.yelp.com/biz/hellas-pizza-house-hamburg?adjust_creative=hBJOknVQJ58S5goQyjmwRw&utm_campaign=yelp_api_v3&utm_medium=api_v3_business_search&utm_source=hBJOknVQJ58S5goQyjmwRw", "review_count": 14, "categories": [{"alias": "pizza", "title": "Pizza"}, {"alias": "fooddeliveryservices", "title": "Food Delivery Services"}], "rating": 3.0, "coordinates": {"latitude": 53.552, "longitude": 10.0538}, "transactions": [], "price": "\u20ac\u20ac", "location": {"address1": "Eiffestr. 181", "address2": null, "address3": null, "city": "Hamburg", "zip_code": "20537", "country": "DE", "state": "HH", "display_address": ["Eiffestr. 181", "20537 Hamburg", "Germany"]}, "phone": "+4940214024", "display_phone": "+49 40 214024", "distance": 3645.173648959694}, {"id": "DScZ96BVXyKtXOwoytqPaw", "alias": "byblos-restaurant-hamburg", "name": "Byblos   Restaurant", "image_url": "https://s3-media1.fl.yelpcdn.com/bphoto/uwYaoBVbJt_UejAUMXonMA/o.jpg", "is_closed": false, "url": "https://www.yelp.com/biz/byblos-restaurant-hamburg?adjust_creative=hBJOknVQJ58S5goQyjmwRw&utm_campaign=yelp_api_v3&utm_medium=api_v3_business_search&utm_source=hBJOknVQJ58S5goQyjmwRw", "review_count": 3, "categories": [{"alias": "lebanese", "title": "Lebanese"}], "rating": 3.5, "coordinates": {"latitude": 53.5463905, "longitude": 10.0407495}, "transactions": [], "location": {"address1": "Hammer Deich  6", "address2": "", "address3": "", "city": "Hamburg", "zip_code": "20537", "country": "DE", "state": "HH", "display_address": ["Hammer Deich  6", "20537 Hamburg", "Germany"]}, "phone": "+494079307235", "display_phone": "+49 40 79307235", "distance": 3221.3905658896597}, {"id": "UBVcyjkirHqMb02JfPwZrw", "alias": "le-dersimo-hamburg", "name": "Le Dersimo", "image_url": "https://s3-media3.fl.yelpcdn.com/bphoto/3f0Mecp5MSOOavzvJsbnTA/o.jpg", "is_closed": false, "url": "https://www.yelp.com/biz/le-dersimo-hamburg?adjust_creative=hBJOknVQJ58S5goQyjmwRw&utm_campaign=yelp_api_v3&utm_medium=api_v3_business_search&utm_source=hBJOknVQJ58S5goQyjmwRw", "review_count": 1, "categories": [{"alias": "cafes", "title": "Cafes"}, {"alias": "kiosk", "title": "Kiosk"}], "rating": 4.0, "coordinates": {"latitude": 53.5488, "longitude": 10.0762}, "transactions": [], "location": {"address1": "Bauerbergweg  11", "address2": null, "address3": null, "city": "Hamburg", "zip_code": "22111", "country": "DE", "state": "HH", "display_address": ["Bauerbergweg  11", "22111 Hamburg", "Germany"]}, "phone": "+49406500975", "display_phone": "+49 40 6500975", "distance": 3493.147364610958}, {"id": "d4XCaPNR7j0Qm6Z5Qd0uQw", "alias": "asia-pham-hamburg-2", "name": "Asia Pham", "image_url": "https://s3-media3.fl.yelpcdn.com/bphoto/QA5WN5mgflheiqgx1oyyvA/o.jpg", "is_closed": false, "url": "https://www.yelp.com/biz/asia-pham-hamburg-2?adjust_creative=hBJOknVQJ58S5goQyjmwRw&utm_campaign=yelp_api_v3&utm_medium=api_v3_business_search&utm_source=hBJOknVQJ58S5goQyjmwRw", "review_count": 3, "categories": [{"alias": "panasian", "title": "Pan Asian"}], "rating": 3.0, "coordinates": {"latitude": 53.5337, "longitude": 10.045}, "transactions": [], "price": "\u20ac\u20ac", "location": {"address1": "Vierl\u00e4nder Damm 52", "address2": null, "address3": null, "city": "Hamburg", "zip_code": "20539", "country": "DE", "state": "HH", "display_address": ["Vierl\u00e4nder Damm 52", "20539 Hamburg", "Germany"]}, "phone": "+49407892801", "display_phone": "+49 40 7892801", "distance": 1815.204622111981}, {"id": "WMpWlvYqukQe6Sqo5r9IYw", "alias": "schm\u00fcckis-trucker-treff-hamburg", "name": "Schm\u00fcckis Trucker Treff", "image_url": "https://s3-media2.fl.yelpcdn.com/bphoto/dwPV_S-w1Z2oLPOl0spwAg/o.jpg", "is_closed": false, "url": "https://www.yelp.com/biz/schm%C3%BCckis-trucker-treff-hamburg?adjust_creative=hBJOknVQJ58S5goQyjmwRw&utm_campaign=yelp_api_v3&utm_medium=api_v3_business_search&utm_source=hBJOknVQJ58S5goQyjmwRw", "review_count": 2, "categories": [{"alias": "hotdogs", "title": "Fast Food"}], "rating": 4.5, "coordinates": {"latitude": 53.5459084330035, "longitude": 10.0475764910157}, "transactions": [], "location": {"address1": "Hammer Deich 117", "address2": "", "address3": null, "city": "Hamburg", "zip_code": "20537", "country": "DE", "state": "HH", "display_address": ["Hammer Deich 117", "20537 Hamburg", "Germany"]}, "phone": "+494021902950", "display_phone": "+49 40 21902950", "distance": 3036.155955656617}, {"id": "eu5TR0lKDerlvEJAVjwD5g", "alias": "taverna-bei-takis-hamburg", "name": "Taverna bei Takis", "image_url": "https://s3-media3.fl.yelpcdn.com/bphoto/oc_pfNHqdJOj5lKVw1Z5eQ/o.jpg", "is_closed": false, "url": "https://www.yelp.com/biz/taverna-bei-takis-hamburg?adjust_creative=hBJOknVQJ58S5goQyjmwRw&utm_campaign=yelp_api_v3&utm_medium=api_v3_business_search&utm_source=hBJOknVQJ58S5goQyjmwRw", "review_count": 1, "categories": [{"alias": "greek", "title": "Greek"}], "rating": 3.0, "coordinates": {"latitude": 53.55788, "longitude": 10.04769}, "transactions": [], "location": {"address1": "Carl-Petersen Str. 80", "address2": "", "address3": "", "city": "Hamburg", "zip_code": "20535", "country": "DE", "state": "HH", "display_address": ["Carl-Petersen Str. 80", "20535 Hamburg", "Germany"]}, "phone": "", "display_phone": "", "distance": 4325.901838691708}, {"id": "64UsMtkfDVRgAU0ulbzlWw", "alias": "ready-pizza-hamburg-5", "name": "Ready Pizza", "image_url": "https://s3-media3.fl.yelpcdn.com/bphoto/HKGOm2R0WE-9u2ObeP7kpg/o.jpg", "is_closed": false, "url": "https://www.yelp.com/biz/ready-pizza-hamburg-5?adjust_creative=hBJOknVQJ58S5goQyjmwRw&utm_campaign=yelp_api_v3&utm_medium=api_v3_business_search&utm_source=hBJOknVQJ58S5goQyjmwRw", "review_count": 14, "categories": [{"alias": "fooddeliveryservices", "title": "Food Delivery Services"}, {"alias": "italian", "title": "Italian"}, {"alias": "pizza", "title": "Pizza"}], "rating": 4.0, "coordinates": {"latitude": 53.550004, "longitude": 10.0786937}, "transactions": [], "price": "\u20ac\u20ac", "location": {"address1": "Horner Landstr. 150", "address2": null, "address3": null, "city": "Hamburg", "zip_code": "22111", "country": "DE", "state": "HH", "display_address": ["Horner Landstr. 150", "22111 Hamburg", "Germany"]}, "phone": "+494027885544", "display_phone": "+49 40 27885544", "distance": 3677.2381477874897}, {"id": "Yk4CWrL_9D2eAoIf0nMaCA", "alias": "monsieur-croque-hamburg", "name": "Monsieur Croque", "image_url": "https://s3-media3.fl.yelpcdn.com/bphoto/fYIKJXl3vLt7WlBUcBTAdw/o.jpg", "is_closed": false, "url": "https://www.yelp.com/biz/monsieur-croque-hamburg?adjust_creative=hBJOknVQJ58S5goQyjmwRw&utm_campaign=yelp_api_v3&utm_medium=api_v3_business_search&utm_source=hBJOknVQJ58S5goQyjmwRw", "review_count": 52, "categories": [{"alias": "sandwiches", "title": "Sandwiches"}], "rating": 3.5, "coordinates": {"latitude": 53.5619777, "longitude": 10.0600056}, "transactions": [], "price": "\u20ac", "location": {"address1": "Quellenweg 17", "address2": null, "address3": null, "city": "Hamburg", "zip_code": "20535", "country": "DE", "state": "HH", "display_address": ["Quellenweg 17", "20535 Hamburg", "Germany"]}, "phone": "+4940208028", "display_phone": "+49 40 208028", "distance": 4746.0903004404145}, {"id": "6UVrVKRZ1Tg0pjrk9MzZzQ", "alias": "may-hamburg-3", "name": "MAY", "image_url": "https://s3-media2.fl.yelpcdn.com/bphoto/xiR76CdWgHUw4vJA7f5rsg/o.jpg", "is_closed": false, "url": "https://www.yelp.com/biz/may-hamburg-3?adjust_creative=hBJOknVQJ58S5goQyjmwRw&utm_campaign=yelp_api_v3&utm_medium=api_v3_business_search&utm_source=hBJOknVQJ58S5goQyjmwRw", "review_count": 73, "categories": [{"alias": "cafes", "title": "Cafes"}, {"alias": "bakeries", "title": "Bakeries"}, {"alias": "bars", "title": "Bars"}], "rating": 3.5, "coordinates": {"latitude": 53.5566, "longitude": 10.06183}, "transactions": [], "price": "\u20ac", "location": {"address1": "Caspar-Voght- Str. 7", "address2": "", "address3": "", "city": "Hamburg", "zip_code": "20257", "country": "DE", "state": "HH", "display_address": ["Caspar-Voght- Str. 7", "20257 Hamburg", "Germany"]}, "phone": "+4940217028", "display_phone": "+49 40 217028", "distance": 4149.379210532858}, {"id": "z3xSdGIRbXTExpnk2ZS8PA", "alias": "schuhs-food-hamburg-2", "name": "Schuh's food", "image_url": "", "is_closed": false, "url": "https://www.yelp.com/biz/schuhs-food-hamburg-2?adjust_creative=hBJOknVQJ58S5goQyjmwRw&utm_campaign=yelp_api_v3&utm_medium=api_v3_business_search&utm_source=hBJOknVQJ58S5goQyjmwRw", "review_count": 3, "categories": [{"alias": "buffets", "title": "Buffets"}, {"alias": "eventplanning", "title": "Party & Event Planning"}, {"alias": "catering", "title": "Caterers"}], "rating": 1.5, "coordinates": {"latitude": 53.54021, "longitude": 10.04197}, "transactions": [], "location": {"address1": "Billstr. 82", "address2": null, "address3": null, "city": "Hamburg", "zip_code": "20539", "country": "DE", "state": "HH", "display_address": ["Billstr. 82", "20539 Hamburg", "Germany"]}, "phone": "+494078079180", "display_phone": "+49 40 78079180", "distance": 2553.1597064605553}, {"id": "tjQx0NnfmAwvzbBIvo21JA", "alias": "pizza-fiamma-hamburg", "name": "Pizza Fiamma", "image_url": "https://s3-media3.fl.yelpcdn.com/bphoto/vJPRUZxKJ04oSRnd7oUlaQ/o.jpg", "is_closed": false, "url": "https://www.yelp.com/biz/pizza-fiamma-hamburg?adjust_creative=hBJOknVQJ58S5goQyjmwRw&utm_campaign=yelp_api_v3&utm_medium=api_v3_business_search&utm_source=hBJOknVQJ58S5goQyjmwRw", "review_count": 3, "categories": [{"alias": "pizza", "title": "Pizza"}], "rating": 4.0, "coordinates": {"latitude": 53.54974, "longitude": 10.08035}, "transactions": [], "price": "\u20ac\u20ac", "location": {"address1": "Horner Landstr. 195", "address2": null, "address3": "", "city": "Hamburg", "zip_code": "22111", "country": "DE", "state": "HH", "display_address": ["Horner Landstr. 195", "22111 Hamburg", "Germany"]}, "phone": "+494052388890", "display_phone": "+49 40 52388890", "distance": 3695.1393482524377}, {"id": "96gvpTMYcgLFSA_W9cDcjg", "alias": "jasmina-resturant-hamburg", "name": "Jasmina Resturant", "image_url": "https://s3-media2.fl.yelpcdn.com/bphoto/eVwLyeaMRgEPWOlSRutYUA/o.jpg", "is_closed": false, "url": "https://www.yelp.com/biz/jasmina-resturant-hamburg?adjust_creative=hBJOknVQJ58S5goQyjmwRw&utm_campaign=yelp_api_v3&utm_medium=api_v3_business_search&utm_source=hBJOknVQJ58S5goQyjmwRw", "review_count": 1, "categories": [{"alias": "lebanese", "title": "Lebanese"}, {"alias": "arabian", "title": "Arabian"}], "rating": 5.0, "coordinates": {"latitude": 53.54684, "longitude": 10.03539}, "transactions": [], "location": {"address1": "S\u00fcderstr. 131", "address2": "", "address3": null, "city": "Hamburg", "zip_code": "20537", "country": "DE", "state": "HH", "display_address": ["S\u00fcderstr. 131", "20537 Hamburg", "Germany"]}, "phone": "+494036027383", "display_phone": "+49 40 36027383", "distance": 3418.592039733948}, {"id": "qv-xVpQuXDT6MJtTKu2u8Q", "alias": "relax-caf\u00e9-hamburg", "name": "Relax Caf\u00e9", "image_url": "https://s3-media3.fl.yelpcdn.com/bphoto/oJAj8GITaBoe4Y5um_IpsA/o.jpg", "is_closed": false, "url": "https://www.yelp.com/biz/relax-caf%C3%A9-hamburg?adjust_creative=hBJOknVQJ58S5goQyjmwRw&utm_campaign=yelp_api_v3&utm_medium=api_v3_business_search&utm_source=hBJOknVQJ58S5goQyjmwRw", "review_count": 4, "categories": [{"alias": "cafes", "title": "Cafes"}, {"alias": "sandwiches", "title": "Sandwiches"}], "rating": 4.5, "coordinates": {"latitude": 53.5511, "longitude": 10.0458}, "transactions": [], "price": "\u20ac", "location": {"address1": "Wendenstr.  375", "address2": null, "address3": null, "city": "Hamburg", "zip_code": "20537", "country": "DE", "state": "HH", "display_address": ["Wendenstr.  375", "20537 Hamburg", "Germany"]}, "phone": "+494032843695", "display_phone": "+49 40 32843695", "distance": 3625.0501797963957}, {"id": "5fgwwitZpTVhyWL0QAbFLw", "alias": "chinaservice-wu-hamburg", "name": "Chinaservice Wu", "image_url": "https://s3-media2.fl.yelpcdn.com/bphoto/6tU1Hr0RrrNEuFt9ScIGuQ/o.jpg", "is_closed": false, "url": "https://www.yelp.com/biz/chinaservice-wu-hamburg?adjust_creative=hBJOknVQJ58S5goQyjmwRw&utm_campaign=yelp_api_v3&utm_medium=api_v3_business_search&utm_source=hBJOknVQJ58S5goQyjmwRw", "review_count": 15, "categories": [{"alias": "chinese", "title": "Chinese"}], "rating": 2.5, "coordinates": {"latitude": 53.5493996, "longitude": 10.0803752}, "transactions": [], "price": "\u20ac\u20ac\u20ac", "location": {"address1": "Horner Landstr. 204", "address2": "", "address3": "", "city": "Hamburg", "zip_code": "22111", "country": "DE", "state": "HH", "display_address": ["Horner Landstr. 204", "22111 Hamburg", "Germany"]}, "phone": "+49406502999", "display_phone": "+49 40 6502999", "distance": 3658.4955818750855}, {"id": "-mQTUIQcdQnMqSDxmBaEPQ", "alias": "hotel-nh-hamburg", "name": "Hotel NH", "image_url": "", "is_closed": false, "url": "https://www.yelp.com/biz/hotel-nh-hamburg?adjust_creative=hBJOknVQJ58S5goQyjmwRw&utm_campaign=yelp_api_v3&utm_medium=api_v3_business_search&utm_source=hBJOknVQJ58S5goQyjmwRw", "review_count": 1, "categories": [{"alias": "german", "title": "German"}, {"alias": "international", "title": "International"}], "rating": 4.0, "coordinates": {"latitude": 53.5572, "longitude": 10.0823}, "transactions": [], "location": {"address1": "Rennbahnstr. 90", "address2": null, "address3": null, "city": "Hamburg", "zip_code": "22111", "country": "DE", "state": "HH", "display_address": ["Rennbahnstr. 90", "22111 Hamburg", "Germany"]}, "phone": "+4940655970", "display_phone": "+49 40 655970", "distance": 4509.203325911115}, {"id": "K1MQ-9mHpD_EUTQoQHh96w", "alias": "caf\u00e9-gabriela-brauer-hamburg", "name": "Caf\u00e9 Gabriela Brauer", "image_url": "", "is_closed": false, "url": "https://www.yelp.com/biz/caf%C3%A9-gabriela-brauer-hamburg?adjust_creative=hBJOknVQJ58S5goQyjmwRw&utm_campaign=yelp_api_v3&utm_medium=api_v3_business_search&utm_source=hBJOknVQJ58S5goQyjmwRw", "review_count": 1, "categories": [{"alias": "grocery", "title": "Grocery"}, {"alias": "cafes", "title": "Cafes"}, {"alias": "coffee", "title": "Coffee & Tea"}], "rating": 4.0, "coordinates": {"latitude": 53.5549, "longitude": 10.0758}, "transactions": [], "location": {"address1": "Horner Weg 199", "address2": null, "address3": null, "city": "Hamburg", "zip_code": "22111", "country": "DE", "state": "HH", "display_address": ["Horner Weg 199", "22111 Hamburg", "Germany"]}, "phone": "+49406517261", "display_phone": "+49 40 6517261", "distance": 4128.806876626785}, {"id": "oXwWzGM4S37C4qy5QhYzxQ", "alias": "burger-king-hamburg-9", "name": "Burger King", "image_url": "https://s3-media2.fl.yelpcdn.com/bphoto/65OtSZShJdo-aDb5z_La5Q/o.jpg", "is_closed": false, "url": "https://www.yelp.com/biz/burger-king-hamburg-9?adjust_creative=hBJOknVQJ58S5goQyjmwRw&utm_campaign=yelp_api_v3&utm_medium=api_v3_business_search&utm_source=hBJOknVQJ58S5goQyjmwRw", "review_count": 24, "categories": [{"alias": "hotdogs", "title": "Fast Food"}, {"alias": "burgers", "title": "Burgers"}], "rating": 2.5, "coordinates": {"latitude": 53.5524530258036, "longitude": 10.0371380889915}, "transactions": [], "price": "\u20ac\u20ac", "location": {"address1": "Eiffestr. 64", "address2": null, "address3": null, "city": "Hamburg", "zip_code": "20537", "country": "DE", "state": "HH", "display_address": ["Eiffestr. 64", "20537 Hamburg", "Germany"]}, "phone": "+494046006751", "display_phone": "+49 40 46006751", "distance": 3933.9402461661425}, {"id": "SMnrVzukg3fE5y-yQaVHNw", "alias": "longs-imbiss-hamburg-2", "name": "Longs Imbiss", "image_url": "https://s3-media2.fl.yelpcdn.com/bphoto/mmpBt-mApQ5XcABpXe2yXA/o.jpg", "is_closed": false, "url": "https://www.yelp.com/biz/longs-imbiss-hamburg-2?adjust_creative=hBJOknVQJ58S5goQyjmwRw&utm_campaign=yelp_api_v3&utm_medium=api_v3_business_search&utm_source=hBJOknVQJ58S5goQyjmwRw", "review_count": 4, "categories": [{"alias": "hotdogs", "title": "Fast Food"}, {"alias": "sandwiches", "title": "Sandwiches"}], "rating": 4.0, "coordinates": {"latitude": 53.5547, "longitude": 10.0782}, "transactions": [], "price": "\u20ac", "location": {"address1": "Horner Weg 222", "address2": null, "address3": null, "city": "Hamburg", "zip_code": "22111", "country": "DE", "state": "HH", "display_address": ["Horner Weg 222", "22111 Hamburg", "Germany"]}, "phone": "+494065592553", "display_phone": "+49 40 65592553", "distance": 4155.762374474438}, {"id": "av51Uk_7VwvjpWvF4UilYA", "alias": "cafe-may-hamburg-18", "name": "Cafe May", "image_url": "https://s3-media3.fl.yelpcdn.com/bphoto/o1prkMq6O_Qmu0iad1ek8g/o.jpg", "is_closed": false, "url": "https://www.yelp.com/biz/cafe-may-hamburg-18?adjust_creative=hBJOknVQJ58S5goQyjmwRw&utm_campaign=yelp_api_v3&utm_medium=api_v3_business_search&utm_source=hBJOknVQJ58S5goQyjmwRw", "review_count": 5, "categories": [{"alias": "breakfast_brunch", "title": "Breakfast & Brunch"}, {"alias": "coffee", "title": "Coffee & Tea"}], "rating": 3.5, "coordinates": {"latitude": 53.5537361346295, "longitude": 10.0822460925883}, "transactions": [], "price": "\u20ac\u20ac", "location": {"address1": "Am Goojenboom 46", "address2": "", "address3": "", "city": "Hamburg", "zip_code": "22111", "country": "DE", "state": "HH", "display_address": ["Am Goojenboom 46", "22111 Hamburg", "Germany"]}, "phone": "+494065992370", "display_phone": "+49 40 65992370", "distance": 4150.264502226681}, {"id": "FBU5iey0UMPsk5BSR9DqNA", "alias": "grill-palast-hamburg", "name": "Grill-Palast", "image_url": "https://s3-media1.fl.yelpcdn.com/bphoto/RH2gMHHf1G4hXUcBLjO38w/o.jpg", "is_closed": false, "url": "https://www.yelp.com/biz/grill-palast-hamburg?adjust_creative=hBJOknVQJ58S5goQyjmwRw&utm_campaign=yelp_api_v3&utm_medium=api_v3_business_search&utm_source=hBJOknVQJ58S5goQyjmwRw", "review_count": 5, "categories": [{"alias": "hotdogs", "title": "Fast Food"}, {"alias": "kebab", "title": "Kebab"}], "rating": 4.5, "coordinates": {"latitude": 53.55022, "longitude": 10.078}, "transactions": [], "price": "\u20ac", "location": {"address1": "Horner Landstr. 148a", "address2": null, "address3": null, "city": "Hamburg", "zip_code": "22111", "country": "DE", "state": "HH", "display_address": ["Horner Landstr. 148a", "22111 Hamburg", "Germany"]}, "phone": "+494033420443", "display_phone": "+49 40 33420443", "distance": 3682.81619845315}, {"id": "7Pf0TFyGTpCu4zR5gtmyRw", "alias": "call-a-pizza-hamburg-6", "name": "Call a Pizza", "image_url": "https://s3-media4.fl.yelpcdn.com/bphoto/F_tn-vK6R21O2--GaU1Agw/o.jpg", "is_closed": false, "url": "https://www.yelp.com/biz/call-a-pizza-hamburg-6?adjust_creative=hBJOknVQJ58S5goQyjmwRw&utm_campaign=yelp_api_v3&utm_medium=api_v3_business_search&utm_source=hBJOknVQJ58S5goQyjmwRw", "review_count": 15, "categories": [{"alias": "pizza", "title": "Pizza"}], "rating": 2.5, "coordinates": {"latitude": 53.56073, "longitude": 10.05208}, "transactions": [], "price": "\u20ac\u20ac\u20ac", "location": {"address1": "Sievekingdamm 57", "address2": "", "address3": null, "city": "Hamburg", "zip_code": "20535", "country": "DE", "state": "HH", "display_address": ["Sievekingdamm 57", "20535 Hamburg", "Germany"]}, "phone": "+494021984604", "display_phone": "+49 40 21984604", "distance": 4626.107444594196}, {"id": "cXpiqyMImw4CU7mRRD2nIQ", "alias": "krox-hamburg", "name": "Krox", "image_url": "https://s3-media1.fl.yelpcdn.com/bphoto/V4rfuhTQXsh4FSMgz-a0pg/o.jpg", "is_closed": false, "url": "https://www.yelp.com/biz/krox-hamburg?adjust_creative=hBJOknVQJ58S5goQyjmwRw&utm_campaign=yelp_api_v3&utm_medium=api_v3_business_search&utm_source=hBJOknVQJ58S5goQyjmwRw", "review_count": 19, "categories": [{"alias": "sandwiches", "title": "Sandwiches"}, {"alias": "creperies", "title": "Creperies"}, {"alias": "pizza", "title": "Pizza"}], "rating": 3.0, "coordinates": {"latitude": 53.561826, "longitude": 10.03723}, "transactions": [], "price": "\u20ac\u20ac", "location": {"address1": "Hasselbrookstr. 1", "address2": "", "address3": "", "city": "Hamburg", "zip_code": "22089", "country": "DE", "state": "HH", "display_address": ["Hasselbrookstr. 1", "22089 Hamburg", "Germany"]}, "phone": "+4940258381", "display_phone": "+49 40 258381", "distance": 4919.2170037687665}]