[{"id": "d6pmhcizXtJK3xWm3cUEmA", "alias": "andronaco-hamburg-2", "name": "Andronaco", "image_url": "https://s3-media3.fl.yelpcdn.com/bphoto/M0xG1AeKJYj_fjKcgVqCBA/o.jpg", "is_closed": false, "url": "https://www.yelp.com/biz/andronaco-hamburg-2?adjust_creative=hBJOknVQJ58S5goQyjmwRw&utm_campaign=yelp_api_v3&utm_medium=api_v3_business_search&utm_source=hBJOknVQJ58S5goQyjmwRw", "review_count": 83, "categories": [{"alias": "italian", "title": "Italian"}, {"alias": "intlgrocery", "title": "International Grocery"}], "rating": 4.0, "coordinates": {"latitude": 53.52051, "longitude": 10.08349}, "transactions": [], "price": "\u20ac", "location": {"address1": "Halskestr. 48", "address2": null, "address3": null, "city": "Hamburg", "zip_code": "22113", "country": "DE", "state": "SH", "display_address": ["Halskestr. 48", "22113 Hamburg", "Germany"]}, "phone": "+494078081351", "display_phone": "+49 40 78081351", "distance": 366.26220872537255}, {"id": "lb_5Il0RiWf-WYoleqq4SA", "alias": "zur-elbbr\u00fccke-hamburg", "name": "Zur Elbbr\u00fccke", "image_url": "https://s3-media3.fl.yelpcdn.com/bphoto/TRXDcKjduwNa11wWBF1rtA/o.jpg", "is_closed": false, "url": "https://www.yelp.com/biz/zur-elbbr%C3%BCcke-hamburg?adjust_creative=hBJOknVQJ58S5goQyjmwRw&utm_campaign=yelp_api_v3&utm_medium=api_v3_business_search&utm_source=hBJOknVQJ58S5goQyjmwRw", "review_count": 6, "categories": [{"alias": "german", "title": "German"}], "rating": 4.0, "coordinates": {"latitude": 53.501809, "longitude": 10.079916}, "transactions": [], "price": "\u20ac\u20ac", "location": {"address1": "Moorfleeter Deich 259", "address2": "", "address3": "", "city": "Hamburg", "zip_code": "22113", "country": "DE", "state": "HH", "display_address": ["Moorfleeter Deich 259", "22113 Hamburg", "Germany"]}, "phone": "+49407372304", "display_phone": "+49 40 7372304", "distance": 1984.1842242679593}, {"id": "UFrxnnO3z2TUk_h395E1hw", "alias": "f\u00e4hrhaus-tatenberg-hamburg", "name": "F\u00e4hrhaus Tatenberg", "image_url": "https://s3-media1.fl.yelpcdn.com/bphoto/WRENH5HT6cZu8sc8dEFdhg/o.jpg", "is_closed": false, "url": "https://www.yelp.com/biz/f%C3%A4hrhaus-tatenberg-hamburg?adjust_creative=hBJOknVQJ58S5goQyjmwRw&utm_campaign=yelp_api_v3&utm_medium=api_v3_business_search&utm_source=hBJOknVQJ58S5goQyjmwRw", "review_count": 18, "categories": [{"alias": "german", "title": "German"}, {"alias": "pensions", "title": "Pensions"}], "rating": 3.5, "coordinates": {"latitude": 53.495194, "longitude": 10.0837288}, "transactions": [], "price": "\u20ac\u20ac", "location": {"address1": "Tatenberger Deich 162", "address2": "", "address3": "", "city": "Hamburg", "zip_code": "21037", "country": "DE", "state": "HH", "display_address": ["Tatenberger Deich 162", "21037 Hamburg", "Germany"]}, "phone": "+49407372227", "display_phone": "+49 40 7372227", "distance": 2667.657960593517}, {"id": "nUOFGotik8BYpYlFNev2wQ", "alias": "orkinus-fisch-grill-haus-hamburg", "name": "Orkinus Fisch-Grill-Haus", "image_url": "https://s3-media1.fl.yelpcdn.com/bphoto/hgzwti95kpzVl4LcuUSIew/o.jpg", "is_closed": false, "url": "https://www.yelp.com/biz/orkinus-fisch-grill-haus-hamburg?adjust_creative=hBJOknVQJ58S5goQyjmwRw&utm_campaign=yelp_api_v3&utm_medium=api_v3_business_search&utm_source=hBJOknVQJ58S5goQyjmwRw", "review_count": 36, "categories": [{"alias": "seafood", "title": "Seafood"}], "rating": 4.5, "coordinates": {"latitude": 53.5403374, "longitude": 10.1013957}, "transactions": [], "price": "\u20ac\u20ac", "location": {"address1": "Billstedter Hauptstr. 43", "address2": "", "address3": "", "city": "Hamburg", "zip_code": "22111", "country": "DE", "state": "HH", "display_address": ["Billstedter Hauptstr. 43", "22111 Hamburg", "Germany"]}, "phone": "+494032841201", "display_phone": "+49 40 32841201", "distance": 2525.0394549281027}, {"id": "rijtsEzIST8vpykvvRcneA", "alias": "ristorante-vincenzo-hamburg-2", "name": "Ristorante Vincenzo", "image_url": "https://s3-media3.fl.yelpcdn.com/bphoto/8ow03GVk020BlDO5dM8KKQ/o.jpg", "is_closed": false, "url": "https://www.yelp.com/biz/ristorante-vincenzo-hamburg-2?adjust_creative=hBJOknVQJ58S5goQyjmwRw&utm_campaign=yelp_api_v3&utm_medium=api_v3_business_search&utm_source=hBJOknVQJ58S5goQyjmwRw", "review_count": 2, "categories": [{"alias": "italian", "title": "Italian"}, {"alias": "grocery", "title": "Grocery"}], "rating": 4.0, "coordinates": {"latitude": 53.52051, "longitude": 10.08349}, "transactions": [], "location": {"address1": "Halskestr. 48", "address2": "", "address3": "", "city": "Hamburg", "zip_code": "22113", "country": "DE", "state": "HH", "display_address": ["Halskestr. 48", "22113 Hamburg", "Germany"]}, "phone": "+494078081355", "display_phone": "+49 40 78081355", "distance": 366.26220872537255}, {"id": "RXRh4Wb1Os3YT2Fam1swVA", "alias": "sel-kebaps-hamburg-3", "name": "Sel Kebap's", "image_url": "https://s3-media4.fl.yelpcdn.com/bphoto/PUU457LahpNwzeysKymIJg/o.jpg", "is_closed": false, "url": "https://www.yelp.com/biz/sel-kebaps-hamburg-3?adjust_creative=hBJOknVQJ58S5goQyjmwRw&utm_campaign=yelp_api_v3&utm_medium=api_v3_business_search&utm_source=hBJOknVQJ58S5goQyjmwRw", "review_count": 1, "categories": [{"alias": "kebab", "title": "Kebab"}, {"alias": "turkish", "title": "Turkish"}], "rating": 5.0, "coordinates": {"latitude": 53.5400121164517, "longitude": 10.1023189723492}, "transactions": [], "location": {"address1": "Billstedter Hauptstr. 51", "address2": "", "address3": "", "city": "Hamburg", "zip_code": "22111", "country": "DE", "state": "HH", "display_address": ["Billstedter Hauptstr. 51", "22111 Hamburg", "Germany"]}, "phone": "", "display_phone": "", "distance": 2513.2740556394374}, {"id": "PAybP26pL4o0hz4x1c1n7w", "alias": "restaurant-johanns-hamburg-2", "name": "Restaurant Johann's", "image_url": "https://s3-media2.fl.yelpcdn.com/bphoto/HQaWzjC4Jc5lZWL1hzuNdg/o.jpg", "is_closed": false, "url": "https://www.yelp.com/biz/restaurant-johanns-hamburg-2?adjust_creative=hBJOknVQJ58S5goQyjmwRw&utm_campaign=yelp_api_v3&utm_medium=api_v3_business_search&utm_source=hBJOknVQJ58S5goQyjmwRw", "review_count": 8, "categories": [{"alias": "german", "title": "German"}], "rating": 4.5, "coordinates": {"latitude": 53.5381, "longitude": 10.0834}, "transactions": [], "price": "\u20ac\u20ac\u20ac", "location": {"address1": "Hotel B\u00f6ttcherhof", "address2": "W\u00f6hlerstr. 2", "address3": null, "city": "Hamburg", "zip_code": "22113", "country": "DE", "state": "HH", "display_address": ["Hotel B\u00f6ttcherhof", "W\u00f6hlerstr. 2", "22113 Hamburg", "Germany"]}, "phone": "+4940731870", "display_phone": "+49 40 731870", "distance": 2142.183382634595}, {"id": "5fZ9jkrklSrRyUbPaMAWjQ", "alias": "bamboo-restaurant-hamburg", "name": "Bamboo Restaurant", "image_url": "https://s3-media1.fl.yelpcdn.com/bphoto/CJi4ntAQvSHIw0BhBFiUlA/o.jpg", "is_closed": false, "url": "https://www.yelp.com/biz/bamboo-restaurant-hamburg?adjust_creative=hBJOknVQJ58S5goQyjmwRw&utm_campaign=yelp_api_v3&utm_medium=api_v3_business_search&utm_source=hBJOknVQJ58S5goQyjmwRw", "review_count": 9, "categories": [{"alias": "chinese", "title": "Chinese"}, {"alias": "thai", "title": "Thai"}], "rating": 4.0, "coordinates": {"latitude": 53.5013803, "longitude": 10.0799064}, "transactions": [], "price": "\u20ac\u20ac", "location": {"address1": "Tatenberger Weg 1", "address2": null, "address3": null, "city": "Hamburg", "zip_code": "22113", "country": "DE", "state": "HH", "display_address": ["Tatenberger Weg 1", "22113 Hamburg", "Germany"]}, "phone": "+494078071611", "display_phone": "+49 40 78071611", "distance": 2037.7803087576897}, {"id": "SNPvqQxaRxQIra7hgjev2Q", "alias": "zum-kl\u00f6nschnack-hamburg", "name": "Zum Kl\u00f6nschnack", "image_url": "", "is_closed": false, "url": "https://www.yelp.com/biz/zum-kl%C3%B6nschnack-hamburg?adjust_creative=hBJOknVQJ58S5goQyjmwRw&utm_campaign=yelp_api_v3&utm_medium=api_v3_business_search&utm_source=hBJOknVQJ58S5goQyjmwRw", "review_count": 1, "categories": [{"alias": "currysausage", "title": "Curry Sausage"}], "rating": 4.0, "coordinates": {"latitude": 53.5333, "longitude": 10.097}, "transactions": [], "price": "\u20ac\u20ac", "location": {"address1": "Moorfleeter Str. 25", "address2": null, "address3": null, "city": "Hamburg", "zip_code": "22113", "country": "DE", "state": "HH", "display_address": ["Moorfleeter Str. 25", "22113 Hamburg", "Germany"]}, "phone": "", "display_phone": "", "distance": 1690.3409703661634}, {"id": "cENV4e-uYI6n9rz-djMLpg", "alias": "fresh-factory-hamburg", "name": "Fresh Factory", "image_url": "", "is_closed": false, "url": "https://www.yelp.com/biz/fresh-factory-hamburg?adjust_creative=hBJOknVQJ58S5goQyjmwRw&utm_campaign=yelp_api_v3&utm_medium=api_v3_business_search&utm_source=hBJOknVQJ58S5goQyjmwRw", "review_count": 1, "categories": [{"alias": "salad", "title": "Salad"}, {"alias": "juicebars", "title": "Juice Bars & Smoothies"}], "rating": 4.0, "coordinates": {"latitude": 53.52276, "longitude": 10.09576}, "transactions": [], "location": {"address1": "Porgesring 11", "address2": "", "address3": "", "city": "Hamburg", "zip_code": "22113", "country": "DE", "state": "HH", "display_address": ["Porgesring 11", "22113 Hamburg", "Germany"]}, "phone": "+494054750750", "display_phone": "+49 40 54750750", "distance": 681.7626579701066}, {"id": "nqKPgsamKDJCVWZOZbn7RA", "alias": "hammer-pizza-hamburg", "name": "Hammer Pizza", "image_url": "https://s3-media2.fl.yelpcdn.com/bphoto/vBGkC0h28Q0WUogvQzj9Yg/o.jpg", "is_closed": false, "url": "https://www.yelp.com/biz/hammer-pizza-hamburg?adjust_creative=hBJOknVQJ58S5goQyjmwRw&utm_campaign=yelp_api_v3&utm_medium=api_v3_business_search&utm_source=hBJOknVQJ58S5goQyjmwRw", "review_count": 74, "categories": [{"alias": "pizza", "title": "Pizza"}], "rating": 4.5, "coordinates": {"latitude": 53.5557469728551, "longitude": 10.0631953513058}, "transactions": [], "price": "\u20ac\u20ac", "location": {"address1": "Horner Weg 66", "address2": "", "address3": "", "city": "Hamburg", "zip_code": "20535", "country": "DE", "state": "HH", "display_address": ["Horner Weg 66", "20535 Hamburg", "Germany"]}, "phone": "+494021986905", "display_phone": "+49 40 21986905", "distance": 4401.6101729954}, {"id": "SlTXq8HEtujfMAVIyvBYHg", "alias": "cevapcici-und-burek-hamburg", "name": "Cevapcici & Burek", "image_url": "https://s3-media3.fl.yelpcdn.com/bphoto/-TKeutnVAgeqUB9XllvCww/o.jpg", "is_closed": false, "url": "https://www.yelp.com/biz/cevapcici-und-burek-hamburg?adjust_creative=hBJOknVQJ58S5goQyjmwRw&utm_campaign=yelp_api_v3&utm_medium=api_v3_business_search&utm_source=hBJOknVQJ58S5goQyjmwRw", "review_count": 3, "categories": [{"alias": "german", "title": "German"}], "rating": 4.5, "coordinates": {"latitude": 53.54102, "longitude": 10.10102}, "transactions": [], "price": "\u20ac\u20ac", "location": {"address1": "Schiffbeker Weg 3", "address2": "", "address3": null, "city": "Hamburg", "zip_code": "22111", "country": "DE", "state": "HH", "display_address": ["Schiffbeker Weg 3", "22111 Hamburg", "Germany"]}, "phone": "+494023954224", "display_phone": "+49 40 23954224", "distance": 2574.696519979287}, {"id": "9nxX8JqkPfknCMZDoDQXbQ", "alias": "k\u00f6z-\u00e1-la-turca-hamburg-2", "name": "K\u00f6z \u00e1 la Turca", "image_url": "https://s3-media4.fl.yelpcdn.com/bphoto/Bie7L6e2PWZoKUBZ4GXgCw/o.jpg", "is_closed": false, "url": "https://www.yelp.com/biz/k%C3%B6z-%C3%A1-la-turca-hamburg-2?adjust_creative=hBJOknVQJ58S5goQyjmwRw&utm_campaign=yelp_api_v3&utm_medium=api_v3_business_search&utm_source=hBJOknVQJ58S5goQyjmwRw", "review_count": 2, "categories": [{"alias": "turkish", "title": "Turkish"}, {"alias": "mediterranean", "title": "Mediterranean"}], "rating": 5.0, "coordinates": {"latitude": 53.5401, "longitude": 10.1026}, "transactions": [], "price": "\u20ac\u20ac", "location": {"address1": "Billstedter Hauptstr. 53", "address2": null, "address3": null, "city": "Hamburg", "zip_code": "22111", "country": "DE", "state": "HH", "display_address": ["Billstedter Hauptstr. 53", "22111 Hamburg", "Germany"]}, "phone": "+494070296885", "display_phone": "+49 40 70296885", "distance": 2529.3063362311927}, {"id": "dpRmaAsro244woCbG-KXsQ", "alias": "zum-eichbaum-hamburg", "name": "Zum Eichbaum", "image_url": "https://s3-media3.fl.yelpcdn.com/bphoto/7sVtbVfEtQKroT84_5DbYA/o.jpg", "is_closed": false, "url": "https://www.yelp.com/biz/zum-eichbaum-hamburg?adjust_creative=hBJOknVQJ58S5goQyjmwRw&utm_campaign=yelp_api_v3&utm_medium=api_v3_business_search&utm_source=hBJOknVQJ58S5goQyjmwRw", "review_count": 46, "categories": [{"alias": "german", "title": "German"}, {"alias": "hotels", "title": "Hotels"}], "rating": 4.0, "coordinates": {"latitude": 53.4881351625541, "longitude": 10.1045254522435}, "transactions": [], "price": "\u20ac\u20ac", "location": {"address1": "Moorfleeter Deich 477", "address2": "", "address3": "", "city": "Hamburg", "zip_code": "21037", "country": "DE", "state": "HH", "display_address": ["Moorfleeter Deich 477", "21037 Hamburg", "Germany"]}, "phone": "+49407372655", "display_phone": "+49 40 7372655", "distance": 3603.555343039342}, {"id": "e1MAQ0OCg675wVd3DeB3Tw", "alias": "meram-restaurant-hamburg-2", "name": "Meram Restaurant", "image_url": "https://s3-media2.fl.yelpcdn.com/bphoto/wJV0u3WzHA11nTdGmfA9wg/o.jpg", "is_closed": false, "url": "https://www.yelp.com/biz/meram-restaurant-hamburg-2?adjust_creative=hBJOknVQJ58S5goQyjmwRw&utm_campaign=yelp_api_v3&utm_medium=api_v3_business_search&utm_source=hBJOknVQJ58S5goQyjmwRw", "review_count": 61, "categories": [{"alias": "turkish", "title": "Turkish"}], "rating": 4.0, "coordinates": {"latitude": 53.54025, "longitude": 10.10179}, "transactions": [], "price": "\u20ac\u20ac", "location": {"address1": "Billstedter Hauptstr. 47", "address2": "", "address3": null, "city": "Hamburg", "zip_code": "22111", "country": "DE", "state": "HH", "display_address": ["Billstedter Hauptstr. 47", "22111 Hamburg", "Germany"]}, "phone": "+49407314656", "display_phone": "+49 40 7314656", "distance": 2524.75040148397}, {"id": "bLaYzQRcD7MnMPJBBq__gw", "alias": "mr-wok-asia-imbiss-hamburg", "name": "Mr. Wok - Asia Imbiss", "image_url": "https://s3-media2.fl.yelpcdn.com/bphoto/1JyvG9QGLMuTwe951Ol_OA/o.jpg", "is_closed": false, "url": "https://www.yelp.com/biz/mr-wok-asia-imbiss-hamburg?adjust_creative=hBJOknVQJ58S5goQyjmwRw&utm_campaign=yelp_api_v3&utm_medium=api_v3_business_search&utm_source=hBJOknVQJ58S5goQyjmwRw", "review_count": 16, "categories": [{"alias": "chinese", "title": "Chinese"}, {"alias": "wok", "title": "Wok"}], "rating": 4.5, "coordinates": {"latitude": 53.5518095608948, "longitude": 10.0871939957142}, "transactions": [], "price": "\u20ac\u20ac", "location": {"address1": "Washingtonallee 14", "address2": null, "address3": null, "city": "Hamburg", "zip_code": "22111", "country": "DE", "state": "HH", "display_address": ["Washingtonallee 14", "22111 Hamburg", "Germany"]}, "phone": "+494065999825", "display_phone": "+49 40 65999825", "distance": 3644.175652351576}, {"id": "V4bKMm8OGNYtdGsZNyt5fg", "alias": "nordsee-hamburg-19", "name": "Nordsee", "image_url": "https://s3-media1.fl.yelpcdn.com/bphoto/zagNky8-J7YRTkIlytvZKA/o.jpg", "is_closed": false, "url": "https://www.yelp.com/biz/nordsee-hamburg-19?adjust_creative=hBJOknVQJ58S5goQyjmwRw&utm_campaign=yelp_api_v3&utm_medium=api_v3_business_search&utm_source=hBJOknVQJ58S5goQyjmwRw", "review_count": 5, "categories": [{"alias": "fischbroetchen", "title": "Fischbroetchen"}], "rating": 4.0, "coordinates": {"latitude": 53.5409, "longitude": 10.1055}, "transactions": [], "price": "\u20ac\u20ac", "location": {"address1": "M\u00f6llner Landstr. 3", "address2": "", "address3": null, "city": "Hamburg", "zip_code": "22111", "country": "DE", "state": "HH", "display_address": ["M\u00f6llner Landstr. 3", "22111 Hamburg", "Germany"]}, "phone": "+494073670510", "display_phone": "+49 40 73670510", "distance": 2687.967575068635}, {"id": "0Dq2u8WaFJlQnWTVpIHsDw", "alias": "bermudadreieck-hamburg", "name": "Bermudadreieck", "image_url": "https://s3-media1.fl.yelpcdn.com/bphoto/Il20waVhS8IK9_oTX9TOLw/o.jpg", "is_closed": false, "url": "https://www.yelp.com/biz/bermudadreieck-hamburg?adjust_creative=hBJOknVQJ58S5goQyjmwRw&utm_campaign=yelp_api_v3&utm_medium=api_v3_business_search&utm_source=hBJOknVQJ58S5goQyjmwRw", "review_count": 2, "categories": [{"alias": "restaurants", "title": "Restaurants"}], "rating": 3.0, "coordinates": {"latitude": 53.52567, "longitude": 10.11074}, "transactions": [], "price": "\u20ac", "location": {"address1": "Billwerder Billdeich 1", "address2": "", "address3": "", "city": "Hamburg", "zip_code": "22113", "country": "DE", "state": "HH", "display_address": ["Billwerder Billdeich 1", "22113 Hamburg", "Germany"]}, "phone": "", "display_phone": "", "distance": 1670.0023697384086}, {"id": "v9R3CvC60aay86M7dz0m2Q", "alias": "akropolis-hamburg", "name": "Akropolis", "image_url": "https://s3-media2.fl.yelpcdn.com/bphoto/wZmxnrVtVQ-qCK8jTVMzDg/o.jpg", "is_closed": false, "url": "https://www.yelp.com/biz/akropolis-hamburg?adjust_creative=hBJOknVQJ58S5goQyjmwRw&utm_campaign=yelp_api_v3&utm_medium=api_v3_business_search&utm_source=hBJOknVQJ58S5goQyjmwRw", "review_count": 19, "categories": [{"alias": "greek", "title": "Greek"}, {"alias": "hotdogs", "title": "Fast Food"}], "rating": 4.5, "coordinates": {"latitude": 53.5537599, "longitude": 10.06558}, "transactions": [], "price": "\u20ac", "location": {"address1": "Hammer Landstr. 234", "address2": "", "address3": null, "city": "Hamburg", "zip_code": "20537", "country": "DE", "state": "HH", "display_address": ["Hammer Landstr. 234", "20537 Hamburg", "Germany"]}, "phone": "+4940213711", "display_phone": "+49 40 213711", "distance": 4135.385045450174}, {"id": "Fay28Bc25iicsyM_EEI1tQ", "alias": "pink-balkan-imbiss-hamburg", "name": "Pink Balkan Imbiss", "image_url": "https://s3-media1.fl.yelpcdn.com/bphoto/-U63FrCtE8eUws3FvxF_9A/o.jpg", "is_closed": false, "url": "https://www.yelp.com/biz/pink-balkan-imbiss-hamburg?adjust_creative=hBJOknVQJ58S5goQyjmwRw&utm_campaign=yelp_api_v3&utm_medium=api_v3_business_search&utm_source=hBJOknVQJ58S5goQyjmwRw", "review_count": 12, "categories": [{"alias": "bbq", "title": "Barbeque"}, {"alias": "serbocroatian", "title": "Serbo Croatian"}], "rating": 4.0, "coordinates": {"latitude": 53.5562, "longitude": 10.0974}, "transactions": [], "price": "\u20ac\u20ac", "location": {"address1": "Manshardtstr. 66", "address2": null, "address3": null, "city": "Hamburg", "zip_code": "22119", "country": "DE", "state": "HH", "display_address": ["Manshardtstr. 66", "22119 Hamburg", "Germany"]}, "phone": "+494067109502", "display_phone": "+49 40 67109502", "distance": 4176.973138223998}, {"id": "FRmfMd1RyzCEGobD0V4SwQ", "alias": "anatolya-grill-haus-hamburg", "name": "Anatolya Grill-Haus", "image_url": "https://s3-media2.fl.yelpcdn.com/bphoto/t5sUs72PtLkdRk7aAjl68A/o.jpg", "is_closed": false, "url": "https://www.yelp.com/biz/anatolya-grill-haus-hamburg?adjust_creative=hBJOknVQJ58S5goQyjmwRw&utm_campaign=yelp_api_v3&utm_medium=api_v3_business_search&utm_source=hBJOknVQJ58S5goQyjmwRw", "review_count": 2, "categories": [{"alias": "kebab", "title": "Kebab"}], "rating": 2.5, "coordinates": {"latitude": 53.5404, "longitude": 10.1012}, "transactions": [], "price": "\u20ac\u20ac", "location": {"address1": "Billstedter Hauptstr.", "address2": null, "address3": null, "city": "Hamburg", "zip_code": "22111", "country": "DE", "state": "HH", "display_address": ["Billstedter Hauptstr.", "22111 Hamburg", "Germany"]}, "phone": "", "display_phone": "", "distance": 2527.11863417817}, {"id": "3BHQwcAmoibaz2PLhPPk9Q", "alias": "antep-lahmacun-hamburg", "name": "Antep Lahmacun", "image_url": "https://s3-media1.fl.yelpcdn.com/bphoto/VlQRTEW2FB1lWXd85KzHCg/o.jpg", "is_closed": false, "url": "https://www.yelp.com/biz/antep-lahmacun-hamburg?adjust_creative=hBJOknVQJ58S5goQyjmwRw&utm_campaign=yelp_api_v3&utm_medium=api_v3_business_search&utm_source=hBJOknVQJ58S5goQyjmwRw", "review_count": 5, "categories": [{"alias": "kebab", "title": "Kebab"}], "rating": 4.5, "coordinates": {"latitude": 53.5541522338273, "longitude": 10.0863317309662}, "transactions": [], "price": "\u20ac", "location": {"address1": "Rennbahnstr. 36 d", "address2": "", "address3": "", "city": "Hamburg", "zip_code": "22111", "country": "DE", "state": "HH", "display_address": ["Rennbahnstr. 36 d", "22111 Hamburg", "Germany"]}, "phone": "+494065865847", "display_phone": "+49 40 65865847", "distance": 3905.9548023256957}, {"id": "Cgffq5DnRgVNWY7xCPU3mg", "alias": "restaurant-adria-hamburg-6", "name": "Restaurant Adria", "image_url": "https://s3-media3.fl.yelpcdn.com/bphoto/_-hhg_lwv8R2Q79aSw84cQ/o.jpg", "is_closed": false, "url": "https://www.yelp.com/biz/restaurant-adria-hamburg-6?adjust_creative=hBJOknVQJ58S5goQyjmwRw&utm_campaign=yelp_api_v3&utm_medium=api_v3_business_search&utm_source=hBJOknVQJ58S5goQyjmwRw", "review_count": 31, "categories": [{"alias": "serbocroatian", "title": "Serbo Croatian"}], "rating": 4.0, "coordinates": {"latitude": 53.5447, "longitude": 10.0897}, "transactions": [], "price": "\u20ac\u20ac", "location": {"address1": "Letzter Heller 21", "address2": null, "address3": null, "city": "Hamburg", "zip_code": "22111", "country": "DE", "state": "HH", "display_address": ["Letzter Heller 21", "22111 Hamburg", "Germany"]}, "phone": "+49407323582", "display_phone": "+49 40 7323582", "distance": 2854.979116883099}, {"id": "LM6NUK6sRbUXwoLU63vjGA", "alias": "pizza-e-vino-hamburg", "name": "Pizza e Vino", "image_url": "https://s3-media2.fl.yelpcdn.com/bphoto/EHNxtFpeoA_vttAqsULYTw/o.jpg", "is_closed": false, "url": "https://www.yelp.com/biz/pizza-e-vino-hamburg?adjust_creative=hBJOknVQJ58S5goQyjmwRw&utm_campaign=yelp_api_v3&utm_medium=api_v3_business_search&utm_source=hBJOknVQJ58S5goQyjmwRw", "review_count": 11, "categories": [{"alias": "fooddeliveryservices", "title": "Food Delivery Services"}, {"alias": "italian", "title": "Italian"}], "rating": 3.5, "coordinates": {"latitude": 53.551, "longitude": 10.0882}, "transactions": [], "price": "\u20ac", "location": {"address1": "Washingtonallee 30", "address2": null, "address3": null, "city": "Hamburg", "zip_code": "22111", "country": "DE", "state": "HH", "display_address": ["Washingtonallee 30", "22111 Hamburg", "Germany"]}, "phone": "+494067109224", "display_phone": "+49 40 67109224", "distance": 3553.630722744418}, {"id": "FvpTumAZMtccgdMlUkSr2A", "alias": "hallo-pizza-hamburg-7", "name": "Hallo Pizza!", "image_url": "https://s3-media2.fl.yelpcdn.com/bphoto/U-MQv6oe7Kn8i7P9yqdCUA/o.jpg", "is_closed": false, "url": "https://www.yelp.com/biz/hallo-pizza-hamburg-7?adjust_creative=hBJOknVQJ58S5goQyjmwRw&utm_campaign=yelp_api_v3&utm_medium=api_v3_business_search&utm_source=hBJOknVQJ58S5goQyjmwRw", "review_count": 7, "categories": [{"alias": "pizza", "title": "Pizza"}], "rating": 3.5, "coordinates": {"latitude": 53.5487, "longitude": 10.1089}, "transactions": [], "price": "\u20ac\u20ac", "location": {"address1": "Schiffbeker Weg 94", "address2": null, "address3": null, "city": "Hamburg", "zip_code": "22119", "country": "DE", "state": "HH", "display_address": ["Schiffbeker Weg 94", "22119 Hamburg", "Germany"]}, "phone": "+494081995800", "display_phone": "+49 40 81995800", "distance": 3572.0581511943633}, {"id": "qYozPFddHgpXS-_RSZ7Tgg", "alias": "corfu-grill-hamburg-4", "name": "Corfu Grill", "image_url": "https://s3-media3.fl.yelpcdn.com/bphoto/Xm2njL2L4yVCzk9AvmWJlQ/o.jpg", "is_closed": false, "url": "https://www.yelp.com/biz/corfu-grill-hamburg-4?adjust_creative=hBJOknVQJ58S5goQyjmwRw&utm_campaign=yelp_api_v3&utm_medium=api_v3_business_search&utm_source=hBJOknVQJ58S5goQyjmwRw", "review_count": 43, "categories": [{"alias": "greek", "title": "Greek"}], "rating": 4.5, "coordinates": {"latitude": 53.54598, "longitude": 10.106358}, "transactions": [], "price": "\u20ac\u20ac", "location": {"address1": "Schiffbeker Weg 66", "address2": "", "address3": "", "city": "Hamburg", "zip_code": "22119", "country": "DE", "state": "HH", "display_address": ["Schiffbeker Weg 66", "22119 Hamburg", "Germany"]}, "phone": "+494029810001", "display_phone": "+49 40 29810001", "distance": 3222.7205840127754}, {"id": "-0cRZi2NyUk-q27FFxMqSg", "alias": "schweinske-hamburg-26", "name": "Schweinske", "image_url": "https://s3-media1.fl.yelpcdn.com/bphoto/ysjlucXmNeQHP0JO4xDVIQ/o.jpg", "is_closed": false, "url": "https://www.yelp.com/biz/schweinske-hamburg-26?adjust_creative=hBJOknVQJ58S5goQyjmwRw&utm_campaign=yelp_api_v3&utm_medium=api_v3_business_search&utm_source=hBJOknVQJ58S5goQyjmwRw", "review_count": 39, "categories": [{"alias": "german", "title": "German"}], "rating": 3.0, "coordinates": {"latitude": 53.5534, "longitude": 10.067}, "transactions": [], "price": "\u20ac", "location": {"address1": "Hammer Landstr. 242-244", "address2": null, "address3": null, "city": "Hamburg", "zip_code": "20537", "country": "DE", "state": "HH", "display_address": ["Hammer Landstr. 242-244", "20537 Hamburg", "Germany"]}, "phone": "+4940212111", "display_phone": "+49 40 212111", "distance": 4067.755836761684}, {"id": "3nKXBJvBXNiYggCiTC1dXw", "alias": "sunar-kebap-haus-hamburg", "name": "Sunar Kebap Haus", "image_url": "https://s3-media2.fl.yelpcdn.com/bphoto/QxvXwV4fZc6eF47X0rz4lw/o.jpg", "is_closed": false, "url": "https://www.yelp.com/biz/sunar-kebap-haus-hamburg?adjust_creative=hBJOknVQJ58S5goQyjmwRw&utm_campaign=yelp_api_v3&utm_medium=api_v3_business_search&utm_source=hBJOknVQJ58S5goQyjmwRw", "review_count": 2, "categories": [{"alias": "kebab", "title": "Kebab"}], "rating": 4.5, "coordinates": {"latitude": 53.5599, "longitude": 10.1086}, "transactions": [], "price": "\u20ac\u20ac", "location": {"address1": "Dannerallee 1a", "address2": null, "address3": null, "city": "Hamburg", "zip_code": "22119", "country": "DE", "state": "HH", "display_address": ["Dannerallee 1a", "22119 Hamburg", "Germany"]}, "phone": "+494088155672", "display_phone": "+49 40 88155672", "distance": 4740.285032083826}, {"id": "YljwUsa40IemittL_EO12w", "alias": "donja-hamburg", "name": "Donja", "image_url": "https://s3-media4.fl.yelpcdn.com/bphoto/IgSijvZnjPBzvHyEhYkT6g/o.jpg", "is_closed": false, "url": "https://www.yelp.com/biz/donja-hamburg?adjust_creative=hBJOknVQJ58S5goQyjmwRw&utm_campaign=yelp_api_v3&utm_medium=api_v3_business_search&utm_source=hBJOknVQJ58S5goQyjmwRw", "review_count": 9, "categories": [{"alias": "afghani", "title": "Afghan"}], "rating": 4.0, "coordinates": {"latitude": 53.54197, "longitude": 10.09844}, "transactions": [], "price": "\u20ac\u20ac", "location": {"address1": "Billstedter Hauptstr. 17", "address2": "", "address3": "", "city": "Hamburg", "zip_code": "22111", "country": "DE", "state": "HH", "display_address": ["Billstedter Hauptstr. 17", "22111 Hamburg", "Germany"]}, "phone": "+494073677417", "display_phone": "+49 40 73677417", "distance": 2613.2955722570127}, {"id": "k2BdDVKGXUPzG9rsKA9x2Q", "alias": "g\u00e4rtnerei-und-hofladen-stender-hamburg", "name": "G\u00e4rtnerei & Hofladen Stender", "image_url": "https://s3-media4.fl.yelpcdn.com/bphoto/s0brJ9GmjdooD7ufgx1X5A/o.jpg", "is_closed": false, "url": "https://www.yelp.com/biz/g%C3%A4rtnerei-und-hofladen-stender-hamburg?adjust_creative=hBJOknVQJ58S5goQyjmwRw&utm_campaign=yelp_api_v3&utm_medium=api_v3_business_search&utm_source=hBJOknVQJ58S5goQyjmwRw", "review_count": 7, "categories": [{"alias": "cafes", "title": "Cafes"}, {"alias": "gardening", "title": "Nurseries & Gardening"}, {"alias": "grocery", "title": "Grocery"}], "rating": 4.5, "coordinates": {"latitude": 53.4949, "longitude": 10.0834}, "transactions": [], "price": "\u20ac\u20ac", "location": {"address1": "Tatenberger Deich 154", "address2": null, "address3": null, "city": "Hamburg", "zip_code": "21037", "country": "DE", "state": "HH", "display_address": ["Tatenberger Deich 154", "21037 Hamburg", "Germany"]}, "phone": "+49407373427", "display_phone": "+49 40 7373427", "distance": 2702.588223100718}, {"id": "GOJDESC3enoUxwJ6jQjqHQ", "alias": "e-on-hanse-hamburg", "name": "E.On Hanse", "image_url": "https://s3-media2.fl.yelpcdn.com/bphoto/xPQjXnTN7P00HhR7txprnQ/o.jpg", "is_closed": false, "url": "https://www.yelp.com/biz/e-on-hanse-hamburg?adjust_creative=hBJOknVQJ58S5goQyjmwRw&utm_campaign=yelp_api_v3&utm_medium=api_v3_business_search&utm_source=hBJOknVQJ58S5goQyjmwRw", "review_count": 2, "categories": [{"alias": "canteen", "title": "Canteen"}], "rating": 3.0, "coordinates": {"latitude": 53.5289, "longitude": 10.0641}, "transactions": [], "location": {"address1": "Ausschl\u00e4ger Elbdeich 127", "address2": null, "address3": null, "city": "Hamburg", "zip_code": "20539", "country": "DE", "state": "HH", "display_address": ["Ausschl\u00e4ger Elbdeich 127", "20539 Hamburg", "Germany"]}, "phone": "", "display_phone": "", "distance": 1930.1925126358396}, {"id": "02tJXWUwOkLqFCIuESVXqw", "alias": "b\u00e4ckerei-caf\u00e9-konditorei-bohnenkamp-hamburg", "name": "B\u00e4ckerei-Caf\u00e9-Konditorei Bohnenkamp", "image_url": "https://s3-media3.fl.yelpcdn.com/bphoto/q110h-dkTJR0w43r6AkTEA/o.jpg", "is_closed": false, "url": "https://www.yelp.com/biz/b%C3%A4ckerei-caf%C3%A9-konditorei-bohnenkamp-hamburg?adjust_creative=hBJOknVQJ58S5goQyjmwRw&utm_campaign=yelp_api_v3&utm_medium=api_v3_business_search&utm_source=hBJOknVQJ58S5goQyjmwRw", "review_count": 9, "categories": [{"alias": "bakeries", "title": "Bakeries"}, {"alias": "cafes", "title": "Cafes"}, {"alias": "cakeshop", "title": "Patisserie/Cake Shop"}], "rating": 4.5, "coordinates": {"latitude": 53.5467, "longitude": 10.1067}, "transactions": [], "price": "\u20ac\u20ac", "location": {"address1": "Schiffbeker Weg 72", "address2": null, "address3": null, "city": "Hamburg", "zip_code": "22119", "country": "DE", "state": "HH", "display_address": ["Schiffbeker Weg 72", "22119 Hamburg", "Germany"]}, "phone": "+494073113790", "display_phone": "+49 40 73113790", "distance": 3311.2458630353144}, {"id": "BpSJW907Ej6BBEXxNG2gAw", "alias": "suja-hamburg-3", "name": "Suja", "image_url": "https://s3-media3.fl.yelpcdn.com/bphoto/fCqhAhrNmcf_dgzMif1rvQ/o.jpg", "is_closed": false, "url": "https://www.yelp.com/biz/suja-hamburg-3?adjust_creative=hBJOknVQJ58S5goQyjmwRw&utm_campaign=yelp_api_v3&utm_medium=api_v3_business_search&utm_source=hBJOknVQJ58S5goQyjmwRw", "review_count": 4, "categories": [{"alias": "indpak", "title": "Indian"}, {"alias": "fooddeliveryservices", "title": "Food Delivery Services"}], "rating": 2.5, "coordinates": {"latitude": 53.54013, "longitude": 10.10337}, "transactions": [], "price": "\u20ac\u20ac", "location": {"address1": "M\u00f6llner Landstr. 3", "address2": "", "address3": "1. OG", "city": "Hamburg", "zip_code": "22111", "country": "DE", "state": "HH", "display_address": ["M\u00f6llner Landstr. 3", "1. OG", "22111 Hamburg", "Germany"]}, "phone": "+494022610860", "display_phone": "+49 40 22610860", "distance": 2671.5350153319982}, {"id": "vk3-NnVUiAvUP38GlzQzGA", "alias": "stehcafe-melli-hamburg", "name": "Stehcafe Melli", "image_url": "", "is_closed": false, "url": "https://www.yelp.com/biz/stehcafe-melli-hamburg?adjust_creative=hBJOknVQJ58S5goQyjmwRw&utm_campaign=yelp_api_v3&utm_medium=api_v3_business_search&utm_source=hBJOknVQJ58S5goQyjmwRw", "review_count": 1, "categories": [{"alias": "cafes", "title": "Cafes"}], "rating": 5.0, "coordinates": {"latitude": 53.5395851251921, "longitude": 10.0954826433472}, "transactions": [], "location": {"address1": "Billstedter Hauptstr. 1 - 5", "address2": "", "address3": "", "city": "Hamburg", "zip_code": "22111", "country": "DE", "state": "HH", "display_address": ["Billstedter Hauptstr. 1 - 5", "22111 Hamburg", "Germany"]}, "phone": "+494087882430", "display_phone": "+49 40 87882430", "distance": 2335.429789635761}, {"id": "TGllMw7dQQtI2ZvtS868mA", "alias": "billstedter-biergarten-hamburg", "name": "Billstedter Biergarten", "image_url": "https://s3-media3.fl.yelpcdn.com/bphoto/e2ipBAodlvOB-8HO9oN5Hg/o.jpg", "is_closed": false, "url": "https://www.yelp.com/biz/billstedter-biergarten-hamburg?adjust_creative=hBJOknVQJ58S5goQyjmwRw&utm_campaign=yelp_api_v3&utm_medium=api_v3_business_search&utm_source=hBJOknVQJ58S5goQyjmwRw", "review_count": 2, "categories": [{"alias": "beergarden", "title": "Beer Garden"}], "rating": 4.0, "coordinates": {"latitude": 53.53841, "longitude": 10.10607}, "transactions": [], "price": "\u20ac\u20ac", "location": {"address1": "Billstedter Hauptstr. 73", "address2": "", "address3": null, "city": "Hamburg", "zip_code": "22111", "country": "DE", "state": "HH", "display_address": ["Billstedter Hauptstr. 73", "22111 Hamburg", "Germany"]}, "phone": "+49407337958", "display_phone": "+49 40 7337958", "distance": 2459.1310270474514}, {"id": "WEBQ-EdPLLGS380_RCRVfQ", "alias": "restaurant-dubrovnik-hamburg-9", "name": "Restaurant Dubrovnik", "image_url": "https://s3-media2.fl.yelpcdn.com/bphoto/kr6dsd7KwBubIq1MVBf50A/o.jpg", "is_closed": false, "url": "https://www.yelp.com/biz/restaurant-dubrovnik-hamburg-9?adjust_creative=hBJOknVQJ58S5goQyjmwRw&utm_campaign=yelp_api_v3&utm_medium=api_v3_business_search&utm_source=hBJOknVQJ58S5goQyjmwRw", "review_count": 29, "categories": [{"alias": "serbocroatian", "title": "Serbo Croatian"}], "rating": 3.5, "coordinates": {"latitude": 53.5533, "longitude": 10.0841}, "transactions": [], "price": "\u20ac\u20ac", "location": {"address1": "Rennbahnstr.  27", "address2": null, "address3": null, "city": "Hamburg", "zip_code": "22111", "country": "DE", "state": "HH", "display_address": ["Rennbahnstr.  27", "22111 Hamburg", "Germany"]}, "phone": "+49406517800", "display_phone": "+49 40 6517800", "distance": 3818.689342407746}, {"id": "Qmu-xTS39IvusBrpQyFjdQ", "alias": "tunicis-restaurant-dubrovnik-hamburg-2", "name": "Tunici's Restaurant Dubrovnik", "image_url": "https://s3-media2.fl.yelpcdn.com/bphoto/A4sPuzVGzxk8pafzIkrWkg/o.jpg", "is_closed": false, "url": "https://www.yelp.com/biz/tunicis-restaurant-dubrovnik-hamburg-2?adjust_creative=hBJOknVQJ58S5goQyjmwRw&utm_campaign=yelp_api_v3&utm_medium=api_v3_business_search&utm_source=hBJOknVQJ58S5goQyjmwRw", "review_count": 21, "categories": [{"alias": "serbocroatian", "title": "Serbo Croatian"}], "rating": 4.0, "coordinates": {"latitude": 53.5491, "longitude": 10.1088}, "transactions": [], "price": "\u20ac\u20ac", "location": {"address1": "Schiffbeker Weg 96", "address2": null, "address3": null, "city": "Hamburg", "zip_code": "22119", "country": "DE", "state": "HH", "display_address": ["Schiffbeker Weg 96", "22119 Hamburg", "Germany"]}, "phone": "+49407314788", "display_phone": "+49 40 7314788", "distance": 3610.6549294707465}, {"id": "45K9V6Od-olAsZzNnCq1Ew", "alias": "marschl\u00e4nder-elblounge-hamburg", "name": "Marschl\u00e4nder Elblounge", "image_url": "https://s3-media4.fl.yelpcdn.com/bphoto/VlmCBhqXZ0ySgPD7nGTxWg/o.jpg", "is_closed": false, "url": "https://www.yelp.com/biz/marschl%C3%A4nder-elblounge-hamburg?adjust_creative=hBJOknVQJ58S5goQyjmwRw&utm_campaign=yelp_api_v3&utm_medium=api_v3_business_search&utm_source=hBJOknVQJ58S5goQyjmwRw", "review_count": 1, "categories": [{"alias": "cafes", "title": "Cafes"}], "rating": 5.0, "coordinates": {"latitude": 53.478363, "longitude": 10.062896}, "transactions": [], "location": {"address1": "Spadenl\u00e4nder Elbdeich 40", "address2": "", "address3": null, "city": "Hamburg", "zip_code": "21037", "country": "DE", "state": "HH", "display_address": ["Spadenl\u00e4nder Elbdeich 40", "21037 Hamburg", "Germany"]}, "phone": "+494089723000", "display_phone": "+49 40 89723000", "distance": 4821.418653145869}, {"id": "YegaVSTIXDOqvF4UKbRrwA", "alias": "pizza-max-hamburg-3", "name": "Pizza Max", "image_url": "https://s3-media3.fl.yelpcdn.com/bphoto/6EOS5sWgPWoDUmpMNGtc1Q/o.jpg", "is_closed": false, "url": "https://www.yelp.com/biz/pizza-max-hamburg-3?adjust_creative=hBJOknVQJ58S5goQyjmwRw&utm_campaign=yelp_api_v3&utm_medium=api_v3_business_search&utm_source=hBJOknVQJ58S5goQyjmwRw", "review_count": 27, "categories": [{"alias": "pizza", "title": "Pizza"}, {"alias": "burgers", "title": "Burgers"}], "rating": 3.5, "coordinates": {"latitude": 53.54304, "longitude": 10.09595}, "transactions": [], "price": "\u20ac\u20ac", "location": {"address1": "Washingtonallee 111", "address2": "", "address3": "", "city": "Hamburg", "zip_code": "22111", "country": "DE", "state": "HH", "display_address": ["Washingtonallee 111", "22111 Hamburg", "Germany"]}, "phone": "+494073670849", "display_phone": "+49 40 73670849", "distance": 2720.1000871525284}, {"id": "4FpU3bFIM9Qg_WU--dIXMg", "alias": "asiahung-hamburg-18", "name": "asiahung", "image_url": "https://s3-media3.fl.yelpcdn.com/bphoto/xR3SsObZDqrBBHV7p-MkGA/o.jpg", "is_closed": false, "url": "https://www.yelp.com/biz/asiahung-hamburg-18?adjust_creative=hBJOknVQJ58S5goQyjmwRw&utm_campaign=yelp_api_v3&utm_medium=api_v3_business_search&utm_source=hBJOknVQJ58S5goQyjmwRw", "review_count": 8, "categories": [{"alias": "hotdogs", "title": "Fast Food"}, {"alias": "panasian", "title": "Pan Asian"}], "rating": 3.5, "coordinates": {"latitude": 53.5418, "longitude": 10.1061}, "transactions": [], "price": "\u20ac", "location": {"address1": "M\u00f6llner Landstr. 3", "address2": "", "address3": null, "city": "Hamburg", "zip_code": "22111", "country": "DE", "state": "HH", "display_address": ["M\u00f6llner Landstr. 3", "22111 Hamburg", "Germany"]}, "phone": "", "display_phone": "", "distance": 2795.397106784257}, {"id": "sEkpM7--ZMmNjrVd6MNyOA", "alias": "knappis-imbiss-hamburg-3", "name": "Knappis Imbiss", "image_url": "https://s3-media1.fl.yelpcdn.com/bphoto/5oKcQAiuz9KcJT7y9Bc90g/o.jpg", "is_closed": false, "url": "https://www.yelp.com/biz/knappis-imbiss-hamburg-3?adjust_creative=hBJOknVQJ58S5goQyjmwRw&utm_campaign=yelp_api_v3&utm_medium=api_v3_business_search&utm_source=hBJOknVQJ58S5goQyjmwRw", "review_count": 1, "categories": [{"alias": "currysausage", "title": "Curry Sausage"}], "rating": 5.0, "coordinates": {"latitude": 53.5392586, "longitude": 10.1063802}, "transactions": [], "price": "\u20ac", "location": {"address1": "M\u00f6llner Landstra\u00dfe", "address2": null, "address3": null, "city": "Hamburg", "zip_code": "22111", "country": "DE", "state": "HH", "display_address": ["M\u00f6llner Landstra\u00dfe", "22111 Hamburg", "Germany"]}, "phone": "", "display_phone": "", "distance": 2551.126963190094}, {"id": "-015n6umNMm0FF-9BMO_OQ", "alias": "horner-grill-hamburg", "name": "Horner Grill", "image_url": "https://s3-media4.fl.yelpcdn.com/bphoto/Q1WdAhTTQFu27GzG1vnnDA/o.jpg", "is_closed": false, "url": "https://www.yelp.com/biz/horner-grill-hamburg?adjust_creative=hBJOknVQJ58S5goQyjmwRw&utm_campaign=yelp_api_v3&utm_medium=api_v3_business_search&utm_source=hBJOknVQJ58S5goQyjmwRw", "review_count": 5, "categories": [{"alias": "northerngerman", "title": "Northern German"}, {"alias": "bbq", "title": "Barbeque"}], "rating": 4.5, "coordinates": {"latitude": 53.5468, "longitude": 10.0871}, "transactions": [], "price": "\u20ac", "location": {"address1": "Horner Landstr. 329", "address2": null, "address3": null, "city": "Hamburg", "zip_code": "22111", "country": "DE", "state": "HH", "display_address": ["Horner Landstr. 329", "22111 Hamburg", "Germany"]}, "phone": "+494065593720", "display_phone": "+49 40 65593720", "distance": 3087.3651429926144}, {"id": "6K3MQSIUC4t-7xsgVctxQg", "alias": "caf\u00e9-auszeit-hamburg", "name": "Caf\u00e9 Auszeit", "image_url": "https://s3-media4.fl.yelpcdn.com/bphoto/vjeiIfgFrolVEP4CcqYU-w/o.jpg", "is_closed": false, "url": "https://www.yelp.com/biz/caf%C3%A9-auszeit-hamburg?adjust_creative=hBJOknVQJ58S5goQyjmwRw&utm_campaign=yelp_api_v3&utm_medium=api_v3_business_search&utm_source=hBJOknVQJ58S5goQyjmwRw", "review_count": 63, "categories": [{"alias": "cafes", "title": "Cafes"}, {"alias": "breakfast_brunch", "title": "Breakfast & Brunch"}], "rating": 4.5, "coordinates": {"latitude": 53.5556198865386, "longitude": 10.0633800008687}, "transactions": [], "price": "\u20ac", "location": {"address1": "Horner Weg 68", "address2": "", "address3": "", "city": "Hamburg", "zip_code": "20535", "country": "DE", "state": "HH", "display_address": ["Horner Weg 68", "20535 Hamburg", "Germany"]}, "phone": "+494057241866", "display_phone": "+49 40 57241866", "distance": 4383.943199799619}, {"id": "zDBc6IZrtooKf3VIjwNbIA", "alias": "apollo-pizza-hamburg", "name": "Apollo Pizza", "image_url": "https://s3-media3.fl.yelpcdn.com/bphoto/bmlAoSkT98rY5_ArvhGK8Q/o.jpg", "is_closed": false, "url": "https://www.yelp.com/biz/apollo-pizza-hamburg?adjust_creative=hBJOknVQJ58S5goQyjmwRw&utm_campaign=yelp_api_v3&utm_medium=api_v3_business_search&utm_source=hBJOknVQJ58S5goQyjmwRw", "review_count": 8, "categories": [{"alias": "pizza", "title": "Pizza"}], "rating": 3.0, "coordinates": {"latitude": 53.5377, "longitude": 10.1118}, "transactions": [], "price": "\u20ac", "location": {"address1": "Sp\u00f6kelbarg 20", "address2": null, "address3": null, "city": "Hamburg", "zip_code": "22117", "country": "DE", "state": "HH", "display_address": ["Sp\u00f6kelbarg 20", "22117 Hamburg", "Germany"]}, "phone": "+494021987411", "display_phone": "+49 40 21987411", "distance": 2598.3767854788807}, {"id": "SGap-Co7AAtFf9Oe8GfH5g", "alias": "palastk\u00fcche-hamburg", "name": "Palastk\u00fcche", "image_url": "https://s3-media1.fl.yelpcdn.com/bphoto/YrX_qatf2-B9JfySCxzD0g/o.jpg", "is_closed": false, "url": "https://www.yelp.com/biz/palastk%C3%BCche-hamburg?adjust_creative=hBJOknVQJ58S5goQyjmwRw&utm_campaign=yelp_api_v3&utm_medium=api_v3_business_search&utm_source=hBJOknVQJ58S5goQyjmwRw", "review_count": 3, "categories": [{"alias": "german", "title": "German"}], "rating": 4.0, "coordinates": {"latitude": 53.54228, "longitude": 10.11027}, "transactions": [], "price": "\u20ac\u20ac\u20ac", "location": {"address1": "\u00d6jendorfer Weg 30 A", "address2": "", "address3": null, "city": "Hamburg", "zip_code": "22119", "country": "DE", "state": "HH", "display_address": ["\u00d6jendorfer Weg 30 A", "22119 Hamburg", "Germany"]}, "phone": "+494028407777", "display_phone": "+49 40 28407777", "distance": 2967.6659485810337}, {"id": "7N9yEdpjKU2hFEhuKJDUsw", "alias": "betriebsrestaurant-billstedt-hamburg", "name": "Betriebsrestaurant Billstedt", "image_url": "https://s3-media2.fl.yelpcdn.com/bphoto/9b8pnnOHIYREqx3PKzBwOg/o.jpg", "is_closed": false, "url": "https://www.yelp.com/biz/betriebsrestaurant-billstedt-hamburg?adjust_creative=hBJOknVQJ58S5goQyjmwRw&utm_campaign=yelp_api_v3&utm_medium=api_v3_business_search&utm_source=hBJOknVQJ58S5goQyjmwRw", "review_count": 2, "categories": [{"alias": "canteen", "title": "Canteen"}], "rating": 4.0, "coordinates": {"latitude": 53.5404399, "longitude": 10.10682}, "transactions": [], "price": "\u20ac", "location": {"address1": "\u00d6jendorferweg 9", "address2": "", "address3": "", "city": "Hamburg", "zip_code": "22111", "country": "DE", "state": "HH", "display_address": ["\u00d6jendorferweg 9", "22111 Hamburg", "Germany"]}, "phone": "+49407314900", "display_phone": "+49 40 7314900", "distance": 2646.8544279486096}, {"id": "uowcUv_zNFP2MIHxcVMvwQ", "alias": "mcdonalds-hamburg-45", "name": "McDonald's", "image_url": "https://s3-media1.fl.yelpcdn.com/bphoto/81A7pzdZ0CM5ZZztlvbqyg/o.jpg", "is_closed": false, "url": "https://www.yelp.com/biz/mcdonalds-hamburg-45?adjust_creative=hBJOknVQJ58S5goQyjmwRw&utm_campaign=yelp_api_v3&utm_medium=api_v3_business_search&utm_source=hBJOknVQJ58S5goQyjmwRw", "review_count": 11, "categories": [{"alias": "burgers", "title": "Burgers"}, {"alias": "hotdogs", "title": "Fast Food"}], "rating": 2.5, "coordinates": {"latitude": 53.5415, "longitude": 10.0991}, "transactions": [], "price": "\u20ac\u20ac", "location": {"address1": "Billstedter Hauptstr. 23-25", "address2": null, "address3": null, "city": "Hamburg", "zip_code": "22111", "country": "DE", "state": "HH", "display_address": ["Billstedter Hauptstr. 23-25", "22111 Hamburg", "Germany"]}, "phone": "+494021987533", "display_phone": "+49 40 21987533", "distance": 2600.3420882367177}, {"id": "EZILGQV8FIXerqudRluW4Q", "alias": "d\u00f6ner-company-hamburg-2", "name": "D\u00f6ner Company", "image_url": "https://s3-media1.fl.yelpcdn.com/bphoto/MyVEYS5Gdq5FSs6Za7M5kg/o.jpg", "is_closed": false, "url": "https://www.yelp.com/biz/d%C3%B6ner-company-hamburg-2?adjust_creative=hBJOknVQJ58S5goQyjmwRw&utm_campaign=yelp_api_v3&utm_medium=api_v3_business_search&utm_source=hBJOknVQJ58S5goQyjmwRw", "review_count": 6, "categories": [{"alias": "kebab", "title": "Kebab"}], "rating": 3.0, "coordinates": {"latitude": 53.54237, "longitude": 10.10559}, "transactions": [], "price": "\u20ac\u20ac", "location": {"address1": "Reclamstr. 2", "address2": null, "address3": null, "city": "Hamburg", "zip_code": "22111", "country": "DE", "state": "HH", "display_address": ["Reclamstr. 2", "22111 Hamburg", "Germany"]}, "phone": "+494089728833", "display_phone": "+49 40 89728833", "distance": 2767.5089716959556}, {"id": "UBVcyjkirHqMb02JfPwZrw", "alias": "le-dersimo-hamburg", "name": "Le Dersimo", "image_url": "https://s3-media3.fl.yelpcdn.com/bphoto/3f0Mecp5MSOOavzvJsbnTA/o.jpg", "is_closed": false, "url": "https://www.yelp.com/biz/le-dersimo-hamburg?adjust_creative=hBJOknVQJ58S5goQyjmwRw&utm_campaign=yelp_api_v3&utm_medium=api_v3_business_search&utm_source=hBJOknVQJ58S5goQyjmwRw", "review_count": 1, "categories": [{"alias": "cafes", "title": "Cafes"}, {"alias": "kiosk", "title": "Kiosk"}], "rating": 4.0, "coordinates": {"latitude": 53.5488, "longitude": 10.0762}, "transactions": [], "location": {"address1": "Bauerbergweg  11", "address2": null, "address3": null, "city": "Hamburg", "zip_code": "22111", "country": "DE", "state": "HH", "display_address": ["Bauerbergweg  11", "22111 Hamburg", "Germany"]}, "phone": "+49406500975", "display_phone": "+49 40 6500975", "distance": 3401.6827041845927}, {"id": "tgldf5W4qcSGZElSAqchMg", "alias": "l-italian-hamburg", "name": "L\u00b4Italian", "image_url": "https://s3-media4.fl.yelpcdn.com/bphoto/gYseBdz6ANtBBhY4wjEtcQ/o.jpg", "is_closed": false, "url": "https://www.yelp.com/biz/l-italian-hamburg?adjust_creative=hBJOknVQJ58S5goQyjmwRw&utm_campaign=yelp_api_v3&utm_medium=api_v3_business_search&utm_source=hBJOknVQJ58S5goQyjmwRw", "review_count": 4, "categories": [{"alias": "italian", "title": "Italian"}], "rating": 3.0, "coordinates": {"latitude": 53.53979, "longitude": 10.10457}, "transactions": [], "price": "\u20ac\u20ac", "location": {"address1": "M\u00f6llner Landstr. 3", "address2": "", "address3": "", "city": "Hamburg", "zip_code": "22111", "country": "DE", "state": "HH", "display_address": ["M\u00f6llner Landstr. 3", "22111 Hamburg", "Germany"]}, "phone": "", "display_phone": "", "distance": 2550.120034226875}, {"id": "yqk1NxWrR6Jp3IOyks0cSQ", "alias": "schweinske-hamburg-29", "name": "Schweinske", "image_url": "https://s3-media3.fl.yelpcdn.com/bphoto/LWx1Qfrr6CLbQoqxc7GUAQ/o.jpg", "is_closed": false, "url": "https://www.yelp.com/biz/schweinske-hamburg-29?adjust_creative=hBJOknVQJ58S5goQyjmwRw&utm_campaign=yelp_api_v3&utm_medium=api_v3_business_search&utm_source=hBJOknVQJ58S5goQyjmwRw", "review_count": 26, "categories": [{"alias": "german", "title": "German"}], "rating": 2.5, "coordinates": {"latitude": 53.5386279623028, "longitude": 10.1104775816202}, "transactions": [], "price": "\u20ac", "location": {"address1": "M\u00f6llner Landstr. 2", "address2": "", "address3": null, "city": "Hamburg", "zip_code": "22111", "country": "DE", "state": "HH", "display_address": ["M\u00f6llner Landstr. 2", "22111 Hamburg", "Germany"]}, "phone": "+494073433380", "display_phone": "+49 40 73433380", "distance": 2631.4443578390697}, {"id": "smxdoZuHpRCuDDVqCaqcDQ", "alias": "zenthai-hamburg-3", "name": "Zenthai", "image_url": "https://s3-media3.fl.yelpcdn.com/bphoto/231WD874e1FRLV5x669NlA/o.jpg", "is_closed": false, "url": "https://www.yelp.com/biz/zenthai-hamburg-3?adjust_creative=hBJOknVQJ58S5goQyjmwRw&utm_campaign=yelp_api_v3&utm_medium=api_v3_business_search&utm_source=hBJOknVQJ58S5goQyjmwRw", "review_count": 6, "categories": [{"alias": "panasian", "title": "Pan Asian"}], "rating": 3.0, "coordinates": {"latitude": 53.5397891, "longitude": 10.1045729}, "transactions": [], "price": "\u20ac\u20ac", "location": {"address1": "M\u00f6llner Landstr. 3", "address2": "", "address3": "1. OG", "city": "Hamburg", "zip_code": "22111", "country": "DE", "state": "HH", "display_address": ["M\u00f6llner Landstr. 3", "1. OG", "22111 Hamburg", "Germany"]}, "phone": "+494073675939", "display_phone": "+49 40 73675939", "distance": 2550.1111656342027}, {"id": "e0VSS8cgiOI05OFDJTtcJA", "alias": "zum-pr\u00f6sterchen-hamburg", "name": "Zum Pr\u00f6sterchen", "image_url": "https://s3-media2.fl.yelpcdn.com/bphoto/-Fs69fMD4Vm4XESapntCkQ/o.jpg", "is_closed": false, "url": "https://www.yelp.com/biz/zum-pr%C3%B6sterchen-hamburg?adjust_creative=hBJOknVQJ58S5goQyjmwRw&utm_campaign=yelp_api_v3&utm_medium=api_v3_business_search&utm_source=hBJOknVQJ58S5goQyjmwRw", "review_count": 1, "categories": [{"alias": "beerbar", "title": "Beer Bar"}, {"alias": "northerngerman", "title": "Northern German"}], "rating": 4.0, "coordinates": {"latitude": 53.53928, "longitude": 10.1057}, "transactions": [], "price": "\u20ac", "location": {"address1": "M\u00f6llner Landstr. 18", "address2": "", "address3": null, "city": "Hamburg", "zip_code": "22111", "country": "DE", "state": "HH", "display_address": ["M\u00f6llner Landstr. 18", "22111 Hamburg", "Germany"]}, "phone": "+49407314698", "display_phone": "+49 40 7314698", "distance": 2520.003208985787}, {"id": "U9PC9xkZgrE_sRpktMvnaA", "alias": "afghanische-konditorei-hamburg", "name": "Afghanische Konditorei", "image_url": "", "is_closed": false, "url": "https://www.yelp.com/biz/afghanische-konditorei-hamburg?adjust_creative=hBJOknVQJ58S5goQyjmwRw&utm_campaign=yelp_api_v3&utm_medium=api_v3_business_search&utm_source=hBJOknVQJ58S5goQyjmwRw", "review_count": 1, "categories": [{"alias": "cakeshop", "title": "Patisserie/Cake Shop"}, {"alias": "afghani", "title": "Afghan"}], "rating": 4.0, "coordinates": {"latitude": 53.5421384684295, "longitude": 10.0963474070709}, "transactions": [], "location": {"address1": "Billstedter Hauptstr. 12", "address2": "", "address3": null, "city": "Hamburg", "zip_code": "22111", "country": "DE", "state": "HH", "display_address": ["Billstedter Hauptstr. 12", "22111 Hamburg", "Germany"]}, "phone": "+494084709732", "display_phone": "+49 40 84709732", "distance": 2625.0258184973823}, {"id": "xwj4BT0-5XSoAJb03OJW0g", "alias": "kneipe-leos-hamburg", "name": "Kneipe Leo's", "image_url": "", "is_closed": false, "url": "https://www.yelp.com/biz/kneipe-leos-hamburg?adjust_creative=hBJOknVQJ58S5goQyjmwRw&utm_campaign=yelp_api_v3&utm_medium=api_v3_business_search&utm_source=hBJOknVQJ58S5goQyjmwRw", "review_count": 6, "categories": [{"alias": "divebars", "title": "Dive Bars"}, {"alias": "gastropubs", "title": "Gastropubs"}], "rating": 5.0, "coordinates": {"latitude": 53.5596114, "longitude": 10.0956549}, "transactions": [], "price": "\u20ac\u20ac\u20ac", "location": {"address1": "Stoltenstr. 26", "address2": "", "address3": null, "city": "Hamburg", "zip_code": "22119", "country": "DE", "state": "HH", "display_address": ["Stoltenstr. 26", "22119 Hamburg", "Germany"]}, "phone": "+49406513808", "display_phone": "+49 40 6513808", "distance": 4538.4688504341}, {"id": "gIrRs118ZpavQ1dFibXAlA", "alias": "rose-rote-veranstaltungs-center-hamburg", "name": "Rose Rote Veranstaltungs Center", "image_url": "", "is_closed": false, "url": "https://www.yelp.com/biz/rose-rote-veranstaltungs-center-hamburg?adjust_creative=hBJOknVQJ58S5goQyjmwRw&utm_campaign=yelp_api_v3&utm_medium=api_v3_business_search&utm_source=hBJOknVQJ58S5goQyjmwRw", "review_count": 1, "categories": [{"alias": "hotelstravel", "title": "Hotels & Travel"}, {"alias": "restaurants", "title": "Restaurants"}], "rating": 4.0, "coordinates": {"latitude": 53.5401, "longitude": 10.1024}, "transactions": [], "price": "\u20ac", "location": {"address1": "Billstedter Hauptstr. 51", "address2": null, "address3": null, "city": "Hamburg", "zip_code": "22111", "country": "DE", "state": "HH", "display_address": ["Billstedter Hauptstr. 51", "22111 Hamburg", "Germany"]}, "phone": "", "display_phone": "", "distance": 2524.33868597355}, {"id": "HKVjMOi79oX9VgEKE3Wf6A", "alias": "thai-food-express-hamburg", "name": "Thai Food Express", "image_url": "https://s3-media2.fl.yelpcdn.com/bphoto/vogOorAJN8jPE-fKbsSL-g/o.jpg", "is_closed": false, "url": "https://www.yelp.com/biz/thai-food-express-hamburg?adjust_creative=hBJOknVQJ58S5goQyjmwRw&utm_campaign=yelp_api_v3&utm_medium=api_v3_business_search&utm_source=hBJOknVQJ58S5goQyjmwRw", "review_count": 13, "categories": [{"alias": "thai", "title": "Thai"}, {"alias": "sushi", "title": "Sushi Bars"}, {"alias": "panasian", "title": "Pan Asian"}], "rating": 3.5, "coordinates": {"latitude": 53.5539969660114, "longitude": 10.0900119915605}, "transactions": [], "price": "\u20ac\u20ac", "location": {"address1": "Hermannstal 37", "address2": "", "address3": "", "city": "Hamburg", "zip_code": "22119", "country": "DE", "state": "HH", "display_address": ["Hermannstal 37", "22119 Hamburg", "Germany"]}, "phone": "+494075666606", "display_phone": "+49 40 75666606", "distance": 3888.8573648949427}, {"id": "iHJu41roXfxTfqW8EifbVA", "alias": "dolce-italia-hamburg", "name": "Dolce Italia", "image_url": "", "is_closed": false, "url": "https://www.yelp.com/biz/dolce-italia-hamburg?adjust_creative=hBJOknVQJ58S5goQyjmwRw&utm_campaign=yelp_api_v3&utm_medium=api_v3_business_search&utm_source=hBJOknVQJ58S5goQyjmwRw", "review_count": 4, "categories": [{"alias": "italian", "title": "Italian"}], "rating": 4.0, "coordinates": {"latitude": 53.559, "longitude": 10.107}, "transactions": [], "location": {"address1": "Manshardtstr. 111", "address2": null, "address3": null, "city": "Hamburg", "zip_code": "22119", "country": "DE", "state": "HH", "display_address": ["Manshardtstr. 111", "22119 Hamburg", "Germany"]}, "phone": "", "display_phone": "", "distance": 4614.782061826478}, {"id": "tw9C5ljsuxZHQK4s89LpvA", "alias": "billstedter-bierstube-hamburg", "name": "Billstedter Bierstube", "image_url": "https://s3-media2.fl.yelpcdn.com/bphoto/y60neRVTsKgjRKUp3pZkNA/o.jpg", "is_closed": false, "url": "https://www.yelp.com/biz/billstedter-bierstube-hamburg?adjust_creative=hBJOknVQJ58S5goQyjmwRw&utm_campaign=yelp_api_v3&utm_medium=api_v3_business_search&utm_source=hBJOknVQJ58S5goQyjmwRw", "review_count": 1, "categories": [{"alias": "pubs", "title": "Pubs"}, {"alias": "restaurants", "title": "Restaurants"}], "rating": 3.0, "coordinates": {"latitude": 53.5396, "longitude": 10.1025}, "transactions": [], "location": {"address1": "Billstedter Hauptstr. 52", "address2": null, "address3": null, "city": "Hamburg", "zip_code": "22111", "country": "DE", "state": "HH", "display_address": ["Billstedter Hauptstr. 52", "22111 Hamburg", "Germany"]}, "phone": "+494028097339", "display_phone": "+49 40 28097339", "distance": 2475.3831904613385}, {"id": "QKXV1M2pdEvzJTtJf4ctEA", "alias": "restaurant-panorama-hamburg", "name": "Restaurant Panorama", "image_url": "", "is_closed": false, "url": "https://www.yelp.com/biz/restaurant-panorama-hamburg?adjust_creative=hBJOknVQJ58S5goQyjmwRw&utm_campaign=yelp_api_v3&utm_medium=api_v3_business_search&utm_source=hBJOknVQJ58S5goQyjmwRw", "review_count": 1, "categories": [{"alias": "german", "title": "German"}], "rating": 4.0, "coordinates": {"latitude": 53.5397, "longitude": 10.1014}, "transactions": [], "location": {"address1": "Hotel Panorama Billstedt", "address2": "Billstedter Hauptstr. 44", "address3": null, "city": "Hamburg", "zip_code": "22111", "country": "DE", "state": "HH", "display_address": ["Hotel Panorama Billstedt", "Billstedter Hauptstr. 44", "22111 Hamburg", "Germany"]}, "phone": "+4940733590", "display_phone": "+49 40 733590", "distance": 2458.798589011311}, {"id": "ZowjZ9bdVgxpVWOM4k-1UA", "alias": "subway-hamburg-29", "name": "Subway", "image_url": "https://s3-media2.fl.yelpcdn.com/bphoto/F9xIvjrCfpEPDoFbegH5Dg/o.jpg", "is_closed": false, "url": "https://www.yelp.com/biz/subway-hamburg-29?adjust_creative=hBJOknVQJ58S5goQyjmwRw&utm_campaign=yelp_api_v3&utm_medium=api_v3_business_search&utm_source=hBJOknVQJ58S5goQyjmwRw", "review_count": 7, "categories": [{"alias": "sandwiches", "title": "Sandwiches"}, {"alias": "hotdogs", "title": "Fast Food"}], "rating": 4.0, "coordinates": {"latitude": 53.539943, "longitude": 10.103886}, "transactions": [], "price": "\u20ac\u20ac\u20ac\u20ac", "location": {"address1": "M\u00f6llner Landstr. 3", "address2": "", "address3": "", "city": "Hamburg", "zip_code": "22111", "country": "DE", "state": "HH", "display_address": ["M\u00f6llner Landstr. 3", "22111 Hamburg", "Germany"]}, "phone": "+494033428595", "display_phone": "+49 40 33428595", "distance": 2546.7064199024558}, {"id": "MmYbD5eULMcs2pgW3hOrCw", "alias": "alaturca-hamburg", "name": "Alaturca", "image_url": "https://s3-media4.fl.yelpcdn.com/bphoto/oAaKUiu9XWJcj6VL2F2Ohw/o.jpg", "is_closed": false, "url": "https://www.yelp.com/biz/alaturca-hamburg?adjust_creative=hBJOknVQJ58S5goQyjmwRw&utm_campaign=yelp_api_v3&utm_medium=api_v3_business_search&utm_source=hBJOknVQJ58S5goQyjmwRw", "review_count": 18, "categories": [{"alias": "turkish", "title": "Turkish"}, {"alias": "kebab", "title": "Kebab"}], "rating": 3.0, "coordinates": {"latitude": 53.53974, "longitude": 10.10145}, "transactions": [], "price": "\u20ac\u20ac\u20ac", "location": {"address1": "Billstedter Hauptstr. 48 53", "address2": null, "address3": null, "city": "Hamburg", "zip_code": "22111", "country": "DE", "state": "HH", "display_address": ["Billstedter Hauptstr. 48 53", "22111 Hamburg", "Germany"]}, "phone": "+494070296885", "display_phone": "+49 40 70296885", "distance": 2464.132800141352}, {"id": "VsU8J4GnEKwbfBbfWU9x2Q", "alias": "stehcafe-horner-hamburg", "name": "Stehcafe Horner", "image_url": "https://s3-media2.fl.yelpcdn.com/bphoto/ZgWlGcq8j98N6ZTiixoRYQ/o.jpg", "is_closed": false, "url": "https://www.yelp.com/biz/stehcafe-horner-hamburg?adjust_creative=hBJOknVQJ58S5goQyjmwRw&utm_campaign=yelp_api_v3&utm_medium=api_v3_business_search&utm_source=hBJOknVQJ58S5goQyjmwRw", "review_count": 2, "categories": [{"alias": "cafes", "title": "Cafes"}], "rating": 5.0, "coordinates": {"latitude": 53.5505, "longitude": 10.0777}, "transactions": [], "price": "\u20ac\u20ac", "location": {"address1": "Horner Landstr. 144", "address2": null, "address3": null, "city": "Hamburg", "zip_code": "22111", "country": "DE", "state": "HH", "display_address": ["Horner Landstr. 144", "22111 Hamburg", "Germany"]}, "phone": "", "display_phone": "", "distance": 3565.3376743644626}, {"id": "K4B-CHJDsU_In3DP2LziiA", "alias": "call-a-pizza-hamburg-7", "name": "Call a Pizza", "image_url": "https://s3-media2.fl.yelpcdn.com/bphoto/rELdVa8hQyxKVegEi_LOnw/o.jpg", "is_closed": false, "url": "https://www.yelp.com/biz/call-a-pizza-hamburg-7?adjust_creative=hBJOknVQJ58S5goQyjmwRw&utm_campaign=yelp_api_v3&utm_medium=api_v3_business_search&utm_source=hBJOknVQJ58S5goQyjmwRw", "review_count": 5, "categories": [{"alias": "pizza", "title": "Pizza"}], "rating": 3.5, "coordinates": {"latitude": 53.5428429, "longitude": 10.1028221}, "transactions": [], "price": "\u20ac\u20ac", "location": {"address1": "Schiffbecker Weg 29", "address2": null, "address3": null, "city": "Hamburg", "zip_code": "22111", "country": "DE", "state": "HH", "display_address": ["Schiffbecker Weg 29", "22111 Hamburg", "Germany"]}, "phone": "+494073115181", "display_phone": "+49 40 73115181", "distance": 2819.042689629094}, {"id": "64UsMtkfDVRgAU0ulbzlWw", "alias": "ready-pizza-hamburg-5", "name": "Ready Pizza", "image_url": "https://s3-media3.fl.yelpcdn.com/bphoto/HKGOm2R0WE-9u2ObeP7kpg/o.jpg", "is_closed": false, "url": "https://www.yelp.com/biz/ready-pizza-hamburg-5?adjust_creative=hBJOknVQJ58S5goQyjmwRw&utm_campaign=yelp_api_v3&utm_medium=api_v3_business_search&utm_source=hBJOknVQJ58S5goQyjmwRw", "review_count": 14, "categories": [{"alias": "fooddeliveryservices", "title": "Food Delivery Services"}, {"alias": "italian", "title": "Italian"}, {"alias": "pizza", "title": "Pizza"}], "rating": 4.0, "coordinates": {"latitude": 53.550004, "longitude": 10.0786937}, "transactions": [], "price": "\u20ac\u20ac", "location": {"address1": "Horner Landstr. 150", "address2": null, "address3": null, "city": "Hamburg", "zip_code": "22111", "country": "DE", "state": "HH", "display_address": ["Horner Landstr. 150", "22111 Hamburg", "Germany"]}, "phone": "+494027885544", "display_phone": "+49 40 27885544", "distance": 3498.9399014644964}, {"id": "Rb1tYn5UC6Re9nZvD7hkJg", "alias": "thai-und-wok-hamburg", "name": "Thai & Wok", "image_url": "https://s3-media1.fl.yelpcdn.com/bphoto/ZHkaIOAAntArKo1JVSbZFA/o.jpg", "is_closed": false, "url": "https://www.yelp.com/biz/thai-und-wok-hamburg?adjust_creative=hBJOknVQJ58S5goQyjmwRw&utm_campaign=yelp_api_v3&utm_medium=api_v3_business_search&utm_source=hBJOknVQJ58S5goQyjmwRw", "review_count": 8, "categories": [{"alias": "thai", "title": "Thai"}, {"alias": "wok", "title": "Wok"}], "rating": 2.0, "coordinates": {"latitude": 53.5594, "longitude": 10.1076}, "transactions": [], "price": "\u20ac", "location": {"address1": "Manshardtstr. 115", "address2": null, "address3": null, "city": "Hamburg", "zip_code": "22119", "country": "DE", "state": "HH", "display_address": ["Manshardtstr. 115", "22119 Hamburg", "Germany"]}, "phone": "+494068284641", "display_phone": "+49 40 68284641", "distance": 4668.388990351497}, {"id": "P8P5_LvPRtGXRGJyMs6skg", "alias": "baustellen-casino-hamburg", "name": "Baustellen Casino", "image_url": "https://s3-media4.fl.yelpcdn.com/bphoto/q5Q3sJTyy275JykHLwxJxA/o.jpg", "is_closed": false, "url": "https://www.yelp.com/biz/baustellen-casino-hamburg?adjust_creative=hBJOknVQJ58S5goQyjmwRw&utm_campaign=yelp_api_v3&utm_medium=api_v3_business_search&utm_source=hBJOknVQJ58S5goQyjmwRw", "review_count": 1, "categories": [{"alias": "german", "title": "German"}], "rating": 4.0, "coordinates": {"latitude": 53.542219, "longitude": 10.1101957}, "transactions": [], "price": "\u20ac", "location": {"address1": "\u00d6jendorfer Weg 30a", "address2": null, "address3": null, "city": "Hamburg", "zip_code": "22119", "country": "DE", "state": "HH", "display_address": ["\u00d6jendorfer Weg 30a", "22119 Hamburg", "Germany"]}, "phone": "+494071404155", "display_phone": "+49 40 71404155", "distance": 2961.146252995437}, {"id": "upqpZh2h31tnRwox9v5Wqg", "alias": "cafe-may-hamburg-12", "name": "Cafe May", "image_url": "https://s3-media2.fl.yelpcdn.com/bphoto/toFWQ4ygZ5RmxbrptKguXg/o.jpg", "is_closed": false, "url": "https://www.yelp.com/biz/cafe-may-hamburg-12?adjust_creative=hBJOknVQJ58S5goQyjmwRw&utm_campaign=yelp_api_v3&utm_medium=api_v3_business_search&utm_source=hBJOknVQJ58S5goQyjmwRw", "review_count": 30, "categories": [{"alias": "cafes", "title": "Cafes"}], "rating": 3.0, "coordinates": {"latitude": 53.558, "longitude": 10.0754}, "transactions": [], "price": "\u20ac", "location": {"address1": "Sievekingsallee 157", "address2": null, "address3": null, "city": "Hamburg", "zip_code": "22111", "country": "DE", "state": "HH", "display_address": ["Sievekingsallee 157", "22111 Hamburg", "Germany"]}, "phone": "+494065590822", "display_phone": "+49 40 65590822", "distance": 4412.952924386004}, {"id": "W1elnIGTIpBmYCn11yhzRQ", "alias": "adriatik-hamburg", "name": "Adriatik", "image_url": "", "is_closed": false, "url": "https://www.yelp.com/biz/adriatik-hamburg?adjust_creative=hBJOknVQJ58S5goQyjmwRw&utm_campaign=yelp_api_v3&utm_medium=api_v3_business_search&utm_source=hBJOknVQJ58S5goQyjmwRw", "review_count": 2, "categories": [{"alias": "german", "title": "German"}], "rating": 4.5, "coordinates": {"latitude": 53.559, "longitude": 10.1079}, "transactions": [], "location": {"address1": "Manshardtstr. 115", "address2": null, "address3": null, "city": "Hamburg", "zip_code": "22119", "country": "DE", "state": "HH", "display_address": ["Manshardtstr. 115", "22119 Hamburg", "Germany"]}, "phone": "+494065491678", "display_phone": "+49 40 65491678", "distance": 4631.2029583655885}, {"id": "6JEBAUugL1Rxwc3-NepyKQ", "alias": "dominos-hamburg-24", "name": "Domino's", "image_url": "", "is_closed": false, "url": "https://www.yelp.com/biz/dominos-hamburg-24?adjust_creative=hBJOknVQJ58S5goQyjmwRw&utm_campaign=yelp_api_v3&utm_medium=api_v3_business_search&utm_source=hBJOknVQJ58S5goQyjmwRw", "review_count": 1, "categories": [{"alias": "pizza", "title": "Pizza"}], "rating": 1.0, "coordinates": {"latitude": 53.55915, "longitude": 10.10594}, "transactions": [], "location": {"address1": "Manshardtstr. 107", "address2": null, "address3": null, "city": "Hamburg", "zip_code": "22119", "country": "DE", "state": "HH", "display_address": ["Manshardtstr. 107", "22119 Hamburg", "Germany"]}, "phone": "+4940777095", "display_phone": "+49 40 777095", "distance": 4614.628755539976}, {"id": "SMnrVzukg3fE5y-yQaVHNw", "alias": "longs-imbiss-hamburg-2", "name": "Longs Imbiss", "image_url": "https://s3-media2.fl.yelpcdn.com/bphoto/mmpBt-mApQ5XcABpXe2yXA/o.jpg", "is_closed": false, "url": "https://www.yelp.com/biz/longs-imbiss-hamburg-2?adjust_creative=hBJOknVQJ58S5goQyjmwRw&utm_campaign=yelp_api_v3&utm_medium=api_v3_business_search&utm_source=hBJOknVQJ58S5goQyjmwRw", "review_count": 4, "categories": [{"alias": "hotdogs", "title": "Fast Food"}, {"alias": "sandwiches", "title": "Sandwiches"}], "rating": 4.0, "coordinates": {"latitude": 53.5547, "longitude": 10.0782}, "transactions": [], "price": "\u20ac", "location": {"address1": "Horner Weg 222", "address2": null, "address3": null, "city": "Hamburg", "zip_code": "22111", "country": "DE", "state": "HH", "display_address": ["Horner Weg 222", "22111 Hamburg", "Germany"]}, "phone": "+494065592553", "display_phone": "+49 40 65592553", "distance": 4019.018333417636}, {"id": "FgojWBNCA17-6GbHsrDHrQ", "alias": "crazy-croque-hamburg-4", "name": "Crazy Croque", "image_url": "https://s3-media1.fl.yelpcdn.com/bphoto/N8RMFIvPcA3rbOVQbD05_Q/o.jpg", "is_closed": false, "url": "https://www.yelp.com/biz/crazy-croque-hamburg-4?adjust_creative=hBJOknVQJ58S5goQyjmwRw&utm_campaign=yelp_api_v3&utm_medium=api_v3_business_search&utm_source=hBJOknVQJ58S5goQyjmwRw", "review_count": 14, "categories": [{"alias": "sandwiches", "title": "Sandwiches"}, {"alias": "baguettes", "title": "Baguettes"}], "rating": 4.0, "coordinates": {"latitude": 53.5592435, "longitude": 10.1084427}, "transactions": [], "price": "\u20ac", "location": {"address1": "Manshardtstr. 117", "address2": null, "address3": null, "city": "Hamburg", "zip_code": "22119", "country": "DE", "state": "HH", "display_address": ["Manshardtstr. 117", "22119 Hamburg", "Germany"]}, "phone": "+49406532211", "display_phone": "+49 40 6532211", "distance": 4667.369835508711}, {"id": "P7YC7oThRqesvw1RFWzRAQ", "alias": "mcdonalds-hamburg-64", "name": "McDonald's", "image_url": "", "is_closed": false, "url": "https://www.yelp.com/biz/mcdonalds-hamburg-64?adjust_creative=hBJOknVQJ58S5goQyjmwRw&utm_campaign=yelp_api_v3&utm_medium=api_v3_business_search&utm_source=hBJOknVQJ58S5goQyjmwRw", "review_count": 1, "categories": [{"alias": "hotdogs", "title": "Fast Food"}, {"alias": "burgers", "title": "Burgers"}], "rating": 5.0, "coordinates": {"latitude": 53.5068487174593, "longitude": 10.0890547782183}, "transactions": [], "location": {"address1": "Amandus-Stubbe-Str. 8", "address2": "", "address3": null, "city": "Hamburg", "zip_code": "22113", "country": "DE", "state": "HH", "display_address": ["Amandus-Stubbe-Str. 8", "22113 Hamburg", "Germany"]}, "phone": "+494041928545", "display_phone": "+49 40 41928545", "distance": 1357.1336713827388}, {"id": "ctCDPQumN0wiEQqkEk0Jzw", "alias": "emir-d\u00f6ner-hamburg", "name": "Emir D\u00f6ner", "image_url": "https://s3-media4.fl.yelpcdn.com/bphoto/aID8KlC8L2TLKWGkdpMJIw/o.jpg", "is_closed": false, "url": "https://www.yelp.com/biz/emir-d%C3%B6ner-hamburg?adjust_creative=hBJOknVQJ58S5goQyjmwRw&utm_campaign=yelp_api_v3&utm_medium=api_v3_business_search&utm_source=hBJOknVQJ58S5goQyjmwRw", "review_count": 2, "categories": [{"alias": "kebab", "title": "Kebab"}, {"alias": "cafes", "title": "Cafes"}], "rating": 2.5, "coordinates": {"latitude": 53.5402543935662, "longitude": 10.1050699129701}, "transactions": [], "price": "\u20ac\u20ac", "location": {"address1": "M\u00f6llner Landstr. 3", "address2": "", "address3": "", "city": "Hamburg", "zip_code": "22111", "country": "DE", "state": "HH", "display_address": ["M\u00f6llner Landstr. 3", "22111 Hamburg", "Germany"]}, "phone": "+494023498049", "display_phone": "+49 40 23498049", "distance": 2610.9235523038365}, {"id": "FBU5iey0UMPsk5BSR9DqNA", "alias": "grill-palast-hamburg", "name": "Grill-Palast", "image_url": "https://s3-media1.fl.yelpcdn.com/bphoto/RH2gMHHf1G4hXUcBLjO38w/o.jpg", "is_closed": false, "url": "https://www.yelp.com/biz/grill-palast-hamburg?adjust_creative=hBJOknVQJ58S5goQyjmwRw&utm_campaign=yelp_api_v3&utm_medium=api_v3_business_search&utm_source=hBJOknVQJ58S5goQyjmwRw", "review_count": 5, "categories": [{"alias": "hotdogs", "title": "Fast Food"}, {"alias": "kebab", "title": "Kebab"}], "rating": 4.5, "coordinates": {"latitude": 53.55022, "longitude": 10.078}, "transactions": [], "price": "\u20ac", "location": {"address1": "Horner Landstr. 148a", "address2": null, "address3": null, "city": "Hamburg", "zip_code": "22111", "country": "DE", "state": "HH", "display_address": ["Horner Landstr. 148a", "22111 Hamburg", "Germany"]}, "phone": "+494033420443", "display_phone": "+49 40 33420443", "distance": 3530.982675506389}, {"id": "BFSov6Q4m4OGbudFU3DvZA", "alias": "mcdonalds-hamburg-52", "name": "McDonald's", "image_url": "https://s3-media4.fl.yelpcdn.com/bphoto/9z82e7Vdha91FAaOWNZImw/o.jpg", "is_closed": false, "url": "https://www.yelp.com/biz/mcdonalds-hamburg-52?adjust_creative=hBJOknVQJ58S5goQyjmwRw&utm_campaign=yelp_api_v3&utm_medium=api_v3_business_search&utm_source=hBJOknVQJ58S5goQyjmwRw", "review_count": 2, "categories": [{"alias": "hotdogs", "title": "Fast Food"}, {"alias": "burgers", "title": "Burgers"}], "rating": 2.5, "coordinates": {"latitude": 53.5395934, "longitude": 10.1047763}, "transactions": [], "location": {"address1": "M\u00f6llner Landstr. 7a", "address2": null, "address3": null, "city": "Hamburg", "zip_code": "22111", "country": "DE", "state": "HH", "display_address": ["M\u00f6llner Landstr. 7a", "22111 Hamburg", "Germany"]}, "phone": "+49407325722", "display_phone": "+49 40 7325722", "distance": 2537.3850419096816}, {"id": "5fgwwitZpTVhyWL0QAbFLw", "alias": "chinaservice-wu-hamburg", "name": "Chinaservice Wu", "image_url": "https://s3-media2.fl.yelpcdn.com/bphoto/6tU1Hr0RrrNEuFt9ScIGuQ/o.jpg", "is_closed": false, "url": "https://www.yelp.com/biz/chinaservice-wu-hamburg?adjust_creative=hBJOknVQJ58S5goQyjmwRw&utm_campaign=yelp_api_v3&utm_medium=api_v3_business_search&utm_source=hBJOknVQJ58S5goQyjmwRw", "review_count": 15, "categories": [{"alias": "chinese", "title": "Chinese"}], "rating": 2.5, "coordinates": {"latitude": 53.5493996, "longitude": 10.0803752}, "transactions": [], "price": "\u20ac\u20ac\u20ac", "location": {"address1": "Horner Landstr. 204", "address2": "", "address3": "", "city": "Hamburg", "zip_code": "22111", "country": "DE", "state": "HH", "display_address": ["Horner Landstr. 204", "22111 Hamburg", "Germany"]}, "phone": "+49406502999", "display_phone": "+49 40 6502999", "distance": 3414.3866301192793}, {"id": "MCQIuPcvqwbCJPy7ccJ18A", "alias": "sushi-corner-hamburg", "name": "Sushi Corner", "image_url": "https://s3-media3.fl.yelpcdn.com/bphoto/y7ESuSffrY0D0NafEcUyeg/o.jpg", "is_closed": false, "url": "https://www.yelp.com/biz/sushi-corner-hamburg?adjust_creative=hBJOknVQJ58S5goQyjmwRw&utm_campaign=yelp_api_v3&utm_medium=api_v3_business_search&utm_source=hBJOknVQJ58S5goQyjmwRw", "review_count": 2, "categories": [{"alias": "sushi", "title": "Sushi Bars"}], "rating": 2.5, "coordinates": {"latitude": 53.55937, "longitude": 10.10743}, "transactions": [], "location": {"address1": "Manshardtstr. 115 A", "address2": "", "address3": "", "city": "Hamburg", "zip_code": "22119", "country": "DE", "state": "HH", "display_address": ["Manshardtstr. 115 A", "22119 Hamburg", "Germany"]}, "phone": "+494068284641", "display_phone": "+49 40 68284641", "distance": 4651.2070914335045}, {"id": "-mQTUIQcdQnMqSDxmBaEPQ", "alias": "hotel-nh-hamburg", "name": "Hotel NH", "image_url": "", "is_closed": false, "url": "https://www.yelp.com/biz/hotel-nh-hamburg?adjust_creative=hBJOknVQJ58S5goQyjmwRw&utm_campaign=yelp_api_v3&utm_medium=api_v3_business_search&utm_source=hBJOknVQJ58S5goQyjmwRw", "review_count": 1, "categories": [{"alias": "german", "title": "German"}, {"alias": "international", "title": "International"}], "rating": 4.0, "coordinates": {"latitude": 53.5572, "longitude": 10.0823}, "transactions": [], "location": {"address1": "Rennbahnstr. 90", "address2": null, "address3": null, "city": "Hamburg", "zip_code": "22111", "country": "DE", "state": "HH", "display_address": ["Rennbahnstr. 90", "22111 Hamburg", "Germany"]}, "phone": "+4940655970", "display_phone": "+49 40 655970", "distance": 4260.509573194602}, {"id": "m_-CYCJ-Etnem-tEsjJLCg", "alias": "bereket-d\u00f6ner-haus-hamburg", "name": "Bereket D\u00f6ner Haus", "image_url": "https://s3-media4.fl.yelpcdn.com/bphoto/GSIbPrv2Zpu6OD5dQkHeJw/o.jpg", "is_closed": false, "url": "https://www.yelp.com/biz/bereket-d%C3%B6ner-haus-hamburg?adjust_creative=hBJOknVQJ58S5goQyjmwRw&utm_campaign=yelp_api_v3&utm_medium=api_v3_business_search&utm_source=hBJOknVQJ58S5goQyjmwRw", "review_count": 7, "categories": [{"alias": "turkish", "title": "Turkish"}], "rating": 2.5, "coordinates": {"latitude": 53.5545, "longitude": 10.0845}, "transactions": [], "price": "\u20ac\u20ac", "location": {"address1": "Rennbahnstr. 38", "address2": null, "address3": null, "city": "Hamburg", "zip_code": "22111", "country": "DE", "state": "HH", "display_address": ["Rennbahnstr. 38", "22111 Hamburg", "Germany"]}, "phone": "", "display_phone": "", "distance": 3950.113601506208}, {"id": "av51Uk_7VwvjpWvF4UilYA", "alias": "cafe-may-hamburg-18", "name": "Cafe May", "image_url": "https://s3-media3.fl.yelpcdn.com/bphoto/o1prkMq6O_Qmu0iad1ek8g/o.jpg", "is_closed": false, "url": "https://www.yelp.com/biz/cafe-may-hamburg-18?adjust_creative=hBJOknVQJ58S5goQyjmwRw&utm_campaign=yelp_api_v3&utm_medium=api_v3_business_search&utm_source=hBJOknVQJ58S5goQyjmwRw", "review_count": 5, "categories": [{"alias": "breakfast_brunch", "title": "Breakfast & Brunch"}, {"alias": "coffee", "title": "Coffee & Tea"}], "rating": 3.5, "coordinates": {"latitude": 53.5537361346295, "longitude": 10.0822460925883}, "transactions": [], "price": "\u20ac\u20ac", "location": {"address1": "Am Goojenboom 46", "address2": "", "address3": "", "city": "Hamburg", "zip_code": "22111", "country": "DE", "state": "HH", "display_address": ["Am Goojenboom 46", "22111 Hamburg", "Germany"]}, "phone": "+494065992370", "display_phone": "+49 40 65992370", "distance": 3877.439439886578}, {"id": "tjQx0NnfmAwvzbBIvo21JA", "alias": "pizza-fiamma-hamburg", "name": "Pizza Fiamma", "image_url": "https://s3-media3.fl.yelpcdn.com/bphoto/vJPRUZxKJ04oSRnd7oUlaQ/o.jpg", "is_closed": false, "url": "https://www.yelp.com/biz/pizza-fiamma-hamburg?adjust_creative=hBJOknVQJ58S5goQyjmwRw&utm_campaign=yelp_api_v3&utm_medium=api_v3_business_search&utm_source=hBJOknVQJ58S5goQyjmwRw", "review_count": 3, "categories": [{"alias": "pizza", "title": "Pizza"}], "rating": 4.0, "coordinates": {"latitude": 53.54974, "longitude": 10.08035}, "transactions": [], "price": "\u20ac\u20ac", "location": {"address1": "Horner Landstr. 195", "address2": null, "address3": "", "city": "Hamburg", "zip_code": "22111", "country": "DE", "state": "HH", "display_address": ["Horner Landstr. 195", "22111 Hamburg", "Germany"]}, "phone": "+494052388890", "display_phone": "+49 40 52388890", "distance": 3452.6671900852853}, {"id": "mcoIIcxFqpgcsQsSB7w4gg", "alias": "sel-chicken-hamburg", "name": "Sel Chicken", "image_url": "", "is_closed": false, "url": "https://www.yelp.com/biz/sel-chicken-hamburg?adjust_creative=hBJOknVQJ58S5goQyjmwRw&utm_campaign=yelp_api_v3&utm_medium=api_v3_business_search&utm_source=hBJOknVQJ58S5goQyjmwRw", "review_count": 1, "categories": [{"alias": "chicken_wings", "title": "Chicken Wings"}, {"alias": "hotdogs", "title": "Fast Food"}], "rating": 1.0, "coordinates": {"latitude": 53.540088, "longitude": 10.102545}, "transactions": [], "price": "\u20ac\u20ac", "location": {"address1": "Billstedter Hauptstr. 51", "address2": "", "address3": null, "city": "Hamburg", "zip_code": "22111", "country": "DE", "state": "HH", "display_address": ["Billstedter Hauptstr. 51", "22111 Hamburg", "Germany"]}, "phone": "", "display_phone": "", "distance": 2526.698429713122}, {"id": "PsZiISLQUkaXKUZ-ggQ12g", "alias": "burger-king-hamburg-7", "name": "Burger King", "image_url": "https://s3-media2.fl.yelpcdn.com/bphoto/ODeClXbSKYsnYcCgqefBkw/o.jpg", "is_closed": false, "url": "https://www.yelp.com/biz/burger-king-hamburg-7?adjust_creative=hBJOknVQJ58S5goQyjmwRw&utm_campaign=yelp_api_v3&utm_medium=api_v3_business_search&utm_source=hBJOknVQJ58S5goQyjmwRw", "review_count": 7, "categories": [{"alias": "hotdogs", "title": "Fast Food"}, {"alias": "burgers", "title": "Burgers"}], "rating": 2.5, "coordinates": {"latitude": 53.5111, "longitude": 10.0883}, "transactions": [], "price": "\u20ac\u20ac", "location": {"address1": "Andreas-Meyer-Str. 64", "address2": "", "address3": null, "city": "Hamburg", "zip_code": "22113", "country": "DE", "state": "HH", "display_address": ["Andreas-Meyer-Str. 64", "22113 Hamburg", "Germany"]}, "phone": "+494070011897", "display_phone": "+49 40 70011897", "distance": 883.1134679747909}, {"id": "3YztXT5dmOGD-i9ZwYfDWw", "alias": "burger-king-hamburg-12", "name": "Burger King", "image_url": "https://s3-media3.fl.yelpcdn.com/bphoto/_7T-i176DAQ09IW_u9oq3A/o.jpg", "is_closed": false, "url": "https://www.yelp.com/biz/burger-king-hamburg-12?adjust_creative=hBJOknVQJ58S5goQyjmwRw&utm_campaign=yelp_api_v3&utm_medium=api_v3_business_search&utm_source=hBJOknVQJ58S5goQyjmwRw", "review_count": 5, "categories": [{"alias": "burgers", "title": "Burgers"}, {"alias": "hotdogs", "title": "Fast Food"}], "rating": 2.5, "coordinates": {"latitude": 53.54013, "longitude": 10.10337}, "transactions": [], "price": "\u20ac\u20ac", "location": {"address1": "M\u00f6llner Landstr. 3", "address2": "", "address3": null, "city": "Hamburg", "zip_code": "22111", "country": "DE", "state": "HH", "display_address": ["M\u00f6llner Landstr. 3", "22111 Hamburg", "Germany"]}, "phone": "+494073679659", "display_phone": "+49 40 73679659", "distance": 2671.5350153319982}, {"id": "il8FEDFNPrw_B8UfjigGkw", "alias": "back-lava-hamburg-3", "name": "Back-Lava", "image_url": "https://s3-media2.fl.yelpcdn.com/bphoto/4dED60GL0dQuN4slUM0Fpg/o.jpg", "is_closed": false, "url": "https://www.yelp.com/biz/back-lava-hamburg-3?adjust_creative=hBJOknVQJ58S5goQyjmwRw&utm_campaign=yelp_api_v3&utm_medium=api_v3_business_search&utm_source=hBJOknVQJ58S5goQyjmwRw", "review_count": 1, "categories": [{"alias": "bakeries", "title": "Bakeries"}, {"alias": "turkish", "title": "Turkish"}, {"alias": "cakeshop", "title": "Patisserie/Cake Shop"}], "rating": 2.0, "coordinates": {"latitude": 53.54084, "longitude": 10.10021}, "transactions": [], "location": {"address1": "Billstedter Hauptstr. 35", "address2": null, "address3": null, "city": "Hamburg", "zip_code": "22111", "country": "DE", "state": "HH", "display_address": ["Billstedter Hauptstr. 35", "22111 Hamburg", "Germany"]}, "phone": "+494051907247", "display_phone": "+49 40 51907247", "distance": 2551.9341313968025}, {"id": "qV3uV0Qds1DSvMobqqNBLA", "alias": "smileys-hamburg-10", "name": "Smiley's", "image_url": "", "is_closed": false, "url": "https://www.yelp.com/biz/smileys-hamburg-10?adjust_creative=hBJOknVQJ58S5goQyjmwRw&utm_campaign=yelp_api_v3&utm_medium=api_v3_business_search&utm_source=hBJOknVQJ58S5goQyjmwRw", "review_count": 14, "categories": [{"alias": "pizza", "title": "Pizza"}], "rating": 3.0, "coordinates": {"latitude": 53.5475, "longitude": 10.1069}, "transactions": [], "price": "\u20ac\u20ac\u20ac", "location": {"address1": "Schiffbeker Weg 85", "address2": null, "address3": null, "city": "Hamburg", "zip_code": "22119", "country": "DE", "state": "HH", "display_address": ["Schiffbeker Weg 85", "22119 Hamburg", "Germany"]}, "phone": "+49407331586", "display_phone": "+49 40 7331586", "distance": 3398.8251611288574}, {"id": "zQOSKNpqz2Ifq9PQvGGcjA", "alias": "pino-pizza-service-hamburg", "name": "Pino Pizza-Service", "image_url": "https://s3-media1.fl.yelpcdn.com/bphoto/cocUKnnjiyiByI3dpWfC0w/o.jpg", "is_closed": false, "url": "https://www.yelp.com/biz/pino-pizza-service-hamburg?adjust_creative=hBJOknVQJ58S5goQyjmwRw&utm_campaign=yelp_api_v3&utm_medium=api_v3_business_search&utm_source=hBJOknVQJ58S5goQyjmwRw", "review_count": 3, "categories": [{"alias": "pizza", "title": "Pizza"}], "rating": 1.0, "coordinates": {"latitude": 53.5465, "longitude": 10.0872}, "transactions": [], "location": {"address1": "Horner Landstr. 339", "address2": null, "address3": null, "city": "Hamburg", "zip_code": "22111", "country": "DE", "state": "HH", "display_address": ["Horner Landstr. 339", "22111 Hamburg", "Germany"]}, "phone": "+49406513727", "display_phone": "+49 40 6513727", "distance": 3053.8743250077073}, {"id": "K1MQ-9mHpD_EUTQoQHh96w", "alias": "caf\u00e9-gabriela-brauer-hamburg", "name": "Caf\u00e9 Gabriela Brauer", "image_url": "", "is_closed": false, "url": "https://www.yelp.com/biz/caf%C3%A9-gabriela-brauer-hamburg?adjust_creative=hBJOknVQJ58S5goQyjmwRw&utm_campaign=yelp_api_v3&utm_medium=api_v3_business_search&utm_source=hBJOknVQJ58S5goQyjmwRw", "review_count": 1, "categories": [{"alias": "grocery", "title": "Grocery"}, {"alias": "cafes", "title": "Cafes"}, {"alias": "coffee", "title": "Coffee & Tea"}], "rating": 4.0, "coordinates": {"latitude": 53.5549, "longitude": 10.0758}, "transactions": [], "location": {"address1": "Horner Weg 199", "address2": null, "address3": null, "city": "Hamburg", "zip_code": "22111", "country": "DE", "state": "HH", "display_address": ["Horner Weg 199", "22111 Hamburg", "Germany"]}, "phone": "+49406517261", "display_phone": "+49 40 6517261", "distance": 4069.7335149705877}]