[{"id": "T9OQgG47wDgC2KS81vg0oQ", "alias": "restaurant-raman-reinbek", "name": "Restaurant Raman", "image_url": "https://s3-media2.fl.yelpcdn.com/bphoto/tWShxHdufHOvurg21hgGKw/o.jpg", "is_closed": false, "url": "https://www.yelp.com/biz/restaurant-raman-reinbek?adjust_creative=hBJOknVQJ58S5goQyjmwRw&utm_campaign=yelp_api_v3&utm_medium=api_v3_business_search&utm_source=hBJOknVQJ58S5goQyjmwRw", "review_count": 18, "categories": [{"alias": "indpak", "title": "Indian"}], "rating": 4.5, "coordinates": {"latitude": 53.50894, "longitude": 10.25133}, "transactions": [], "price": "\u20ac\u20ac", "location": {"address1": "Bahnhofstr. 4", "address2": "", "address3": "", "city": "Reinbek", "zip_code": "21465", "country": "DE", "state": "SH", "display_address": ["Bahnhofstr. 4", "21465 Reinbek", "Germany"]}, "phone": "+494078877166", "display_phone": "+49 40 78877166", "distance": 1271.3605083898988}, {"id": "GJMSfLc1PhadJ8Th8yeu7w", "alias": "great-asia-house-reinbek", "name": "Great Asia House", "image_url": "https://s3-media4.fl.yelpcdn.com/bphoto/69fVut01cEqueFfdbp_ebw/o.jpg", "is_closed": false, "url": "https://www.yelp.com/biz/great-asia-house-reinbek?adjust_creative=hBJOknVQJ58S5goQyjmwRw&utm_campaign=yelp_api_v3&utm_medium=api_v3_business_search&utm_source=hBJOknVQJ58S5goQyjmwRw", "review_count": 11, "categories": [{"alias": "mongolian", "title": "Mongolian"}, {"alias": "chinese", "title": "Chinese"}, {"alias": "panasian", "title": "Pan Asian"}], "rating": 4.0, "coordinates": {"latitude": 53.5111209958541, "longitude": 10.2512080594897}, "transactions": [], "price": "\u20ac\u20ac", "location": {"address1": "Bergstr. 1-9", "address2": "", "address3": "", "city": "Reinbek", "zip_code": "21465", "country": "DE", "state": "SH", "display_address": ["Bergstr. 1-9", "21465 Reinbek", "Germany"]}, "phone": "+494038652100", "display_phone": "+49 40 38652100", "distance": 1083.8133158971048}, {"id": "eB5ZgXwqX4OjH3PjvcVqqw", "alias": "trattoria-olivo-hamburg", "name": "Trattoria Olivo", "image_url": "https://s3-media3.fl.yelpcdn.com/bphoto/azb16-pwIH6-s5zGK2CfIg/o.jpg", "is_closed": false, "url": "https://www.yelp.com/biz/trattoria-olivo-hamburg?adjust_creative=hBJOknVQJ58S5goQyjmwRw&utm_campaign=yelp_api_v3&utm_medium=api_v3_business_search&utm_source=hBJOknVQJ58S5goQyjmwRw", "review_count": 12, "categories": [{"alias": "italian", "title": "Italian"}], "rating": 4.5, "coordinates": {"latitude": 53.48585, "longitude": 10.2173}, "transactions": [], "price": "\u20ac\u20ac", "location": {"address1": "Am Brink 10", "address2": "", "address3": "", "city": "Hamburg", "zip_code": "21029", "country": "DE", "state": "HH", "display_address": ["Am Brink 10", "21029 Hamburg", "Germany"]}, "phone": "+494072106745", "display_phone": "+49 40 72106745", "distance": 3805.576436070904}, {"id": "AMbkic_af-ke7ZA4--xJ3g", "alias": "baitong-reinbek-2", "name": "Baitong", "image_url": "https://s3-media4.fl.yelpcdn.com/bphoto/MfrH2VPnSs931-I4gGgMbg/o.jpg", "is_closed": false, "url": "https://www.yelp.com/biz/baitong-reinbek-2?adjust_creative=hBJOknVQJ58S5goQyjmwRw&utm_campaign=yelp_api_v3&utm_medium=api_v3_business_search&utm_source=hBJOknVQJ58S5goQyjmwRw", "review_count": 2, "categories": [{"alias": "thai", "title": "Thai"}], "rating": 5.0, "coordinates": {"latitude": 53.5088070620295, "longitude": 10.2539520550026}, "transactions": [], "location": {"address1": "Sophienstr. 7", "address2": "", "address3": null, "city": "Reinbek", "zip_code": "21465", "country": "DE", "state": "SH", "display_address": ["Sophienstr. 7", "21465 Reinbek", "Germany"]}, "phone": "+494078017878", "display_phone": "+49 40 78017878", "distance": 1392.050314776667}, {"id": "-y32zu4-y6NOWlPed6dNIQ", "alias": "forsthaus-bergedorf-hamburg", "name": "Forsthaus Bergedorf", "image_url": "https://s3-media3.fl.yelpcdn.com/bphoto/Im-8jxv5Afs-3THncFXKug/o.jpg", "is_closed": false, "url": "https://www.yelp.com/biz/forsthaus-bergedorf-hamburg?adjust_creative=hBJOknVQJ58S5goQyjmwRw&utm_campaign=yelp_api_v3&utm_medium=api_v3_business_search&utm_source=hBJOknVQJ58S5goQyjmwRw", "review_count": 13, "categories": [{"alias": "northerngerman", "title": "Northern German"}], "rating": 4.0, "coordinates": {"latitude": 53.4924, "longitude": 10.2267}, "transactions": [], "price": "\u20ac\u20ac\u20ac", "location": {"address1": "Reinbeker Weg 77", "address2": null, "address3": null, "city": "Hamburg", "zip_code": "21029", "country": "DE", "state": "HH", "display_address": ["Reinbeker Weg 77", "21029 Hamburg", "Germany"]}, "phone": "+49407258890", "display_phone": "+49 40 7258890", "distance": 2913.576790235838}, {"id": "VL0pEEHT9ogmfMwXwD-5zw", "alias": "achilleon-hamburg", "name": "Achilleon", "image_url": "https://s3-media3.fl.yelpcdn.com/bphoto/DS-m2w61hweUbTPfi9EdrA/o.jpg", "is_closed": false, "url": "https://www.yelp.com/biz/achilleon-hamburg?adjust_creative=hBJOknVQJ58S5goQyjmwRw&utm_campaign=yelp_api_v3&utm_medium=api_v3_business_search&utm_source=hBJOknVQJ58S5goQyjmwRw", "review_count": 30, "categories": [{"alias": "greek", "title": "Greek"}], "rating": 4.5, "coordinates": {"latitude": 53.489276, "longitude": 10.2260726}, "transactions": [], "price": "\u20ac\u20ac", "location": {"address1": "Holtenklinker Str. 74", "address2": "", "address3": null, "city": "Hamburg", "zip_code": "21029", "country": "DE", "state": "HH", "display_address": ["Holtenklinker Str. 74", "21029 Hamburg", "Germany"]}, "phone": "+494072693667", "display_phone": "+49 40 72693667", "distance": 3259.3223730953205}, {"id": "Be6vXJcIpF4-MrEtYj0OnQ", "alias": "helena-reinbek", "name": "Helena", "image_url": "https://s3-media1.fl.yelpcdn.com/bphoto/W0YpWSIDNMTsC8_N51CJCw/o.jpg", "is_closed": false, "url": "https://www.yelp.com/biz/helena-reinbek?adjust_creative=hBJOknVQJ58S5goQyjmwRw&utm_campaign=yelp_api_v3&utm_medium=api_v3_business_search&utm_source=hBJOknVQJ58S5goQyjmwRw", "review_count": 23, "categories": [{"alias": "greek", "title": "Greek"}], "rating": 4.5, "coordinates": {"latitude": 53.512, "longitude": 10.2508}, "transactions": [], "price": "\u20ac\u20ac", "location": {"address1": "Am Rosenplatz  5", "address2": null, "address3": null, "city": "Reinbek", "zip_code": "21465", "country": "DE", "state": "SH", "display_address": ["Am Rosenplatz  5", "21465 Reinbek", "Germany"]}, "phone": "+49407228824", "display_phone": "+49 40 7228824", "distance": 1000.4126757669385}, {"id": "iDbFa_QS9dWsxaVWCZjy8Q", "alias": "santa-lucia-hamburg-2", "name": "Santa Lucia", "image_url": "https://s3-media1.fl.yelpcdn.com/bphoto/eSlgAEYc9SSgS5aL19TvgQ/o.jpg", "is_closed": false, "url": "https://www.yelp.com/biz/santa-lucia-hamburg-2?adjust_creative=hBJOknVQJ58S5goQyjmwRw&utm_campaign=yelp_api_v3&utm_medium=api_v3_business_search&utm_source=hBJOknVQJ58S5goQyjmwRw", "review_count": 6, "categories": [{"alias": "italian", "title": "Italian"}, {"alias": "pizza", "title": "Pizza"}], "rating": 4.0, "coordinates": {"latitude": 53.487704, "longitude": 10.214498}, "transactions": [], "price": "\u20ac\u20ac", "location": {"address1": "Bergedorfer Schlo\u00dfstr. 12", "address2": null, "address3": null, "city": "Hamburg", "zip_code": "21029", "country": "DE", "state": "HH", "display_address": ["Bergedorfer Schlo\u00dfstr. 12", "21029 Hamburg", "Germany"]}, "phone": "+494079419349", "display_phone": "+49 40 79419349", "distance": 3693.368978487548}, {"id": "VHAeCe_qe_oU6mArB1M15A", "alias": "restaurant-waldhaus-reinbek-reinbek", "name": "Restaurant Waldhaus Reinbek", "image_url": "https://s3-media2.fl.yelpcdn.com/bphoto/Uqe-kOGk-xaSJHZw9pHmLg/o.jpg", "is_closed": false, "url": "https://www.yelp.com/biz/restaurant-waldhaus-reinbek-reinbek?adjust_creative=hBJOknVQJ58S5goQyjmwRw&utm_campaign=yelp_api_v3&utm_medium=api_v3_business_search&utm_source=hBJOknVQJ58S5goQyjmwRw", "review_count": 53, "categories": [{"alias": "german", "title": "German"}], "rating": 4.0, "coordinates": {"latitude": 53.508225, "longitude": 10.237197}, "transactions": [], "price": "\u20ac\u20ac\u20ac", "location": {"address1": "Loddenallee 2", "address2": null, "address3": null, "city": "Reinbek", "zip_code": "21465", "country": "DE", "state": "SH", "display_address": ["Loddenallee 2", "21465 Reinbek", "Germany"]}, "phone": "+4940727520", "display_phone": "+49 40 727520", "distance": 1045.787236738639}, {"id": "s6gX18cAQY-K43VoMJK6bQ", "alias": "restaurant-schlo\u00df-reinbek-reinbek-2", "name": "Restaurant Schlo\u00df Reinbek", "image_url": "https://s3-media2.fl.yelpcdn.com/bphoto/5CGGd8g8MRbfXasicFTsoA/o.jpg", "is_closed": false, "url": "https://www.yelp.com/biz/restaurant-schlo%C3%9F-reinbek-reinbek-2?adjust_creative=hBJOknVQJ58S5goQyjmwRw&utm_campaign=yelp_api_v3&utm_medium=api_v3_business_search&utm_source=hBJOknVQJ58S5goQyjmwRw", "review_count": 5, "categories": [{"alias": "international", "title": "International"}], "rating": 4.5, "coordinates": {"latitude": 53.50732, "longitude": 10.25405}, "transactions": [], "location": {"address1": "Schlo\u00dfstr. 5", "address2": null, "address3": null, "city": "Reinbek", "zip_code": "21465", "country": "DE", "state": "SH", "display_address": ["Schlo\u00dfstr. 5", "21465 Reinbek", "Germany"]}, "phone": "+494073093030", "display_phone": "+49 40 73093030", "distance": 1525.8585840325643}, {"id": "j9QQrXFns_0mtAj6EEPxUg", "alias": "bistro-lorenzino-reinbek-2", "name": "Bistro Lorenzino", "image_url": "https://s3-media4.fl.yelpcdn.com/bphoto/ylzAWXm3iZ2nms-I8by4MQ/o.jpg", "is_closed": false, "url": "https://www.yelp.com/biz/bistro-lorenzino-reinbek-2?adjust_creative=hBJOknVQJ58S5goQyjmwRw&utm_campaign=yelp_api_v3&utm_medium=api_v3_business_search&utm_source=hBJOknVQJ58S5goQyjmwRw", "review_count": 15, "categories": [{"alias": "bistros", "title": "Bistros"}, {"alias": "italian", "title": "Italian"}, {"alias": "pizza", "title": "Pizza"}], "rating": 4.0, "coordinates": {"latitude": 53.5216113, "longitude": 10.2452981}, "transactions": [], "price": "\u20ac\u20ac", "location": {"address1": "Hermann-K\u00f6rner-Str. 48 - 50", "address2": "", "address3": "", "city": "Reinbek", "zip_code": "21465", "country": "DE", "state": "SH", "display_address": ["Hermann-K\u00f6rner-Str. 48 - 50", "21465 Reinbek", "Germany"]}, "phone": "+4940797507150", "display_phone": "+49 40 797507150", "distance": 615.7863610702607}, {"id": "zyNzT7I7tYdCjmDSiILDBA", "alias": "thai-asia-wok-wentorf-bei-hamburg", "name": "Thai Asia Wok", "image_url": "https://s3-media4.fl.yelpcdn.com/bphoto/eHVf5_O6xDN6kEx1zMB77Q/o.jpg", "is_closed": false, "url": "https://www.yelp.com/biz/thai-asia-wok-wentorf-bei-hamburg?adjust_creative=hBJOknVQJ58S5goQyjmwRw&utm_campaign=yelp_api_v3&utm_medium=api_v3_business_search&utm_source=hBJOknVQJ58S5goQyjmwRw", "review_count": 2, "categories": [{"alias": "thai", "title": "Thai"}], "rating": 4.5, "coordinates": {"latitude": 53.487743, "longitude": 10.26275}, "transactions": [], "location": {"address1": "S\u00fcdring 46", "address2": "", "address3": "", "city": "Wentorf bei Hamburg", "zip_code": "21465", "country": "DE", "state": "SH", "display_address": ["S\u00fcdring 46", "21465 Wentorf bei Hamburg", "Germany"]}, "phone": "+494071189181", "display_phone": "+49 40 71189181", "distance": 3671.974393289054}, {"id": "XkWCRoKT9xo3WGnYi7Fceg", "alias": "mongolei-wentorf-bei-hamburg", "name": "Mongolei", "image_url": "https://s3-media2.fl.yelpcdn.com/bphoto/v_o-gDSFYB1fz4apBLXm5Q/o.jpg", "is_closed": false, "url": "https://www.yelp.com/biz/mongolei-wentorf-bei-hamburg?adjust_creative=hBJOknVQJ58S5goQyjmwRw&utm_campaign=yelp_api_v3&utm_medium=api_v3_business_search&utm_source=hBJOknVQJ58S5goQyjmwRw", "review_count": 42, "categories": [{"alias": "mongolian", "title": "Mongolian"}, {"alias": "buffets", "title": "Buffets"}], "rating": 3.0, "coordinates": {"latitude": 53.4909, "longitude": 10.25127}, "transactions": [], "price": "\u20ac\u20ac", "location": {"address1": "Hamburger Landstr. 41", "address2": "", "address3": "", "city": "Wentorf bei Hamburg", "zip_code": "21465", "country": "DE", "state": "SH", "display_address": ["Hamburger Landstr. 41", "21465 Wentorf bei Hamburg", "Germany"]}, "phone": "+494063678388", "display_phone": "+49 40 63678388", "distance": 3069.1265383287473}, {"id": "zonrbXJvqBtw1CA_5YMJRQ", "alias": "locanda-riva-hamburg-4", "name": "Locanda Riva", "image_url": "https://s3-media1.fl.yelpcdn.com/bphoto/tUbPNJc59zHLy3dPyExe4Q/o.jpg", "is_closed": false, "url": "https://www.yelp.com/biz/locanda-riva-hamburg-4?adjust_creative=hBJOknVQJ58S5goQyjmwRw&utm_campaign=yelp_api_v3&utm_medium=api_v3_business_search&utm_source=hBJOknVQJ58S5goQyjmwRw", "review_count": 9, "categories": [{"alias": "mediterranean", "title": "Mediterranean"}, {"alias": "italian", "title": "Italian"}], "rating": 4.0, "coordinates": {"latitude": 53.49331, "longitude": 10.21416}, "transactions": [], "price": "\u20ac\u20ac\u20ac", "location": {"address1": "Schillerufer 41", "address2": "", "address3": "", "city": "Hamburg", "zip_code": "21029", "country": "DE", "state": "HH", "display_address": ["Schillerufer 41", "21029 Hamburg", "Germany"]}, "phone": "+494075111933", "display_phone": "+49 40 75111933", "distance": 3156.12245948485}, {"id": "3egK5RDiKkrS11o-krMX3g", "alias": "restaurant-mediterran-hamburg", "name": "Restaurant Mediterran", "image_url": "https://s3-media4.fl.yelpcdn.com/bphoto/V76lnZxFDtYdEvqXAUtsUQ/o.jpg", "is_closed": false, "url": "https://www.yelp.com/biz/restaurant-mediterran-hamburg?adjust_creative=hBJOknVQJ58S5goQyjmwRw&utm_campaign=yelp_api_v3&utm_medium=api_v3_business_search&utm_source=hBJOknVQJ58S5goQyjmwRw", "review_count": 16, "categories": [{"alias": "italian", "title": "Italian"}], "rating": 4.5, "coordinates": {"latitude": 53.477673, "longitude": 10.240457}, "transactions": [], "price": "\u20ac\u20ac", "location": {"address1": "Rothenhauschaussee 32", "address2": null, "address3": null, "city": "Hamburg", "zip_code": "21029", "country": "DE", "state": "HH", "display_address": ["Rothenhauschaussee 32", "21029 Hamburg", "Germany"]}, "phone": "+49407202081", "display_phone": "+49 40 7202081", "distance": 4437.927061704848}, {"id": "md5-xaqZKpJkJ3NSouQ6SA", "alias": "restaurant-spark-s-reinbek", "name": "Restaurant Spark\u00b4s", "image_url": "https://s3-media3.fl.yelpcdn.com/bphoto/snI-nqbOcEeqM-_qIjYYxQ/o.jpg", "is_closed": false, "url": "https://www.yelp.com/biz/restaurant-spark-s-reinbek?adjust_creative=hBJOknVQJ58S5goQyjmwRw&utm_campaign=yelp_api_v3&utm_medium=api_v3_business_search&utm_source=hBJOknVQJ58S5goQyjmwRw", "review_count": 11, "categories": [{"alias": "international", "title": "International"}], "rating": 4.0, "coordinates": {"latitude": 53.5215416, "longitude": 10.2434998}, "transactions": [], "price": "\u20ac\u20ac\u20ac", "location": {"address1": "Hermann-K\u00f6rner-Str. 49", "address2": "", "address3": "", "city": "Reinbek", "zip_code": "21465", "country": "DE", "state": "SH", "display_address": ["Hermann-K\u00f6rner-Str. 49", "21465 Reinbek", "Germany"]}, "phone": "+494073601116", "display_phone": "+49 40 73601116", "distance": 530.7036028127118}, {"id": "y19OFck2j0sD_cLTGHwciQ", "alias": "zur-alten-16-wentorf", "name": "Zur Alten 16", "image_url": "", "is_closed": false, "url": "https://www.yelp.com/biz/zur-alten-16-wentorf?adjust_creative=hBJOknVQJ58S5goQyjmwRw&utm_campaign=yelp_api_v3&utm_medium=api_v3_business_search&utm_source=hBJOknVQJ58S5goQyjmwRw", "review_count": 2, "categories": [{"alias": "german", "title": "German"}], "rating": 4.5, "coordinates": {"latitude": 53.489, "longitude": 10.2473}, "transactions": [], "price": "\u20ac\u20ac", "location": {"address1": "Hamburger Landstr. 28b", "address2": null, "address3": null, "city": "Wentorf", "zip_code": "21465", "country": "DE", "state": "SH", "display_address": ["Hamburger Landstr. 28b", "21465 Wentorf", "Germany"]}, "phone": "+49407204316", "display_phone": "+49 40 7204316", "distance": 3225.206491379997}, {"id": "Zv1LeZIpUf-fgVDZnfsTyg", "alias": "vapiano-hamburg-11", "name": "Vapiano", "image_url": "https://s3-media2.fl.yelpcdn.com/bphoto/yjG-y_zly9_YaRjRwLAHOw/o.jpg", "is_closed": false, "url": "https://www.yelp.com/biz/vapiano-hamburg-11?adjust_creative=hBJOknVQJ58S5goQyjmwRw&utm_campaign=yelp_api_v3&utm_medium=api_v3_business_search&utm_source=hBJOknVQJ58S5goQyjmwRw", "review_count": 5, "categories": [{"alias": "italian", "title": "Italian"}], "rating": 3.0, "coordinates": {"latitude": 53.4865151843347, "longitude": 10.213736811045}, "transactions": [], "price": "\u20ac\u20ac", "location": {"address1": "Bergedorfer Str. 131 - 135", "address2": "", "address3": null, "city": "Hamburg", "zip_code": "21029", "country": "DE", "state": "HH", "display_address": ["Bergedorfer Str. 131 - 135", "21029 Hamburg", "Germany"]}, "phone": "+4940609436970", "display_phone": "+49 40 609436970", "distance": 3834.2941731475808}, {"id": "UySKD0bPtb6YhtC5Fp_9dA", "alias": "il-posto-reinbek", "name": "Il Posto", "image_url": "https://s3-media1.fl.yelpcdn.com/bphoto/_0nAdKO7ZjwAI2YGjbCNog/o.jpg", "is_closed": false, "url": "https://www.yelp.com/biz/il-posto-reinbek?adjust_creative=hBJOknVQJ58S5goQyjmwRw&utm_campaign=yelp_api_v3&utm_medium=api_v3_business_search&utm_source=hBJOknVQJ58S5goQyjmwRw", "review_count": 2, "categories": [{"alias": "pizza", "title": "Pizza"}, {"alias": "italian", "title": "Italian"}], "rating": 4.5, "coordinates": {"latitude": 53.51269, "longitude": 10.2531199}, "transactions": [], "price": "\u20ac\u20ac", "location": {"address1": "Sch\u00f6nningstedter Str. 2", "address2": null, "address3": "", "city": "Reinbek", "zip_code": "21465", "country": "DE", "state": "SH", "display_address": ["Sch\u00f6nningstedter Str. 2", "21465 Reinbek", "Germany"]}, "phone": "+494046654698", "display_phone": "+49 40 46654698", "distance": 1090.1832787920885}, {"id": "nPQLEHdNcxG1ggK21Jg0og", "alias": "curryph\u00e4e-reinbek", "name": "Curryph\u00e4e", "image_url": "https://s3-media4.fl.yelpcdn.com/bphoto/c9l03AUzyV9TFWLLJBjNMA/o.jpg", "is_closed": false, "url": "https://www.yelp.com/biz/curryph%C3%A4e-reinbek?adjust_creative=hBJOknVQJ58S5goQyjmwRw&utm_campaign=yelp_api_v3&utm_medium=api_v3_business_search&utm_source=hBJOknVQJ58S5goQyjmwRw", "review_count": 4, "categories": [{"alias": "foodstands", "title": "Food Stands"}, {"alias": "bbq", "title": "Barbeque"}], "rating": 5.0, "coordinates": {"latitude": 53.52179, "longitude": 10.2319}, "transactions": [], "price": "\u20ac", "location": {"address1": "Liebigstr. 2", "address2": "", "address3": "", "city": "Reinbek", "zip_code": "21465", "country": "DE", "state": "SH", "display_address": ["Liebigstr. 2", "21465 Reinbek", "Germany"]}, "phone": "+494027824762", "display_phone": "+49 40 27824762", "distance": 702.8486166000941}, {"id": "5ydZm3b-RP66ounJQNqK-w", "alias": "bistro-99-reinbek", "name": "Bistro 99", "image_url": "https://s3-media2.fl.yelpcdn.com/bphoto/c967imUyAH-Ox1qq_dra0w/o.jpg", "is_closed": false, "url": "https://www.yelp.com/biz/bistro-99-reinbek?adjust_creative=hBJOknVQJ58S5goQyjmwRw&utm_campaign=yelp_api_v3&utm_medium=api_v3_business_search&utm_source=hBJOknVQJ58S5goQyjmwRw", "review_count": 2, "categories": [{"alias": "bistros", "title": "Bistros"}], "rating": 2.5, "coordinates": {"latitude": 53.5236657385745, "longitude": 10.2344812539673}, "transactions": [], "price": "\u20ac\u20ac", "location": {"address1": "Gutenbergstr. 15", "address2": "", "address3": null, "city": "Reinbek", "zip_code": "21465", "country": "DE", "state": "SH", "display_address": ["Gutenbergstr. 15", "21465 Reinbek", "Germany"]}, "phone": "+494072813586", "display_phone": "+49 40 72813586", "distance": 738.2877281201777}, {"id": "D1KCy-IjPeCdJe0hXzmxIg", "alias": "kronos-reinbek", "name": "Kronos", "image_url": "https://s3-media2.fl.yelpcdn.com/bphoto/t27laUQ9pny7xC8Vkx3LTw/o.jpg", "is_closed": false, "url": "https://www.yelp.com/biz/kronos-reinbek?adjust_creative=hBJOknVQJ58S5goQyjmwRw&utm_campaign=yelp_api_v3&utm_medium=api_v3_business_search&utm_source=hBJOknVQJ58S5goQyjmwRw", "review_count": 11, "categories": [{"alias": "greek", "title": "Greek"}], "rating": 4.5, "coordinates": {"latitude": 53.5490888448632, "longitude": 10.2397536441803}, "transactions": [], "price": "\u20ac\u20ac", "location": {"address1": "Haidkoppelweg 2", "address2": null, "address3": null, "city": "Reinbek", "zip_code": "21465", "country": "DE", "state": "SH", "display_address": ["Haidkoppelweg 2", "21465 Reinbek", "Germany"]}, "phone": "+49407111000", "display_phone": "+49 40 7111000", "distance": 3504.734361182686}, {"id": "JfKWYXLZiYXl_51QhxdYaQ", "alias": "restaurant-bergedorfer-h\u00f6he-hamburg", "name": "Restaurant Bergedorfer H\u00f6he", "image_url": "https://s3-media1.fl.yelpcdn.com/bphoto/Yvbz2pxUkaT06u9zlRO1QA/o.jpg", "is_closed": false, "url": "https://www.yelp.com/biz/restaurant-bergedorfer-h%C3%B6he-hamburg?adjust_creative=hBJOknVQJ58S5goQyjmwRw&utm_campaign=yelp_api_v3&utm_medium=api_v3_business_search&utm_source=hBJOknVQJ58S5goQyjmwRw", "review_count": 2, "categories": [{"alias": "german", "title": "German"}], "rating": 4.5, "coordinates": {"latitude": 53.4922, "longitude": 10.2244}, "transactions": [], "price": "\u20ac\u20ac", "location": {"address1": "Reinbeker Weg 59", "address2": null, "address3": null, "city": "Hamburg", "zip_code": "21029", "country": "DE", "state": "HH", "display_address": ["Reinbeker Weg 59", "21029 Hamburg", "Germany"]}, "phone": "+494072004400", "display_phone": "+49 40 72004400", "distance": 2980.431885180081}, {"id": "xWpwRMkPP_zh11Z25vDO5Q", "alias": "zur-m\u00fchle-reinbek", "name": "Zur M\u00fchle", "image_url": "https://s3-media3.fl.yelpcdn.com/bphoto/jXfdNPFjAn4mAPBWBLaL-Q/o.jpg", "is_closed": false, "url": "https://www.yelp.com/biz/zur-m%C3%BChle-reinbek?adjust_creative=hBJOknVQJ58S5goQyjmwRw&utm_campaign=yelp_api_v3&utm_medium=api_v3_business_search&utm_source=hBJOknVQJ58S5goQyjmwRw", "review_count": 43, "categories": [{"alias": "breakfast_brunch", "title": "Breakfast & Brunch"}, {"alias": "bars", "title": "Bars"}, {"alias": "steak", "title": "Steakhouses"}], "rating": 3.5, "coordinates": {"latitude": 53.5269019595082, "longitude": 10.2600353415857}, "transactions": [], "price": "\u20ac\u20ac", "location": {"address1": "M\u00fchlenweg 1", "address2": "", "address3": "", "city": "Reinbek", "zip_code": "21465", "country": "DE", "state": "SH", "display_address": ["M\u00fchlenweg 1", "21465 Reinbek", "Germany"]}, "phone": "+494072810538", "display_phone": "+49 40 72810538", "distance": 1738.9012611703154}, {"id": "HAoTeUVWdydeg7GaAevHLw", "alias": "dubrovnik-reinbek-2", "name": "Dubrovnik", "image_url": "https://s3-media1.fl.yelpcdn.com/bphoto/_7hT_68VXgELYwLLKLsLfA/o.jpg", "is_closed": false, "url": "https://www.yelp.com/biz/dubrovnik-reinbek-2?adjust_creative=hBJOknVQJ58S5goQyjmwRw&utm_campaign=yelp_api_v3&utm_medium=api_v3_business_search&utm_source=hBJOknVQJ58S5goQyjmwRw", "review_count": 18, "categories": [{"alias": "serbocroatian", "title": "Serbo Croatian"}], "rating": 4.5, "coordinates": {"latitude": 53.5105796488782, "longitude": 10.2347358413644}, "transactions": [], "price": "\u20ac\u20ac", "location": {"address1": "Am Ladenzentrum 4", "address2": null, "address3": null, "city": "Reinbek", "zip_code": "21465", "country": "DE", "state": "SH", "display_address": ["Am Ladenzentrum 4", "21465 Reinbek", "Germany"]}, "phone": "+49407225481", "display_phone": "+49 40 7225481", "distance": 825.520895835584}, {"id": "8RTFCEVFVel7jHWdyzyS7g", "alias": "ha-dang-dung-hamburg", "name": "Ha Dang Dung", "image_url": "https://s3-media3.fl.yelpcdn.com/bphoto/Badnhs7BNcNC3eSVURl_2A/o.jpg", "is_closed": false, "url": "https://www.yelp.com/biz/ha-dang-dung-hamburg?adjust_creative=hBJOknVQJ58S5goQyjmwRw&utm_campaign=yelp_api_v3&utm_medium=api_v3_business_search&utm_source=hBJOknVQJ58S5goQyjmwRw", "review_count": 1, "categories": [{"alias": "vietnamese", "title": "Vietnamese"}], "rating": 4.0, "coordinates": {"latitude": 53.486007, "longitude": 10.214888}, "transactions": [], "location": {"address1": "Bergedorfer Str 152", "address2": "", "address3": null, "city": "Hamburg", "zip_code": "21029", "country": "DE", "state": "HH", "display_address": ["Bergedorfer Str 152", "21029 Hamburg", "Germany"]}, "phone": "+494072105999", "display_phone": "+49 40 72105999", "distance": 3853.243371229539}, {"id": "F1fQ2e0IbUFfZZUa92kyPA", "alias": "china-restaurant-zum-grenzkrug-reinbek", "name": "China-Restaurant Zum Grenzkrug", "image_url": "https://s3-media2.fl.yelpcdn.com/bphoto/amJYQcATB6cXn4EhMQBHjQ/o.jpg", "is_closed": false, "url": "https://www.yelp.com/biz/china-restaurant-zum-grenzkrug-reinbek?adjust_creative=hBJOknVQJ58S5goQyjmwRw&utm_campaign=yelp_api_v3&utm_medium=api_v3_business_search&utm_source=hBJOknVQJ58S5goQyjmwRw", "review_count": 7, "categories": [{"alias": "chinese", "title": "Chinese"}], "rating": 4.5, "coordinates": {"latitude": 53.55356, "longitude": 10.24389}, "transactions": [], "price": "\u20ac\u20ac", "location": {"address1": "Grenzweg 28", "address2": null, "address3": null, "city": "Reinbek", "zip_code": "21465", "country": "DE", "state": "SH", "display_address": ["Grenzweg 28", "21465 Reinbek", "Germany"]}, "phone": "+49407102250", "display_phone": "+49 40 7102250", "distance": 4051.4420520740596}, {"id": "oPW51OhB-6g_olx51q2kTw", "alias": "meyrs-reinbek", "name": "Meyr's", "image_url": "https://s3-media3.fl.yelpcdn.com/bphoto/H3xPqsHQ6xAIX7iqWRnINQ/o.jpg", "is_closed": false, "url": "https://www.yelp.com/biz/meyrs-reinbek?adjust_creative=hBJOknVQJ58S5goQyjmwRw&utm_campaign=yelp_api_v3&utm_medium=api_v3_business_search&utm_source=hBJOknVQJ58S5goQyjmwRw", "review_count": 5, "categories": [{"alias": "german", "title": "German"}, {"alias": "bistros", "title": "Bistros"}], "rating": 4.5, "coordinates": {"latitude": 53.5152, "longitude": 10.2278}, "transactions": [], "price": "\u20ac\u20ac\u20ac", "location": {"address1": "Glinder Weg 25", "address2": null, "address3": null, "city": "Reinbek", "zip_code": "21465", "country": "DE", "state": "SH", "display_address": ["Glinder Weg 25", "21465 Reinbek", "Germany"]}, "phone": "+494072811257", "display_phone": "+49 40 72811257", "distance": 781.327640527477}, {"id": "vnrTvNw0oatmQ46Bu7XMZA", "alias": "cafe-raum-und-zeit-hamburg", "name": "Cafe Raum & Zeit", "image_url": "https://s3-media4.fl.yelpcdn.com/bphoto/5Xm4YiD6IsG0zZVNIrS2aQ/o.jpg", "is_closed": false, "url": "https://www.yelp.com/biz/cafe-raum-und-zeit-hamburg?adjust_creative=hBJOknVQJ58S5goQyjmwRw&utm_campaign=yelp_api_v3&utm_medium=api_v3_business_search&utm_source=hBJOknVQJ58S5goQyjmwRw", "review_count": 10, "categories": [{"alias": "cafes", "title": "Cafes"}], "rating": 4.0, "coordinates": {"latitude": 53.4809, "longitude": 10.2417}, "transactions": [], "price": "\u20ac\u20ac", "location": {"address1": "August-Bebel-Str. 196", "address2": "", "address3": null, "city": "Hamburg", "zip_code": "21029", "country": "DE", "state": "HH", "display_address": ["August-Bebel-Str. 196", "21029 Hamburg", "Germany"]}, "phone": "+494022649959", "display_phone": "+49 40 22649959", "distance": 4082.0761368693256}, {"id": "VYiOF0mjK_FuOVMWxSs-Ag", "alias": "fidelio-hamburg-2", "name": "Fidelio", "image_url": "https://s3-media2.fl.yelpcdn.com/bphoto/pKzIFFExzuRnpFGPCDJrUQ/o.jpg", "is_closed": false, "url": "https://www.yelp.com/biz/fidelio-hamburg-2?adjust_creative=hBJOknVQJ58S5goQyjmwRw&utm_campaign=yelp_api_v3&utm_medium=api_v3_business_search&utm_source=hBJOknVQJ58S5goQyjmwRw", "review_count": 29, "categories": [{"alias": "international", "title": "International"}], "rating": 3.5, "coordinates": {"latitude": 53.488404, "longitude": 10.2135165}, "transactions": [], "price": "\u20ac\u20ac", "location": {"address1": "Bergedorfer Schlo\u00dfstr. 15", "address2": "", "address3": "", "city": "Hamburg", "zip_code": "21029", "country": "DE", "state": "HH", "display_address": ["Bergedorfer Schlo\u00dfstr. 15", "21029 Hamburg", "Germany"]}, "phone": "+494072008855", "display_phone": "+49 40 72008855", "distance": 3652.926731566138}, {"id": "hG3SYB9Q99Y9Y1nN7UqblQ", "alias": "caf\u00e9-chrysander-hamburg", "name": "Caf\u00e9 Chrysander", "image_url": "https://s3-media4.fl.yelpcdn.com/bphoto/noJgmaj6eeFrqPgtEZd5wg/o.jpg", "is_closed": false, "url": "https://www.yelp.com/biz/caf%C3%A9-chrysander-hamburg?adjust_creative=hBJOknVQJ58S5goQyjmwRw&utm_campaign=yelp_api_v3&utm_medium=api_v3_business_search&utm_source=hBJOknVQJ58S5goQyjmwRw", "review_count": 2, "categories": [{"alias": "cafes", "title": "Cafes"}], "rating": 4.5, "coordinates": {"latitude": 53.4895058007076, "longitude": 10.2154295946289}, "transactions": [], "price": "\u20ac", "location": {"address1": "Chrysanderstr. 61", "address2": "", "address3": null, "city": "Hamburg", "zip_code": "21029", "country": "DE", "state": "HH", "display_address": ["Chrysanderstr. 61", "21029 Hamburg", "Germany"]}, "phone": "+494038073657", "display_phone": "+49 40 38073657", "distance": 3486.3837900489034}, {"id": "faKURxONbe2INqK5BXHdag", "alias": "imbiss-oase-wentorf-bei-hamburg", "name": "Imbiss Oase", "image_url": "https://s3-media3.fl.yelpcdn.com/bphoto/END3LKvUozXKb3ONNRhsyA/o.jpg", "is_closed": false, "url": "https://www.yelp.com/biz/imbiss-oase-wentorf-bei-hamburg?adjust_creative=hBJOknVQJ58S5goQyjmwRw&utm_campaign=yelp_api_v3&utm_medium=api_v3_business_search&utm_source=hBJOknVQJ58S5goQyjmwRw", "review_count": 10, "categories": [{"alias": "currysausage", "title": "Curry Sausage"}, {"alias": "hotdogs", "title": "Fast Food"}], "rating": 5.0, "coordinates": {"latitude": 53.4909899, "longitude": 10.25225}, "transactions": [], "price": "\u20ac", "location": {"address1": "Berliner Landstr. 2", "address2": "", "address3": "", "city": "Wentorf bei Hamburg", "zip_code": "21465", "country": "DE", "state": "SH", "display_address": ["Berliner Landstr. 2", "21465 Wentorf bei Hamburg", "Germany"]}, "phone": "+49407208687", "display_phone": "+49 40 7208687", "distance": 3085.937533861064}, {"id": "nnKZ3Jbk_tbJ-Q4rjD6TWQ", "alias": "bringezu-reinbek-4", "name": "Bringezu", "image_url": "https://s3-media4.fl.yelpcdn.com/bphoto/0Nqh6ZMpw5pu-bzQMZ221g/o.jpg", "is_closed": false, "url": "https://www.yelp.com/biz/bringezu-reinbek-4?adjust_creative=hBJOknVQJ58S5goQyjmwRw&utm_campaign=yelp_api_v3&utm_medium=api_v3_business_search&utm_source=hBJOknVQJ58S5goQyjmwRw", "review_count": 1, "categories": [{"alias": "german", "title": "German"}], "rating": 4.0, "coordinates": {"latitude": 53.50732, "longitude": 10.25405}, "transactions": [], "location": {"address1": "Schlo\u00dfstr. 5", "address2": "", "address3": null, "city": "Reinbek", "zip_code": "21465", "country": "DE", "state": "SH", "display_address": ["Schlo\u00dfstr. 5", "21465 Reinbek", "Germany"]}, "phone": "+494073093030", "display_phone": "+49 40 73093030", "distance": 1525.8585840325643}, {"id": "DVKffPJvyr_9UHWSfp5hDg", "alias": "china-restaurant-lotos-wentorf", "name": "China Restaurant Lotos", "image_url": "https://s3-media4.fl.yelpcdn.com/bphoto/yEfMH5OUPFMPgsRGQyhpxw/o.jpg", "is_closed": false, "url": "https://www.yelp.com/biz/china-restaurant-lotos-wentorf?adjust_creative=hBJOknVQJ58S5goQyjmwRw&utm_campaign=yelp_api_v3&utm_medium=api_v3_business_search&utm_source=hBJOknVQJ58S5goQyjmwRw", "review_count": 8, "categories": [{"alias": "chinese", "title": "Chinese"}], "rating": 3.5, "coordinates": {"latitude": 53.4908, "longitude": 10.2515}, "transactions": [], "price": "\u20ac\u20ac", "location": {"address1": "Hamburger Landstr. 38", "address2": null, "address3": null, "city": "Wentorf", "zip_code": "21465", "country": "DE", "state": "SH", "display_address": ["Hamburger Landstr. 38", "21465 Wentorf", "Germany"]}, "phone": "+49407203782", "display_phone": "+49 40 7203782", "distance": 3091.128141065926}, {"id": "mBSBEhOSnrE3CFiHrgv2Tw", "alias": "lee-peking-ente-reinbek", "name": "Lee Peking-Ente", "image_url": "https://s3-media4.fl.yelpcdn.com/bphoto/0zVFnqtRcr-qlqt8bFFcCw/o.jpg", "is_closed": false, "url": "https://www.yelp.com/biz/lee-peking-ente-reinbek?adjust_creative=hBJOknVQJ58S5goQyjmwRw&utm_campaign=yelp_api_v3&utm_medium=api_v3_business_search&utm_source=hBJOknVQJ58S5goQyjmwRw", "review_count": 1, "categories": [{"alias": "chinese", "title": "Chinese"}], "rating": 4.0, "coordinates": {"latitude": 53.5086019848471, "longitude": 10.2527466416359}, "transactions": [], "price": "\u20ac", "location": {"address1": "Sophienstr. 7", "address2": "", "address3": null, "city": "Reinbek", "zip_code": "21465", "country": "DE", "state": "SH", "display_address": ["Sophienstr. 7", "21465 Reinbek", "Germany"]}, "phone": "+494032519529", "display_phone": "+49 40 32519529", "distance": 1353.045114359685}, {"id": "u8si7Xkz7hyfba47Ybq6IQ", "alias": "berlin-d\u00f6ner-reinbek", "name": "Berlin D\u00f6ner", "image_url": "https://s3-media1.fl.yelpcdn.com/bphoto/W2uka2ZO2Afd635E3A1pdw/o.jpg", "is_closed": false, "url": "https://www.yelp.com/biz/berlin-d%C3%B6ner-reinbek?adjust_creative=hBJOknVQJ58S5goQyjmwRw&utm_campaign=yelp_api_v3&utm_medium=api_v3_business_search&utm_source=hBJOknVQJ58S5goQyjmwRw", "review_count": 5, "categories": [{"alias": "kebab", "title": "Kebab"}], "rating": 2.0, "coordinates": {"latitude": 53.508062, "longitude": 10.25115}, "transactions": [], "price": "\u20ac", "location": {"address1": "Sophienstr. 2 B", "address2": null, "address3": null, "city": "Reinbek", "zip_code": "21465", "country": "DE", "state": "SH", "display_address": ["Sophienstr. 2 B", "21465 Reinbek", "Germany"]}, "phone": "", "display_phone": "", "distance": 1331.276884570385}, {"id": "blvC5dh9IP8TFla2vjk7Pg", "alias": "restaurant-opatija-glinde", "name": "Restaurant Opatija", "image_url": "https://s3-media2.fl.yelpcdn.com/bphoto/hCXY0hs-kpBTVffyp8spuA/o.jpg", "is_closed": false, "url": "https://www.yelp.com/biz/restaurant-opatija-glinde?adjust_creative=hBJOknVQJ58S5goQyjmwRw&utm_campaign=yelp_api_v3&utm_medium=api_v3_business_search&utm_source=hBJOknVQJ58S5goQyjmwRw", "review_count": 7, "categories": [{"alias": "international", "title": "International"}], "rating": 4.5, "coordinates": {"latitude": 53.5474, "longitude": 10.2176}, "transactions": [], "price": "\u20ac\u20ac", "location": {"address1": "Am Sportplatz 98", "address2": null, "address3": null, "city": "Glinde", "zip_code": "21509", "country": "DE", "state": "SH", "display_address": ["Am Sportplatz 98", "21509 Glinde", "Germany"]}, "phone": "+49407108388", "display_phone": "+49 40 7108388", "distance": 3603.4983666750404}, {"id": "ZoWqPEXDg4bWWo5ZgVj62A", "alias": "take-home-reinbek", "name": "Take Home", "image_url": "", "is_closed": false, "url": "https://www.yelp.com/biz/take-home-reinbek?adjust_creative=hBJOknVQJ58S5goQyjmwRw&utm_campaign=yelp_api_v3&utm_medium=api_v3_business_search&utm_source=hBJOknVQJ58S5goQyjmwRw", "review_count": 3, "categories": [{"alias": "restaurants", "title": "Restaurants"}], "rating": 3.0, "coordinates": {"latitude": 53.5526, "longitude": 10.2507}, "transactions": [], "location": {"address1": "M\u00f6llner Landstr. 4", "address2": null, "address3": null, "city": "Reinbek", "zip_code": "21465", "country": "DE", "state": "SH", "display_address": ["M\u00f6llner Landstr. 4", "21465 Reinbek", "Germany"]}, "phone": "+494081975888", "display_phone": "+49 40 81975888", "distance": 3971.73346934126}, {"id": "XguDzRJ2azu46Kze_kRgCA", "alias": "taverna-corfu-hamburg-2", "name": "Taverna Corfu", "image_url": "https://s3-media2.fl.yelpcdn.com/bphoto/YDAiBOH8-f7CBqW1LNpJ9w/o.jpg", "is_closed": false, "url": "https://www.yelp.com/biz/taverna-corfu-hamburg-2?adjust_creative=hBJOknVQJ58S5goQyjmwRw&utm_campaign=yelp_api_v3&utm_medium=api_v3_business_search&utm_source=hBJOknVQJ58S5goQyjmwRw", "review_count": 8, "categories": [{"alias": "greek", "title": "Greek"}], "rating": 4.0, "coordinates": {"latitude": 53.4857, "longitude": 10.2178}, "transactions": [], "price": "\u20ac\u20ac", "location": {"address1": "Am Brink 14", "address2": null, "address3": null, "city": "Hamburg", "zip_code": "21029", "country": "DE", "state": "HH", "display_address": ["Am Brink 14", "21029 Hamburg", "Germany"]}, "phone": "+49407214342", "display_phone": "+49 40 7214342", "distance": 3809.605643794554}, {"id": "F48sWGuWLddqnpnMIp_oEQ", "alias": "ristorante-lino-reinbek", "name": "Ristorante Lino", "image_url": "https://s3-media2.fl.yelpcdn.com/bphoto/_27bzcmU_QRW2qhvn68_4Q/o.jpg", "is_closed": false, "url": "https://www.yelp.com/biz/ristorante-lino-reinbek?adjust_creative=hBJOknVQJ58S5goQyjmwRw&utm_campaign=yelp_api_v3&utm_medium=api_v3_business_search&utm_source=hBJOknVQJ58S5goQyjmwRw", "review_count": 19, "categories": [{"alias": "italian", "title": "Italian"}], "rating": 3.5, "coordinates": {"latitude": 53.5089, "longitude": 10.2505}, "transactions": [], "price": "\u20ac\u20ac", "location": {"address1": "Bahnhofstr. 11", "address2": null, "address3": null, "city": "Reinbek", "zip_code": "21465", "country": "DE", "state": "SH", "display_address": ["Bahnhofstr. 11", "21465 Reinbek", "Germany"]}, "phone": "+494038649412", "display_phone": "+49 40 38649412", "distance": 1231.3456291646846}, {"id": "3u574SDNjwdASl_386l5Mg", "alias": "da-lauretta-reinbek", "name": "Da Lauretta", "image_url": "", "is_closed": false, "url": "https://www.yelp.com/biz/da-lauretta-reinbek?adjust_creative=hBJOknVQJ58S5goQyjmwRw&utm_campaign=yelp_api_v3&utm_medium=api_v3_business_search&utm_source=hBJOknVQJ58S5goQyjmwRw", "review_count": 10, "categories": [{"alias": "italian", "title": "Italian"}], "rating": 3.0, "coordinates": {"latitude": 53.5104, "longitude": 10.2512}, "transactions": [], "price": "\u20ac\u20ac", "location": {"address1": "Hamburger Str. 2", "address2": null, "address3": null, "city": "Reinbek", "zip_code": "21465", "country": "DE", "state": "SH", "display_address": ["Hamburger Str. 2", "21465 Reinbek", "Germany"]}, "phone": "+494078073367", "display_phone": "+49 40 78073367", "distance": 1138.1008701733263}, {"id": "DqwNoshewJ0Xi90cnmvt5Q", "alias": "ristorante-la-stella-reinbek", "name": "Ristorante La Stella", "image_url": "https://s3-media2.fl.yelpcdn.com/bphoto/Gbv9caQYgdbV_cIgUSCPuA/o.jpg", "is_closed": false, "url": "https://www.yelp.com/biz/ristorante-la-stella-reinbek?adjust_creative=hBJOknVQJ58S5goQyjmwRw&utm_campaign=yelp_api_v3&utm_medium=api_v3_business_search&utm_source=hBJOknVQJ58S5goQyjmwRw", "review_count": 11, "categories": [{"alias": "italian", "title": "Italian"}], "rating": 3.5, "coordinates": {"latitude": 53.5115, "longitude": 10.2516}, "transactions": [], "price": "\u20ac\u20ac\u20ac", "location": {"address1": "Am Rosenplatz 2", "address2": null, "address3": null, "city": "Reinbek", "zip_code": "21465", "country": "DE", "state": "SH", "display_address": ["Am Rosenplatz 2", "21465 Reinbek", "Germany"]}, "phone": "+49407229902", "display_phone": "+49 40 7229902", "distance": 1076.4364154569503}, {"id": "j9CSlwrurexEeVwEKGMonQ", "alias": "feuer-und-flamme-reinbek-2", "name": "Feuer & Flamme", "image_url": "", "is_closed": false, "url": "https://www.yelp.com/biz/feuer-und-flamme-reinbek-2?adjust_creative=hBJOknVQJ58S5goQyjmwRw&utm_campaign=yelp_api_v3&utm_medium=api_v3_business_search&utm_source=hBJOknVQJ58S5goQyjmwRw", "review_count": 6, "categories": [{"alias": "pizza", "title": "Pizza"}, {"alias": "italian", "title": "Italian"}], "rating": 4.0, "coordinates": {"latitude": 53.5176, "longitude": 10.247}, "transactions": [], "price": "\u20ac\u20ac", "location": {"address1": "Schulstr. 56", "address2": null, "address3": null, "city": "Reinbek", "zip_code": "21465", "country": "DE", "state": "SH", "display_address": ["Schulstr. 56", "21465 Reinbek", "Germany"]}, "phone": "+49407228041", "display_phone": "+49 40 7228041", "distance": 534.0230393322128}, {"id": "TttYOxgubZqsIApBXps3xw", "alias": "belami-hamburg", "name": "Belami", "image_url": "https://s3-media3.fl.yelpcdn.com/bphoto/8FOHa1w4wwLiUiW8QzdIdQ/o.jpg", "is_closed": false, "url": "https://www.yelp.com/biz/belami-hamburg?adjust_creative=hBJOknVQJ58S5goQyjmwRw&utm_campaign=yelp_api_v3&utm_medium=api_v3_business_search&utm_source=hBJOknVQJ58S5goQyjmwRw", "review_count": 15, "categories": [{"alias": "bars", "title": "Bars"}, {"alias": "beergarden", "title": "Beer Garden"}, {"alias": "german", "title": "German"}], "rating": 3.0, "coordinates": {"latitude": 53.4847, "longitude": 10.2187}, "transactions": [], "price": "\u20ac\u20ac", "location": {"address1": "Holtenklinker Str. 26", "address2": null, "address3": null, "city": "Hamburg", "zip_code": "21029", "country": "DE", "state": "HH", "display_address": ["Holtenklinker Str. 26", "21029 Hamburg", "Germany"]}, "phone": "+494072699173", "display_phone": "+49 40 72699173", "distance": 3892.4186975158414}, {"id": "7GylVDv9_w5jVAflo42zsQ", "alias": "pierro-reinbek", "name": "Pierro", "image_url": "https://s3-media2.fl.yelpcdn.com/bphoto/nfYJ365A5iCOlKp3fGyeIA/o.jpg", "is_closed": false, "url": "https://www.yelp.com/biz/pierro-reinbek?adjust_creative=hBJOknVQJ58S5goQyjmwRw&utm_campaign=yelp_api_v3&utm_medium=api_v3_business_search&utm_source=hBJOknVQJ58S5goQyjmwRw", "review_count": 13, "categories": [{"alias": "bistros", "title": "Bistros"}, {"alias": "pizza", "title": "Pizza"}, {"alias": "sandwiches", "title": "Sandwiches"}], "rating": 4.0, "coordinates": {"latitude": 53.5159, "longitude": 10.2475}, "transactions": [], "price": "\u20ac", "location": {"address1": "Schulstr. 36", "address2": null, "address3": null, "city": "Reinbek", "zip_code": "21465", "country": "DE", "state": "SH", "display_address": ["Schulstr. 36", "21465 Reinbek", "Germany"]}, "phone": "+494022623126", "display_phone": "+49 40 22623126", "distance": 596.8461213264724}, {"id": "MjvA08ZvJZu0J29TPqUS-Q", "alias": "caf\u00e9-flop-hamburg-2", "name": "Caf\u00e9 Flop", "image_url": "", "is_closed": false, "url": "https://www.yelp.com/biz/caf%C3%A9-flop-hamburg-2?adjust_creative=hBJOknVQJ58S5goQyjmwRw&utm_campaign=yelp_api_v3&utm_medium=api_v3_business_search&utm_source=hBJOknVQJ58S5goQyjmwRw", "review_count": 2, "categories": [{"alias": "cafes", "title": "Cafes"}, {"alias": "vegan", "title": "Vegan"}], "rating": 3.5, "coordinates": {"latitude": 53.4872, "longitude": 10.2192}, "transactions": [], "price": "\u20ac", "location": {"address1": "Wentorfer Str. 26", "address2": null, "address3": null, "city": "Hamburg", "zip_code": "21029", "country": "DE", "state": "HH", "display_address": ["Wentorfer Str. 26", "21029 Hamburg", "Germany"]}, "phone": "", "display_phone": "", "distance": 3620.5555564513797}, {"id": "cdWS6qwEh-jc4AV1LgSyMg", "alias": "d\u00f6nermann-reinbek", "name": "D\u00f6nermann", "image_url": "", "is_closed": false, "url": "https://www.yelp.com/biz/d%C3%B6nermann-reinbek?adjust_creative=hBJOknVQJ58S5goQyjmwRw&utm_campaign=yelp_api_v3&utm_medium=api_v3_business_search&utm_source=hBJOknVQJ58S5goQyjmwRw", "review_count": 4, "categories": [{"alias": "kebab", "title": "Kebab"}, {"alias": "turkish", "title": "Turkish"}], "rating": 4.0, "coordinates": {"latitude": 53.5234, "longitude": 10.2335}, "transactions": [], "price": "\u20ac\u20ac\u20ac\u20ac", "location": {"address1": "Gutenbergstr. 11", "address2": null, "address3": null, "city": "Reinbek", "zip_code": "21465", "country": "DE", "state": "SH", "display_address": ["Gutenbergstr. 11", "21465 Reinbek", "Germany"]}, "phone": "+494037084660", "display_phone": "+49 40 37084660", "distance": 740.4145556611279}, {"id": "-p7U_9yGdzmIC6cm0TBfwA", "alias": "nomis-pizza-lieferservice-glinde", "name": "Nomi's Pizza Lieferservice", "image_url": "", "is_closed": false, "url": "https://www.yelp.com/biz/nomis-pizza-lieferservice-glinde?adjust_creative=hBJOknVQJ58S5goQyjmwRw&utm_campaign=yelp_api_v3&utm_medium=api_v3_business_search&utm_source=hBJOknVQJ58S5goQyjmwRw", "review_count": 1, "categories": [{"alias": "fooddeliveryservices", "title": "Food Delivery Services"}, {"alias": "italian", "title": "Italian"}], "rating": 3.0, "coordinates": {"latitude": 53.5341, "longitude": 10.2256}, "transactions": [], "location": {"address1": "Holstenkamp 11", "address2": null, "address3": null, "city": "Glinde", "zip_code": "21509", "country": "DE", "state": "SH", "display_address": ["Holstenkamp 11", "21509 Glinde", "Germany"]}, "phone": "+494071143340", "display_phone": "+49 40 71143340", "distance": 2037.7431596944411}, {"id": "GEcvvuBMISOIxHyec8Xs7Q", "alias": "athena-grill-wentorf", "name": "Athena Grill", "image_url": "https://s3-media1.fl.yelpcdn.com/bphoto/SxIR5JAz7TVlLHVPkfpJ4w/o.jpg", "is_closed": false, "url": "https://www.yelp.com/biz/athena-grill-wentorf?adjust_creative=hBJOknVQJ58S5goQyjmwRw&utm_campaign=yelp_api_v3&utm_medium=api_v3_business_search&utm_source=hBJOknVQJ58S5goQyjmwRw", "review_count": 5, "categories": [{"alias": "greek", "title": "Greek"}], "rating": 4.0, "coordinates": {"latitude": 53.4913, "longitude": 10.2572}, "transactions": [], "price": "\u20ac\u20ac", "location": {"address1": "Am Grotensahl 6 - 10", "address2": null, "address3": null, "city": "Wentorf", "zip_code": "21465", "country": "DE", "state": "SH", "display_address": ["Am Grotensahl 6 - 10", "21465 Wentorf", "Germany"]}, "phone": "+494023959787", "display_phone": "+49 40 23959787", "distance": 3161.6969961033956}, {"id": "JF4a1Vg18qepoYsWyhEaJQ", "alias": "ristorante-pizzeria-luce-wentorf", "name": "Ristorante Pizzeria Luce", "image_url": "", "is_closed": false, "url": "https://www.yelp.com/biz/ristorante-pizzeria-luce-wentorf?adjust_creative=hBJOknVQJ58S5goQyjmwRw&utm_campaign=yelp_api_v3&utm_medium=api_v3_business_search&utm_source=hBJOknVQJ58S5goQyjmwRw", "review_count": 11, "categories": [{"alias": "italian", "title": "Italian"}, {"alias": "pizza", "title": "Pizza"}], "rating": 4.5, "coordinates": {"latitude": 53.4941, "longitude": 10.2557}, "transactions": [], "price": "\u20ac\u20ac\u20ac", "location": {"address1": "Hauptstr. 18", "address2": null, "address3": null, "city": "Wentorf", "zip_code": "21465", "country": "DE", "state": "SH", "display_address": ["Hauptstr. 18", "21465 Wentorf", "Germany"]}, "phone": "+49407247569", "display_phone": "+49 40 7247569", "distance": 2836.1951919704993}, {"id": "SSmt7U3dGAV6o0_8WTF-yQ", "alias": "kleiner-rasthof-reinbek", "name": "Kleiner Rasthof", "image_url": "", "is_closed": false, "url": "https://www.yelp.com/biz/kleiner-rasthof-reinbek?adjust_creative=hBJOknVQJ58S5goQyjmwRw&utm_campaign=yelp_api_v3&utm_medium=api_v3_business_search&utm_source=hBJOknVQJ58S5goQyjmwRw", "review_count": 1, "categories": [{"alias": "restaurants", "title": "Restaurants"}], "rating": 2.0, "coordinates": {"latitude": 53.5306, "longitude": 10.2518}, "transactions": [], "location": {"address1": "Dorfstr. 36", "address2": null, "address3": null, "city": "Reinbek", "zip_code": "21465", "country": "DE", "state": "SH", "display_address": ["Dorfstr. 36", "21465 Reinbek", "Germany"]}, "phone": "+494073597973", "display_phone": "+49 40 73597973", "distance": 1680.0517656361565}, {"id": "EI4g_NGuRAqEDO0rWRIBkQ", "alias": "fifty-fifty-reinbek", "name": "Fifty Fifty", "image_url": "", "is_closed": false, "url": "https://www.yelp.com/biz/fifty-fifty-reinbek?adjust_creative=hBJOknVQJ58S5goQyjmwRw&utm_campaign=yelp_api_v3&utm_medium=api_v3_business_search&utm_source=hBJOknVQJ58S5goQyjmwRw", "review_count": 5, "categories": [{"alias": "pizza", "title": "Pizza"}], "rating": 2.5, "coordinates": {"latitude": 53.51599, "longitude": 10.24695}, "transactions": [], "price": "\u20ac\u20ac", "location": {"address1": "Schulstr. 33", "address2": null, "address3": null, "city": "Reinbek", "zip_code": "21465", "country": "DE", "state": "SH", "display_address": ["Schulstr. 33", "21465 Reinbek", "Germany"]}, "phone": "+49407229999", "display_phone": "+49 40 7229999", "distance": 554.8234882997048}, {"id": "u3ub5f0MS4qY67Q8XF9ZoA", "alias": "sodemanns-fisch-kutter-nr-1-hamburg", "name": "Sodemann's Fisch-Kutter Nr. 1", "image_url": "https://s3-media3.fl.yelpcdn.com/bphoto/BlysP6fVPaL0eEjKvEbByw/o.jpg", "is_closed": false, "url": "https://www.yelp.com/biz/sodemanns-fisch-kutter-nr-1-hamburg?adjust_creative=hBJOknVQJ58S5goQyjmwRw&utm_campaign=yelp_api_v3&utm_medium=api_v3_business_search&utm_source=hBJOknVQJ58S5goQyjmwRw", "review_count": 3, "categories": [{"alias": "foodtrucks", "title": "Food Trucks"}, {"alias": "fischbroetchen", "title": "Fischbroetchen"}], "rating": 5.0, "coordinates": {"latitude": 53.5537490844727, "longitude": 9.99182987213135}, "transactions": [], "price": "\u20ac\u20ac", "location": {"address1": "", "address2": null, "address3": "", "city": "Hamburg", "zip_code": "", "country": "DE", "state": "HH", "display_address": ["Hamburg", "Germany"]}, "phone": "+491773606663", "display_phone": "+49 177 3606663", "distance": 16630.210938850218}, {"id": "afWOLrr2PZLyeDsXZeojKg", "alias": "mundfein-pizzawerkstatt-wentorf-bei-hamburg", "name": "Mundfein Pizzawerkstatt", "image_url": "", "is_closed": false, "url": "https://www.yelp.com/biz/mundfein-pizzawerkstatt-wentorf-bei-hamburg?adjust_creative=hBJOknVQJ58S5goQyjmwRw&utm_campaign=yelp_api_v3&utm_medium=api_v3_business_search&utm_source=hBJOknVQJ58S5goQyjmwRw", "review_count": 3, "categories": [{"alias": "pizza", "title": "Pizza"}], "rating": 4.5, "coordinates": {"latitude": 53.49121, "longitude": 10.25412}, "transactions": [], "price": "\u20ac\u20ac", "location": {"address1": "Berliner Landstr. 9 a", "address2": "", "address3": "", "city": "Wentorf bei Hamburg", "zip_code": "21465", "country": "DE", "state": "SH", "display_address": ["Berliner Landstr. 9 a", "21465 Wentorf bei Hamburg", "Germany"]}, "phone": "+494076500807", "display_phone": "+49 40 76500807", "distance": 3096.182836868463}, {"id": "lASijVWpxLOBPX-oEzxx7g", "alias": "mcdonalds-glinde", "name": "McDonald's", "image_url": "https://s3-media2.fl.yelpcdn.com/bphoto/gAKejvk11mFZv12fuhgtew/o.jpg", "is_closed": false, "url": "https://www.yelp.com/biz/mcdonalds-glinde?adjust_creative=hBJOknVQJ58S5goQyjmwRw&utm_campaign=yelp_api_v3&utm_medium=api_v3_business_search&utm_source=hBJOknVQJ58S5goQyjmwRw", "review_count": 6, "categories": [{"alias": "hotdogs", "title": "Fast Food"}, {"alias": "burgers", "title": "Burgers"}], "rating": 4.0, "coordinates": {"latitude": 53.5236945069808, "longitude": 10.2284587453782}, "transactions": [], "price": "\u20ac", "location": {"address1": "Gutenbergstr. 1 a", "address2": null, "address3": null, "city": "Glinde", "zip_code": "21509", "country": "DE", "state": "SH", "display_address": ["Gutenbergstr. 1 a", "21509 Glinde", "Germany"]}, "phone": "+494072813081", "display_phone": "+49 40 72813081", "distance": 970.4323229638723}, {"id": "edje85kZBoKiccEv6Wo4mQ", "alias": "grill-shop-hamburg-2", "name": "Grill Shop", "image_url": "https://s3-media4.fl.yelpcdn.com/bphoto/ODHOBZBuD4fTiVATuCUGAA/o.jpg", "is_closed": false, "url": "https://www.yelp.com/biz/grill-shop-hamburg-2?adjust_creative=hBJOknVQJ58S5goQyjmwRw&utm_campaign=yelp_api_v3&utm_medium=api_v3_business_search&utm_source=hBJOknVQJ58S5goQyjmwRw", "review_count": 6, "categories": [{"alias": "currysausage", "title": "Curry Sausage"}, {"alias": "german", "title": "German"}], "rating": 4.5, "coordinates": {"latitude": 53.48713, "longitude": 10.21846}, "transactions": [], "price": "\u20ac\u20ac", "location": {"address1": "Wentorfer Str. 20", "address2": null, "address3": null, "city": "Hamburg", "zip_code": "21029", "country": "DE", "state": "HH", "display_address": ["Wentorfer Str. 20", "21029 Hamburg", "Germany"]}, "phone": "+49407247337", "display_phone": "+49 40 7247337", "distance": 3645.7014723876305}, {"id": "APvIA_7ssxgC0atmQEFMcg", "alias": "burgerkultour-food-truck-hamburg-2", "name": "BurgerKultour Food Truck", "image_url": "https://s3-media4.fl.yelpcdn.com/bphoto/KoAuwalMnlAO8139MmdYBQ/o.jpg", "is_closed": false, "url": "https://www.yelp.com/biz/burgerkultour-food-truck-hamburg-2?adjust_creative=hBJOknVQJ58S5goQyjmwRw&utm_campaign=yelp_api_v3&utm_medium=api_v3_business_search&utm_source=hBJOknVQJ58S5goQyjmwRw", "review_count": 3, "categories": [{"alias": "foodtrucks", "title": "Food Trucks"}, {"alias": "burgers", "title": "Burgers"}], "rating": 4.5, "coordinates": {"latitude": 53.57154, "longitude": 9.95575}, "transactions": [], "price": "\u20ac\u20ac", "location": {"address1": "", "address2": "", "address3": "", "city": "Hamburg", "zip_code": "20259", "country": "DE", "state": "HH", "display_address": ["20259 Hamburg", "Germany"]}, "phone": "+4917626055122", "display_phone": "+49 176 26055122", "distance": 19590.295525718535}, {"id": "g9ylvGdAVIch-Y52TLGCww", "alias": "zur-sternwarte-wentorf-bei-hamburg", "name": "Zur Sternwarte", "image_url": "", "is_closed": false, "url": "https://www.yelp.com/biz/zur-sternwarte-wentorf-bei-hamburg?adjust_creative=hBJOknVQJ58S5goQyjmwRw&utm_campaign=yelp_api_v3&utm_medium=api_v3_business_search&utm_source=hBJOknVQJ58S5goQyjmwRw", "review_count": 6, "categories": [{"alias": "international", "title": "International"}, {"alias": "italian", "title": "Italian"}, {"alias": "cakeshop", "title": "Patisserie/Cake Shop"}], "rating": 3.0, "coordinates": {"latitude": 53.481107, "longitude": 10.2438929}, "transactions": [], "price": "\u20ac\u20ac", "location": {"address1": "August-Bebel-Str. 201", "address2": null, "address3": null, "city": "Wentorf bei Hamburg", "zip_code": "21029", "country": "DE", "state": "HH", "display_address": ["August-Bebel-Str. 201", "21029 Wentorf bei Hamburg", "Germany"]}, "phone": "+49407205669", "display_phone": "+49 40 7205669", "distance": 4068.227199635578}, {"id": "ssnLRo5BRqn2epOzxnHryg", "alias": "smileys-hamburg-8", "name": "Smiley's", "image_url": "https://s3-media3.fl.yelpcdn.com/bphoto/sOMzVXvslVgd4uQ3GF2pdg/o.jpg", "is_closed": false, "url": "https://www.yelp.com/biz/smileys-hamburg-8?adjust_creative=hBJOknVQJ58S5goQyjmwRw&utm_campaign=yelp_api_v3&utm_medium=api_v3_business_search&utm_source=hBJOknVQJ58S5goQyjmwRw", "review_count": 5, "categories": [{"alias": "pizza", "title": "Pizza"}], "rating": 2.0, "coordinates": {"latitude": 53.504, "longitude": 10.2147}, "transactions": [], "price": "\u20ac\u20ac", "location": {"address1": "Binnenfeldredder 40", "address2": null, "address3": null, "city": "Hamburg", "zip_code": "21031", "country": "DE", "state": "HH", "display_address": ["Binnenfeldredder 40", "21031 Hamburg", "Germany"]}, "phone": "+4940751150303", "display_phone": "+49 40 751150303", "distance": 2200.819367794746}, {"id": "JayE4rK3kl3b6_gNXpqqQw", "alias": "bla-bla-gastst\u00e4tte-hamburg-2", "name": "Bla bla Gastst\u00e4tte", "image_url": "https://s3-media4.fl.yelpcdn.com/bphoto/ZAPXKJ0xunxGQhSXkkFZAw/o.jpg", "is_closed": false, "url": "https://www.yelp.com/biz/bla-bla-gastst%C3%A4tte-hamburg-2?adjust_creative=hBJOknVQJ58S5goQyjmwRw&utm_campaign=yelp_api_v3&utm_medium=api_v3_business_search&utm_source=hBJOknVQJ58S5goQyjmwRw", "review_count": 1, "categories": [{"alias": "german", "title": "German"}], "rating": 4.0, "coordinates": {"latitude": 53.48488, "longitude": 10.2184414}, "transactions": [], "price": "\u20ac", "location": {"address1": "Holtenklinker Str.22", "address2": "", "address3": "", "city": "Hamburg", "zip_code": "21029", "country": "DE", "state": "HH", "display_address": ["Holtenklinker Str.22", "21029 Hamburg", "Germany"]}, "phone": "+49407243714", "display_phone": "+49 40 7243714", "distance": 3879.5664158542936}, {"id": "cGIKCcR0wZszz8VldC2-7g", "alias": "currywerk-hamburg", "name": "curryWERK", "image_url": "https://s3-media4.fl.yelpcdn.com/bphoto/j_ZPQAB6JrAru84VDuLiRA/o.jpg", "is_closed": false, "url": "https://www.yelp.com/biz/currywerk-hamburg?adjust_creative=hBJOknVQJ58S5goQyjmwRw&utm_campaign=yelp_api_v3&utm_medium=api_v3_business_search&utm_source=hBJOknVQJ58S5goQyjmwRw", "review_count": 1, "categories": [{"alias": "foodtrucks", "title": "Food Trucks"}, {"alias": "currysausage", "title": "Curry Sausage"}], "rating": 4.0, "coordinates": {"latitude": 53.5498886108398, "longitude": 9.94732189178467}, "transactions": [], "price": "\u20ac\u20ac", "location": {"address1": "", "address2": "", "address3": "", "city": "Hamburg", "zip_code": "22767", "country": "DE", "state": "HH", "display_address": ["22767 Hamburg", "Germany"]}, "phone": "+4917632443433", "display_phone": "+49 176 32443433", "distance": 19890.43582104054}]