[{"id": "qx7w7LWJk0dhxP_9QcUlJw", "alias": "gasthaus-zur-post-hamburg", "name": "Gasthaus Zur Post", "image_url": "https://s3-media4.fl.yelpcdn.com/bphoto/jQXSKKFiMHuBVm3nQpWsgw/o.jpg", "is_closed": false, "url": "https://www.yelp.com/biz/gasthaus-zur-post-hamburg?adjust_creative=hBJOknVQJ58S5goQyjmwRw&utm_campaign=yelp_api_v3&utm_medium=api_v3_business_search&utm_source=hBJOknVQJ58S5goQyjmwRw", "review_count": 24, "categories": [{"alias": "german", "title": "German"}, {"alias": "seafood", "title": "Seafood"}], "rating": 4.5, "coordinates": {"latitude": 53.5346336458307, "longitude": 9.77853611111641}, "transactions": [], "price": "\u20ac\u20ac", "location": {"address1": "Estedeich 88", "address2": "", "address3": "", "city": "Hamburg", "zip_code": "21129", "country": "DE", "state": "HH", "display_address": ["Estedeich 88", "21129 Hamburg", "Germany"]}, "phone": "+49407459409", "display_phone": "+49 40 7459409", "distance": 2061.466794130379}, {"id": "2wMF98mwT2lTdaQd7cVUgA", "alias": "restaurant-hintze-jork", "name": "Restaurant Hintze", "image_url": "https://s3-media2.fl.yelpcdn.com/bphoto/On32FoJuhMUKzZ2GkHokPw/o.jpg", "is_closed": false, "url": "https://www.yelp.com/biz/restaurant-hintze-jork?adjust_creative=hBJOknVQJ58S5goQyjmwRw&utm_campaign=yelp_api_v3&utm_medium=api_v3_business_search&utm_source=hBJOknVQJ58S5goQyjmwRw", "review_count": 5, "categories": [{"alias": "german", "title": "German"}], "rating": 4.0, "coordinates": {"latitude": 53.53201, "longitude": 9.76469}, "transactions": [], "price": "\u20ac\u20ac", "location": {"address1": "Leeswig 106", "address2": null, "address3": null, "city": "Jork", "zip_code": "21635", "country": "DE", "state": "NI", "display_address": ["Leeswig 106", "21635 Jork", "Germany"]}, "phone": "+49407459386", "display_phone": "+49 40 7459386", "distance": 1281.8914363293843}, {"id": "pmfjBbGjE6HF23JPYRXdxw", "alias": "l\u00fctt-falkenstein-hamburg", "name": "L\u00fctt Falkenstein", "image_url": "https://s3-media3.fl.yelpcdn.com/bphoto/1cglaaLk9sntX0KRP5Z35A/o.jpg", "is_closed": false, "url": "https://www.yelp.com/biz/l%C3%BCtt-falkenstein-hamburg?adjust_creative=hBJOknVQJ58S5goQyjmwRw&utm_campaign=yelp_api_v3&utm_medium=api_v3_business_search&utm_source=hBJOknVQJ58S5goQyjmwRw", "review_count": 1, "categories": [{"alias": "bistros", "title": "Bistros"}], "rating": 5.0, "coordinates": {"latitude": 53.5622474893341, "longitude": 9.77977322366829}, "transactions": [], "location": {"address1": "Falkensteiner Ufer 54", "address2": "", "address3": "", "city": "Hamburg", "zip_code": "22587", "country": "DE", "state": "HH", "display_address": ["Falkensteiner Ufer 54", "22587 Hamburg", "Germany"]}, "phone": "+49408663023", "display_phone": "+49 40 8663023", "distance": 4777.255613584886}, {"id": "M82FIuxPwcp7YmmKBQq_dw", "alias": "restaurant-altes-f\u00e4hrhaus-hamburg", "name": "Restaurant Altes F\u00e4hrhaus", "image_url": "https://s3-media3.fl.yelpcdn.com/bphoto/0iATsFKwDDuLZUSkafqOBQ/o.jpg", "is_closed": false, "url": "https://www.yelp.com/biz/restaurant-altes-f%C3%A4hrhaus-hamburg?adjust_creative=hBJOknVQJ58S5goQyjmwRw&utm_campaign=yelp_api_v3&utm_medium=api_v3_business_search&utm_source=hBJOknVQJ58S5goQyjmwRw", "review_count": 18, "categories": [{"alias": "cafes", "title": "Cafes"}, {"alias": "northerngerman", "title": "Northern German"}], "rating": 3.5, "coordinates": {"latitude": 53.534651, "longitude": 9.779566}, "transactions": [], "price": "\u20ac\u20ac", "location": {"address1": "Estedeich 94", "address2": "", "address3": "", "city": "Hamburg", "zip_code": "21129", "country": "DE", "state": "HH", "display_address": ["Estedeich 94", "21129 Hamburg", "Germany"]}, "phone": "+49407459132", "display_phone": "+49 40 7459132", "distance": 2111.7479658074703}, {"id": "gk8jYhmGLaS-7YG-K6Bd8Q", "alias": "bistro-elbe-camp-hamburg", "name": "Bistro Elbe Camp", "image_url": "https://s3-media3.fl.yelpcdn.com/bphoto/Vo_HcQxkhEZnmvBDb_fTiA/o.jpg", "is_closed": false, "url": "https://www.yelp.com/biz/bistro-elbe-camp-hamburg?adjust_creative=hBJOknVQJ58S5goQyjmwRw&utm_campaign=yelp_api_v3&utm_medium=api_v3_business_search&utm_source=hBJOknVQJ58S5goQyjmwRw", "review_count": 1, "categories": [{"alias": "foodstands", "title": "Food Stands"}], "rating": 4.0, "coordinates": {"latitude": 53.56448, "longitude": 9.7672}, "transactions": [], "location": {"address1": "Falkensteiner Ufer 101", "address2": "", "address3": "", "city": "Hamburg", "zip_code": "22587", "country": "DE", "state": "HH", "display_address": ["Falkensteiner Ufer 101", "22587 Hamburg", "Germany"]}, "phone": "+4940812949", "display_phone": "+49 40 812949", "distance": 4748.094319474203}, {"id": "8avHWRsgk5z-CGajk6gNFQ", "alias": "imbiss-am-falkensteiner-ufer-hamburg", "name": "Imbiss am Falkensteiner Ufer", "image_url": "https://s3-media3.fl.yelpcdn.com/bphoto/6B9juUamE0TF6LAUAsE_tA/o.jpg", "is_closed": false, "url": "https://www.yelp.com/biz/imbiss-am-falkensteiner-ufer-hamburg?adjust_creative=hBJOknVQJ58S5goQyjmwRw&utm_campaign=yelp_api_v3&utm_medium=api_v3_business_search&utm_source=hBJOknVQJ58S5goQyjmwRw", "review_count": 5, "categories": [{"alias": "foodstands", "title": "Food Stands"}], "rating": 4.5, "coordinates": {"latitude": 53.56226, "longitude": 9.77992}, "transactions": [], "location": {"address1": "Falkensteiner Ufer 54", "address2": "", "address3": "", "city": "Hamburg", "zip_code": "22587", "country": "DE", "state": "HH", "display_address": ["Falkensteiner Ufer 54", "22587 Hamburg", "Germany"]}, "phone": "+49408663023", "display_phone": "+49 40 8663023", "distance": 4835.133818472148}]