[{"id": "TXclbOdYrVsNM2uik_m2oA", "alias": "hanseloft-buxtehude-3", "name": "HanseLoft", "image_url": "https://s3-media1.fl.yelpcdn.com/bphoto/74lClCV4LCwG8fWbKUT0sw/o.jpg", "is_closed": false, "url": "https://www.yelp.com/biz/hanseloft-buxtehude-3?adjust_creative=hBJOknVQJ58S5goQyjmwRw&utm_campaign=yelp_api_v3&utm_medium=api_v3_business_search&utm_source=hBJOknVQJ58S5goQyjmwRw", "review_count": 3, "categories": [{"alias": "italian", "title": "Italian"}, {"alias": "mediterranean", "title": "Mediterranean"}], "rating": 5.0, "coordinates": {"latitude": 53.4791, "longitude": 9.70094}, "transactions": [], "price": "\u20ac\u20ac\u20ac", "location": {"address1": "Estebr\u00fcgger Str. 2", "address2": null, "address3": null, "city": "Buxtehude", "zip_code": "21614", "country": "DE", "state": "NI", "display_address": ["Estebr\u00fcgger Str. 2", "21614 Buxtehude", "Germany"]}, "phone": "+4941615563113", "display_phone": "+49 4161 5563113", "distance": 5031.8963616248375}, {"id": "G4kol3dhWtfrvPQFn7YDlA", "alias": "gastst\u00e4tte-holst-jork", "name": "Gastst\u00e4tte Holst", "image_url": "https://s3-media4.fl.yelpcdn.com/bphoto/TjxkyGaLwmlfq-dJjImKpg/o.jpg", "is_closed": false, "url": "https://www.yelp.com/biz/gastst%C3%A4tte-holst-jork?adjust_creative=hBJOknVQJ58S5goQyjmwRw&utm_campaign=yelp_api_v3&utm_medium=api_v3_business_search&utm_source=hBJOknVQJ58S5goQyjmwRw", "review_count": 1, "categories": [{"alias": "restaurants", "title": "Restaurants"}], "rating": 4.0, "coordinates": {"latitude": 53.5116, "longitude": 9.73004}, "transactions": [], "location": {"address1": "Estebr\u00fcgger Str. 93", "address2": null, "address3": null, "city": "Jork", "zip_code": "21635", "country": "DE", "state": "NI", "display_address": ["Estebr\u00fcgger Str. 93", "21635 Jork", "Germany"]}, "phone": "+494162255", "display_phone": "+49 4162 255", "distance": 1161.0492485675798}, {"id": "VwHQYAFAJY4CNPEj9u-YPA", "alias": "gasthaus-k\u00f6nigreich-jork", "name": "Gasthaus K\u00f6nigreich", "image_url": "", "is_closed": false, "url": "https://www.yelp.com/biz/gasthaus-k%C3%B6nigreich-jork?adjust_creative=hBJOknVQJ58S5goQyjmwRw&utm_campaign=yelp_api_v3&utm_medium=api_v3_business_search&utm_source=hBJOknVQJ58S5goQyjmwRw", "review_count": 4, "categories": [{"alias": "hotels", "title": "Hotels"}, {"alias": "german", "title": "German"}], "rating": 3.0, "coordinates": {"latitude": 53.5205, "longitude": 9.72545}, "transactions": [], "price": "\u20ac", "location": {"address1": "Obstmarschenweg 1", "address2": null, "address3": null, "city": "Jork", "zip_code": "21635", "country": "DE", "state": "NI", "display_address": ["Obstmarschenweg 1", "21635 Jork", "Germany"]}, "phone": "+4941627675", "display_phone": "+49 4162 7675", "distance": 151.33428311288515}, {"id": "9g3tkNR1Iq4Fpx4YX_x9MQ", "alias": "caf\u00e9-dammanns-jork", "name": "Caf\u00e9 Dammanns", "image_url": "", "is_closed": false, "url": "https://www.yelp.com/biz/caf%C3%A9-dammanns-jork?adjust_creative=hBJOknVQJ58S5goQyjmwRw&utm_campaign=yelp_api_v3&utm_medium=api_v3_business_search&utm_source=hBJOknVQJ58S5goQyjmwRw", "review_count": 3, "categories": [{"alias": "cafes", "title": "Cafes"}], "rating": 3.0, "coordinates": {"latitude": 53.5191, "longitude": 9.73069}, "transactions": [], "location": {"address1": "Gro\u00df Hove 2", "address2": null, "address3": null, "city": "Jork", "zip_code": "21635", "country": "DE", "state": "NI", "display_address": ["Gro\u00df Hove 2", "21635 Jork", "Germany"]}, "phone": "+4941629131989", "display_phone": "+49 4162 9131989", "distance": 421.6345166279141}]