[{"id": "jHG8e5VYEJ0N5bbE2aHHnw", "alias": "balkan-grill-hamburg-2", "name": "Balkan Grill", "image_url": "https://s3-media2.fl.yelpcdn.com/bphoto/Eeh3Qb27bPyKkysjrB840A/o.jpg", "is_closed": false, "url": "https://www.yelp.com/biz/balkan-grill-hamburg-2?adjust_creative=hBJOknVQJ58S5goQyjmwRw&utm_campaign=yelp_api_v3&utm_medium=api_v3_business_search&utm_source=hBJOknVQJ58S5goQyjmwRw", "review_count": 2, "categories": [{"alias": "turkish", "title": "Turkish"}], "rating": 4.5, "coordinates": {"latitude": 53.5348988, "longitude": 9.8593984}, "transactions": [], "price": "\u20ac\u20ac", "location": {"address1": "Butenwarf 1", "address2": null, "address3": null, "city": "Hamburg", "zip_code": "21129", "country": "DE", "state": "HH", "display_address": ["Butenwarf 1", "21129 Hamburg", "Germany"]}, "phone": "+49407425627", "display_phone": "+49 40 7425627", "distance": 1754.7204622305846}, {"id": "nEVN_yMY5P13j_0j2G3uhA", "alias": "jacobs-restaurant-hamburg-2", "name": "Jacobs Restaurant", "image_url": "https://s3-media1.fl.yelpcdn.com/bphoto/JZQkQZmF1F9rVWGki_6ahg/o.jpg", "is_closed": false, "url": "https://www.yelp.com/biz/jacobs-restaurant-hamburg-2?adjust_creative=hBJOknVQJ58S5goQyjmwRw&utm_campaign=yelp_api_v3&utm_medium=api_v3_business_search&utm_source=hBJOknVQJ58S5goQyjmwRw", "review_count": 54, "categories": [{"alias": "french", "title": "French"}], "rating": 5.0, "coordinates": {"latitude": 53.55044, "longitude": 9.8442399}, "transactions": [], "price": "\u20ac\u20ac\u20ac\u20ac", "location": {"address1": "Elbchaussee 401 - 403", "address2": "", "address3": "", "city": "Hamburg", "zip_code": "22609", "country": "DE", "state": "HH", "display_address": ["Elbchaussee 401 - 403", "22609 Hamburg", "Germany"]}, "phone": "+4940822550", "display_phone": "+49 40 822550", "distance": 3281.2037377147853}, {"id": "sr8GjQ5JOLdzfstXfDnPJA", "alias": "d\u00fcbelsbr\u00fccker-kaj\u00fct-hamburg", "name": "D\u00fcbelsbr\u00fccker Kaj\u00fct", "image_url": "https://s3-media3.fl.yelpcdn.com/bphoto/A5TtKGsdztgW1OAWozPyHw/o.jpg", "is_closed": false, "url": "https://www.yelp.com/biz/d%C3%BCbelsbr%C3%BCcker-kaj%C3%BCt-hamburg?adjust_creative=hBJOknVQJ58S5goQyjmwRw&utm_campaign=yelp_api_v3&utm_medium=api_v3_business_search&utm_source=hBJOknVQJ58S5goQyjmwRw", "review_count": 35, "categories": [{"alias": "seafood", "title": "Seafood"}], "rating": 4.0, "coordinates": {"latitude": 53.5472298473201, "longitude": 9.86483522360216}, "transactions": [], "price": "\u20ac\u20ac", "location": {"address1": "Elbchaussee 303", "address2": "", "address3": null, "city": "Hamburg", "zip_code": "22609", "country": "DE", "state": "HH", "display_address": ["Elbchaussee 303", "22609 Hamburg", "Germany"]}, "phone": "+4940828787", "display_phone": "+49 40 828787", "distance": 3150.2636530113555}, {"id": "pmJrLe4RdSiMhEG-apydtw", "alias": "knips-hamburg", "name": "Knips", "image_url": "https://s3-media3.fl.yelpcdn.com/bphoto/nzm0w1rQMVO8adiP5donYQ/o.jpg", "is_closed": false, "url": "https://www.yelp.com/biz/knips-hamburg?adjust_creative=hBJOknVQJ58S5goQyjmwRw&utm_campaign=yelp_api_v3&utm_medium=api_v3_business_search&utm_source=hBJOknVQJ58S5goQyjmwRw", "review_count": 29, "categories": [{"alias": "bars", "title": "Bars"}, {"alias": "international", "title": "International"}], "rating": 4.0, "coordinates": {"latitude": 53.55775, "longitude": 9.8602}, "transactions": [], "price": "\u20ac\u20ac\u20ac", "location": {"address1": "J\u00fcrgensallee 51", "address2": null, "address3": null, "city": "Hamburg", "zip_code": "22609", "country": "DE", "state": "HH", "display_address": ["J\u00fcrgensallee 51", "22609 Hamburg", "Germany"]}, "phone": "+4940829144", "display_phone": "+49 40 829144", "distance": 4189.887911761084}, {"id": "Zvlf5AVJmblIwhncprSE_g", "alias": "ruperti-hamburg", "name": "Ruperti", "image_url": "https://s3-media2.fl.yelpcdn.com/bphoto/PsRMela7DA6VuUWBBfK3SA/o.jpg", "is_closed": false, "url": "https://www.yelp.com/biz/ruperti-hamburg?adjust_creative=hBJOknVQJ58S5goQyjmwRw&utm_campaign=yelp_api_v3&utm_medium=api_v3_business_search&utm_source=hBJOknVQJ58S5goQyjmwRw", "review_count": 5, "categories": [{"alias": "italian", "title": "Italian"}], "rating": 5.0, "coordinates": {"latitude": 53.55562, "longitude": 9.84309}, "transactions": [], "location": {"address1": "Rupertistr. 26", "address2": "", "address3": "", "city": "Hamburg", "zip_code": "22609", "country": "DE", "state": "HH", "display_address": ["Rupertistr. 26", "22609 Hamburg", "Germany"]}, "phone": "+494085505995", "display_phone": "+49 40 85505995", "distance": 3863.353557496961}, {"id": "Lj1UlZDJSJ_-3svOdbXhbg", "alias": "kleines-jacob-hamburg", "name": "Kleines Jacob", "image_url": "https://s3-media1.fl.yelpcdn.com/bphoto/h1hCTs-BkGK4APokWC1axg/o.jpg", "is_closed": false, "url": "https://www.yelp.com/biz/kleines-jacob-hamburg?adjust_creative=hBJOknVQJ58S5goQyjmwRw&utm_campaign=yelp_api_v3&utm_medium=api_v3_business_search&utm_source=hBJOknVQJ58S5goQyjmwRw", "review_count": 88, "categories": [{"alias": "wine_bars", "title": "Wine Bars"}, {"alias": "german", "title": "German"}], "rating": 4.5, "coordinates": {"latitude": 53.5505, "longitude": 9.84368}, "transactions": [], "price": "\u20ac\u20ac\u20ac", "location": {"address1": "Elbchaussee 404", "address2": null, "address3": null, "city": "Hamburg", "zip_code": "22609", "country": "DE", "state": "HH", "display_address": ["Elbchaussee 404", "22609 Hamburg", "Germany"]}, "phone": "+494082255510", "display_phone": "+49 40 82255510", "distance": 3287.5740251812276}, {"id": "6D94K0B6TPd1-lwMt_eC8A", "alias": "witth\u00fcs-hamburg", "name": "Witth\u00fcs", "image_url": "https://s3-media1.fl.yelpcdn.com/bphoto/_nMjU8x-680736WfrTYQTA/o.jpg", "is_closed": false, "url": "https://www.yelp.com/biz/witth%C3%BCs-hamburg?adjust_creative=hBJOknVQJ58S5goQyjmwRw&utm_campaign=yelp_api_v3&utm_medium=api_v3_business_search&utm_source=hBJOknVQJ58S5goQyjmwRw", "review_count": 86, "categories": [{"alias": "mediterranean", "title": "Mediterranean"}], "rating": 4.0, "coordinates": {"latitude": 53.55912, "longitude": 9.822568}, "transactions": [], "price": "\u20ac\u20ac\u20ac", "location": {"address1": "Elbchaussee 499 A", "address2": "", "address3": null, "city": "Hamburg", "zip_code": "22587", "country": "DE", "state": "HH", "display_address": ["Elbchaussee 499 A", "22587 Hamburg", "Germany"]}, "phone": "+4940860173", "display_phone": "+49 40 860173", "distance": 4532.774613129186}, {"id": "LCJqWscQr5-GlrG4fl6vyw", "alias": "viva-l-italia-hamburg", "name": "Viva L'Italia", "image_url": "", "is_closed": false, "url": "https://www.yelp.com/biz/viva-l-italia-hamburg?adjust_creative=hBJOknVQJ58S5goQyjmwRw&utm_campaign=yelp_api_v3&utm_medium=api_v3_business_search&utm_source=hBJOknVQJ58S5goQyjmwRw", "review_count": 6, "categories": [{"alias": "italian", "title": "Italian"}], "rating": 4.0, "coordinates": {"latitude": 53.5153738936739, "longitude": 9.85123463862305}, "transactions": [], "price": "\u20ac", "location": {"address1": "Finkenwerder Norderdeich 71", "address2": "", "address3": "", "city": "Hamburg", "zip_code": "21129", "country": "DE", "state": "HH", "display_address": ["Finkenwerder Norderdeich 71", "21129 Hamburg", "Germany"]}, "phone": "+494074212744", "display_phone": "+49 40 74212744", "distance": 689.0267497881028}, {"id": "sASH7OqiioU-GqT-JQzt-A", "alias": "engel-imbiss-hamburg", "name": "Engel Imbiss", "image_url": "https://s3-media3.fl.yelpcdn.com/bphoto/ebGW3tVvAOB7acV6v7NDaA/o.jpg", "is_closed": false, "url": "https://www.yelp.com/biz/engel-imbiss-hamburg?adjust_creative=hBJOknVQJ58S5goQyjmwRw&utm_campaign=yelp_api_v3&utm_medium=api_v3_business_search&utm_source=hBJOknVQJ58S5goQyjmwRw", "review_count": 1, "categories": [{"alias": "foodstands", "title": "Food Stands"}, {"alias": "currysausage", "title": "Curry Sausage"}, {"alias": "fischbroetchen", "title": "Fischbroetchen"}], "rating": 5.0, "coordinates": {"latitude": 53.5464979304452, "longitude": 9.86265689134598}, "transactions": [], "location": {"address1": "Landeanlage Teufelsbr\u00fcck", "address2": "", "address3": "", "city": "Hamburg", "zip_code": "22609", "country": "DE", "state": "HH", "display_address": ["Landeanlage Teufelsbr\u00fcck", "22609 Hamburg", "Germany"]}, "phone": "+4940824187", "display_phone": "+49 40 824187", "distance": 3022.309642285801}, {"id": "Jdo7vVAd3hRsC1b0BB3DcA", "alias": "il-sole-hamburg", "name": "Il Sole", "image_url": "https://s3-media3.fl.yelpcdn.com/bphoto/3A60yiNQBLxMEb6jJjhcgQ/o.jpg", "is_closed": false, "url": "https://www.yelp.com/biz/il-sole-hamburg?adjust_creative=hBJOknVQJ58S5goQyjmwRw&utm_campaign=yelp_api_v3&utm_medium=api_v3_business_search&utm_source=hBJOknVQJ58S5goQyjmwRw", "review_count": 9, "categories": [{"alias": "bistros", "title": "Bistros"}, {"alias": "italian", "title": "Italian"}], "rating": 4.5, "coordinates": {"latitude": 53.55437, "longitude": 9.84482}, "transactions": [], "price": "\u20ac\u20ac\u20ac", "location": {"address1": "Nienstedtener Str. 2 D", "address2": null, "address3": null, "city": "Hamburg", "zip_code": "22609", "country": "DE", "state": "HH", "display_address": ["Nienstedtener Str. 2 D", "22609 Hamburg", "Germany"]}, "phone": "+494082310330", "display_phone": "+49 40 82310330", "distance": 3728.522696889046}, {"id": "CdmyyQgCJPvmH_h3QD4tnQ", "alias": "zur-flottbeker-schmiede-hamburg-2", "name": "Zur Flottbeker Schmiede", "image_url": "https://s3-media1.fl.yelpcdn.com/bphoto/C-xUZJL-hwA-1Bpr4QcXXg/o.jpg", "is_closed": false, "url": "https://www.yelp.com/biz/zur-flottbeker-schmiede-hamburg-2?adjust_creative=hBJOknVQJ58S5goQyjmwRw&utm_campaign=yelp_api_v3&utm_medium=api_v3_business_search&utm_source=hBJOknVQJ58S5goQyjmwRw", "review_count": 39, "categories": [{"alias": "tapasmallplates", "title": "Tapas/Small Plates"}, {"alias": "wine_bars", "title": "Wine Bars"}, {"alias": "bistros", "title": "Bistros"}], "rating": 4.5, "coordinates": {"latitude": 53.55678, "longitude": 9.86495}, "transactions": [], "price": "\u20ac\u20ac\u20ac", "location": {"address1": "Baron Voght Str. 79", "address2": "", "address3": "", "city": "Hamburg", "zip_code": "22609", "country": "DE", "state": "HH", "display_address": ["Baron Voght Str. 79", "22609 Hamburg", "Germany"]}, "phone": "+494020918236", "display_phone": "+49 40 20918236", "distance": 4156.965353632471}, {"id": "ru0RbywqypL0ZjF6H9rLhg", "alias": "restaurant-dionysos-hamburg", "name": "Restaurant Dionysos", "image_url": "https://s3-media2.fl.yelpcdn.com/bphoto/2kJBWXpRY8jefTl7GUIn9g/o.jpg", "is_closed": false, "url": "https://www.yelp.com/biz/restaurant-dionysos-hamburg?adjust_creative=hBJOknVQJ58S5goQyjmwRw&utm_campaign=yelp_api_v3&utm_medium=api_v3_business_search&utm_source=hBJOknVQJ58S5goQyjmwRw", "review_count": 4, "categories": [{"alias": "greek", "title": "Greek"}], "rating": 4.0, "coordinates": {"latitude": 53.5336, "longitude": 9.87189}, "transactions": [], "price": "\u20ac\u20ac", "location": {"address1": "Finkenwerder Norderdch 62", "address2": null, "address3": null, "city": "Hamburg", "zip_code": "21129", "country": "DE", "state": "HH", "display_address": ["Finkenwerder Norderdch 62", "21129 Hamburg", "Germany"]}, "phone": "+494033397939", "display_phone": "+49 40 33397939", "distance": 2169.1740187331243}, {"id": "BPyWkd2sd10x80tb3IiXOw", "alias": "marktplatz-hamburg", "name": "Marktplatz", "image_url": "https://s3-media1.fl.yelpcdn.com/bphoto/06EPugQ0j06EHjWEgzo86Q/o.jpg", "is_closed": false, "url": "https://www.yelp.com/biz/marktplatz-hamburg?adjust_creative=hBJOknVQJ58S5goQyjmwRw&utm_campaign=yelp_api_v3&utm_medium=api_v3_business_search&utm_source=hBJOknVQJ58S5goQyjmwRw", "review_count": 37, "categories": [{"alias": "german", "title": "German"}], "rating": 3.5, "coordinates": {"latitude": 53.55319, "longitude": 9.84433}, "transactions": [], "price": "\u20ac\u20ac", "location": {"address1": "Nienstedtener Marktplatz 21", "address2": null, "address3": null, "city": "Hamburg", "zip_code": "22609", "country": "DE", "state": "HH", "display_address": ["Nienstedtener Marktplatz 21", "22609 Hamburg", "Germany"]}, "phone": "+4940829848", "display_phone": "+49 40 829848", "distance": 3584.38512870624}, {"id": "Px4jy432G7pp-zZAfSZRAQ", "alias": "quellental-hamburg", "name": "Quellental", "image_url": "https://s3-media2.fl.yelpcdn.com/bphoto/bFjuPPJTVgi1avupn4ba_A/o.jpg", "is_closed": false, "url": "https://www.yelp.com/biz/quellental-hamburg?adjust_creative=hBJOknVQJ58S5goQyjmwRw&utm_campaign=yelp_api_v3&utm_medium=api_v3_business_search&utm_source=hBJOknVQJ58S5goQyjmwRw", "review_count": 35, "categories": [{"alias": "german", "title": "German"}], "rating": 4.0, "coordinates": {"latitude": 53.55265, "longitude": 9.85848}, "transactions": [], "price": "\u20ac\u20ac\u20ac", "location": {"address1": "Quellental 36", "address2": null, "address3": null, "city": "Hamburg", "zip_code": "22609", "country": "DE", "state": "HH", "display_address": ["Quellental 36", "22609 Hamburg", "Germany"]}, "phone": "+494082242270", "display_phone": "+49 40 82242270", "distance": 3606.830452154644}, {"id": "tIq1SBRBK9oxrl4cM9W3Kg", "alias": "restaurant-river-view-hamburg", "name": "Restaurant River View", "image_url": "https://s3-media3.fl.yelpcdn.com/bphoto/dJEmWOBFxjSCvx6WTtBnuA/o.jpg", "is_closed": false, "url": "https://www.yelp.com/biz/restaurant-river-view-hamburg?adjust_creative=hBJOknVQJ58S5goQyjmwRw&utm_campaign=yelp_api_v3&utm_medium=api_v3_business_search&utm_source=hBJOknVQJ58S5goQyjmwRw", "review_count": 17, "categories": [{"alias": "international", "title": "International"}], "rating": 3.0, "coordinates": {"latitude": 53.540825, "longitude": 9.862846}, "transactions": [], "price": "\u20ac\u20ac\u20ac", "location": {"address1": "Hein-Sa\u00df-Weg 40", "address2": "", "address3": null, "city": "Hamburg", "zip_code": "21129", "country": "DE", "state": "HH", "display_address": ["Hein-Sa\u00df-Weg 40", "21129 Hamburg", "Germany"]}, "phone": "+4940300849800", "display_phone": "+49 40 300849800", "distance": 2445.590249016524}, {"id": "3FpY-kp2MhGXxvwl-gM6FQ", "alias": "jacobs-st\u00fcberl-hamburg", "name": "Jacobs St\u00fcberl", "image_url": "https://s3-media3.fl.yelpcdn.com/bphoto/4_MT-JUMINxK5mi9UnPLtw/o.jpg", "is_closed": false, "url": "https://www.yelp.com/biz/jacobs-st%C3%BCberl-hamburg?adjust_creative=hBJOknVQJ58S5goQyjmwRw&utm_campaign=yelp_api_v3&utm_medium=api_v3_business_search&utm_source=hBJOknVQJ58S5goQyjmwRw", "review_count": 1, "categories": [{"alias": "austrian", "title": "Austrian"}, {"alias": "wine_bars", "title": "Wine Bars"}], "rating": 4.0, "coordinates": {"latitude": 53.55068, "longitude": 9.84375}, "transactions": [], "price": "\u20ac\u20ac", "location": {"address1": "Elbchaussee 404", "address2": "", "address3": null, "city": "Hamburg", "zip_code": "22609", "country": "DE", "state": "HH", "display_address": ["Elbchaussee 404", "22609 Hamburg", "Germany"]}, "phone": "+494082255510", "display_phone": "+49 40 82255510", "distance": 3307.300643363681}, {"id": "vwkCYllM3tXxjsIU5Mfvsw", "alias": "kleine-rast-hamburg", "name": "Kleine Rast", "image_url": "https://s3-media1.fl.yelpcdn.com/bphoto/w0_zzRxqiJrh0GR95vMvNg/o.jpg", "is_closed": false, "url": "https://www.yelp.com/biz/kleine-rast-hamburg?adjust_creative=hBJOknVQJ58S5goQyjmwRw&utm_campaign=yelp_api_v3&utm_medium=api_v3_business_search&utm_source=hBJOknVQJ58S5goQyjmwRw", "review_count": 6, "categories": [{"alias": "foodstands", "title": "Food Stands"}, {"alias": "hotdogs", "title": "Fast Food"}], "rating": 4.0, "coordinates": {"latitude": 53.5491, "longitude": 9.85105}, "transactions": [], "price": "\u20ac\u20ac", "location": {"address1": "Elbuferweg 85", "address2": "", "address3": "", "city": "Hamburg", "zip_code": "22609", "country": "DE", "state": "HH", "display_address": ["Elbuferweg 85", "22609 Hamburg", "Germany"]}, "phone": "+4940826972", "display_phone": "+49 40 826972", "distance": 3131.9785720405293}, {"id": "vrGm2GYmxOSfuyIlcU7b2w", "alias": "ralphs-kiosk-im-jenischpark-das-parkcaf\u00e9-hamburg", "name": "Ralphs Kiosk im Jenischpark - Das Parkcaf\u00e9", "image_url": "https://s3-media3.fl.yelpcdn.com/bphoto/3n2ddcxHmivqBmpymTWaWg/o.jpg", "is_closed": false, "url": "https://www.yelp.com/biz/ralphs-kiosk-im-jenischpark-das-parkcaf%C3%A9-hamburg?adjust_creative=hBJOknVQJ58S5goQyjmwRw&utm_campaign=yelp_api_v3&utm_medium=api_v3_business_search&utm_source=hBJOknVQJ58S5goQyjmwRw", "review_count": 13, "categories": [{"alias": "cafes", "title": "Cafes"}, {"alias": "kiosk", "title": "Kiosk"}], "rating": 4.0, "coordinates": {"latitude": 53.553618282277, "longitude": 9.86560400972712}, "transactions": [], "price": "\u20ac\u20ac", "location": {"address1": "Jenischpark", "address2": "Baron-Voght-Stra\u00dfe", "address3": null, "city": "Hamburg", "zip_code": "22609", "country": "DE", "state": "HH", "display_address": ["Jenischpark", "Baron-Voght-Stra\u00dfe", "22609 Hamburg", "Germany"]}, "phone": "+491724531743", "display_phone": "+49 172 4531743", "distance": 3833.6136843345057}, {"id": "fRNCmStKTSCkJBkkSdwEZA", "alias": "museumscafe-hamburg", "name": "Museumscafe", "image_url": "https://s3-media3.fl.yelpcdn.com/bphoto/STB9V57s0QBKFYgC5NqNVw/o.jpg", "is_closed": false, "url": "https://www.yelp.com/biz/museumscafe-hamburg?adjust_creative=hBJOknVQJ58S5goQyjmwRw&utm_campaign=yelp_api_v3&utm_medium=api_v3_business_search&utm_source=hBJOknVQJ58S5goQyjmwRw", "review_count": 7, "categories": [{"alias": "cafes", "title": "Cafes"}], "rating": 4.5, "coordinates": {"latitude": 53.55265, "longitude": 9.86577}, "transactions": [], "price": "\u20ac\u20ac\u20ac", "location": {"address1": "Jenisch Haus", "address2": "Baron-Voght-Str. 50", "address3": "", "city": "Hamburg", "zip_code": "22609", "country": "DE", "state": "HH", "display_address": ["Jenisch Haus", "Baron-Voght-Str. 50", "22609 Hamburg", "Germany"]}, "phone": "+494082290822", "display_phone": "+49 40 82290822", "distance": 3740.8050269089226}, {"id": "wNpiOXCZJpVjHNw0jd2Ldw", "alias": "dill-sin-d\u00f6ns-hamburg", "name": "Dill sin D\u00f6ns", "image_url": "https://s3-media4.fl.yelpcdn.com/bphoto/gDbIM7V_euzpykIaWb-TYw/o.jpg", "is_closed": false, "url": "https://www.yelp.com/biz/dill-sin-d%C3%B6ns-hamburg?adjust_creative=hBJOknVQJ58S5goQyjmwRw&utm_campaign=yelp_api_v3&utm_medium=api_v3_business_search&utm_source=hBJOknVQJ58S5goQyjmwRw", "review_count": 12, "categories": [{"alias": "german", "title": "German"}], "rating": 4.0, "coordinates": {"latitude": 53.5502899, "longitude": 9.84289}, "transactions": [], "price": "\u20ac\u20ac", "location": {"address1": "Elbuferweg 95", "address2": "", "address3": "", "city": "Hamburg", "zip_code": "22609", "country": "DE", "state": "HH", "display_address": ["Elbuferweg 95", "22609 Hamburg", "Germany"]}, "phone": "+4940828500", "display_phone": "+49 40 828500", "distance": 3273.0826217600943}, {"id": "JQWYJMCxJZfxjZmnHdf7VQ", "alias": "restaurant-engel-hamburg-4", "name": "Restaurant Engel", "image_url": "https://s3-media2.fl.yelpcdn.com/bphoto/8CP-arbxFvlxaZn1tpyqFQ/o.jpg", "is_closed": false, "url": "https://www.yelp.com/biz/restaurant-engel-hamburg-4?adjust_creative=hBJOknVQJ58S5goQyjmwRw&utm_campaign=yelp_api_v3&utm_medium=api_v3_business_search&utm_source=hBJOknVQJ58S5goQyjmwRw", "review_count": 102, "categories": [{"alias": "modern_european", "title": "Modern European"}], "rating": 4.0, "coordinates": {"latitude": 53.5464727809777, "longitude": 9.86277830252993}, "transactions": [], "price": "\u20ac\u20ac\u20ac", "location": {"address1": "Landeanlage Teufelsbr\u00fcck", "address2": "", "address3": "", "city": "Hamburg", "zip_code": "22609", "country": "DE", "state": "HH", "display_address": ["Landeanlage Teufelsbr\u00fcck", "22609 Hamburg", "Germany"]}, "phone": "+4940824187", "display_phone": "+49 40 824187", "distance": 3022.472004183608}, {"id": "UasR82r2IQmJzk5H8f4pQw", "alias": "ton-peerstall-hamburg", "name": "To'n Peerstall", "image_url": "https://s3-media4.fl.yelpcdn.com/bphoto/6t_0Z2VvS60zi7tRWRk50Q/o.jpg", "is_closed": false, "url": "https://www.yelp.com/biz/ton-peerstall-hamburg?adjust_creative=hBJOknVQJ58S5goQyjmwRw&utm_campaign=yelp_api_v3&utm_medium=api_v3_business_search&utm_source=hBJOknVQJ58S5goQyjmwRw", "review_count": 22, "categories": [{"alias": "international", "title": "International"}], "rating": 3.0, "coordinates": {"latitude": 53.55469, "longitude": 9.86708}, "transactions": [], "price": "\u20ac\u20ac\u20ac", "location": {"address1": "Hochrad 69", "address2": "", "address3": null, "city": "Hamburg", "zip_code": "22605", "country": "DE", "state": "HH", "display_address": ["Hochrad 69", "22605 Hamburg", "Germany"]}, "phone": "+4940821793", "display_phone": "+49 40 821793", "distance": 3973.3453079829255}, {"id": "SIYZ3bqLlhOGo4Uyl8i0lQ", "alias": "caf\u00e9-palme-im-botanischen-garten-hamburg", "name": "Caf\u00e9 Palme im Botanischen Garten", "image_url": "https://s3-media2.fl.yelpcdn.com/bphoto/bLSso-wYoSjKZ_Sjv_GQ1A/o.jpg", "is_closed": false, "url": "https://www.yelp.com/biz/caf%C3%A9-palme-im-botanischen-garten-hamburg?adjust_creative=hBJOknVQJ58S5goQyjmwRw&utm_campaign=yelp_api_v3&utm_medium=api_v3_business_search&utm_source=hBJOknVQJ58S5goQyjmwRw", "review_count": 7, "categories": [{"alias": "cafes", "title": "Cafes"}], "rating": 4.0, "coordinates": {"latitude": 53.5612, "longitude": 9.861}, "transactions": [], "price": "\u20ac\u20ac", "location": {"address1": "Ohnhorststr. 18", "address2": null, "address3": null, "city": "Hamburg", "zip_code": "22609", "country": "DE", "state": "HH", "display_address": ["Ohnhorststr. 18", "22609 Hamburg", "Germany"]}, "phone": "+494082290966", "display_phone": "+49 40 82290966", "distance": 4567.491135553435}, {"id": "WvHcp_RfDgRiD5yS8bYnZw", "alias": "zur-b\u00f6rse-hamburg", "name": "Zur B\u00f6rse", "image_url": "https://s3-media4.fl.yelpcdn.com/bphoto/HYxpQefAIJfd7lloWAfszw/o.jpg", "is_closed": false, "url": "https://www.yelp.com/biz/zur-b%C3%B6rse-hamburg?adjust_creative=hBJOknVQJ58S5goQyjmwRw&utm_campaign=yelp_api_v3&utm_medium=api_v3_business_search&utm_source=hBJOknVQJ58S5goQyjmwRw", "review_count": 3, "categories": [{"alias": "german", "title": "German"}, {"alias": "bowling", "title": "Bowling"}], "rating": 4.5, "coordinates": {"latitude": 53.4794, "longitude": 9.86294}, "transactions": [], "price": "\u20ac", "location": {"address1": "Francoper Str. 57", "address2": null, "address3": null, "city": "Hamburg", "zip_code": "21147", "country": "DE", "state": "HH", "display_address": ["Francoper Str. 57", "21147 Hamburg", "Germany"]}, "phone": "+49407018216", "display_phone": "+49 40 7018216", "distance": 4745.96784746276}, {"id": "tAMw_EGUofPzjCw1BshUMQ", "alias": "elv-das-elb-restaurant-hamburg", "name": "Elv - Das Elb Restaurant", "image_url": "https://s3-media1.fl.yelpcdn.com/bphoto/qFpd-LgrkuRYK1Z1Z5IoRw/o.jpg", "is_closed": false, "url": "https://www.yelp.com/biz/elv-das-elb-restaurant-hamburg?adjust_creative=hBJOknVQJ58S5goQyjmwRw&utm_campaign=yelp_api_v3&utm_medium=api_v3_business_search&utm_source=hBJOknVQJ58S5goQyjmwRw", "review_count": 24, "categories": [{"alias": "german", "title": "German"}, {"alias": "italian", "title": "Italian"}], "rating": 2.5, "coordinates": {"latitude": 53.548647, "longitude": 9.8552989}, "transactions": [], "price": "\u20ac\u20ac\u20ac", "location": {"address1": "Elbuferweg 80", "address2": "", "address3": "", "city": "Hamburg", "zip_code": "22609", "country": "DE", "state": "HH", "display_address": ["Elbuferweg 80", "22609 Hamburg", "Germany"]}, "phone": "+4940820042", "display_phone": "+49 40 820042", "distance": 3125.2145132912988}, {"id": "EGNZF-5P9X9rMFnmfLwbmA", "alias": "park26-caf\u00e9-und-bistro-hamburg", "name": "Park26 - Caf\u00e9 & Bistro", "image_url": "https://s3-media3.fl.yelpcdn.com/bphoto/W_w0oqz31tGQ2BryWKeFDg/o.jpg", "is_closed": false, "url": "https://www.yelp.com/biz/park26-caf%C3%A9-und-bistro-hamburg?adjust_creative=hBJOknVQJ58S5goQyjmwRw&utm_campaign=yelp_api_v3&utm_medium=api_v3_business_search&utm_source=hBJOknVQJ58S5goQyjmwRw", "review_count": 2, "categories": [{"alias": "cafes", "title": "Cafes"}, {"alias": "coffee", "title": "Coffee & Tea"}], "rating": 3.5, "coordinates": {"latitude": 53.5556, "longitude": 9.84309}, "transactions": [], "location": {"address1": "Rupertistr. 26", "address2": null, "address3": null, "city": "Hamburg", "zip_code": "22609", "country": "DE", "state": "HH", "display_address": ["Rupertistr. 26", "22609 Hamburg", "Germany"]}, "phone": "+494088170910", "display_phone": "+49 40 88170910", "distance": 3855.9993503049764}, {"id": "PAaagr3ejMNRHbuTiwqvNA", "alias": "nelsons-kaj\u00fcte-hamburg-2", "name": "Nelson's Kaj\u00fcte", "image_url": "https://s3-media3.fl.yelpcdn.com/bphoto/1tlpOwjSCzEqIrluChCN6w/o.jpg", "is_closed": false, "url": "https://www.yelp.com/biz/nelsons-kaj%C3%BCte-hamburg-2?adjust_creative=hBJOknVQJ58S5goQyjmwRw&utm_campaign=yelp_api_v3&utm_medium=api_v3_business_search&utm_source=hBJOknVQJ58S5goQyjmwRw", "review_count": 4, "categories": [{"alias": "mediterranean", "title": "Mediterranean"}, {"alias": "german", "title": "German"}], "rating": 4.0, "coordinates": {"latitude": 53.55434, "longitude": 9.82316}, "transactions": [], "location": {"address1": "Jollenhafen Blankenese", "address2": "Elbuferweg 135", "address3": "", "city": "Hamburg", "zip_code": "22587", "country": "DE", "state": "HH", "display_address": ["Jollenhafen Blankenese", "Elbuferweg 135", "22587 Hamburg", "Germany"]}, "phone": "+4940862373", "display_phone": "+49 40 862373", "distance": 4033.7216538697808}]