[{"id": "yI3Dc37NudFTaMcqTnTc1Q", "alias": "restaurant-zum-storchennest-hamburg", "name": "Restaurant Zum Storchennest", "image_url": "https://s3-media3.fl.yelpcdn.com/bphoto/p2iS9Ap2W5GOhaXOUPJMNg/o.jpg", "is_closed": false, "url": "https://www.yelp.com/biz/restaurant-zum-storchennest-hamburg?adjust_creative=hBJOknVQJ58S5goQyjmwRw&utm_campaign=yelp_api_v3&utm_medium=api_v3_business_search&utm_source=hBJOknVQJ58S5goQyjmwRw", "review_count": 12, "categories": [{"alias": "seafood", "title": "Seafood"}], "rating": 5.0, "coordinates": {"latitude": 53.5202, "longitude": 9.88556}, "transactions": [], "price": "\u20ac\u20ac\u20ac", "location": {"address1": "Osterfelddeich 2", "address2": null, "address3": null, "city": "Hamburg", "zip_code": "21129", "country": "DE", "state": "HH", "display_address": ["Osterfelddeich 2", "21129 Hamburg", "Germany"]}, "phone": "+49407426850", "display_phone": "+49 40 7426850", "distance": 569.023182663177}, {"id": "jHG8e5VYEJ0N5bbE2aHHnw", "alias": "balkan-grill-hamburg-2", "name": "Balkan Grill", "image_url": "https://s3-media2.fl.yelpcdn.com/bphoto/Eeh3Qb27bPyKkysjrB840A/o.jpg", "is_closed": false, "url": "https://www.yelp.com/biz/balkan-grill-hamburg-2?adjust_creative=hBJOknVQJ58S5goQyjmwRw&utm_campaign=yelp_api_v3&utm_medium=api_v3_business_search&utm_source=hBJOknVQJ58S5goQyjmwRw", "review_count": 2, "categories": [{"alias": "turkish", "title": "Turkish"}], "rating": 4.5, "coordinates": {"latitude": 53.5348988, "longitude": 9.8593984}, "transactions": [], "price": "\u20ac\u20ac", "location": {"address1": "Butenwarf 1", "address2": null, "address3": null, "city": "Hamburg", "zip_code": "21129", "country": "DE", "state": "HH", "display_address": ["Butenwarf 1", "21129 Hamburg", "Germany"]}, "phone": "+49407425627", "display_phone": "+49 40 7425627", "distance": 1954.640357475359}, {"id": "h76slnRXB-F1F_7ajRmFaQ", "alias": "brandts-anfang-hamburg", "name": "Brandts Anfang", "image_url": "https://s3-media1.fl.yelpcdn.com/bphoto/WnFDz0bk4tss7U6QLRrf_g/o.jpg", "is_closed": false, "url": "https://www.yelp.com/biz/brandts-anfang-hamburg?adjust_creative=hBJOknVQJ58S5goQyjmwRw&utm_campaign=yelp_api_v3&utm_medium=api_v3_business_search&utm_source=hBJOknVQJ58S5goQyjmwRw", "review_count": 5, "categories": [{"alias": "cocktailbars", "title": "Cocktail Bars"}, {"alias": "steak", "title": "Steakhouses"}], "rating": 4.5, "coordinates": {"latitude": 53.5326295, "longitude": 9.880036}, "transactions": [], "price": "\u20ac\u20ac", "location": {"address1": "Steendiek 37", "address2": null, "address3": null, "city": "Hamburg", "zip_code": "21129", "country": "DE", "state": "HH", "display_address": ["Steendiek 37", "21129 Hamburg", "Germany"]}, "phone": "+494038671673", "display_phone": "+49 40 38671673", "distance": 1333.1018817475072}, {"id": "_eIzJGTL6zee0qrUPi2zRQ", "alias": "finkwarder-kl\u00f6nstuv-hamburg", "name": "Finkwarder Kl\u00f6nstuv", "image_url": "https://s3-media3.fl.yelpcdn.com/bphoto/YDvNGLC32_oHukCwGPb6DA/o.jpg", "is_closed": false, "url": "https://www.yelp.com/biz/finkwarder-kl%C3%B6nstuv-hamburg?adjust_creative=hBJOknVQJ58S5goQyjmwRw&utm_campaign=yelp_api_v3&utm_medium=api_v3_business_search&utm_source=hBJOknVQJ58S5goQyjmwRw", "review_count": 1, "categories": [{"alias": "restaurants", "title": "Restaurants"}], "rating": 5.0, "coordinates": {"latitude": 53.53326, "longitude": 9.87762}, "transactions": [], "location": {"address1": "Steendiek 6", "address2": null, "address3": null, "city": "Hamburg", "zip_code": "21129", "country": "DE", "state": "HH", "display_address": ["Steendiek 6", "21129 Hamburg", "Germany"]}, "phone": "+494074201660", "display_phone": "+49 40 74201660", "distance": 1382.7518417067918}, {"id": "hYZgSIROzW1RbXJHpQhFwA", "alias": "finkenwerder-landungsbr\u00fccke-hamburg", "name": "Finkenwerder Landungsbr\u00fccke", "image_url": "https://s3-media4.fl.yelpcdn.com/bphoto/Sng2FU6bf0nQHEkhSqg-bw/o.jpg", "is_closed": false, "url": "https://www.yelp.com/biz/finkenwerder-landungsbr%C3%BCcke-hamburg?adjust_creative=hBJOknVQJ58S5goQyjmwRw&utm_campaign=yelp_api_v3&utm_medium=api_v3_business_search&utm_source=hBJOknVQJ58S5goQyjmwRw", "review_count": 27, "categories": [{"alias": "seafood", "title": "Seafood"}, {"alias": "northerngerman", "title": "Northern German"}], "rating": 3.5, "coordinates": {"latitude": 53.5354641, "longitude": 9.878811}, "transactions": [], "price": "\u20ac\u20ac", "location": {"address1": "Benittstr. 9", "address2": null, "address3": null, "city": "Hamburg", "zip_code": "21129", "country": "DE", "state": "HH", "display_address": ["Benittstr. 9", "21129 Hamburg", "Germany"]}, "phone": "+49407425151", "display_phone": "+49 40 7425151", "distance": 1637.5236070278306}, {"id": "sr8GjQ5JOLdzfstXfDnPJA", "alias": "d\u00fcbelsbr\u00fccker-kaj\u00fct-hamburg", "name": "D\u00fcbelsbr\u00fccker Kaj\u00fct", "image_url": "https://s3-media3.fl.yelpcdn.com/bphoto/A5TtKGsdztgW1OAWozPyHw/o.jpg", "is_closed": false, "url": "https://www.yelp.com/biz/d%C3%BCbelsbr%C3%BCcker-kaj%C3%BCt-hamburg?adjust_creative=hBJOknVQJ58S5goQyjmwRw&utm_campaign=yelp_api_v3&utm_medium=api_v3_business_search&utm_source=hBJOknVQJ58S5goQyjmwRw", "review_count": 35, "categories": [{"alias": "seafood", "title": "Seafood"}], "rating": 4.0, "coordinates": {"latitude": 53.5472298473201, "longitude": 9.86483522360216}, "transactions": [], "price": "\u20ac\u20ac", "location": {"address1": "Elbchaussee 303", "address2": "", "address3": null, "city": "Hamburg", "zip_code": "22609", "country": "DE", "state": "HH", "display_address": ["Elbchaussee 303", "22609 Hamburg", "Germany"]}, "phone": "+4940828787", "display_phone": "+49 40 828787", "distance": 3049.4861876386767}, {"id": "pmJrLe4RdSiMhEG-apydtw", "alias": "knips-hamburg", "name": "Knips", "image_url": "https://s3-media3.fl.yelpcdn.com/bphoto/nzm0w1rQMVO8adiP5donYQ/o.jpg", "is_closed": false, "url": "https://www.yelp.com/biz/knips-hamburg?adjust_creative=hBJOknVQJ58S5goQyjmwRw&utm_campaign=yelp_api_v3&utm_medium=api_v3_business_search&utm_source=hBJOknVQJ58S5goQyjmwRw", "review_count": 29, "categories": [{"alias": "bars", "title": "Bars"}, {"alias": "international", "title": "International"}], "rating": 4.0, "coordinates": {"latitude": 53.55775, "longitude": 9.8602}, "transactions": [], "price": "\u20ac\u20ac\u20ac", "location": {"address1": "J\u00fcrgensallee 51", "address2": null, "address3": null, "city": "Hamburg", "zip_code": "22609", "country": "DE", "state": "HH", "display_address": ["J\u00fcrgensallee 51", "22609 Hamburg", "Germany"]}, "phone": "+4940829144", "display_phone": "+49 40 829144", "distance": 4262.8131820803565}, {"id": "VVX9I5Cu1dshGhmKu4s-pg", "alias": "hala-hamburg", "name": "Hala", "image_url": "https://s3-media2.fl.yelpcdn.com/bphoto/XVifszimTiTrFlXh9xrY8A/o.jpg", "is_closed": false, "url": "https://www.yelp.com/biz/hala-hamburg?adjust_creative=hBJOknVQJ58S5goQyjmwRw&utm_campaign=yelp_api_v3&utm_medium=api_v3_business_search&utm_source=hBJOknVQJ58S5goQyjmwRw", "review_count": 37, "categories": [{"alias": "lebanese", "title": "Lebanese"}], "rating": 4.5, "coordinates": {"latitude": 53.55961, "longitude": 9.88792}, "transactions": [], "price": "\u20ac\u20ac\u20ac", "location": {"address1": "Beselerplatz 11", "address2": "", "address3": "", "city": "Hamburg", "zip_code": "22607", "country": "DE", "state": "HH", "display_address": ["Beselerplatz 11", "22607 Hamburg", "Germany"]}, "phone": "+494088167787", "display_phone": "+49 40 88167787", "distance": 4384.29368635678}, {"id": "hrFXVGGt9U_pcp_ArsYHfg", "alias": "r\u00f6perhof-hamburg", "name": "R\u00f6perhof", "image_url": "https://s3-media1.fl.yelpcdn.com/bphoto/ot7Ze6HZ0IpQ5_HAV2XC2w/o.jpg", "is_closed": false, "url": "https://www.yelp.com/biz/r%C3%B6perhof-hamburg?adjust_creative=hBJOknVQJ58S5goQyjmwRw&utm_campaign=yelp_api_v3&utm_medium=api_v3_business_search&utm_source=hBJOknVQJ58S5goQyjmwRw", "review_count": 42, "categories": [{"alias": "german", "title": "German"}, {"alias": "mediterranean", "title": "Mediterranean"}], "rating": 4.5, "coordinates": {"latitude": 53.55349, "longitude": 9.89622}, "transactions": [], "price": "\u20ac\u20ac\u20ac", "location": {"address1": "Agathe-Lasch-Weg 2", "address2": null, "address3": null, "city": "Hamburg", "zip_code": "22605", "country": "DE", "state": "HH", "display_address": ["Agathe-Lasch-Weg 2", "22605 Hamburg", "Germany"]}, "phone": "+49408811200", "display_phone": "+49 40 8811200", "distance": 3852.7690865547006}, {"id": "sASH7OqiioU-GqT-JQzt-A", "alias": "engel-imbiss-hamburg", "name": "Engel Imbiss", "image_url": "https://s3-media3.fl.yelpcdn.com/bphoto/ebGW3tVvAOB7acV6v7NDaA/o.jpg", "is_closed": false, "url": "https://www.yelp.com/biz/engel-imbiss-hamburg?adjust_creative=hBJOknVQJ58S5goQyjmwRw&utm_campaign=yelp_api_v3&utm_medium=api_v3_business_search&utm_source=hBJOknVQJ58S5goQyjmwRw", "review_count": 1, "categories": [{"alias": "foodstands", "title": "Food Stands"}, {"alias": "currysausage", "title": "Curry Sausage"}, {"alias": "fischbroetchen", "title": "Fischbroetchen"}], "rating": 5.0, "coordinates": {"latitude": 53.5464979304452, "longitude": 9.86265689134598}, "transactions": [], "location": {"address1": "Landeanlage Teufelsbr\u00fcck", "address2": "", "address3": "", "city": "Hamburg", "zip_code": "22609", "country": "DE", "state": "HH", "display_address": ["Landeanlage Teufelsbr\u00fcck", "22609 Hamburg", "Germany"]}, "phone": "+4940824187", "display_phone": "+49 40 824187", "distance": 3013.231375112143}, {"id": "ru0RbywqypL0ZjF6H9rLhg", "alias": "restaurant-dionysos-hamburg", "name": "Restaurant Dionysos", "image_url": "https://s3-media2.fl.yelpcdn.com/bphoto/2kJBWXpRY8jefTl7GUIn9g/o.jpg", "is_closed": false, "url": "https://www.yelp.com/biz/restaurant-dionysos-hamburg?adjust_creative=hBJOknVQJ58S5goQyjmwRw&utm_campaign=yelp_api_v3&utm_medium=api_v3_business_search&utm_source=hBJOknVQJ58S5goQyjmwRw", "review_count": 4, "categories": [{"alias": "greek", "title": "Greek"}], "rating": 4.0, "coordinates": {"latitude": 53.5336, "longitude": 9.87189}, "transactions": [], "price": "\u20ac\u20ac", "location": {"address1": "Finkenwerder Norderdch 62", "address2": null, "address3": null, "city": "Hamburg", "zip_code": "21129", "country": "DE", "state": "HH", "display_address": ["Finkenwerder Norderdch 62", "21129 Hamburg", "Germany"]}, "phone": "+494033397939", "display_phone": "+49 40 33397939", "distance": 1465.4733436839226}, {"id": "bewkz1hzXlWQ8rCZqblmIw", "alias": "il-quarto-stato-hamburg", "name": "Il Quarto Stato", "image_url": "https://s3-media1.fl.yelpcdn.com/bphoto/a_Jf7xhDda1KWksIO4BPaQ/o.jpg", "is_closed": false, "url": "https://www.yelp.com/biz/il-quarto-stato-hamburg?adjust_creative=hBJOknVQJ58S5goQyjmwRw&utm_campaign=yelp_api_v3&utm_medium=api_v3_business_search&utm_source=hBJOknVQJ58S5goQyjmwRw", "review_count": 13, "categories": [{"alias": "cafes", "title": "Cafes"}], "rating": 4.5, "coordinates": {"latitude": 53.549857, "longitude": 9.898124}, "transactions": [], "price": "\u20ac\u20ac\u20ac", "location": {"address1": "Liebermann Str. 46", "address2": null, "address3": null, "city": "Hamburg", "zip_code": "22605", "country": "DE", "state": "HH", "display_address": ["Liebermann Str. 46", "22605 Hamburg", "Germany"]}, "phone": "+494046654662", "display_phone": "+49 40 46654662", "distance": 3521.8710437016284}, {"id": "IbCuFlSuBKCXjDbIaglUXg", "alias": "kebap-haus-finkenwerder-hamburg", "name": "Kebap Haus Finkenwerder", "image_url": "https://s3-media2.fl.yelpcdn.com/bphoto/L6blQRjh0Rmed29tFsLxkw/o.jpg", "is_closed": false, "url": "https://www.yelp.com/biz/kebap-haus-finkenwerder-hamburg?adjust_creative=hBJOknVQJ58S5goQyjmwRw&utm_campaign=yelp_api_v3&utm_medium=api_v3_business_search&utm_source=hBJOknVQJ58S5goQyjmwRw", "review_count": 1, "categories": [{"alias": "kebab", "title": "Kebab"}], "rating": 4.0, "coordinates": {"latitude": 53.5324395, "longitude": 9.8798759}, "transactions": [], "location": {"address1": "Steendiek 24", "address2": null, "address3": null, "city": "Hamburg", "zip_code": "21129", "country": "DE", "state": "HH", "display_address": ["Steendiek 24", "21129 Hamburg", "Germany"]}, "phone": "+49407424615", "display_phone": "+49 40 7424615", "distance": 1310.6456492509628}, {"id": "CdmyyQgCJPvmH_h3QD4tnQ", "alias": "zur-flottbeker-schmiede-hamburg-2", "name": "Zur Flottbeker Schmiede", "image_url": "https://s3-media1.fl.yelpcdn.com/bphoto/C-xUZJL-hwA-1Bpr4QcXXg/o.jpg", "is_closed": false, "url": "https://www.yelp.com/biz/zur-flottbeker-schmiede-hamburg-2?adjust_creative=hBJOknVQJ58S5goQyjmwRw&utm_campaign=yelp_api_v3&utm_medium=api_v3_business_search&utm_source=hBJOknVQJ58S5goQyjmwRw", "review_count": 39, "categories": [{"alias": "tapasmallplates", "title": "Tapas/Small Plates"}, {"alias": "wine_bars", "title": "Wine Bars"}, {"alias": "bistros", "title": "Bistros"}], "rating": 4.5, "coordinates": {"latitude": 53.55678, "longitude": 9.86495}, "transactions": [], "price": "\u20ac\u20ac\u20ac", "location": {"address1": "Baron Voght Str. 79", "address2": "", "address3": "", "city": "Hamburg", "zip_code": "22609", "country": "DE", "state": "HH", "display_address": ["Baron Voght Str. 79", "22609 Hamburg", "Germany"]}, "phone": "+494020918236", "display_phone": "+49 40 20918236", "distance": 4084.709587871981}, {"id": "Px4jy432G7pp-zZAfSZRAQ", "alias": "quellental-hamburg", "name": "Quellental", "image_url": "https://s3-media2.fl.yelpcdn.com/bphoto/bFjuPPJTVgi1avupn4ba_A/o.jpg", "is_closed": false, "url": "https://www.yelp.com/biz/quellental-hamburg?adjust_creative=hBJOknVQJ58S5goQyjmwRw&utm_campaign=yelp_api_v3&utm_medium=api_v3_business_search&utm_source=hBJOknVQJ58S5goQyjmwRw", "review_count": 35, "categories": [{"alias": "german", "title": "German"}], "rating": 4.0, "coordinates": {"latitude": 53.55265, "longitude": 9.85848}, "transactions": [], "price": "\u20ac\u20ac\u20ac", "location": {"address1": "Quellental 36", "address2": null, "address3": null, "city": "Hamburg", "zip_code": "22609", "country": "DE", "state": "HH", "display_address": ["Quellental 36", "22609 Hamburg", "Germany"]}, "phone": "+494082242270", "display_phone": "+49 40 82242270", "distance": 3751.53352376605}, {"id": "tIq1SBRBK9oxrl4cM9W3Kg", "alias": "restaurant-river-view-hamburg", "name": "Restaurant River View", "image_url": "https://s3-media3.fl.yelpcdn.com/bphoto/dJEmWOBFxjSCvx6WTtBnuA/o.jpg", "is_closed": false, "url": "https://www.yelp.com/biz/restaurant-river-view-hamburg?adjust_creative=hBJOknVQJ58S5goQyjmwRw&utm_campaign=yelp_api_v3&utm_medium=api_v3_business_search&utm_source=hBJOknVQJ58S5goQyjmwRw", "review_count": 17, "categories": [{"alias": "international", "title": "International"}], "rating": 3.0, "coordinates": {"latitude": 53.540825, "longitude": 9.862846}, "transactions": [], "price": "\u20ac\u20ac\u20ac", "location": {"address1": "Hein-Sa\u00df-Weg 40", "address2": "", "address3": null, "city": "Hamburg", "zip_code": "21129", "country": "DE", "state": "HH", "display_address": ["Hein-Sa\u00df-Weg 40", "21129 Hamburg", "Germany"]}, "phone": "+4940300849800", "display_phone": "+49 40 300849800", "distance": 2417.7998529920715}, {"id": "qAYKUlLT1nu1zcweQart8g", "alias": "block-house-hamburg-15", "name": "Block House", "image_url": "https://s3-media3.fl.yelpcdn.com/bphoto/9F3mdAuap4afgW6JE7XmUw/o.jpg", "is_closed": false, "url": "https://www.yelp.com/biz/block-house-hamburg-15?adjust_creative=hBJOknVQJ58S5goQyjmwRw&utm_campaign=yelp_api_v3&utm_medium=api_v3_business_search&utm_source=hBJOknVQJ58S5goQyjmwRw", "review_count": 86, "categories": [{"alias": "steak", "title": "Steakhouses"}], "rating": 4.0, "coordinates": {"latitude": 53.55955, "longitude": 9.88659}, "transactions": [], "price": "\u20ac\u20ac\u20ac", "location": {"address1": "Waitzstr. 1", "address2": null, "address3": null, "city": "Hamburg", "zip_code": "22607", "country": "DE", "state": "HH", "display_address": ["Waitzstr. 1", "22607 Hamburg", "Germany"]}, "phone": "+49408907273", "display_phone": "+49 40 8907273", "distance": 4349.882807825357}, {"id": "LBLxVFl-M62Dh6Balg6E0Q", "alias": "louisiana-hamburg-5", "name": "Louisiana", "image_url": "https://s3-media3.fl.yelpcdn.com/bphoto/OdsrfRe4xglkiQX8oa2Iig/o.jpg", "is_closed": false, "url": "https://www.yelp.com/biz/louisiana-hamburg-5?adjust_creative=hBJOknVQJ58S5goQyjmwRw&utm_campaign=yelp_api_v3&utm_medium=api_v3_business_search&utm_source=hBJOknVQJ58S5goQyjmwRw", "review_count": 75, "categories": [{"alias": "tradamerican", "title": "American (Traditional)"}, {"alias": "cocktailbars", "title": "Cocktail Bars"}, {"alias": "sportsbars", "title": "Sports Bars"}], "rating": 3.0, "coordinates": {"latitude": 53.5577366941248, "longitude": 9.90028387539371}, "transactions": [], "price": "\u20ac\u20ac", "location": {"address1": "Baurstr. 2", "address2": null, "address3": null, "city": "Hamburg", "zip_code": "22605", "country": "DE", "state": "HH", "display_address": ["Baurstr. 2", "22605 Hamburg", "Germany"]}, "phone": "+494088098085", "display_phone": "+49 40 88098085", "distance": 4388.167500217345}, {"id": "vrGm2GYmxOSfuyIlcU7b2w", "alias": "ralphs-kiosk-im-jenischpark-das-parkcaf\u00e9-hamburg", "name": "Ralphs Kiosk im Jenischpark - Das Parkcaf\u00e9", "image_url": "https://s3-media3.fl.yelpcdn.com/bphoto/3n2ddcxHmivqBmpymTWaWg/o.jpg", "is_closed": false, "url": "https://www.yelp.com/biz/ralphs-kiosk-im-jenischpark-das-parkcaf%C3%A9-hamburg?adjust_creative=hBJOknVQJ58S5goQyjmwRw&utm_campaign=yelp_api_v3&utm_medium=api_v3_business_search&utm_source=hBJOknVQJ58S5goQyjmwRw", "review_count": 13, "categories": [{"alias": "cafes", "title": "Cafes"}, {"alias": "kiosk", "title": "Kiosk"}], "rating": 4.0, "coordinates": {"latitude": 53.553618282277, "longitude": 9.86560400972712}, "transactions": [], "price": "\u20ac\u20ac", "location": {"address1": "Jenischpark", "address2": "Baron-Voght-Stra\u00dfe", "address3": null, "city": "Hamburg", "zip_code": "22609", "country": "DE", "state": "HH", "display_address": ["Jenischpark", "Baron-Voght-Stra\u00dfe", "22609 Hamburg", "Germany"]}, "phone": "+491724531743", "display_phone": "+49 172 4531743", "distance": 3728.771725659875}, {"id": "viU8W58X8U7CIk18WRp8IQ", "alias": "taverna-acchillion-zum-dorfkrug-hamburg", "name": "Taverna Acchillion - Zum Dorfkrug", "image_url": "https://s3-media2.fl.yelpcdn.com/bphoto/b-aqA76Y4d8LlXd8HqhBkA/o.jpg", "is_closed": false, "url": "https://www.yelp.com/biz/taverna-acchillion-zum-dorfkrug-hamburg?adjust_creative=hBJOknVQJ58S5goQyjmwRw&utm_campaign=yelp_api_v3&utm_medium=api_v3_business_search&utm_source=hBJOknVQJ58S5goQyjmwRw", "review_count": 7, "categories": [{"alias": "greek", "title": "Greek"}], "rating": 4.5, "coordinates": {"latitude": 53.47825, "longitude": 9.8878}, "transactions": [], "price": "\u20ac\u20ac", "location": {"address1": "Neuwiedenthaler Str. 133", "address2": "", "address3": "", "city": "Hamburg", "zip_code": "21147", "country": "DE", "state": "HH", "display_address": ["Neuwiedenthaler Str. 133", "21147 Hamburg", "Germany"]}, "phone": "+49407962103", "display_phone": "+49 40 7962103", "distance": 4780.692843269089}, {"id": "fRNCmStKTSCkJBkkSdwEZA", "alias": "museumscafe-hamburg", "name": "Museumscafe", "image_url": "https://s3-media3.fl.yelpcdn.com/bphoto/STB9V57s0QBKFYgC5NqNVw/o.jpg", "is_closed": false, "url": "https://www.yelp.com/biz/museumscafe-hamburg?adjust_creative=hBJOknVQJ58S5goQyjmwRw&utm_campaign=yelp_api_v3&utm_medium=api_v3_business_search&utm_source=hBJOknVQJ58S5goQyjmwRw", "review_count": 7, "categories": [{"alias": "cafes", "title": "Cafes"}], "rating": 4.5, "coordinates": {"latitude": 53.55265, "longitude": 9.86577}, "transactions": [], "price": "\u20ac\u20ac\u20ac", "location": {"address1": "Jenisch Haus", "address2": "Baron-Voght-Str. 50", "address3": "", "city": "Hamburg", "zip_code": "22609", "country": "DE", "state": "HH", "display_address": ["Jenisch Haus", "Baron-Voght-Str. 50", "22609 Hamburg", "Germany"]}, "phone": "+494082290822", "display_phone": "+49 40 82290822", "distance": 3625.455906880146}, {"id": "X5KZcnoHMCEBxPVcUZVOqw", "alias": "jim-block-hamburg-7", "name": "Jim Block", "image_url": "https://s3-media2.fl.yelpcdn.com/bphoto/fBKpO59QJt9zDMV11MQakQ/o.jpg", "is_closed": false, "url": "https://www.yelp.com/biz/jim-block-hamburg-7?adjust_creative=hBJOknVQJ58S5goQyjmwRw&utm_campaign=yelp_api_v3&utm_medium=api_v3_business_search&utm_source=hBJOknVQJ58S5goQyjmwRw", "review_count": 101, "categories": [{"alias": "burgers", "title": "Burgers"}, {"alias": "hotdogs", "title": "Fast Food"}], "rating": 4.0, "coordinates": {"latitude": 53.5586, "longitude": 9.88694}, "transactions": [], "price": "\u20ac\u20ac", "location": {"address1": "Statthalterplatz 5", "address2": null, "address3": null, "city": "Hamburg", "zip_code": "22605", "country": "DE", "state": "HH", "display_address": ["Statthalterplatz 5", "22605 Hamburg", "Germany"]}, "phone": "+4940854511", "display_phone": "+49 40 854511", "distance": 4256.674808214578}, {"id": "bLAeZH69Zei7fWFILX5ybA", "alias": "finkenwerder-fischbr\u00f6tchen-hamburg", "name": "Finkenwerder Fischbr\u00f6tchen", "image_url": "https://s3-media1.fl.yelpcdn.com/bphoto/1CT13QGzQzI58AWpS4e44Q/o.jpg", "is_closed": false, "url": "https://www.yelp.com/biz/finkenwerder-fischbr%C3%B6tchen-hamburg?adjust_creative=hBJOknVQJ58S5goQyjmwRw&utm_campaign=yelp_api_v3&utm_medium=api_v3_business_search&utm_source=hBJOknVQJ58S5goQyjmwRw", "review_count": 1, "categories": [{"alias": "hotdogs", "title": "Fast Food"}], "rating": 5.0, "coordinates": {"latitude": 53.5355, "longitude": 9.87869}, "transactions": [], "price": "\u20ac\u20ac", "location": {"address1": "Finkenwerder Landungsbr\u00fccke", "address2": "Benittstr. 9", "address3": null, "city": "Hamburg", "zip_code": "21129", "country": "DE", "state": "HH", "display_address": ["Finkenwerder Landungsbr\u00fccke", "Benittstr. 9", "21129 Hamburg", "Germany"]}, "phone": "", "display_phone": "", "distance": 1640.943513921957}, {"id": "lc9AIe9Qg6qoGdP5hmx61w", "alias": "restaurant-finkenwerder-elbblick-hamburg", "name": "Restaurant Finkenwerder Elbblick", "image_url": "https://s3-media1.fl.yelpcdn.com/bphoto/y1tdV5YvlrBHiRgylWPyIA/o.jpg", "is_closed": false, "url": "https://www.yelp.com/biz/restaurant-finkenwerder-elbblick-hamburg?adjust_creative=hBJOknVQJ58S5goQyjmwRw&utm_campaign=yelp_api_v3&utm_medium=api_v3_business_search&utm_source=hBJOknVQJ58S5goQyjmwRw", "review_count": 15, "categories": [{"alias": "coffee", "title": "Coffee & Tea"}, {"alias": "seafood", "title": "Seafood"}, {"alias": "gastropubs", "title": "Gastropubs"}], "rating": 3.5, "coordinates": {"latitude": 53.53864, "longitude": 9.8735199}, "transactions": [], "price": "\u20ac\u20ac\u20ac", "location": {"address1": "Focksweg 42", "address2": null, "address3": null, "city": "Hamburg", "zip_code": "21129", "country": "DE", "state": "HH", "display_address": ["Focksweg 42", "21129 Hamburg", "Germany"]}, "phone": "+49407427095", "display_phone": "+49 40 7427095", "distance": 2004.4121621041465}, {"id": "TJZF7S5nSKmrLIwxB23XSA", "alias": "moraba-hamburg-2", "name": "Moraba", "image_url": "https://s3-media2.fl.yelpcdn.com/bphoto/NIolCDWym7BFalyVXj2rpg/o.jpg", "is_closed": false, "url": "https://www.yelp.com/biz/moraba-hamburg-2?adjust_creative=hBJOknVQJ58S5goQyjmwRw&utm_campaign=yelp_api_v3&utm_medium=api_v3_business_search&utm_source=hBJOknVQJ58S5goQyjmwRw", "review_count": 2, "categories": [{"alias": "mediterranean", "title": "Mediterranean"}], "rating": 4.0, "coordinates": {"latitude": 53.559634, "longitude": 9.8823307}, "transactions": [], "location": {"address1": "Waitzstr. 25", "address2": "", "address3": null, "city": "Hamburg", "zip_code": "22607", "country": "DE", "state": "HH", "display_address": ["Waitzstr. 25", "22607 Hamburg", "Germany"]}, "phone": "+494085158760", "display_phone": "+49 40 85158760", "distance": 4335.040364462218}, {"id": "h79i_XdIZk_SR7IM7LnrYg", "alias": "l\u00fctt-d\u00f6ns-hamburg", "name": "L\u00fctt D\u00f6ns", "image_url": "https://s3-media1.fl.yelpcdn.com/bphoto/KVNNMPzKaC4wx0vu4F5-3A/o.jpg", "is_closed": false, "url": "https://www.yelp.com/biz/l%C3%BCtt-d%C3%B6ns-hamburg?adjust_creative=hBJOknVQJ58S5goQyjmwRw&utm_campaign=yelp_api_v3&utm_medium=api_v3_business_search&utm_source=hBJOknVQJ58S5goQyjmwRw", "review_count": 10, "categories": [{"alias": "sportsbars", "title": "Sports Bars"}, {"alias": "beergarden", "title": "Beer Garden"}], "rating": 4.5, "coordinates": {"latitude": 53.5591099, "longitude": 9.88734}, "transactions": [], "price": "\u20ac", "location": {"address1": "Reventlowstr. 64 a", "address2": "", "address3": "", "city": "Hamburg", "zip_code": "22605", "country": "DE", "state": "HH", "display_address": ["Reventlowstr. 64 a", "22605 Hamburg", "Germany"]}, "phone": "+49408801762", "display_phone": "+49 40 8801762", "distance": 4312.070541151348}, {"id": "O9cLlJIpBL_4xzR5cHVBTw", "alias": "caf\u00e9-schmidt-hamburg-3", "name": "Caf\u00e9 Schmidt", "image_url": "https://s3-media1.fl.yelpcdn.com/bphoto/ynKWWjF-5EfCzRuASQtRCg/o.jpg", "is_closed": false, "url": "https://www.yelp.com/biz/caf%C3%A9-schmidt-hamburg-3?adjust_creative=hBJOknVQJ58S5goQyjmwRw&utm_campaign=yelp_api_v3&utm_medium=api_v3_business_search&utm_source=hBJOknVQJ58S5goQyjmwRw", "review_count": 23, "categories": [{"alias": "cafes", "title": "Cafes"}, {"alias": "cakeshop", "title": "Patisserie/Cake Shop"}], "rating": 4.0, "coordinates": {"latitude": 53.559648, "longitude": 9.888449}, "transactions": [], "price": "\u20ac\u20ac", "location": {"address1": "Beselerplatz 10", "address2": null, "address3": null, "city": "Hamburg", "zip_code": "22607", "country": "DE", "state": "HH", "display_address": ["Beselerplatz 10", "22607 Hamburg", "Germany"]}, "phone": "+4940893995", "display_phone": "+49 40 893995", "distance": 4387.925996202658}, {"id": "JQWYJMCxJZfxjZmnHdf7VQ", "alias": "restaurant-engel-hamburg-4", "name": "Restaurant Engel", "image_url": "https://s3-media2.fl.yelpcdn.com/bphoto/8CP-arbxFvlxaZn1tpyqFQ/o.jpg", "is_closed": false, "url": "https://www.yelp.com/biz/restaurant-engel-hamburg-4?adjust_creative=hBJOknVQJ58S5goQyjmwRw&utm_campaign=yelp_api_v3&utm_medium=api_v3_business_search&utm_source=hBJOknVQJ58S5goQyjmwRw", "review_count": 102, "categories": [{"alias": "modern_european", "title": "Modern European"}], "rating": 4.0, "coordinates": {"latitude": 53.5464727809777, "longitude": 9.86277830252993}, "transactions": [], "price": "\u20ac\u20ac\u20ac", "location": {"address1": "Landeanlage Teufelsbr\u00fcck", "address2": "", "address3": "", "city": "Hamburg", "zip_code": "22609", "country": "DE", "state": "HH", "display_address": ["Landeanlage Teufelsbr\u00fcck", "22609 Hamburg", "Germany"]}, "phone": "+4940824187", "display_phone": "+49 40 824187", "distance": 3008.0591268859557}, {"id": "UasR82r2IQmJzk5H8f4pQw", "alias": "ton-peerstall-hamburg", "name": "To'n Peerstall", "image_url": "https://s3-media4.fl.yelpcdn.com/bphoto/6t_0Z2VvS60zi7tRWRk50Q/o.jpg", "is_closed": false, "url": "https://www.yelp.com/biz/ton-peerstall-hamburg?adjust_creative=hBJOknVQJ58S5goQyjmwRw&utm_campaign=yelp_api_v3&utm_medium=api_v3_business_search&utm_source=hBJOknVQJ58S5goQyjmwRw", "review_count": 22, "categories": [{"alias": "international", "title": "International"}], "rating": 3.0, "coordinates": {"latitude": 53.55469, "longitude": 9.86708}, "transactions": [], "price": "\u20ac\u20ac\u20ac", "location": {"address1": "Hochrad 69", "address2": "", "address3": null, "city": "Hamburg", "zip_code": "22605", "country": "DE", "state": "HH", "display_address": ["Hochrad 69", "22605 Hamburg", "Germany"]}, "phone": "+4940821793", "display_phone": "+49 40 821793", "distance": 3821.9575765531567}, {"id": "1uwARH5BoHB448C85pRDEA", "alias": "paulas-wirtshaus-hamburg", "name": "Paula's Wirtshaus", "image_url": "https://s3-media2.fl.yelpcdn.com/bphoto/fRMXIRfGIvnavu31xBdyxg/o.jpg", "is_closed": false, "url": "https://www.yelp.com/biz/paulas-wirtshaus-hamburg?adjust_creative=hBJOknVQJ58S5goQyjmwRw&utm_campaign=yelp_api_v3&utm_medium=api_v3_business_search&utm_source=hBJOknVQJ58S5goQyjmwRw", "review_count": 4, "categories": [{"alias": "swabian", "title": "Swabian"}, {"alias": "bavarian", "title": "Bavarian"}], "rating": 4.0, "coordinates": {"latitude": 53.5506699, "longitude": 9.89782}, "transactions": [], "location": {"address1": "Liebermannstr. 52", "address2": null, "address3": "", "city": "Hamburg", "zip_code": "22605", "country": "DE", "state": "HH", "display_address": ["Liebermannstr. 52", "22605 Hamburg", "Germany"]}, "phone": "+494020911062", "display_phone": "+49 40 20911062", "distance": 3598.1879928332764}, {"id": "8_KCb-X3F6MwPI6ae2tsLQ", "alias": "br\u00fccke-10-im-strandhaus-hamburg", "name": "Br\u00fccke 10 im Strandhaus", "image_url": "https://s3-media1.fl.yelpcdn.com/bphoto/g5C-V5WBMphx0NzzFX3WQg/o.jpg", "is_closed": false, "url": "https://www.yelp.com/biz/br%C3%BCcke-10-im-strandhaus-hamburg?adjust_creative=hBJOknVQJ58S5goQyjmwRw&utm_campaign=yelp_api_v3&utm_medium=api_v3_business_search&utm_source=hBJOknVQJ58S5goQyjmwRw", "review_count": 2, "categories": [{"alias": "bars", "title": "Bars"}, {"alias": "cafes", "title": "Cafes"}], "rating": 4.0, "coordinates": {"latitude": 53.544838, "longitude": 9.892318}, "transactions": [], "location": {"address1": "\u00d6velg\u00f6nner Hohlweg 12", "address2": "", "address3": null, "city": "Hamburg", "zip_code": "22605", "country": "DE", "state": "HH", "display_address": ["\u00d6velg\u00f6nner Hohlweg 12", "22605 Hamburg", "Germany"]}, "phone": "+494085352351", "display_phone": "+49 40 85352351", "distance": 2874.3910763805984}, {"id": "_GuX6r6zS913HEFfX_jb9g", "alias": "dampferimbiss-hamburg", "name": "Dampferimbiss", "image_url": "https://s3-media2.fl.yelpcdn.com/bphoto/-MDMDDDCqKzLSCT4iB_-tg/o.jpg", "is_closed": false, "url": "https://www.yelp.com/biz/dampferimbiss-hamburg?adjust_creative=hBJOknVQJ58S5goQyjmwRw&utm_campaign=yelp_api_v3&utm_medium=api_v3_business_search&utm_source=hBJOknVQJ58S5goQyjmwRw", "review_count": 11, "categories": [{"alias": "foodstands", "title": "Food Stands"}, {"alias": "fischbroetchen", "title": "Fischbroetchen"}], "rating": 3.5, "coordinates": {"latitude": 53.53587, "longitude": 9.87823}, "transactions": [], "price": "\u20ac", "location": {"address1": "F\u00e4hranleger", "address2": "Benittstr. 7", "address3": null, "city": "Hamburg", "zip_code": "21129", "country": "DE", "state": "HH", "display_address": ["F\u00e4hranleger", "Benittstr. 7", "21129 Hamburg", "Germany"]}, "phone": "+49407429414", "display_phone": "+49 40 7429414", "distance": 1681.0446540569126}, {"id": "SIYZ3bqLlhOGo4Uyl8i0lQ", "alias": "caf\u00e9-palme-im-botanischen-garten-hamburg", "name": "Caf\u00e9 Palme im Botanischen Garten", "image_url": "https://s3-media2.fl.yelpcdn.com/bphoto/bLSso-wYoSjKZ_Sjv_GQ1A/o.jpg", "is_closed": false, "url": "https://www.yelp.com/biz/caf%C3%A9-palme-im-botanischen-garten-hamburg?adjust_creative=hBJOknVQJ58S5goQyjmwRw&utm_campaign=yelp_api_v3&utm_medium=api_v3_business_search&utm_source=hBJOknVQJ58S5goQyjmwRw", "review_count": 7, "categories": [{"alias": "cafes", "title": "Cafes"}], "rating": 4.0, "coordinates": {"latitude": 53.5612, "longitude": 9.861}, "transactions": [], "price": "\u20ac\u20ac", "location": {"address1": "Ohnhorststr. 18", "address2": null, "address3": null, "city": "Hamburg", "zip_code": "22609", "country": "DE", "state": "HH", "display_address": ["Ohnhorststr. 18", "22609 Hamburg", "Germany"]}, "phone": "+494082290966", "display_phone": "+49 40 82290966", "distance": 4617.652490720401}, {"id": "WvHcp_RfDgRiD5yS8bYnZw", "alias": "zur-b\u00f6rse-hamburg", "name": "Zur B\u00f6rse", "image_url": "https://s3-media4.fl.yelpcdn.com/bphoto/HYxpQefAIJfd7lloWAfszw/o.jpg", "is_closed": false, "url": "https://www.yelp.com/biz/zur-b%C3%B6rse-hamburg?adjust_creative=hBJOknVQJ58S5goQyjmwRw&utm_campaign=yelp_api_v3&utm_medium=api_v3_business_search&utm_source=hBJOknVQJ58S5goQyjmwRw", "review_count": 3, "categories": [{"alias": "german", "title": "German"}, {"alias": "bowling", "title": "Bowling"}], "rating": 4.5, "coordinates": {"latitude": 53.4794, "longitude": 9.86294}, "transactions": [], "price": "\u20ac", "location": {"address1": "Francoper Str. 57", "address2": null, "address3": null, "city": "Hamburg", "zip_code": "21147", "country": "DE", "state": "HH", "display_address": ["Francoper Str. 57", "21147 Hamburg", "Germany"]}, "phone": "+49407018216", "display_phone": "+49 40 7018216", "distance": 4693.996953603057}, {"id": "T5RWIzZm9xoA1Wuy_8G-UQ", "alias": "l-italiano-hamburg", "name": "L'Italiano", "image_url": "https://s3-media2.fl.yelpcdn.com/bphoto/6-B9baT5IuDVptWqppRsQQ/o.jpg", "is_closed": false, "url": "https://www.yelp.com/biz/l-italiano-hamburg?adjust_creative=hBJOknVQJ58S5goQyjmwRw&utm_campaign=yelp_api_v3&utm_medium=api_v3_business_search&utm_source=hBJOknVQJ58S5goQyjmwRw", "review_count": 3, "categories": [{"alias": "italian", "title": "Italian"}], "rating": 3.0, "coordinates": {"latitude": 53.55953, "longitude": 9.88597}, "transactions": [], "location": {"address1": "Waitzstr. 3", "address2": null, "address3": null, "city": "Hamburg", "zip_code": "22607", "country": "DE", "state": "HH", "display_address": ["Waitzstr. 3", "22607 Hamburg", "Germany"]}, "phone": "+494089064802", "display_phone": "+49 40 89064802", "distance": 4345.186750695252}, {"id": "tAMw_EGUofPzjCw1BshUMQ", "alias": "elv-das-elb-restaurant-hamburg", "name": "Elv - Das Elb Restaurant", "image_url": "https://s3-media1.fl.yelpcdn.com/bphoto/qFpd-LgrkuRYK1Z1Z5IoRw/o.jpg", "is_closed": false, "url": "https://www.yelp.com/biz/elv-das-elb-restaurant-hamburg?adjust_creative=hBJOknVQJ58S5goQyjmwRw&utm_campaign=yelp_api_v3&utm_medium=api_v3_business_search&utm_source=hBJOknVQJ58S5goQyjmwRw", "review_count": 24, "categories": [{"alias": "german", "title": "German"}, {"alias": "italian", "title": "Italian"}], "rating": 2.5, "coordinates": {"latitude": 53.548647, "longitude": 9.8552989}, "transactions": [], "price": "\u20ac\u20ac\u20ac", "location": {"address1": "Elbuferweg 80", "address2": "", "address3": "", "city": "Hamburg", "zip_code": "22609", "country": "DE", "state": "HH", "display_address": ["Elbuferweg 80", "22609 Hamburg", "Germany"]}, "phone": "+4940820042", "display_phone": "+49 40 820042", "distance": 3415.017079674851}, {"id": "LfdL4mkHqrzhcDCL_IAm-w", "alias": "newport-cafe-hamburg", "name": "NewPort Cafe", "image_url": "https://s3-media4.fl.yelpcdn.com/bphoto/rAqv2_DuxXORaEgfuTuaaw/o.jpg", "is_closed": false, "url": "https://www.yelp.com/biz/newport-cafe-hamburg?adjust_creative=hBJOknVQJ58S5goQyjmwRw&utm_campaign=yelp_api_v3&utm_medium=api_v3_business_search&utm_source=hBJOknVQJ58S5goQyjmwRw", "review_count": 15, "categories": [{"alias": "breakfast_brunch", "title": "Breakfast & Brunch"}, {"alias": "cafes", "title": "Cafes"}], "rating": 4.5, "coordinates": {"latitude": 53.55963, "longitude": 9.8836}, "transactions": [], "price": "\u20ac\u20ac", "location": {"address1": "Waitzstr. 18", "address2": "", "address3": "", "city": "Hamburg", "zip_code": "22607", "country": "DE", "state": "HH", "display_address": ["Waitzstr. 18", "22607 Hamburg", "Germany"]}, "phone": "+494022623045", "display_phone": "+49 40 22623045", "distance": 4347.361522166886}, {"id": "zyTxQM6Ada_EIeVHDqbifA", "alias": "osaka-hamburg-2", "name": "Osaka", "image_url": "https://s3-media3.fl.yelpcdn.com/bphoto/qwwH7wXvFPAQ8ahm-DpqnQ/o.jpg", "is_closed": false, "url": "https://www.yelp.com/biz/osaka-hamburg-2?adjust_creative=hBJOknVQJ58S5goQyjmwRw&utm_campaign=yelp_api_v3&utm_medium=api_v3_business_search&utm_source=hBJOknVQJ58S5goQyjmwRw", "review_count": 26, "categories": [{"alias": "sushi", "title": "Sushi Bars"}], "rating": 2.5, "coordinates": {"latitude": 53.5594, "longitude": 9.8837}, "transactions": [], "price": "\u20ac\u20ac", "location": {"address1": "Waitzstr. 19", "address2": null, "address3": null, "city": "Hamburg", "zip_code": "22607", "country": "DE", "state": "HH", "display_address": ["Waitzstr. 19", "22607 Hamburg", "Germany"]}, "phone": "+494085506793", "display_phone": "+49 40 85506793", "distance": 4317.435046344412}, {"id": "nQ4PwWDBJX1S6HlUaFV-WA", "alias": "welk-bistro-hamburg-2", "name": "Welk Bistro", "image_url": "https://s3-media2.fl.yelpcdn.com/bphoto/8abUEpgfKIDmmt7IUstFuQ/o.jpg", "is_closed": false, "url": "https://www.yelp.com/biz/welk-bistro-hamburg-2?adjust_creative=hBJOknVQJ58S5goQyjmwRw&utm_campaign=yelp_api_v3&utm_medium=api_v3_business_search&utm_source=hBJOknVQJ58S5goQyjmwRw", "review_count": 1, "categories": [{"alias": "sandwiches", "title": "Sandwiches"}, {"alias": "pizza", "title": "Pizza"}], "rating": 5.0, "coordinates": {"latitude": 53.4801385, "longitude": 9.8750162}, "transactions": [], "location": {"address1": "Rehrstieg 54", "address2": "", "address3": null, "city": "Hamburg", "zip_code": "21147", "country": "DE", "state": "HH", "display_address": ["Rehrstieg 54", "21147 Hamburg", "Germany"]}, "phone": "+494079687177", "display_phone": "+49 40 79687177", "distance": 4520.6593065769985}, {"id": "9nxH2XceyoLqm7cYttMa1w", "alias": "dream-d\u00f6ner-hamburg", "name": "Dream D\u00f6ner", "image_url": "", "is_closed": false, "url": "https://www.yelp.com/biz/dream-d%C3%B6ner-hamburg?adjust_creative=hBJOknVQJ58S5goQyjmwRw&utm_campaign=yelp_api_v3&utm_medium=api_v3_business_search&utm_source=hBJOknVQJ58S5goQyjmwRw", "review_count": 6, "categories": [{"alias": "kebab", "title": "Kebab"}, {"alias": "foodstands", "title": "Food Stands"}], "rating": 4.5, "coordinates": {"latitude": 53.48013, "longitude": 9.87479}, "transactions": [], "price": "\u20ac", "location": {"address1": "Rehrstieg 54", "address2": "", "address3": "", "city": "Hamburg", "zip_code": "21147", "country": "DE", "state": "HH", "display_address": ["Rehrstieg 54", "21147 Hamburg", "Germany"]}, "phone": "", "display_phone": "", "distance": 4517.318237515178}, {"id": "Ao7NE4LZcKnxey59ORIWGg", "alias": "cafeteria-in-der-asklepios-klinik-altona-hamburg", "name": "Cafeteria in der Asklepios-Klinik Altona", "image_url": "https://s3-media4.fl.yelpcdn.com/bphoto/aGcbTeh3oIg7FMCAxzAcKA/o.jpg", "is_closed": false, "url": "https://www.yelp.com/biz/cafeteria-in-der-asklepios-klinik-altona-hamburg?adjust_creative=hBJOknVQJ58S5goQyjmwRw&utm_campaign=yelp_api_v3&utm_medium=api_v3_business_search&utm_source=hBJOknVQJ58S5goQyjmwRw", "review_count": 3, "categories": [{"alias": "cafes", "title": "Cafes"}], "rating": 1.5, "coordinates": {"latitude": 53.5542204502773, "longitude": 9.90173504655734}, "transactions": [], "location": {"address1": "Paul-Ehrlich-Str.1", "address2": null, "address3": null, "city": "Hamburg", "zip_code": "22763", "country": "DE", "state": "HH", "display_address": ["Paul-Ehrlich-Str.1", "22763 Hamburg", "Germany"]}, "phone": "", "display_phone": "", "distance": 4061.9631020457955}]