[{"id": "8XSZziK-2FuaItksHhgwUw", "alias": "duckdalben-international-seamens-club-hamburg", "name": "Duckdalben International Seamen's Club", "image_url": "https://s3-media1.fl.yelpcdn.com/bphoto/ilV-Z3ZAV0trBqoRpUoz7w/o.jpg", "is_closed": false, "url": "https://www.yelp.com/biz/duckdalben-international-seamens-club-hamburg?adjust_creative=hBJOknVQJ58S5goQyjmwRw&utm_campaign=yelp_api_v3&utm_medium=api_v3_business_search&utm_source=hBJOknVQJ58S5goQyjmwRw", "review_count": 12, "categories": [{"alias": "cafes", "title": "Cafes"}, {"alias": "religiousorgs", "title": "Religious Organizations"}, {"alias": "social_clubs", "title": "Social Clubs"}], "rating": 5.0, "coordinates": {"latitude": 53.52042, "longitude": 9.9213799}, "transactions": [], "price": "\u20ac", "location": {"address1": "Terminal Waltershof-Freihafen", "address2": "Zellmannstr. 16", "address3": null, "city": "Hamburg", "zip_code": "21129", "country": "DE", "state": "HH", "display_address": ["Terminal Waltershof-Freihafen", "Zellmannstr. 16", "21129 Hamburg", "Germany"]}, "phone": "+49407401661", "display_phone": "+49 40 7401661", "distance": 952.6446167420827}, {"id": "yI3Dc37NudFTaMcqTnTc1Q", "alias": "restaurant-zum-storchennest-hamburg", "name": "Restaurant Zum Storchennest", "image_url": "https://s3-media3.fl.yelpcdn.com/bphoto/p2iS9Ap2W5GOhaXOUPJMNg/o.jpg", "is_closed": false, "url": "https://www.yelp.com/biz/restaurant-zum-storchennest-hamburg?adjust_creative=hBJOknVQJ58S5goQyjmwRw&utm_campaign=yelp_api_v3&utm_medium=api_v3_business_search&utm_source=hBJOknVQJ58S5goQyjmwRw", "review_count": 12, "categories": [{"alias": "seafood", "title": "Seafood"}], "rating": 5.0, "coordinates": {"latitude": 53.5202, "longitude": 9.88556}, "transactions": [], "price": "\u20ac\u20ac\u20ac", "location": {"address1": "Osterfelddeich 2", "address2": null, "address3": null, "city": "Hamburg", "zip_code": "21129", "country": "DE", "state": "HH", "display_address": ["Osterfelddeich 2", "21129 Hamburg", "Germany"]}, "phone": "+49407426850", "display_phone": "+49 40 7426850", "distance": 1429.1341199420276}, {"id": "li-fsD3duC9MTXjYrSaaaQ", "alias": "lily-of-the-valley-hamburg", "name": "Lily of the Valley", "image_url": "https://s3-media3.fl.yelpcdn.com/bphoto/3oGdj52HBxGTveIxY8Ktlg/o.jpg", "is_closed": false, "url": "https://www.yelp.com/biz/lily-of-the-valley-hamburg?adjust_creative=hBJOknVQJ58S5goQyjmwRw&utm_campaign=yelp_api_v3&utm_medium=api_v3_business_search&utm_source=hBJOknVQJ58S5goQyjmwRw", "review_count": 2, "categories": [{"alias": "vegetarian", "title": "Vegetarian"}], "rating": 5.0, "coordinates": {"latitude": 53.5555845664879, "longitude": 9.92847494781017}, "transactions": [], "location": {"address1": "Bahrenfelder Str. 212", "address2": "", "address3": null, "city": "Hamburg", "zip_code": "22765", "country": "DE", "state": "HH", "display_address": ["Bahrenfelder Str. 212", "22765 Hamburg", "Germany"]}, "phone": "", "display_phone": "", "distance": 4142.106531755872}, {"id": "VVX9I5Cu1dshGhmKu4s-pg", "alias": "hala-hamburg", "name": "Hala", "image_url": "https://s3-media2.fl.yelpcdn.com/bphoto/XVifszimTiTrFlXh9xrY8A/o.jpg", "is_closed": false, "url": "https://www.yelp.com/biz/hala-hamburg?adjust_creative=hBJOknVQJ58S5goQyjmwRw&utm_campaign=yelp_api_v3&utm_medium=api_v3_business_search&utm_source=hBJOknVQJ58S5goQyjmwRw", "review_count": 37, "categories": [{"alias": "lebanese", "title": "Lebanese"}], "rating": 4.5, "coordinates": {"latitude": 53.55961, "longitude": 9.88792}, "transactions": [], "price": "\u20ac\u20ac\u20ac", "location": {"address1": "Beselerplatz 11", "address2": "", "address3": "", "city": "Hamburg", "zip_code": "22607", "country": "DE", "state": "HH", "display_address": ["Beselerplatz 11", "22607 Hamburg", "Germany"]}, "phone": "+494088167787", "display_phone": "+49 40 88167787", "distance": 4530.683530193696}, {"id": "ZQkVO4wrPbtz0WVaJm4UOg", "alias": "elsas-bistro-hamburg-2", "name": "Elsa's Bistro", "image_url": "https://s3-media2.fl.yelpcdn.com/bphoto/ioF7d5vyY8anfmmV8ZhJSQ/o.jpg", "is_closed": false, "url": "https://www.yelp.com/biz/elsas-bistro-hamburg-2?adjust_creative=hBJOknVQJ58S5goQyjmwRw&utm_campaign=yelp_api_v3&utm_medium=api_v3_business_search&utm_source=hBJOknVQJ58S5goQyjmwRw", "review_count": 14, "categories": [{"alias": "buffets", "title": "Buffets"}, {"alias": "international", "title": "International"}, {"alias": "ethiopian", "title": "Ethiopian"}], "rating": 5.0, "coordinates": {"latitude": 53.56274, "longitude": 9.92067}, "transactions": [], "price": "\u20ac\u20ac", "location": {"address1": "Bahrenfelder Steindamm 99", "address2": "", "address3": "", "city": "Hamburg", "zip_code": "22761", "country": "DE", "state": "HH", "display_address": ["Bahrenfelder Steindamm 99", "22761 Hamburg", "Germany"]}, "phone": "+49408903692", "display_phone": "+49 40 8903692", "distance": 4775.230382887482}, {"id": "15okiYple4dJTCutCgygiA", "alias": "s\u00fc\u00dfwasser-hamburg", "name": "S\u00fc\u00dfwasser", "image_url": "https://s3-media3.fl.yelpcdn.com/bphoto/dlfsqTuCU6k-xR1AkPxCGQ/o.jpg", "is_closed": false, "url": "https://www.yelp.com/biz/s%C3%BC%C3%9Fwasser-hamburg?adjust_creative=hBJOknVQJ58S5goQyjmwRw&utm_campaign=yelp_api_v3&utm_medium=api_v3_business_search&utm_source=hBJOknVQJ58S5goQyjmwRw", "review_count": 36, "categories": [{"alias": "seafood", "title": "Seafood"}], "rating": 4.0, "coordinates": {"latitude": 53.54473, "longitude": 9.90803}, "transactions": [], "price": "\u20ac\u20ac\u20ac", "location": {"address1": "\u00d6velg\u00f6nne 38", "address2": null, "address3": null, "city": "Hamburg", "zip_code": "22605", "country": "DE", "state": "HH", "display_address": ["\u00d6velg\u00f6nne 38", "22605 Hamburg", "Germany"]}, "phone": "+49408801242", "display_phone": "+49 40 8801242", "distance": 2701.4695136063838}, {"id": "H7ZpUeEIYGBBDs5y1UrsVg", "alias": "gaumenganoven-hamburg", "name": "GaumenGanoven", "image_url": "https://s3-media3.fl.yelpcdn.com/bphoto/XNtYX61xW9lxV_amBQYmxg/o.jpg", "is_closed": false, "url": "https://www.yelp.com/biz/gaumenganoven-hamburg?adjust_creative=hBJOknVQJ58S5goQyjmwRw&utm_campaign=yelp_api_v3&utm_medium=api_v3_business_search&utm_source=hBJOknVQJ58S5goQyjmwRw", "review_count": 10, "categories": [{"alias": "diners", "title": "Diners"}], "rating": 5.0, "coordinates": {"latitude": 53.554316, "longitude": 9.927259}, "transactions": [], "price": "\u20ac", "location": {"address1": "Friedensallee 7 - 9", "address2": "", "address3": "Lila Nashorn", "city": "Hamburg", "zip_code": "22765", "country": "DE", "state": "HH", "display_address": ["Friedensallee 7 - 9", "Lila Nashorn", "22765 Hamburg", "Germany"]}, "phone": "+4916097932535", "display_phone": "+49 160 97932535", "distance": 3982.237746082963}, {"id": "58pHfuFG7hV9UDyE0qj1GQ", "alias": "bistro-roth-hamburg", "name": "Bistro Roth", "image_url": "https://s3-media3.fl.yelpcdn.com/bphoto/Qk4VTs-eB2HGOzfwniOkIA/o.jpg", "is_closed": false, "url": "https://www.yelp.com/biz/bistro-roth-hamburg?adjust_creative=hBJOknVQJ58S5goQyjmwRw&utm_campaign=yelp_api_v3&utm_medium=api_v3_business_search&utm_source=hBJOknVQJ58S5goQyjmwRw", "review_count": 20, "categories": [{"alias": "pubs", "title": "Pubs"}, {"alias": "german", "title": "German"}, {"alias": "international", "title": "International"}], "rating": 4.5, "coordinates": {"latitude": 53.5492366, "longitude": 9.9277282}, "transactions": [], "price": "\u20ac\u20ac", "location": {"address1": "Rothestr. 34", "address2": null, "address3": null, "city": "Hamburg", "zip_code": "22765", "country": "DE", "state": "HH", "display_address": ["Rothestr. 34", "22765 Hamburg", "Germany"]}, "phone": "+494039904164", "display_phone": "+49 40 39904164", "distance": 3466.9430161701775}, {"id": "uaVxT9mBmSD7t3K3GxcCaA", "alias": "nuggis-elbkate-hamburg-3", "name": "Nuggi's Elbkate", "image_url": "https://s3-media3.fl.yelpcdn.com/bphoto/PRHiPw15p8Ek7t9SjXBVaQ/o.jpg", "is_closed": false, "url": "https://www.yelp.com/biz/nuggis-elbkate-hamburg-3?adjust_creative=hBJOknVQJ58S5goQyjmwRw&utm_campaign=yelp_api_v3&utm_medium=api_v3_business_search&utm_source=hBJOknVQJ58S5goQyjmwRw", "review_count": 1, "categories": [{"alias": "fischbroetchen", "title": "Fischbroetchen"}], "rating": 5.0, "coordinates": {"latitude": 53.5439821263843, "longitude": 9.91457478959806}, "transactions": [], "price": "\u20ac", "location": {"address1": "Neum\u00fchlen", "address2": "", "address3": null, "city": "Hamburg", "zip_code": "22605", "country": "DE", "state": "HH", "display_address": ["Neum\u00fchlen", "22605 Hamburg", "Germany"]}, "phone": "", "display_phone": "", "distance": 2650.9332237420995}, {"id": "0hGLR99D0tWjrHttfuO4uw", "alias": "scottys-hamburg-2", "name": "Scotty's", "image_url": "https://s3-media3.fl.yelpcdn.com/bphoto/bCv3nM-jqL54o1xGqab-rg/o.jpg", "is_closed": false, "url": "https://www.yelp.com/biz/scottys-hamburg-2?adjust_creative=hBJOknVQJ58S5goQyjmwRw&utm_campaign=yelp_api_v3&utm_medium=api_v3_business_search&utm_source=hBJOknVQJ58S5goQyjmwRw", "review_count": 44, "categories": [{"alias": "bars", "title": "Bars"}, {"alias": "italian", "title": "Italian"}], "rating": 4.0, "coordinates": {"latitude": 53.562862346879, "longitude": 9.9202522933199}, "transactions": [], "price": "\u20ac\u20ac", "location": {"address1": "Bahrenfelder Steindamm 101", "address2": "", "address3": "", "city": "Hamburg", "zip_code": "22761", "country": "DE", "state": "HH", "display_address": ["Bahrenfelder Steindamm 101", "22761 Hamburg", "Germany"]}, "phone": "+49408993343", "display_phone": "+49 40 8993343", "distance": 4783.504481864315}, {"id": "nMxvQC4fI6AhRbzkpB_6dA", "alias": "takumi-hamburg", "name": "Takumi", "image_url": "https://s3-media3.fl.yelpcdn.com/bphoto/bs-zX0ikeiRyj1tdWi32Dg/o.jpg", "is_closed": false, "url": "https://www.yelp.com/biz/takumi-hamburg?adjust_creative=hBJOknVQJ58S5goQyjmwRw&utm_campaign=yelp_api_v3&utm_medium=api_v3_business_search&utm_source=hBJOknVQJ58S5goQyjmwRw", "review_count": 8, "categories": [{"alias": "ramen", "title": "Ramen"}], "rating": 4.5, "coordinates": {"latitude": 53.55263, "longitude": 9.93083}, "transactions": [], "location": {"address1": "Gro\u00dfe Rainstr. 20", "address2": "", "address3": null, "city": "Hamburg", "zip_code": "22765", "country": "DE", "state": "HH", "display_address": ["Gro\u00dfe Rainstr. 20", "22765 Hamburg", "Germany"]}, "phone": "+494039893437", "display_phone": "+49 40 39893437", "distance": 3897.0929161425875}, {"id": "BUquzEkuhw3SJmZ_pt08-g", "alias": "strandperle-hamburg", "name": "Strandperle", "image_url": "https://s3-media3.fl.yelpcdn.com/bphoto/3rC4LMfBmxsXlA69VGnG7w/o.jpg", "is_closed": false, "url": "https://www.yelp.com/biz/strandperle-hamburg?adjust_creative=hBJOknVQJ58S5goQyjmwRw&utm_campaign=yelp_api_v3&utm_medium=api_v3_business_search&utm_source=hBJOknVQJ58S5goQyjmwRw", "review_count": 159, "categories": [{"alias": "german", "title": "German"}, {"alias": "beachbars", "title": "Beach Bars"}], "rating": 4.0, "coordinates": {"latitude": 53.544457914332, "longitude": 9.9054941735681}, "transactions": [], "price": "\u20ac\u20ac", "location": {"address1": "\u00d6velg\u00f6nne 60", "address2": "", "address3": "", "city": "Hamburg", "zip_code": "22605", "country": "DE", "state": "HH", "display_address": ["\u00d6velg\u00f6nne 60", "22605 Hamburg", "Germany"]}, "phone": "+494088099508", "display_phone": "+49 40 88099508", "distance": 2660.5743644302793}, {"id": "4lnupwSElthxWF9c_E3Pew", "alias": "restaurante-carrasco-hamburg", "name": "Restaurante Carrasco", "image_url": "https://s3-media2.fl.yelpcdn.com/bphoto/aQ3tTX5TObcT_rhwPKjQhw/o.jpg", "is_closed": false, "url": "https://www.yelp.com/biz/restaurante-carrasco-hamburg?adjust_creative=hBJOknVQJ58S5goQyjmwRw&utm_campaign=yelp_api_v3&utm_medium=api_v3_business_search&utm_source=hBJOknVQJ58S5goQyjmwRw", "review_count": 43, "categories": [{"alias": "steak", "title": "Steakhouses"}], "rating": 4.0, "coordinates": {"latitude": 53.5468729660244, "longitude": 9.93190210583498}, "transactions": [], "price": "\u20ac\u20ac", "location": {"address1": "Klopstockplatz 3", "address2": "", "address3": null, "city": "Hamburg", "zip_code": "22765", "country": "DE", "state": "HH", "display_address": ["Klopstockplatz 3", "22765 Hamburg", "Germany"]}, "phone": "+494021091495", "display_phone": "+49 40 21091495", "distance": 3352.301118854988}, {"id": "VjaAFfZMlG0OBdOV6WkmLg", "alias": "il-locale-hamburg", "name": "Il Locale", "image_url": "https://s3-media2.fl.yelpcdn.com/bphoto/XQY8I1Jl3-SJEzbYuvvNrQ/o.jpg", "is_closed": false, "url": "https://www.yelp.com/biz/il-locale-hamburg?adjust_creative=hBJOknVQJ58S5goQyjmwRw&utm_campaign=yelp_api_v3&utm_medium=api_v3_business_search&utm_source=hBJOknVQJ58S5goQyjmwRw", "review_count": 6, "categories": [{"alias": "pizza", "title": "Pizza"}, {"alias": "italian", "title": "Italian"}], "rating": 4.5, "coordinates": {"latitude": 53.54993, "longitude": 9.92508}, "transactions": [], "price": "\u20ac\u20ac", "location": {"address1": "Gro\u00dfe Brunnenstr. 41", "address2": "", "address3": "", "city": "Hamburg", "zip_code": "22763", "country": "DE", "state": "HH", "display_address": ["Gro\u00dfe Brunnenstr. 41", "22763 Hamburg", "Germany"]}, "phone": "+494039893689", "display_phone": "+49 40 39893689", "distance": 3467.439885172787}, {"id": "hXLP240NBom5GL8x--OYIQ", "alias": "maria-magdalena-hamburg", "name": "Maria Magdalena", "image_url": "https://s3-media2.fl.yelpcdn.com/bphoto/TbNwdXHPsJYQ6MvSm_PnkQ/o.jpg", "is_closed": false, "url": "https://www.yelp.com/biz/maria-magdalena-hamburg?adjust_creative=hBJOknVQJ58S5goQyjmwRw&utm_campaign=yelp_api_v3&utm_medium=api_v3_business_search&utm_source=hBJOknVQJ58S5goQyjmwRw", "review_count": 15, "categories": [{"alias": "latin", "title": "Latin American"}], "rating": 4.5, "coordinates": {"latitude": 53.5513434, "longitude": 9.9306947}, "transactions": [], "price": "\u20ac\u20ac", "location": {"address1": "Spritzenplatz 4", "address2": "", "address3": null, "city": "Hamburg", "zip_code": "22765", "country": "DE", "state": "HH", "display_address": ["Spritzenplatz 4", "22765 Hamburg", "Germany"]}, "phone": "+4917623753938", "display_phone": "+49 176 23753938", "distance": 3760.3251215691166}, {"id": "53sZ-2DGfjUA6Ut5jI_-AQ", "alias": "kypros-hamburg", "name": "Kypros", "image_url": "https://s3-media1.fl.yelpcdn.com/bphoto/0JgCIVHvZshaFBCjibHvYg/o.jpg", "is_closed": false, "url": "https://www.yelp.com/biz/kypros-hamburg?adjust_creative=hBJOknVQJ58S5goQyjmwRw&utm_campaign=yelp_api_v3&utm_medium=api_v3_business_search&utm_source=hBJOknVQJ58S5goQyjmwRw", "review_count": 105, "categories": [{"alias": "greek", "title": "Greek"}], "rating": 4.0, "coordinates": {"latitude": 53.5516999, "longitude": 9.93062}, "transactions": [], "price": "\u20ac\u20ac", "location": {"address1": "Spritzenplatz 18", "address2": null, "address3": null, "city": "Hamburg", "zip_code": "22765", "country": "DE", "state": "HH", "display_address": ["Spritzenplatz 18", "22765 Hamburg", "Germany"]}, "phone": "+4940393863", "display_phone": "+49 40 393863", "distance": 3794.738158739292}, {"id": "cmBkM8WkNzC1oO4piY3dvg", "alias": "elbraum-hamburg", "name": "Elbraum", "image_url": "https://s3-media2.fl.yelpcdn.com/bphoto/uF2tMqtXyI8y7dQVrndBRw/o.jpg", "is_closed": false, "url": "https://www.yelp.com/biz/elbraum-hamburg?adjust_creative=hBJOknVQJ58S5goQyjmwRw&utm_campaign=yelp_api_v3&utm_medium=api_v3_business_search&utm_source=hBJOknVQJ58S5goQyjmwRw", "review_count": 1, "categories": [{"alias": "german", "title": "German"}], "rating": 5.0, "coordinates": {"latitude": 53.5443, "longitude": 9.92091}, "transactions": [], "location": {"address1": "Neum\u00fchlen 17", "address2": null, "address3": null, "city": "Hamburg", "zip_code": "22763", "country": "DE", "state": "HH", "display_address": ["Neum\u00fchlen 17", "22763 Hamburg", "Germany"]}, "phone": "+494089724945", "display_phone": "+49 40 89724945", "distance": 2792.4920073441526}, {"id": "1ur4VWH_EnVK3cyHH_p7jQ", "alias": "das-weisse-haus-hamburg", "name": "Das Weisse Haus", "image_url": "https://s3-media4.fl.yelpcdn.com/bphoto/8yRIxbPRADExLIhO9G-siA/o.jpg", "is_closed": false, "url": "https://www.yelp.com/biz/das-weisse-haus-hamburg?adjust_creative=hBJOknVQJ58S5goQyjmwRw&utm_campaign=yelp_api_v3&utm_medium=api_v3_business_search&utm_source=hBJOknVQJ58S5goQyjmwRw", "review_count": 103, "categories": [{"alias": "german", "title": "German"}, {"alias": "international", "title": "International"}], "rating": 4.0, "coordinates": {"latitude": 53.5445512344073, "longitude": 9.91472614285271}, "transactions": [], "price": "\u20ac\u20ac\u20ac", "location": {"address1": "Neum\u00fchlen 50", "address2": "", "address3": null, "city": "Hamburg", "zip_code": "22763", "country": "DE", "state": "HH", "display_address": ["Neum\u00fchlen 50", "22763 Hamburg", "Germany"]}, "phone": "+49403909016", "display_phone": "+49 40 3909016", "distance": 2714.9740432530584}, {"id": "MXyiqM3WDeFZAbrjjOl6nQ", "alias": "nepheli-hamburg", "name": "Nepheli", "image_url": "https://s3-media3.fl.yelpcdn.com/bphoto/g4a1gmBeLX429FO0tfJQsw/o.jpg", "is_closed": false, "url": "https://www.yelp.com/biz/nepheli-hamburg?adjust_creative=hBJOknVQJ58S5goQyjmwRw&utm_campaign=yelp_api_v3&utm_medium=api_v3_business_search&utm_source=hBJOknVQJ58S5goQyjmwRw", "review_count": 33, "categories": [{"alias": "greek", "title": "Greek"}], "rating": 3.5, "coordinates": {"latitude": 53.557757, "longitude": 9.914213}, "transactions": [], "price": "\u20ac\u20ac", "location": {"address1": "Friedensallee 245", "address2": "", "address3": "", "city": "Hamburg", "zip_code": "22763", "country": "DE", "state": "HH", "display_address": ["Friedensallee 245", "22763 Hamburg", "Germany"]}, "phone": "+49408810201", "display_phone": "+49 40 8810201", "distance": 4165.3082815495145}, {"id": "RolSv0x82ykzv-dGcATflw", "alias": "teufels-k\u00fcche-hamburg-2", "name": "Teufels K\u00fcche", "image_url": "https://s3-media3.fl.yelpcdn.com/bphoto/kXgiqQIJpCPNrgUKRFk9zQ/o.jpg", "is_closed": false, "url": "https://www.yelp.com/biz/teufels-k%C3%BCche-hamburg-2?adjust_creative=hBJOknVQJ58S5goQyjmwRw&utm_campaign=yelp_api_v3&utm_medium=api_v3_business_search&utm_source=hBJOknVQJ58S5goQyjmwRw", "review_count": 2, "categories": [{"alias": "oriental", "title": "Oriental"}, {"alias": "foodstands", "title": "Food Stands"}], "rating": 4.5, "coordinates": {"latitude": 53.55014, "longitude": 9.92548}, "transactions": [], "location": {"address1": "Keplerstr. 18", "address2": "", "address3": null, "city": "Hamburg", "zip_code": "22765", "country": "DE", "state": "HH", "display_address": ["Keplerstr. 18", "22765 Hamburg", "Germany"]}, "phone": "+494034967777", "display_phone": "+49 40 34967777", "distance": 3505.5558015272445}, {"id": "gibMvLTWzEh_oKRrEDiLdw", "alias": "schamotte-hamburg-3", "name": "Schamotte", "image_url": "https://s3-media2.fl.yelpcdn.com/bphoto/WOsSUQ6a5qctggdBPiH4Ow/o.jpg", "is_closed": false, "url": "https://www.yelp.com/biz/schamotte-hamburg-3?adjust_creative=hBJOknVQJ58S5goQyjmwRw&utm_campaign=yelp_api_v3&utm_medium=api_v3_business_search&utm_source=hBJOknVQJ58S5goQyjmwRw", "review_count": 17, "categories": [{"alias": "salad", "title": "Salad"}, {"alias": "pizza", "title": "Pizza"}, {"alias": "soup", "title": "Soup"}], "rating": 4.5, "coordinates": {"latitude": 53.55275, "longitude": 9.93001}, "transactions": [], "price": "\u20ac", "location": {"address1": "Bahrenfelder Str. 122", "address2": null, "address3": "", "city": "Hamburg", "zip_code": "22765", "country": "DE", "state": "HH", "display_address": ["Bahrenfelder Str. 122", "22765 Hamburg", "Germany"]}, "phone": "+494030391213", "display_phone": "+49 40 30391213", "distance": 3886.256523767177}, {"id": "XXRAY8kkP_Km-OvF0xrlCQ", "alias": "mar-y-sol-hamburg", "name": "MAR Y SOL", "image_url": "https://s3-media4.fl.yelpcdn.com/bphoto/5zf1udsUXCKGHoTm3awZIA/o.jpg", "is_closed": false, "url": "https://www.yelp.com/biz/mar-y-sol-hamburg?adjust_creative=hBJOknVQJ58S5goQyjmwRw&utm_campaign=yelp_api_v3&utm_medium=api_v3_business_search&utm_source=hBJOknVQJ58S5goQyjmwRw", "review_count": 56, "categories": [{"alias": "spanish", "title": "Spanish"}], "rating": 4.5, "coordinates": {"latitude": 53.55203, "longitude": 9.929}, "transactions": [], "price": "\u20ac", "location": {"address1": "Ottenser Hauptstr. 36", "address2": "", "address3": "", "city": "Hamburg", "zip_code": "22765", "country": "DE", "state": "HH", "display_address": ["Ottenser Hauptstr. 36", "22765 Hamburg", "Germany"]}, "phone": "+49403907774", "display_phone": "+49 40 3907774", "distance": 3789.0130968027756}, {"id": "hrFXVGGt9U_pcp_ArsYHfg", "alias": "r\u00f6perhof-hamburg", "name": "R\u00f6perhof", "image_url": "https://s3-media1.fl.yelpcdn.com/bphoto/ot7Ze6HZ0IpQ5_HAV2XC2w/o.jpg", "is_closed": false, "url": "https://www.yelp.com/biz/r%C3%B6perhof-hamburg?adjust_creative=hBJOknVQJ58S5goQyjmwRw&utm_campaign=yelp_api_v3&utm_medium=api_v3_business_search&utm_source=hBJOknVQJ58S5goQyjmwRw", "review_count": 42, "categories": [{"alias": "german", "title": "German"}, {"alias": "mediterranean", "title": "Mediterranean"}], "rating": 4.5, "coordinates": {"latitude": 53.55349, "longitude": 9.89622}, "transactions": [], "price": "\u20ac\u20ac\u20ac", "location": {"address1": "Agathe-Lasch-Weg 2", "address2": null, "address3": null, "city": "Hamburg", "zip_code": "22605", "country": "DE", "state": "HH", "display_address": ["Agathe-Lasch-Weg 2", "22605 Hamburg", "Germany"]}, "phone": "+49408811200", "display_phone": "+49 40 8811200", "distance": 3733.382741668139}, {"id": "AV-RVcpCmZ2SwVyd6RZR9Q", "alias": "sutsche-hamburg", "name": "Sutsche", "image_url": "https://s3-media1.fl.yelpcdn.com/bphoto/cmrX1tRJGn4GXHyajG4FhA/o.jpg", "is_closed": false, "url": "https://www.yelp.com/biz/sutsche-hamburg?adjust_creative=hBJOknVQJ58S5goQyjmwRw&utm_campaign=yelp_api_v3&utm_medium=api_v3_business_search&utm_source=hBJOknVQJ58S5goQyjmwRw", "review_count": 30, "categories": [{"alias": "cafes", "title": "Cafes"}, {"alias": "bars", "title": "Bars"}], "rating": 4.0, "coordinates": {"latitude": 53.5443808225352, "longitude": 9.91282150625148}, "transactions": [], "price": "\u20ac\u20ac", "location": {"address1": "\u00d6velg\u00f6nne 2 - 3", "address2": "", "address3": "", "city": "Hamburg", "zip_code": "22605", "country": "DE", "state": "HH", "display_address": ["\u00d6velg\u00f6nne 2 - 3", "22605 Hamburg", "Germany"]}, "phone": "+494071663319", "display_phone": "+49 40 71663319", "distance": 2675.8965976939317}, {"id": "Fl2yMKBdvIavxSPiy7aAmw", "alias": "koytoyki-dionysos-hamburg", "name": "Koytoyki Dionysos", "image_url": "https://s3-media4.fl.yelpcdn.com/bphoto/f59-pu2Q6g-6tLD5hy224w/o.jpg", "is_closed": false, "url": "https://www.yelp.com/biz/koytoyki-dionysos-hamburg?adjust_creative=hBJOknVQJ58S5goQyjmwRw&utm_campaign=yelp_api_v3&utm_medium=api_v3_business_search&utm_source=hBJOknVQJ58S5goQyjmwRw", "review_count": 10, "categories": [{"alias": "greek", "title": "Greek"}], "rating": 4.5, "coordinates": {"latitude": 53.5489059256289, "longitude": 9.92541991174221}, "transactions": [], "price": "\u20ac\u20ac", "location": {"address1": "Gro\u00dfe Brunnenstr. 21", "address2": "", "address3": "", "city": "Hamburg", "zip_code": "22763", "country": "DE", "state": "HH", "display_address": ["Gro\u00dfe Brunnenstr. 21", "22763 Hamburg", "Germany"]}, "phone": "+49403902617", "display_phone": "+49 40 3902617", "distance": 3375.685165885424}, {"id": "IthBpCHRXgUUi0kD1UuDyg", "alias": "billy-the-butcher-hamburg-3", "name": "Billy the Butcher", "image_url": "https://s3-media2.fl.yelpcdn.com/bphoto/7fDaq-G8HaNgj-r--c_aXA/o.jpg", "is_closed": false, "url": "https://www.yelp.com/biz/billy-the-butcher-hamburg-3?adjust_creative=hBJOknVQJ58S5goQyjmwRw&utm_campaign=yelp_api_v3&utm_medium=api_v3_business_search&utm_source=hBJOknVQJ58S5goQyjmwRw", "review_count": 9, "categories": [{"alias": "burgers", "title": "Burgers"}, {"alias": "steak", "title": "Steakhouses"}, {"alias": "meats", "title": "Meat Shops"}], "rating": 5.0, "coordinates": {"latitude": 53.5520034, "longitude": 9.9319988}, "transactions": [], "price": "\u20ac\u20ac\u20ac", "location": {"address1": "Ottenser Hauptstr. 9", "address2": "", "address3": null, "city": "Hamburg", "zip_code": "22765", "country": "DE", "state": "HH", "display_address": ["Ottenser Hauptstr. 9", "22765 Hamburg", "Germany"]}, "phone": "", "display_phone": "", "distance": 3863.0728629714686}, {"id": "OjuVO3sB_a8CQRKX21ctNg", "alias": "hafenbahnhof-hamburg", "name": "Hafenbahnhof", "image_url": "https://s3-media2.fl.yelpcdn.com/bphoto/GkyYOyTRpSJYwCGBqxow2Q/o.jpg", "is_closed": false, "url": "https://www.yelp.com/biz/hafenbahnhof-hamburg?adjust_creative=hBJOknVQJ58S5goQyjmwRw&utm_campaign=yelp_api_v3&utm_medium=api_v3_business_search&utm_source=hBJOknVQJ58S5goQyjmwRw", "review_count": 35, "categories": [{"alias": "bars", "title": "Bars"}, {"alias": "cafes", "title": "Cafes"}, {"alias": "jazzandblues", "title": "Jazz & Blues"}], "rating": 4.5, "coordinates": {"latitude": 53.54479, "longitude": 9.92846}, "transactions": [], "price": "\u20ac\u20ac", "location": {"address1": "Gro\u00dfe Elbstr. 276", "address2": null, "address3": null, "city": "Hamburg", "zip_code": "22767", "country": "DE", "state": "HH", "display_address": ["Gro\u00dfe Elbstr. 276", "22767 Hamburg", "Germany"]}, "phone": "+494025482501", "display_phone": "+49 40 25482501", "distance": 3043.922057237842}, {"id": "RqfnGgz9mmNI73ZDzuDu1g", "alias": "mr-dam-hamburg-3", "name": "Mr. Dam", "image_url": "https://s3-media1.fl.yelpcdn.com/bphoto/0bCWGxfm5-RY_0Ik69xHhA/o.jpg", "is_closed": false, "url": "https://www.yelp.com/biz/mr-dam-hamburg-3?adjust_creative=hBJOknVQJ58S5goQyjmwRw&utm_campaign=yelp_api_v3&utm_medium=api_v3_business_search&utm_source=hBJOknVQJ58S5goQyjmwRw", "review_count": 34, "categories": [{"alias": "thai", "title": "Thai"}], "rating": 4.0, "coordinates": {"latitude": 53.55098, "longitude": 9.92986}, "transactions": [], "price": "\u20ac", "location": {"address1": "Mottenburger Twiete 4", "address2": "", "address3": "", "city": "Hamburg", "zip_code": "22765", "country": "DE", "state": "HH", "display_address": ["Mottenburger Twiete 4", "22765 Hamburg", "Germany"]}, "phone": "+494087603346", "display_phone": "+49 40 87603346", "distance": 3702.6164112931756}, {"id": "mnVm0aU2rZLP5ijZZBK2tA", "alias": "taverna-elia-hamburg", "name": "Taverna Elia", "image_url": "https://s3-media4.fl.yelpcdn.com/bphoto/_N4FOBlCJoNlqd_LID4WSA/o.jpg", "is_closed": false, "url": "https://www.yelp.com/biz/taverna-elia-hamburg?adjust_creative=hBJOknVQJ58S5goQyjmwRw&utm_campaign=yelp_api_v3&utm_medium=api_v3_business_search&utm_source=hBJOknVQJ58S5goQyjmwRw", "review_count": 23, "categories": [{"alias": "greek", "title": "Greek"}], "rating": 4.0, "coordinates": {"latitude": 53.556, "longitude": 9.9216003}, "transactions": [], "price": "\u20ac\u20ac", "location": {"address1": "Friedensallee 57", "address2": null, "address3": null, "city": "Hamburg", "zip_code": "22765", "country": "DE", "state": "HH", "display_address": ["Friedensallee 57", "22765 Hamburg", "Germany"]}, "phone": "+49403901143", "display_phone": "+49 40 3901143", "distance": 4055.39958222784}, {"id": "IwDEAkf2cm8g5fejJsflxg", "alias": "nostalgia-bei-sotiris-hamburg", "name": "Nostalgia bei Sotiris", "image_url": "https://s3-media4.fl.yelpcdn.com/bphoto/qLNinfWKMt6ae5i_JA_0dw/o.jpg", "is_closed": false, "url": "https://www.yelp.com/biz/nostalgia-bei-sotiris-hamburg?adjust_creative=hBJOknVQJ58S5goQyjmwRw&utm_campaign=yelp_api_v3&utm_medium=api_v3_business_search&utm_source=hBJOknVQJ58S5goQyjmwRw", "review_count": 108, "categories": [{"alias": "greek", "title": "Greek"}], "rating": 4.5, "coordinates": {"latitude": 53.550189, "longitude": 9.9270111}, "transactions": [], "price": "\u20ac\u20ac", "location": {"address1": "Eulenstr. 49", "address2": null, "address3": null, "city": "Hamburg", "zip_code": "22765", "country": "DE", "state": "HH", "display_address": ["Eulenstr. 49", "22765 Hamburg", "Germany"]}, "phone": "+494039907467", "display_phone": "+49 40 39907467", "distance": 3546.818028592889}, {"id": "DKwFP-UJOb3EvCbj_Snufw", "alias": "kleine-brunnenstrasse-1-hamburg", "name": "Kleine Brunnenstrasse 1", "image_url": "https://s3-media3.fl.yelpcdn.com/bphoto/lTjrIJOMLNSzC_tG6F_dbA/o.jpg", "is_closed": false, "url": "https://www.yelp.com/biz/kleine-brunnenstrasse-1-hamburg?adjust_creative=hBJOknVQJ58S5goQyjmwRw&utm_campaign=yelp_api_v3&utm_medium=api_v3_business_search&utm_source=hBJOknVQJ58S5goQyjmwRw", "review_count": 110, "categories": [{"alias": "modern_european", "title": "Modern European"}], "rating": 4.5, "coordinates": {"latitude": 53.5508, "longitude": 9.92708}, "transactions": [], "price": "\u20ac\u20ac\u20ac", "location": {"address1": "Kleine Brunnenstr. 1", "address2": null, "address3": null, "city": "Hamburg", "zip_code": "22765", "country": "DE", "state": "HH", "display_address": ["Kleine Brunnenstr. 1", "22765 Hamburg", "Germany"]}, "phone": "+494039907772", "display_phone": "+49 40 39907772", "distance": 3610.4767972774603}, {"id": "lob5u3JLGcRmRrX-lm6N4A", "alias": "manfred-ziems-schlachterei-hamburg", "name": "Manfred Ziems Schlachterei", "image_url": "https://s3-media3.fl.yelpcdn.com/bphoto/-T0sCH_ZxSz3yzdyQT6n5w/o.jpg", "is_closed": false, "url": "https://www.yelp.com/biz/manfred-ziems-schlachterei-hamburg?adjust_creative=hBJOknVQJ58S5goQyjmwRw&utm_campaign=yelp_api_v3&utm_medium=api_v3_business_search&utm_source=hBJOknVQJ58S5goQyjmwRw", "review_count": 3, "categories": [{"alias": "german", "title": "German"}, {"alias": "meats", "title": "Meat Shops"}], "rating": 5.0, "coordinates": {"latitude": 53.55399, "longitude": 9.9132}, "transactions": [], "price": "\u20ac\u20ac", "location": {"address1": "Behringstr. 81", "address2": "", "address3": null, "city": "Hamburg", "zip_code": "22763", "country": "DE", "state": "HH", "display_address": ["Behringstr. 81", "22763 Hamburg", "Germany"]}, "phone": "+49408808700", "display_phone": "+49 40 8808700", "distance": 3739.4818808729265}, {"id": "lREpXGRITldqjhvV9Afrzg", "alias": "karls-cafe-und-weine-hamburg-7", "name": "Karls Cafe & Weine", "image_url": "https://s3-media3.fl.yelpcdn.com/bphoto/hk6inSb2DwVVy7wvFZ_biQ/o.jpg", "is_closed": false, "url": "https://www.yelp.com/biz/karls-cafe-und-weine-hamburg-7?adjust_creative=hBJOknVQJ58S5goQyjmwRw&utm_campaign=yelp_api_v3&utm_medium=api_v3_business_search&utm_source=hBJOknVQJ58S5goQyjmwRw", "review_count": 20, "categories": [{"alias": "cafes", "title": "Cafes"}, {"alias": "ethiopian", "title": "Ethiopian"}], "rating": 5.0, "coordinates": {"latitude": 53.5500257, "longitude": 9.9251565}, "transactions": [], "price": "\u20ac\u20ac", "location": {"address1": "Keplerstr. 17 a", "address2": null, "address3": "", "city": "Hamburg", "zip_code": "22763", "country": "DE", "state": "HH", "display_address": ["Keplerstr. 17 a", "22763 Hamburg", "Germany"]}, "phone": "+491711247497", "display_phone": "+49 171 1247497", "distance": 3486.283602241139}, {"id": "Ej9yx_h8NUzI1iIzhWlh8A", "alias": "caf\u00e9-ol\u00e9-hamburg-4", "name": "Caf\u00e9 Ol\u00e9", "image_url": "https://s3-media1.fl.yelpcdn.com/bphoto/5K87dPYxogIo_Afh84RylQ/o.jpg", "is_closed": false, "url": "https://www.yelp.com/biz/caf%C3%A9-ol%C3%A9-hamburg-4?adjust_creative=hBJOknVQJ58S5goQyjmwRw&utm_campaign=yelp_api_v3&utm_medium=api_v3_business_search&utm_source=hBJOknVQJ58S5goQyjmwRw", "review_count": 21, "categories": [{"alias": "wine_bars", "title": "Wine Bars"}, {"alias": "cafes", "title": "Cafes"}], "rating": 4.5, "coordinates": {"latitude": 53.5495075, "longitude": 9.9271621}, "transactions": [], "price": "\u20ac\u20ac", "location": {"address1": "Keplerstr. 2", "address2": null, "address3": null, "city": "Hamburg", "zip_code": "22765", "country": "DE", "state": "HH", "display_address": ["Keplerstr. 2", "22765 Hamburg", "Germany"]}, "phone": "+4940394873", "display_phone": "+49 40 394873", "distance": 3480.30049412157}, {"id": "bT2Q1X93vuqcWx9MKfdM_Q", "alias": "l-orient-hamburg-9", "name": "L'Orient", "image_url": "https://s3-media2.fl.yelpcdn.com/bphoto/vjmTPSyEhnO2IQmOSSXFmw/o.jpg", "is_closed": false, "url": "https://www.yelp.com/biz/l-orient-hamburg-9?adjust_creative=hBJOknVQJ58S5goQyjmwRw&utm_campaign=yelp_api_v3&utm_medium=api_v3_business_search&utm_source=hBJOknVQJ58S5goQyjmwRw", "review_count": 35, "categories": [{"alias": "lebanese", "title": "Lebanese"}], "rating": 4.5, "coordinates": {"latitude": 53.55437, "longitude": 9.92875}, "transactions": [], "price": "\u20ac\u20ac", "location": {"address1": "Bahrenfelder Str. 172", "address2": "", "address3": "", "city": "Hamburg", "zip_code": "22765", "country": "DE", "state": "HH", "display_address": ["Bahrenfelder Str. 172", "22765 Hamburg", "Germany"]}, "phone": "+494060785747", "display_phone": "+49 40 60785747", "distance": 4024.7235065410614}, {"id": "MoDTvDChIqqo7iYC4B89ww", "alias": "ristorante-vito-hamburg", "name": "Ristorante Vito", "image_url": "https://s3-media2.fl.yelpcdn.com/bphoto/snJN6rHGCz2GRpqihIIDcQ/o.jpg", "is_closed": false, "url": "https://www.yelp.com/biz/ristorante-vito-hamburg?adjust_creative=hBJOknVQJ58S5goQyjmwRw&utm_campaign=yelp_api_v3&utm_medium=api_v3_business_search&utm_source=hBJOknVQJ58S5goQyjmwRw", "review_count": 49, "categories": [{"alias": "italian", "title": "Italian"}], "rating": 4.0, "coordinates": {"latitude": 53.5509, "longitude": 9.91262}, "transactions": [], "price": "\u20ac\u20ac\u20ac", "location": {"address1": "Bleickenallee 41", "address2": null, "address3": null, "city": "Hamburg", "zip_code": "22763", "country": "DE", "state": "HH", "display_address": ["Bleickenallee 41", "22763 Hamburg", "Germany"]}, "phone": "+49408800746", "display_phone": "+49 40 8800746", "distance": 3393.763721975291}, {"id": "WB4mdm_rsqu7FitjlP9yEw", "alias": "k\u00fchne-lage-bruns-u-knechten-hamburg", "name": "K\u00fchne Lage Bruns u. Knechten", "image_url": "https://s3-media3.fl.yelpcdn.com/bphoto/rxNvCzXC6SvaQBy9Hrs2IA/o.jpg", "is_closed": false, "url": "https://www.yelp.com/biz/k%C3%BChne-lage-bruns-u-knechten-hamburg?adjust_creative=hBJOknVQJ58S5goQyjmwRw&utm_campaign=yelp_api_v3&utm_medium=api_v3_business_search&utm_source=hBJOknVQJ58S5goQyjmwRw", "review_count": 32, "categories": [{"alias": "beer_and_wine", "title": "Beer, Wine & Spirits"}, {"alias": "bistros", "title": "Bistros"}], "rating": 4.5, "coordinates": {"latitude": 53.56245, "longitude": 9.9286999}, "transactions": [], "price": "\u20ac\u20ac", "location": {"address1": "Sch\u00fctzenstr. 39", "address2": null, "address3": null, "city": "Hamburg", "zip_code": "22761", "country": "DE", "state": "HH", "display_address": ["Sch\u00fctzenstr. 39", "22761 Hamburg", "Germany"]}, "phone": "+494032512404", "display_phone": "+49 40 32512404", "distance": 4873.887526259119}, {"id": "TJZF7S5nSKmrLIwxB23XSA", "alias": "moraba-hamburg-2", "name": "Moraba", "image_url": "https://s3-media2.fl.yelpcdn.com/bphoto/NIolCDWym7BFalyVXj2rpg/o.jpg", "is_closed": false, "url": "https://www.yelp.com/biz/moraba-hamburg-2?adjust_creative=hBJOknVQJ58S5goQyjmwRw&utm_campaign=yelp_api_v3&utm_medium=api_v3_business_search&utm_source=hBJOknVQJ58S5goQyjmwRw", "review_count": 2, "categories": [{"alias": "mediterranean", "title": "Mediterranean"}], "rating": 4.0, "coordinates": {"latitude": 53.559634, "longitude": 9.8823307}, "transactions": [], "location": {"address1": "Waitzstr. 25", "address2": "", "address3": null, "city": "Hamburg", "zip_code": "22607", "country": "DE", "state": "HH", "display_address": ["Waitzstr. 25", "22607 Hamburg", "Germany"]}, "phone": "+494085158760", "display_phone": "+49 40 85158760", "distance": 4645.3916354208695}, {"id": "zjU8sl3PNnw59FuUDcTxmw", "alias": "kleinhuis-restaurantschiff-hamburg-2", "name": "Kleinhuis' Restaurantschiff", "image_url": "https://s3-media4.fl.yelpcdn.com/bphoto/6AudSBZuSNa-fdLYizyrzQ/o.jpg", "is_closed": false, "url": "https://www.yelp.com/biz/kleinhuis-restaurantschiff-hamburg-2?adjust_creative=hBJOknVQJ58S5goQyjmwRw&utm_campaign=yelp_api_v3&utm_medium=api_v3_business_search&utm_source=hBJOknVQJ58S5goQyjmwRw", "review_count": 33, "categories": [{"alias": "german", "title": "German"}, {"alias": "cafes", "title": "Cafes"}], "rating": 4.0, "coordinates": {"latitude": 53.5436497362334, "longitude": 9.91471823936467}, "transactions": [], "price": "\u20ac\u20ac", "location": {"address1": "Ponton Neum\u00fchlen", "address2": "", "address3": "", "city": "Hamburg", "zip_code": "22763", "country": "DE", "state": "HH", "display_address": ["Ponton Neum\u00fchlen", "22763 Hamburg", "Germany"]}, "phone": "+4940397383", "display_phone": "+49 40 397383", "distance": 2616.408994073364}, {"id": "80qr2ztLBzNbEgupiX3P0g", "alias": "arturo1919-hamburg", "name": "Arturo1919", "image_url": "https://s3-media3.fl.yelpcdn.com/bphoto/zhFiaKyEA1SVNyArOu_QTA/o.jpg", "is_closed": false, "url": "https://www.yelp.com/biz/arturo1919-hamburg?adjust_creative=hBJOknVQJ58S5goQyjmwRw&utm_campaign=yelp_api_v3&utm_medium=api_v3_business_search&utm_source=hBJOknVQJ58S5goQyjmwRw", "review_count": 32, "categories": [{"alias": "italian", "title": "Italian"}], "rating": 4.5, "coordinates": {"latitude": 53.55315, "longitude": 9.92291}, "transactions": [], "price": "\u20ac\u20ac\u20ac", "location": {"address1": "Gro\u00dfe Brunnenstr. 105 - 107", "address2": null, "address3": "", "city": "Hamburg", "zip_code": "22763", "country": "DE", "state": "HH", "display_address": ["Gro\u00dfe Brunnenstr. 105 - 107", "22763 Hamburg", "Germany"]}, "phone": "+494046008891", "display_phone": "+49 40 46008891", "distance": 3766.9999507863977}, {"id": "B-UEeUPwgdr58qsrGQldsA", "alias": "taverna-olympos-hamburg", "name": "Taverna Olympos", "image_url": "https://s3-media1.fl.yelpcdn.com/bphoto/JHPMeevu0YOXAgrhjiI1MA/o.jpg", "is_closed": false, "url": "https://www.yelp.com/biz/taverna-olympos-hamburg?adjust_creative=hBJOknVQJ58S5goQyjmwRw&utm_campaign=yelp_api_v3&utm_medium=api_v3_business_search&utm_source=hBJOknVQJ58S5goQyjmwRw", "review_count": 15, "categories": [{"alias": "greek", "title": "Greek"}], "rating": 4.0, "coordinates": {"latitude": 53.5475976, "longitude": 9.9289297}, "transactions": [], "price": "\u20ac\u20ac", "location": {"address1": "Rothestr. 21", "address2": null, "address3": null, "city": "Hamburg", "zip_code": "22765", "country": "DE", "state": "HH", "display_address": ["Rothestr. 21", "22765 Hamburg", "Germany"]}, "phone": "+4940396586", "display_phone": "+49 40 396586", "distance": 3333.533394562643}, {"id": "lh0jh6oCqUkF2-WygdCQaA", "alias": "restaurant-mangold-hamburg", "name": "Restaurant Mangold", "image_url": "https://s3-media2.fl.yelpcdn.com/bphoto/eL--BiadbtzhYmDo59_b6A/o.jpg", "is_closed": false, "url": "https://www.yelp.com/biz/restaurant-mangold-hamburg?adjust_creative=hBJOknVQJ58S5goQyjmwRw&utm_campaign=yelp_api_v3&utm_medium=api_v3_business_search&utm_source=hBJOknVQJ58S5goQyjmwRw", "review_count": 42, "categories": [{"alias": "modern_european", "title": "Modern European"}], "rating": 4.0, "coordinates": {"latitude": 53.56278, "longitude": 9.91937}, "transactions": [], "price": "\u20ac\u20ac\u20ac", "location": {"address1": "Beim alten Gaswerk 3", "address2": "", "address3": null, "city": "Hamburg", "zip_code": "22761", "country": "DE", "state": "HH", "display_address": ["Beim alten Gaswerk 3", "22761 Hamburg", "Germany"]}, "phone": "+494089062468", "display_phone": "+49 40 89062468", "distance": 4764.288823860283}, {"id": "bewkz1hzXlWQ8rCZqblmIw", "alias": "il-quarto-stato-hamburg", "name": "Il Quarto Stato", "image_url": "https://s3-media1.fl.yelpcdn.com/bphoto/a_Jf7xhDda1KWksIO4BPaQ/o.jpg", "is_closed": false, "url": "https://www.yelp.com/biz/il-quarto-stato-hamburg?adjust_creative=hBJOknVQJ58S5goQyjmwRw&utm_campaign=yelp_api_v3&utm_medium=api_v3_business_search&utm_source=hBJOknVQJ58S5goQyjmwRw", "review_count": 13, "categories": [{"alias": "cafes", "title": "Cafes"}], "rating": 4.5, "coordinates": {"latitude": 53.549857, "longitude": 9.898124}, "transactions": [], "price": "\u20ac\u20ac\u20ac", "location": {"address1": "Liebermann Str. 46", "address2": null, "address3": null, "city": "Hamburg", "zip_code": "22605", "country": "DE", "state": "HH", "display_address": ["Liebermann Str. 46", "22605 Hamburg", "Germany"]}, "phone": "+494046654662", "display_phone": "+49 40 46654662", "distance": 3312.9978585601475}, {"id": "zhka2CHdz6AWIXLwxyQhQw", "alias": "brasserie-la-provence-hamburg", "name": "Brasserie La Provence", "image_url": "https://s3-media1.fl.yelpcdn.com/bphoto/7u-URovsrn4qCA3sphlVTA/o.jpg", "is_closed": false, "url": "https://www.yelp.com/biz/brasserie-la-provence-hamburg?adjust_creative=hBJOknVQJ58S5goQyjmwRw&utm_campaign=yelp_api_v3&utm_medium=api_v3_business_search&utm_source=hBJOknVQJ58S5goQyjmwRw", "review_count": 85, "categories": [{"alias": "french", "title": "French"}], "rating": 4.0, "coordinates": {"latitude": 53.55039, "longitude": 9.92704}, "transactions": [], "price": "\u20ac\u20ac", "location": {"address1": "Eulenstr. 42", "address2": null, "address3": null, "city": "Hamburg", "zip_code": "22765", "country": "DE", "state": "HH", "display_address": ["Eulenstr. 42", "22765 Hamburg", "Germany"]}, "phone": "+494030603407", "display_phone": "+49 40 30603407", "distance": 3570.8535383097737}, {"id": "z4VcZVuZn0GmYhQeTEu9nA", "alias": "china-bistro-yen-hamburg", "name": "China Bistro Yen", "image_url": "https://s3-media2.fl.yelpcdn.com/bphoto/r_cp0g4GYVg0H6Zu6fb2Fw/o.jpg", "is_closed": false, "url": "https://www.yelp.com/biz/china-bistro-yen-hamburg?adjust_creative=hBJOknVQJ58S5goQyjmwRw&utm_campaign=yelp_api_v3&utm_medium=api_v3_business_search&utm_source=hBJOknVQJ58S5goQyjmwRw", "review_count": 21, "categories": [{"alias": "chinese", "title": "Chinese"}], "rating": 4.5, "coordinates": {"latitude": 53.55531, "longitude": 9.92578}, "transactions": [], "price": "\u20ac", "location": {"address1": "Friedensallee 13", "address2": "", "address3": "", "city": "Hamburg", "zip_code": "22765", "country": "DE", "state": "HH", "display_address": ["Friedensallee 13", "22765 Hamburg", "Germany"]}, "phone": "+494028512646", "display_phone": "+49 40 28512646", "distance": 4055.9170224316636}, {"id": "hGcLtu6yJ6Uj-y3KmEbixg", "alias": "landhaus-scherrer-hamburg-2", "name": "Landhaus Scherrer", "image_url": "https://s3-media2.fl.yelpcdn.com/bphoto/_QtmsJDWeXvUt1671ECjdg/o.jpg", "is_closed": false, "url": "https://www.yelp.com/biz/landhaus-scherrer-hamburg-2?adjust_creative=hBJOknVQJ58S5goQyjmwRw&utm_campaign=yelp_api_v3&utm_medium=api_v3_business_search&utm_source=hBJOknVQJ58S5goQyjmwRw", "review_count": 57, "categories": [{"alias": "german", "title": "German"}], "rating": 4.5, "coordinates": {"latitude": 53.5461039, "longitude": 9.916433}, "transactions": [], "price": "\u20ac\u20ac\u20ac\u20ac", "location": {"address1": "Elbchaussee 130", "address2": null, "address3": null, "city": "Hamburg", "zip_code": "22763", "country": "DE", "state": "HH", "display_address": ["Elbchaussee 130", "22763 Hamburg", "Germany"]}, "phone": "+4940883070030", "display_phone": "+49 40 883070030", "distance": 2906.5017186507403}, {"id": "LBLxVFl-M62Dh6Balg6E0Q", "alias": "louisiana-hamburg-5", "name": "Louisiana", "image_url": "https://s3-media3.fl.yelpcdn.com/bphoto/OdsrfRe4xglkiQX8oa2Iig/o.jpg", "is_closed": false, "url": "https://www.yelp.com/biz/louisiana-hamburg-5?adjust_creative=hBJOknVQJ58S5goQyjmwRw&utm_campaign=yelp_api_v3&utm_medium=api_v3_business_search&utm_source=hBJOknVQJ58S5goQyjmwRw", "review_count": 75, "categories": [{"alias": "tradamerican", "title": "American (Traditional)"}, {"alias": "cocktailbars", "title": "Cocktail Bars"}, {"alias": "sportsbars", "title": "Sports Bars"}], "rating": 3.0, "coordinates": {"latitude": 53.5577366941248, "longitude": 9.90028387539371}, "transactions": [], "price": "\u20ac\u20ac", "location": {"address1": "Baurstr. 2", "address2": null, "address3": null, "city": "Hamburg", "zip_code": "22605", "country": "DE", "state": "HH", "display_address": ["Baurstr. 2", "22605 Hamburg", "Germany"]}, "phone": "+494088098085", "display_phone": "+49 40 88098085", "distance": 4159.760732523424}, {"id": "unf3LriF8t2tg6DQVA0Mbg", "alias": "rainvilles-elbterrassen-hamburg", "name": "Rainvilles Elbterrassen", "image_url": "https://s3-media2.fl.yelpcdn.com/bphoto/ysQGc-RpfR_9nbMTXxGvFA/o.jpg", "is_closed": false, "url": "https://www.yelp.com/biz/rainvilles-elbterrassen-hamburg?adjust_creative=hBJOknVQJ58S5goQyjmwRw&utm_campaign=yelp_api_v3&utm_medium=api_v3_business_search&utm_source=hBJOknVQJ58S5goQyjmwRw", "review_count": 9, "categories": [{"alias": "international", "title": "International"}, {"alias": "brasseries", "title": "Brasseries"}, {"alias": "german", "title": "German"}], "rating": 3.5, "coordinates": {"latitude": 53.546, "longitude": 9.93087}, "transactions": [], "price": "\u20ac\u20ac\u20ac", "location": {"address1": "Rainvilleterrasse 4", "address2": "", "address3": "", "city": "Hamburg", "zip_code": "22765", "country": "DE", "state": "HH", "display_address": ["Rainvilleterrasse 4", "22765 Hamburg", "Germany"]}, "phone": "+494070383399", "display_phone": "+49 40 70383399", "distance": 3204.594266513921}, {"id": "s6U3uDUPKiGu9SDVeFte7w", "alias": "caf\u00e9-elbterrassen-hamburg", "name": "Caf\u00e9 Elbterrassen", "image_url": "https://s3-media3.fl.yelpcdn.com/bphoto/Y53Hlup19k5oRx8-9bE5gA/o.jpg", "is_closed": false, "url": "https://www.yelp.com/biz/caf%C3%A9-elbterrassen-hamburg?adjust_creative=hBJOknVQJ58S5goQyjmwRw&utm_campaign=yelp_api_v3&utm_medium=api_v3_business_search&utm_source=hBJOknVQJ58S5goQyjmwRw", "review_count": 51, "categories": [{"alias": "german", "title": "German"}, {"alias": "cafes", "title": "Cafes"}], "rating": 3.5, "coordinates": {"latitude": 53.54479, "longitude": 9.91462}, "transactions": [], "price": "\u20ac\u20ac", "location": {"address1": "\u00d6velg\u00f6nne 1", "address2": null, "address3": null, "city": "Hamburg", "zip_code": "22605", "country": "DE", "state": "HH", "display_address": ["\u00d6velg\u00f6nne 1", "22605 Hamburg", "Germany"]}, "phone": "+49403903443", "display_phone": "+49 40 3903443", "distance": 2731.473905052756}, {"id": "gvgkKJIBoyWRGzJDAjFt-w", "alias": "anna-bistro-hamburg", "name": "anna Bistro", "image_url": "https://s3-media2.fl.yelpcdn.com/bphoto/izrVSnwVz3ruFUpbqKWrWQ/o.jpg", "is_closed": false, "url": "https://www.yelp.com/biz/anna-bistro-hamburg?adjust_creative=hBJOknVQJ58S5goQyjmwRw&utm_campaign=yelp_api_v3&utm_medium=api_v3_business_search&utm_source=hBJOknVQJ58S5goQyjmwRw", "review_count": 5, "categories": [{"alias": "cafes", "title": "Cafes"}, {"alias": "bistros", "title": "Bistros"}], "rating": 4.5, "coordinates": {"latitude": 53.554292, "longitude": 9.931522}, "transactions": [], "price": "\u20ac\u20ac", "location": {"address1": "Hohenesch 55", "address2": null, "address3": null, "city": "Hamburg", "zip_code": "22765", "country": "DE", "state": "HH", "display_address": ["Hohenesch 55", "22765 Hamburg", "Germany"]}, "phone": "+494039805838", "display_phone": "+49 40 39805838", "distance": 4082.343154780798}, {"id": "G5ZyLzwaGwVLL8cbt9jMKA", "alias": "elbfisch-hamburg", "name": "Elbfisch", "image_url": "https://s3-media2.fl.yelpcdn.com/bphoto/z8rkSZFfnoRyyjb9pOO4kw/o.jpg", "is_closed": false, "url": "https://www.yelp.com/biz/elbfisch-hamburg?adjust_creative=hBJOknVQJ58S5goQyjmwRw&utm_campaign=yelp_api_v3&utm_medium=api_v3_business_search&utm_source=hBJOknVQJ58S5goQyjmwRw", "review_count": 94, "categories": [{"alias": "seafood", "title": "Seafood"}, {"alias": "fishnchips", "title": "Fish & Chips"}], "rating": 4.0, "coordinates": {"latitude": 53.5508827511059, "longitude": 9.93013300936155}, "transactions": [], "price": "\u20ac\u20ac", "location": {"address1": "Bahrenfelder Str. 88", "address2": "", "address3": "", "city": "Hamburg", "zip_code": "22765", "country": "DE", "state": "HH", "display_address": ["Bahrenfelder Str. 88", "22765 Hamburg", "Germany"]}, "phone": "+494039909277", "display_phone": "+49 40 39909277", "distance": 3698.3644303247684}, {"id": "bhECPxvYRn22Nf75lKS_sA", "alias": "hatari-hamburg-2", "name": "Hatari", "image_url": "https://s3-media2.fl.yelpcdn.com/bphoto/QUJHYmQaGeZyRGOLocle7Q/o.jpg", "is_closed": false, "url": "https://www.yelp.com/biz/hatari-hamburg-2?adjust_creative=hBJOknVQJ58S5goQyjmwRw&utm_campaign=yelp_api_v3&utm_medium=api_v3_business_search&utm_source=hBJOknVQJ58S5goQyjmwRw", "review_count": 75, "categories": [{"alias": "palatine", "title": "Palatine"}], "rating": 3.5, "coordinates": {"latitude": 53.55072, "longitude": 9.92531}, "transactions": [], "price": "\u20ac\u20ac", "location": {"address1": "Eulenstr. 77", "address2": "", "address3": "", "city": "Hamburg", "zip_code": "22763", "country": "DE", "state": "HH", "display_address": ["Eulenstr. 77", "22763 Hamburg", "Germany"]}, "phone": "+494039909050", "display_phone": "+49 40 39909050", "distance": 3557.81982475595}, {"id": "xZzlkH4osfDjVU2Q7CrS6w", "alias": "il-gambero-hamburg-2", "name": "Il Gambero", "image_url": "https://s3-media4.fl.yelpcdn.com/bphoto/jZoYti3zSpu0Lw9hBKa3-Q/o.jpg", "is_closed": false, "url": "https://www.yelp.com/biz/il-gambero-hamburg-2?adjust_creative=hBJOknVQJ58S5goQyjmwRw&utm_campaign=yelp_api_v3&utm_medium=api_v3_business_search&utm_source=hBJOknVQJ58S5goQyjmwRw", "review_count": 4, "categories": [{"alias": "italian", "title": "Italian"}], "rating": 5.0, "coordinates": {"latitude": 53.5463270055396, "longitude": 9.92223020370488}, "transactions": [], "price": "\u20ac\u20ac\u20ac", "location": {"address1": "Elbchaussee 94", "address2": "", "address3": "", "city": "Hamburg", "zip_code": "22763", "country": "DE", "state": "HH", "display_address": ["Elbchaussee 94", "22763 Hamburg", "Germany"]}, "phone": "+494038079985", "display_phone": "+49 40 38079985", "distance": 3034.0141761250034}, {"id": "pAULuFrzubYmxMVrEd_bog", "alias": "zum-alten-lotsenhaus-hamburg", "name": "Zum Alten Lotsenhaus", "image_url": "https://s3-media2.fl.yelpcdn.com/bphoto/-dJPTEX3O3ZwYtfKY_CR5Q/o.jpg", "is_closed": false, "url": "https://www.yelp.com/biz/zum-alten-lotsenhaus-hamburg?adjust_creative=hBJOknVQJ58S5goQyjmwRw&utm_campaign=yelp_api_v3&utm_medium=api_v3_business_search&utm_source=hBJOknVQJ58S5goQyjmwRw", "review_count": 55, "categories": [{"alias": "seafood", "title": "Seafood"}], "rating": 4.0, "coordinates": {"latitude": 53.54489, "longitude": 9.91201}, "transactions": [], "price": "\u20ac\u20ac\u20ac", "location": {"address1": "\u00d6velg\u00f6nne 13", "address2": null, "address3": null, "city": "Hamburg", "zip_code": "22605", "country": "DE", "state": "HH", "display_address": ["\u00d6velg\u00f6nne 13", "22605 Hamburg", "Germany"]}, "phone": "+49408800196", "display_phone": "+49 40 8800196", "distance": 2732.3957378056944}, {"id": "VfsIIOMJoz0kQJLU6MJNEQ", "alias": "business-club-hamburg-hamburg", "name": "Business Club Hamburg", "image_url": "https://s3-media3.fl.yelpcdn.com/bphoto/JqZmi86k9BsEHxrCO57LAg/o.jpg", "is_closed": false, "url": "https://www.yelp.com/biz/business-club-hamburg-hamburg?adjust_creative=hBJOknVQJ58S5goQyjmwRw&utm_campaign=yelp_api_v3&utm_medium=api_v3_business_search&utm_source=hBJOknVQJ58S5goQyjmwRw", "review_count": 5, "categories": [{"alias": "social_clubs", "title": "Social Clubs"}, {"alias": "restaurants", "title": "Restaurants"}], "rating": 5.0, "coordinates": {"latitude": 53.5464, "longitude": 9.9281}, "transactions": [], "location": {"address1": "Elbchaussee 43", "address2": null, "address3": null, "city": "Hamburg", "zip_code": "22765", "country": "DE", "state": "HH", "display_address": ["Elbchaussee 43", "22765 Hamburg", "Germany"]}, "phone": "+494042107010", "display_phone": "+49 40 42107010", "distance": 3189.758838654047}, {"id": "Eg1s1qdoPi0XlMOv0Ts9TQ", "alias": "cooko-hamburg", "name": "Cooko", "image_url": "https://s3-media1.fl.yelpcdn.com/bphoto/WGnwqBqnLEhkckPyghXRHQ/o.jpg", "is_closed": false, "url": "https://www.yelp.com/biz/cooko-hamburg?adjust_creative=hBJOknVQJ58S5goQyjmwRw&utm_campaign=yelp_api_v3&utm_medium=api_v3_business_search&utm_source=hBJOknVQJ58S5goQyjmwRw", "review_count": 70, "categories": [{"alias": "vietnamese", "title": "Vietnamese"}], "rating": 3.5, "coordinates": {"latitude": 53.55596, "longitude": 9.9282}, "transactions": [], "price": "\u20ac\u20ac", "location": {"address1": "Bahrenfelderstr. 211", "address2": "", "address3": "", "city": "Hamburg", "zip_code": "22765", "country": "DE", "state": "HH", "display_address": ["Bahrenfelderstr. 211", "22765 Hamburg", "Germany"]}, "phone": "+494041358713", "display_phone": "+49 40 41358713", "distance": 4165.10429515266}, {"id": "a-RJwWCAE3HfKUEJ_UoHIw", "alias": "the-opposto-hamburg", "name": "The Opposto", "image_url": "https://s3-media1.fl.yelpcdn.com/bphoto/Ya80jF6efG16GheRFoTQ9w/o.jpg", "is_closed": false, "url": "https://www.yelp.com/biz/the-opposto-hamburg?adjust_creative=hBJOknVQJ58S5goQyjmwRw&utm_campaign=yelp_api_v3&utm_medium=api_v3_business_search&utm_source=hBJOknVQJ58S5goQyjmwRw", "review_count": 5, "categories": [{"alias": "italian", "title": "Italian"}], "rating": 4.0, "coordinates": {"latitude": 53.550783, "longitude": 9.929898}, "transactions": [], "location": {"address1": "Bahrenfelder Str. 67", "address2": "", "address3": null, "city": "Hamburg", "zip_code": "22765", "country": "DE", "state": "HH", "display_address": ["Bahrenfelder Str. 67", "22765 Hamburg", "Germany"]}, "phone": "+494088175475", "display_phone": "+49 40 88175475", "distance": 3680.5238784047933}, {"id": "T0Mesn7gD_v-7FAtNBwx0w", "alias": "zweipunktnull-hamburg", "name": "Zweipunktnull", "image_url": "https://s3-media1.fl.yelpcdn.com/bphoto/lx94civc372bSPAqdNEwlA/o.jpg", "is_closed": false, "url": "https://www.yelp.com/biz/zweipunktnull-hamburg?adjust_creative=hBJOknVQJ58S5goQyjmwRw&utm_campaign=yelp_api_v3&utm_medium=api_v3_business_search&utm_source=hBJOknVQJ58S5goQyjmwRw", "review_count": 15, "categories": [{"alias": "pizza", "title": "Pizza"}], "rating": 4.5, "coordinates": {"latitude": 53.55473, "longitude": 9.92739}, "transactions": [], "price": "\u20ac\u20ac", "location": {"address1": "Friedensallee 20", "address2": null, "address3": "", "city": "Hamburg", "zip_code": "22765", "country": "DE", "state": "HH", "display_address": ["Friedensallee 20", "22765 Hamburg", "Germany"]}, "phone": "+494034967466", "display_phone": "+49 40 34967466", "distance": 4035.1871593519836}, {"id": "ljAm-SHYzl9QBSe7v0fSEw", "alias": "taverna-sotiris-hamburg", "name": "Taverna Sotiris", "image_url": "https://s3-media3.fl.yelpcdn.com/bphoto/jr6Y4aOE-eeUTovLJ5MvlA/o.jpg", "is_closed": false, "url": "https://www.yelp.com/biz/taverna-sotiris-hamburg?adjust_creative=hBJOknVQJ58S5goQyjmwRw&utm_campaign=yelp_api_v3&utm_medium=api_v3_business_search&utm_source=hBJOknVQJ58S5goQyjmwRw", "review_count": 64, "categories": [{"alias": "greek", "title": "Greek"}], "rating": 4.0, "coordinates": {"latitude": 53.55618, "longitude": 9.92806}, "transactions": [], "price": "\u20ac\u20ac", "location": {"address1": "Barnerstr. 42", "address2": "", "address3": "", "city": "Hamburg", "zip_code": "22765", "country": "DE", "state": "HH", "display_address": ["Barnerstr. 42", "22765 Hamburg", "Germany"]}, "phone": "+49403901097", "display_phone": "+49 40 3901097", "distance": 4199.6981716087885}, {"id": "TpvsLTeKbV2oiPoDHXgGLw", "alias": "roots-hamburg", "name": "Roots", "image_url": "https://s3-media3.fl.yelpcdn.com/bphoto/jP36r3NzbatOkVwGmM_43Q/o.jpg", "is_closed": false, "url": "https://www.yelp.com/biz/roots-hamburg?adjust_creative=hBJOknVQJ58S5goQyjmwRw&utm_campaign=yelp_api_v3&utm_medium=api_v3_business_search&utm_source=hBJOknVQJ58S5goQyjmwRw", "review_count": 7, "categories": [{"alias": "mexican", "title": "Mexican"}, {"alias": "indpak", "title": "Indian"}], "rating": 3.5, "coordinates": {"latitude": 53.5593431, "longitude": 9.9277949}, "transactions": [], "location": {"address1": "Bahrenfelder Str. 332", "address2": "", "address3": null, "city": "Hamburg", "zip_code": "22765", "country": "DE", "state": "HH", "display_address": ["Bahrenfelder Str. 332", "22765 Hamburg", "Germany"]}, "phone": "+4917663071820", "display_phone": "+49 176 63071820", "distance": 4523.617097719553}, {"id": "ywmx2t84jaZ_MbnMo4vBww", "alias": "momento-guisto-hamburg", "name": "Momento Guisto", "image_url": "https://s3-media3.fl.yelpcdn.com/bphoto/T1BqFV259XPHWo7Hn2jNww/o.jpg", "is_closed": false, "url": "https://www.yelp.com/biz/momento-guisto-hamburg?adjust_creative=hBJOknVQJ58S5goQyjmwRw&utm_campaign=yelp_api_v3&utm_medium=api_v3_business_search&utm_source=hBJOknVQJ58S5goQyjmwRw", "review_count": 19, "categories": [{"alias": "italian", "title": "Italian"}], "rating": 5.0, "coordinates": {"latitude": 53.5524, "longitude": 9.93232}, "transactions": [], "price": "\u20ac\u20ac", "location": {"address1": "Ottenser Hauptstr. 10", "address2": "", "address3": null, "city": "Hamburg", "zip_code": "22765", "country": "DE", "state": "HH", "display_address": ["Ottenser Hauptstr. 10", "22765 Hamburg", "Germany"]}, "phone": "+494038089892", "display_phone": "+49 40 38089892", "distance": 3912.0095565824136}, {"id": "OILXwALfjqVpLZTdV4ExrA", "alias": "cosmos-hamburg", "name": "Cosmos", "image_url": "https://s3-media3.fl.yelpcdn.com/bphoto/o40N9CGgaQ7IE8r8hc76uw/o.jpg", "is_closed": false, "url": "https://www.yelp.com/biz/cosmos-hamburg?adjust_creative=hBJOknVQJ58S5goQyjmwRw&utm_campaign=yelp_api_v3&utm_medium=api_v3_business_search&utm_source=hBJOknVQJ58S5goQyjmwRw", "review_count": 59, "categories": [{"alias": "bars", "title": "Bars"}, {"alias": "italian", "title": "Italian"}], "rating": 3.5, "coordinates": {"latitude": 53.55149, "longitude": 9.931025}, "transactions": [], "price": "\u20ac\u20ac", "location": {"address1": "Spritzenplatz 12", "address2": null, "address3": null, "city": "Hamburg", "zip_code": "22765", "country": "DE", "state": "HH", "display_address": ["Spritzenplatz 12", "22765 Hamburg", "Germany"]}, "phone": "+494039806333", "display_phone": "+49 40 39806333", "distance": 3784.213983449672}, {"id": "fSB-Jlo3WEoO7XItLsnHmw", "alias": "scottys-ottensen-hamburg", "name": "Scotty's Ottensen", "image_url": "https://s3-media3.fl.yelpcdn.com/bphoto/Nd-_5JfCsEgWTQtc_OlbsA/o.jpg", "is_closed": false, "url": "https://www.yelp.com/biz/scottys-ottensen-hamburg?adjust_creative=hBJOknVQJ58S5goQyjmwRw&utm_campaign=yelp_api_v3&utm_medium=api_v3_business_search&utm_source=hBJOknVQJ58S5goQyjmwRw", "review_count": 23, "categories": [{"alias": "italian", "title": "Italian"}, {"alias": "bars", "title": "Bars"}, {"alias": "mediterranean", "title": "Mediterranean"}], "rating": 4.0, "coordinates": {"latitude": 53.5545528620033, "longitude": 9.92765318602324}, "transactions": [], "price": "\u20ac\u20ac", "location": {"address1": "Friedensallee 14 - 16", "address2": "", "address3": "", "city": "Hamburg", "zip_code": "22765", "country": "DE", "state": "HH", "display_address": ["Friedensallee 14 - 16", "22765 Hamburg", "Germany"]}, "phone": "+4940397004", "display_phone": "+49 40 397004", "distance": 4015.7826028845566}, {"id": "kVI3wsiFDdoGzWg4rBGDQA", "alias": "klappe-hamburg", "name": "Klappe", "image_url": "", "is_closed": false, "url": "https://www.yelp.com/biz/klappe-hamburg?adjust_creative=hBJOknVQJ58S5goQyjmwRw&utm_campaign=yelp_api_v3&utm_medium=api_v3_business_search&utm_source=hBJOknVQJ58S5goQyjmwRw", "review_count": 1, "categories": [{"alias": "german", "title": "German"}], "rating": 5.0, "coordinates": {"latitude": 53.553982, "longitude": 9.929745}, "transactions": [], "location": {"address1": "Am Sood 2", "address2": "", "address3": "", "city": "Hamburg", "zip_code": "22765", "country": "DE", "state": "HH", "display_address": ["Am Sood 2", "22765 Hamburg", "Germany"]}, "phone": "+494018199782", "display_phone": "+49 40 18199782", "distance": 4009.9845500588863}, {"id": "pPSiFFRxBUmgpeo0lchRlw", "alias": "fuh-ein-raum-zum-speisen-hamburg", "name": "FuH - Ein Raum zum Speisen", "image_url": "https://s3-media1.fl.yelpcdn.com/bphoto/tpmZFV23VSHlhK9eaKb_ow/o.jpg", "is_closed": false, "url": "https://www.yelp.com/biz/fuh-ein-raum-zum-speisen-hamburg?adjust_creative=hBJOknVQJ58S5goQyjmwRw&utm_campaign=yelp_api_v3&utm_medium=api_v3_business_search&utm_source=hBJOknVQJ58S5goQyjmwRw", "review_count": 66, "categories": [{"alias": "modern_european", "title": "Modern European"}], "rating": 4.0, "coordinates": {"latitude": 53.54923, "longitude": 9.9223239}, "transactions": [], "price": "\u20ac\u20ac\u20ac", "location": {"address1": "Fischers Allee 42", "address2": "", "address3": null, "city": "Hamburg", "zip_code": "22763", "country": "DE", "state": "HH", "display_address": ["Fischers Allee 42", "22763 Hamburg", "Germany"]}, "phone": "+49403900566", "display_phone": "+49 40 3900566", "distance": 3342.4662342902566}, {"id": "clu7CzoOWHDR1v0XW_4-ow", "alias": "bistro-\u00f61-hamburg-2", "name": "Bistro \u00d61", "image_url": "https://s3-media2.fl.yelpcdn.com/bphoto/C-AmHkhXDns0fDOlRcMrKQ/o.jpg", "is_closed": false, "url": "https://www.yelp.com/biz/bistro-%C3%B61-hamburg-2?adjust_creative=hBJOknVQJ58S5goQyjmwRw&utm_campaign=yelp_api_v3&utm_medium=api_v3_business_search&utm_source=hBJOknVQJ58S5goQyjmwRw", "review_count": 8, "categories": [{"alias": "bistros", "title": "Bistros"}], "rating": 4.0, "coordinates": {"latitude": 53.5468391, "longitude": 9.9171349}, "transactions": [], "price": "\u20ac", "location": {"address1": "Hohenzollernring 1", "address2": "", "address3": "", "city": "Hamburg", "zip_code": "22763", "country": "DE", "state": "HH", "display_address": ["Hohenzollernring 1", "22763 Hamburg", "Germany"]}, "phone": "+4940883070010", "display_phone": "+49 40 883070010", "distance": 2996.319737665002}, {"id": "VL64NLQU-trNvg4MFW6b-Q", "alias": "lunasel-hamburg-2", "name": "Lunasel", "image_url": "https://s3-media2.fl.yelpcdn.com/bphoto/INUuO4TEWJHdnIfM3rjxow/o.jpg", "is_closed": false, "url": "https://www.yelp.com/biz/lunasel-hamburg-2?adjust_creative=hBJOknVQJ58S5goQyjmwRw&utm_campaign=yelp_api_v3&utm_medium=api_v3_business_search&utm_source=hBJOknVQJ58S5goQyjmwRw", "review_count": 25, "categories": [{"alias": "international", "title": "International"}, {"alias": "tapas", "title": "Tapas Bars"}], "rating": 4.0, "coordinates": {"latitude": 53.550795, "longitude": 9.930377}, "transactions": [], "price": "\u20ac\u20ac", "location": {"address1": "Bahrenfelderstr. 86", "address2": "", "address3": "", "city": "Hamburg", "zip_code": "22765", "country": "DE", "state": "HH", "display_address": ["Bahrenfelderstr. 86", "22765 Hamburg", "Germany"]}, "phone": "+494038634061", "display_phone": "+49 40 38634061", "distance": 3696.130475033146}, {"id": "4ml5CEjPJeIqmaGrrGwHIA", "alias": "via-vai-pizza-al-taglio-hamburg", "name": "Via Vai Pizza Al Taglio", "image_url": "https://s3-media2.fl.yelpcdn.com/bphoto/Krzh61f6DjisSLKyZyMjOg/o.jpg", "is_closed": false, "url": "https://www.yelp.com/biz/via-vai-pizza-al-taglio-hamburg?adjust_creative=hBJOknVQJ58S5goQyjmwRw&utm_campaign=yelp_api_v3&utm_medium=api_v3_business_search&utm_source=hBJOknVQJ58S5goQyjmwRw", "review_count": 59, "categories": [{"alias": "pizza", "title": "Pizza"}], "rating": 4.5, "coordinates": {"latitude": 53.556329, "longitude": 9.9280459}, "transactions": [], "price": "\u20ac\u20ac", "location": {"address1": "Bahrenfelder Str. 223", "address2": "", "address3": "", "city": "Hamburg", "zip_code": "22765", "country": "DE", "state": "HH", "display_address": ["Bahrenfelder Str. 223", "22765 Hamburg", "Germany"]}, "phone": "+494079692626", "display_phone": "+49 40 79692626", "distance": 4230.877997472995}, {"id": "-xYc0_BisF-K9CDfhAUNfw", "alias": "zur-traube-hamburg", "name": "Zur Traube", "image_url": "https://s3-media3.fl.yelpcdn.com/bphoto/onC658MK98Kz2Tc5tYSmGA/o.jpg", "is_closed": false, "url": "https://www.yelp.com/biz/zur-traube-hamburg?adjust_creative=hBJOknVQJ58S5goQyjmwRw&utm_campaign=yelp_api_v3&utm_medium=api_v3_business_search&utm_source=hBJOknVQJ58S5goQyjmwRw", "review_count": 44, "categories": [{"alias": "wine_bars", "title": "Wine Bars"}, {"alias": "french", "title": "French"}], "rating": 4.0, "coordinates": {"latitude": 53.54858, "longitude": 9.93115}, "transactions": [], "price": "\u20ac\u20ac\u20ac", "location": {"address1": "Karl-Theodor-Str. 4", "address2": "", "address3": "", "city": "Hamburg", "zip_code": "22765", "country": "DE", "state": "HH", "display_address": ["Karl-Theodor-Str. 4", "22765 Hamburg", "Germany"]}, "phone": "+494039908236", "display_phone": "+49 40 39908236", "distance": 3496.9984345725275}, {"id": "Lrj3sf5k0AQLbSBegaAhiw", "alias": "burger-de-ville-hamburg", "name": "Burger de Ville", "image_url": "https://s3-media3.fl.yelpcdn.com/bphoto/JowpzCxYv9u16hTftla2Sw/o.jpg", "is_closed": false, "url": "https://www.yelp.com/biz/burger-de-ville-hamburg?adjust_creative=hBJOknVQJ58S5goQyjmwRw&utm_campaign=yelp_api_v3&utm_medium=api_v3_business_search&utm_source=hBJOknVQJ58S5goQyjmwRw", "review_count": 8, "categories": [{"alias": "burgers", "title": "Burgers"}, {"alias": "foodtrucks", "title": "Food Trucks"}], "rating": 4.0, "coordinates": {"latitude": 53.563171, "longitude": 9.916031}, "transactions": [], "price": "\u20ac\u20ac", "location": {"address1": "Paul-Dessau-Str. 2", "address2": "", "address3": "", "city": "Hamburg", "zip_code": "22761", "country": "DE", "state": "HH", "display_address": ["Paul-Dessau-Str. 2", "22761 Hamburg", "Germany"]}, "phone": "+4940855070", "display_phone": "+49 40 855070", "distance": 4775.101354791147}, {"id": "9VivMQXGXZYg7No2LhQyrA", "alias": "han-kong-hamburg-2", "name": "Han Kong", "image_url": "https://s3-media4.fl.yelpcdn.com/bphoto/bmAHW4S0PqSLyvjG-5uphQ/o.jpg", "is_closed": false, "url": "https://www.yelp.com/biz/han-kong-hamburg-2?adjust_creative=hBJOknVQJ58S5goQyjmwRw&utm_campaign=yelp_api_v3&utm_medium=api_v3_business_search&utm_source=hBJOknVQJ58S5goQyjmwRw", "review_count": 19, "categories": [{"alias": "chinese", "title": "Chinese"}], "rating": 4.0, "coordinates": {"latitude": 53.55204, "longitude": 9.92911}, "transactions": [], "price": "\u20ac\u20ac", "location": {"address1": "Ottenser Hauptstr. 34", "address2": null, "address3": null, "city": "Hamburg", "zip_code": "22765", "country": "DE", "state": "HH", "display_address": ["Ottenser Hauptstr. 34", "22765 Hamburg", "Germany"]}, "phone": "+4940397138", "display_phone": "+49 40 397138", "distance": 3792.5678883806827}, {"id": "cyDWWcd9waj2X7Rw7OXUuw", "alias": "caf\u00e9-altamira-hamburg-2", "name": "Caf\u00e9 Altamira", "image_url": "https://s3-media4.fl.yelpcdn.com/bphoto/ZMYHXdmxMHqjwLwmzBX4_A/o.jpg", "is_closed": false, "url": "https://www.yelp.com/biz/caf%C3%A9-altamira-hamburg-2?adjust_creative=hBJOknVQJ58S5goQyjmwRw&utm_campaign=yelp_api_v3&utm_medium=api_v3_business_search&utm_source=hBJOknVQJ58S5goQyjmwRw", "review_count": 309, "categories": [{"alias": "tapas", "title": "Tapas Bars"}], "rating": 3.5, "coordinates": {"latitude": 53.55978515061, "longitude": 9.9273747289208}, "transactions": [], "price": "\u20ac\u20ac", "location": {"address1": "Bahrenfelder Str. 331", "address2": "", "address3": "", "city": "Hamburg", "zip_code": "22765", "country": "DE", "state": "HH", "display_address": ["Bahrenfelder Str. 331", "22765 Hamburg", "Germany"]}, "phone": "+494085371600", "display_phone": "+49 40 85371600", "distance": 4562.306631901676}, {"id": "Dpx5NZlsz5UgCqXyDwqjLw", "alias": "eisenstein-hamburg", "name": "Eisenstein", "image_url": "https://s3-media1.fl.yelpcdn.com/bphoto/7AAzeLG7LWzX0IYL8eMLQA/o.jpg", "is_closed": false, "url": "https://www.yelp.com/biz/eisenstein-hamburg?adjust_creative=hBJOknVQJ58S5goQyjmwRw&utm_campaign=yelp_api_v3&utm_medium=api_v3_business_search&utm_source=hBJOknVQJ58S5goQyjmwRw", "review_count": 196, "categories": [{"alias": "italian", "title": "Italian"}, {"alias": "german", "title": "German"}], "rating": 3.5, "coordinates": {"latitude": 53.55464, "longitude": 9.9271}, "transactions": [], "price": "\u20ac\u20ac\u20ac", "location": {"address1": "Friedensallee 9", "address2": null, "address3": null, "city": "Hamburg", "zip_code": "22765", "country": "DE", "state": "HH", "display_address": ["Friedensallee 9", "22765 Hamburg", "Germany"]}, "phone": "+49403904606", "display_phone": "+49 40 3904606", "distance": 3962.788089196533}, {"id": "W5pPwcWtaaTIugmVmdfu7Q", "alias": "m\u00f6llers-gastst\u00e4tte-hamburg-2", "name": "M\u00f6llers Gastst\u00e4tte", "image_url": "https://s3-media4.fl.yelpcdn.com/bphoto/AAYFwEU0lqg3vX92_AsMVA/o.jpg", "is_closed": false, "url": "https://www.yelp.com/biz/m%C3%B6llers-gastst%C3%A4tte-hamburg-2?adjust_creative=hBJOknVQJ58S5goQyjmwRw&utm_campaign=yelp_api_v3&utm_medium=api_v3_business_search&utm_source=hBJOknVQJ58S5goQyjmwRw", "review_count": 23, "categories": [{"alias": "german", "title": "German"}], "rating": 3.5, "coordinates": {"latitude": 53.55228, "longitude": 9.93005}, "transactions": [], "price": "\u20ac", "location": {"address1": "Bahrenfelder Str. 93", "address2": "", "address3": "", "city": "Hamburg", "zip_code": "22765", "country": "DE", "state": "HH", "display_address": ["Bahrenfelder Str. 93", "22765 Hamburg", "Germany"]}, "phone": "+4940392257", "display_phone": "+49 40 392257", "distance": 3832.059843218449}, {"id": "jr7xNQYRul1yid1_4PoxNg", "alias": "atlas-restaurant-und-kochsalon-hamburg-2", "name": "Atlas Restaurant und Kochsalon", "image_url": "https://s3-media2.fl.yelpcdn.com/bphoto/LWNVvxE6tY1OG-Nm6vJMeQ/o.jpg", "is_closed": false, "url": "https://www.yelp.com/biz/atlas-restaurant-und-kochsalon-hamburg-2?adjust_creative=hBJOknVQJ58S5goQyjmwRw&utm_campaign=yelp_api_v3&utm_medium=api_v3_business_search&utm_source=hBJOknVQJ58S5goQyjmwRw", "review_count": 109, "categories": [{"alias": "german", "title": "German"}, {"alias": "italian", "title": "Italian"}], "rating": 4.5, "coordinates": {"latitude": 53.5609580337807, "longitude": 9.92732212392582}, "transactions": [], "price": "\u20ac\u20ac\u20ac", "location": {"address1": "Sch\u00fctzenstr. 9 A", "address2": "", "address3": null, "city": "Hamburg", "zip_code": "22761", "country": "DE", "state": "HH", "display_address": ["Sch\u00fctzenstr. 9 A", "22761 Hamburg", "Germany"]}, "phone": "+49408517810", "display_phone": "+49 40 8517810", "distance": 4686.1768730267395}, {"id": "1uwARH5BoHB448C85pRDEA", "alias": "paulas-wirtshaus-hamburg", "name": "Paula's Wirtshaus", "image_url": "https://s3-media2.fl.yelpcdn.com/bphoto/fRMXIRfGIvnavu31xBdyxg/o.jpg", "is_closed": false, "url": "https://www.yelp.com/biz/paulas-wirtshaus-hamburg?adjust_creative=hBJOknVQJ58S5goQyjmwRw&utm_campaign=yelp_api_v3&utm_medium=api_v3_business_search&utm_source=hBJOknVQJ58S5goQyjmwRw", "review_count": 4, "categories": [{"alias": "swabian", "title": "Swabian"}, {"alias": "bavarian", "title": "Bavarian"}], "rating": 4.0, "coordinates": {"latitude": 53.5506699, "longitude": 9.89782}, "transactions": [], "location": {"address1": "Liebermannstr. 52", "address2": null, "address3": "", "city": "Hamburg", "zip_code": "22605", "country": "DE", "state": "HH", "display_address": ["Liebermannstr. 52", "22605 Hamburg", "Germany"]}, "phone": "+494020911062", "display_phone": "+49 40 20911062", "distance": 3401.4581712800737}, {"id": "_43iYKv8k20kHsKOBgGFew", "alias": "riedels-ottensen-hamburg", "name": "Riedel's Ottensen", "image_url": "https://s3-media3.fl.yelpcdn.com/bphoto/hriYulizUurckYXRl3p70A/o.jpg", "is_closed": false, "url": "https://www.yelp.com/biz/riedels-ottensen-hamburg?adjust_creative=hBJOknVQJ58S5goQyjmwRw&utm_campaign=yelp_api_v3&utm_medium=api_v3_business_search&utm_source=hBJOknVQJ58S5goQyjmwRw", "review_count": 2, "categories": [{"alias": "german", "title": "German"}], "rating": 4.5, "coordinates": {"latitude": 53.55024, "longitude": 9.929992}, "transactions": [], "location": {"address1": "Bahrenfelder Str. 53", "address2": "", "address3": null, "city": "Hamburg", "zip_code": "22765", "country": "DE", "state": "HH", "display_address": ["Bahrenfelder Str. 53", "22765 Hamburg", "Germany"]}, "phone": "+49403907800", "display_phone": "+49 40 3907800", "distance": 3629.4285240683803}, {"id": "OpBUZgGa-1km-e5iBtzaxg", "alias": "flying-market-hamburg", "name": "Flying Market", "image_url": "https://s3-media3.fl.yelpcdn.com/bphoto/QlSUU3M7v_olJ_Wb3I118Q/o.jpg", "is_closed": false, "url": "https://www.yelp.com/biz/flying-market-hamburg?adjust_creative=hBJOknVQJ58S5goQyjmwRw&utm_campaign=yelp_api_v3&utm_medium=api_v3_business_search&utm_source=hBJOknVQJ58S5goQyjmwRw", "review_count": 11, "categories": [{"alias": "vietnamese", "title": "Vietnamese"}], "rating": 3.0, "coordinates": {"latitude": 53.550421, "longitude": 9.927125}, "transactions": [], "price": "\u20ac\u20ac", "location": {"address1": "Eulenstr. 38", "address2": "", "address3": null, "city": "Hamburg", "zip_code": "22765", "country": "DE", "state": "HH", "display_address": ["Eulenstr. 38", "22765 Hamburg", "Germany"]}, "phone": "+494084600904", "display_phone": "+49 40 84600904", "distance": 3573.569908985153}, {"id": "pTxxjsToQ9Yo_F1YASBu9g", "alias": "petit-amour-hamburg-2", "name": "Petit Amour", "image_url": "https://s3-media2.fl.yelpcdn.com/bphoto/Rbxd417moO_Jm5simy88Wg/o.jpg", "is_closed": false, "url": "https://www.yelp.com/biz/petit-amour-hamburg-2?adjust_creative=hBJOknVQJ58S5goQyjmwRw&utm_campaign=yelp_api_v3&utm_medium=api_v3_business_search&utm_source=hBJOknVQJ58S5goQyjmwRw", "review_count": 9, "categories": [{"alias": "french", "title": "French"}], "rating": 3.5, "coordinates": {"latitude": 53.55141, "longitude": 9.93105}, "transactions": [], "price": "\u20ac\u20ac\u20ac\u20ac", "location": {"address1": "Spritzenplatz 11", "address2": null, "address3": "", "city": "Hamburg", "zip_code": "22765", "country": "DE", "state": "HH", "display_address": ["Spritzenplatz 11", "22765 Hamburg", "Germany"]}, "phone": "+494030746556", "display_phone": "+49 40 30746556", "distance": 3778.350287975725}, {"id": "-w3tHtghuSaCiNi8bxekdQ", "alias": "trattoria-toscana-hamburg", "name": "Trattoria Toscana", "image_url": "https://s3-media3.fl.yelpcdn.com/bphoto/OkcUvh3j5t6bI-v_eU8gzg/o.jpg", "is_closed": false, "url": "https://www.yelp.com/biz/trattoria-toscana-hamburg?adjust_creative=hBJOknVQJ58S5goQyjmwRw&utm_campaign=yelp_api_v3&utm_medium=api_v3_business_search&utm_source=hBJOknVQJ58S5goQyjmwRw", "review_count": 8, "categories": [{"alias": "italian", "title": "Italian"}], "rating": 3.5, "coordinates": {"latitude": 53.54759, "longitude": 9.92928}, "transactions": [], "price": "\u20ac\u20ac", "location": {"address1": "Holl\u00e4ndische Reihe 25", "address2": "", "address3": "", "city": "Hamburg", "zip_code": "22765", "country": "DE", "state": "HH", "display_address": ["Holl\u00e4ndische Reihe 25", "22765 Hamburg", "Germany"]}, "phone": "+4940396086", "display_phone": "+49 40 396086", "distance": 3346.6124639873883}, {"id": "qiDZTwxwUKxNiZiOIgf92A", "alias": "farina-meets-mehl-hamburg", "name": "Farina meets Mehl", "image_url": "https://s3-media1.fl.yelpcdn.com/bphoto/TAvNUilR-sjuAmey8lk1_g/o.jpg", "is_closed": false, "url": "https://www.yelp.com/biz/farina-meets-mehl-hamburg?adjust_creative=hBJOknVQJ58S5goQyjmwRw&utm_campaign=yelp_api_v3&utm_medium=api_v3_business_search&utm_source=hBJOknVQJ58S5goQyjmwRw", "review_count": 3, "categories": [{"alias": "pizza", "title": "Pizza"}, {"alias": "bars", "title": "Bars"}], "rating": 4.5, "coordinates": {"latitude": 53.55919, "longitude": 9.92554}, "transactions": [], "location": {"address1": "Gau\u00dfstr. 190", "address2": "", "address3": null, "city": "Hamburg", "zip_code": "22765", "country": "DE", "state": "HH", "display_address": ["Gau\u00dfstr. 190", "22765 Hamburg", "Germany"]}, "phone": "+4917623758432", "display_phone": "+49 176 23758432", "distance": 4454.270124673556}, {"id": "8_KCb-X3F6MwPI6ae2tsLQ", "alias": "br\u00fccke-10-im-strandhaus-hamburg", "name": "Br\u00fccke 10 im Strandhaus", "image_url": "https://s3-media1.fl.yelpcdn.com/bphoto/g5C-V5WBMphx0NzzFX3WQg/o.jpg", "is_closed": false, "url": "https://www.yelp.com/biz/br%C3%BCcke-10-im-strandhaus-hamburg?adjust_creative=hBJOknVQJ58S5goQyjmwRw&utm_campaign=yelp_api_v3&utm_medium=api_v3_business_search&utm_source=hBJOknVQJ58S5goQyjmwRw", "review_count": 2, "categories": [{"alias": "bars", "title": "Bars"}, {"alias": "cafes", "title": "Cafes"}], "rating": 4.0, "coordinates": {"latitude": 53.544838, "longitude": 9.892318}, "transactions": [], "location": {"address1": "\u00d6velg\u00f6nner Hohlweg 12", "address2": "", "address3": null, "city": "Hamburg", "zip_code": "22605", "country": "DE", "state": "HH", "display_address": ["\u00d6velg\u00f6nner Hohlweg 12", "22605 Hamburg", "Germany"]}, "phone": "+494085352351", "display_phone": "+49 40 85352351", "distance": 2880.860910031606}, {"id": "5yJmCrZlhm1Fv9vMpHq0fQ", "alias": "tosun-hamburg", "name": "Tosun", "image_url": "https://s3-media2.fl.yelpcdn.com/bphoto/PaxbkgYnhrXsxzswppEHpg/o.jpg", "is_closed": false, "url": "https://www.yelp.com/biz/tosun-hamburg?adjust_creative=hBJOknVQJ58S5goQyjmwRw&utm_campaign=yelp_api_v3&utm_medium=api_v3_business_search&utm_source=hBJOknVQJ58S5goQyjmwRw", "review_count": 25, "categories": [{"alias": "kebab", "title": "Kebab"}, {"alias": "hotdogs", "title": "Fast Food"}], "rating": 4.5, "coordinates": {"latitude": 53.5522, "longitude": 9.93223}, "transactions": [], "price": "\u20ac", "location": {"address1": "Ottenser Hauptstr. 10", "address2": null, "address3": null, "city": "Hamburg", "zip_code": "22765", "country": "DE", "state": "HH", "display_address": ["Ottenser Hauptstr. 10", "22765 Hamburg", "Germany"]}, "phone": "+494039905533", "display_phone": "+49 40 39905533", "distance": 3889.3544208087174}, {"id": "QhybTWZjNM1KsIDJaWcD3Q", "alias": "die-pizzeria-k\u00f6nig-hamburg-2", "name": "Die Pizzeria K\u00f6nig", "image_url": "https://s3-media1.fl.yelpcdn.com/bphoto/RS-Co5QfI_E_3smtiqcaKQ/o.jpg", "is_closed": false, "url": "https://www.yelp.com/biz/die-pizzeria-k%C3%B6nig-hamburg-2?adjust_creative=hBJOknVQJ58S5goQyjmwRw&utm_campaign=yelp_api_v3&utm_medium=api_v3_business_search&utm_source=hBJOknVQJ58S5goQyjmwRw", "review_count": 4, "categories": [{"alias": "pizza", "title": "Pizza"}, {"alias": "wine_bars", "title": "Wine Bars"}], "rating": 4.5, "coordinates": {"latitude": 53.551091, "longitude": 9.930329}, "transactions": [], "location": {"address1": "Bahrenfelder Str. 98", "address2": "", "address3": null, "city": "Hamburg", "zip_code": "22765", "country": "DE", "state": "HH", "display_address": ["Bahrenfelder Str. 98", "22765 Hamburg", "Germany"]}, "phone": "+494041358877", "display_phone": "+49 40 41358877", "distance": 3733.7234538960915}, {"id": "X5KZcnoHMCEBxPVcUZVOqw", "alias": "jim-block-hamburg-7", "name": "Jim Block", "image_url": "https://s3-media2.fl.yelpcdn.com/bphoto/fBKpO59QJt9zDMV11MQakQ/o.jpg", "is_closed": false, "url": "https://www.yelp.com/biz/jim-block-hamburg-7?adjust_creative=hBJOknVQJ58S5goQyjmwRw&utm_campaign=yelp_api_v3&utm_medium=api_v3_business_search&utm_source=hBJOknVQJ58S5goQyjmwRw", "review_count": 101, "categories": [{"alias": "burgers", "title": "Burgers"}, {"alias": "hotdogs", "title": "Fast Food"}], "rating": 4.0, "coordinates": {"latitude": 53.5586, "longitude": 9.88694}, "transactions": [], "price": "\u20ac\u20ac", "location": {"address1": "Statthalterplatz 5", "address2": null, "address3": null, "city": "Hamburg", "zip_code": "22605", "country": "DE", "state": "HH", "display_address": ["Statthalterplatz 5", "22605 Hamburg", "Germany"]}, "phone": "+4940854511", "display_phone": "+49 40 854511", "distance": 4436.9543591501515}, {"id": "FTABAmkzGWhVqfkr-v3VAQ", "alias": "elbdeli-hamburg", "name": "Elbdeli", "image_url": "https://s3-media1.fl.yelpcdn.com/bphoto/NUj5zF9bolYzKhMoWJXkzA/o.jpg", "is_closed": false, "url": "https://www.yelp.com/biz/elbdeli-hamburg?adjust_creative=hBJOknVQJ58S5goQyjmwRw&utm_campaign=yelp_api_v3&utm_medium=api_v3_business_search&utm_source=hBJOknVQJ58S5goQyjmwRw", "review_count": 1, "categories": [{"alias": "cafes", "title": "Cafes"}], "rating": 5.0, "coordinates": {"latitude": 53.557781, "longitude": 9.90943}, "transactions": [], "price": "\u20ac\u20ac", "location": {"address1": "Friesenweg 4", "address2": "", "address3": null, "city": "Hamburg", "zip_code": "22763", "country": "DE", "state": "HH", "display_address": ["Friesenweg 4", "22763 Hamburg", "Germany"]}, "phone": "+494037029350", "display_phone": "+49 40 37029350", "distance": 4142.420734666438}, {"id": "LlRys7QHwJ0CBoeX0HnTOA", "alias": "taverna-kreta-hamburg-2", "name": "Taverna Kreta", "image_url": "https://s3-media1.fl.yelpcdn.com/bphoto/29kb8Sk37LZLgC-OxR36Tw/o.jpg", "is_closed": false, "url": "https://www.yelp.com/biz/taverna-kreta-hamburg-2?adjust_creative=hBJOknVQJ58S5goQyjmwRw&utm_campaign=yelp_api_v3&utm_medium=api_v3_business_search&utm_source=hBJOknVQJ58S5goQyjmwRw", "review_count": 26, "categories": [{"alias": "greek", "title": "Greek"}], "rating": 4.0, "coordinates": {"latitude": 53.549322348564, "longitude": 9.9252417148025}, "transactions": [], "price": "\u20ac\u20ac", "location": {"address1": "Donnerstr. 1", "address2": "", "address3": "", "city": "Hamburg", "zip_code": "22763", "country": "DE", "state": "HH", "display_address": ["Donnerstr. 1", "22763 Hamburg", "Germany"]}, "phone": "+4940395009", "display_phone": "+49 40 395009", "distance": 3414.834189457027}, {"id": "viU8W58X8U7CIk18WRp8IQ", "alias": "taverna-acchillion-zum-dorfkrug-hamburg", "name": "Taverna Acchillion - Zum Dorfkrug", "image_url": "https://s3-media2.fl.yelpcdn.com/bphoto/b-aqA76Y4d8LlXd8HqhBkA/o.jpg", "is_closed": false, "url": "https://www.yelp.com/biz/taverna-acchillion-zum-dorfkrug-hamburg?adjust_creative=hBJOknVQJ58S5goQyjmwRw&utm_campaign=yelp_api_v3&utm_medium=api_v3_business_search&utm_source=hBJOknVQJ58S5goQyjmwRw", "review_count": 7, "categories": [{"alias": "greek", "title": "Greek"}], "rating": 4.5, "coordinates": {"latitude": 53.47825, "longitude": 9.8878}, "transactions": [], "price": "\u20ac\u20ac", "location": {"address1": "Neuwiedenthaler Str. 133", "address2": "", "address3": "", "city": "Hamburg", "zip_code": "21147", "country": "DE", "state": "HH", "display_address": ["Neuwiedenthaler Str. 133", "21147 Hamburg", "Germany"]}, "phone": "+49407962103", "display_phone": "+49 40 7962103", "distance": 4872.488388571544}, {"id": "KLdAFfiZ1OW_lgXwuPFeuA", "alias": "wild-rice-hamburg-2", "name": "Wild Rice", "image_url": "https://s3-media3.fl.yelpcdn.com/bphoto/K5cyLuaXQn4bcwyv1BEYBw/o.jpg", "is_closed": false, "url": "https://www.yelp.com/biz/wild-rice-hamburg-2?adjust_creative=hBJOknVQJ58S5goQyjmwRw&utm_campaign=yelp_api_v3&utm_medium=api_v3_business_search&utm_source=hBJOknVQJ58S5goQyjmwRw", "review_count": 54, "categories": [{"alias": "panasian", "title": "Pan Asian"}], "rating": 3.5, "coordinates": {"latitude": 53.554233508734, "longitude": 9.92875458925237}, "transactions": [], "price": "\u20ac", "location": {"address1": "Bahrenfelder Str. 170", "address2": "", "address3": "", "city": "Hamburg", "zip_code": "22765", "country": "DE", "state": "HH", "display_address": ["Bahrenfelder Str. 170", "22765 Hamburg", "Germany"]}, "phone": "+494039908113", "display_phone": "+49 40 39908113", "distance": 4007.693927351295}, {"id": "Iz2UF3HEG_wYSuxPmrgUgw", "alias": "green-papaya-hamburg", "name": "Green Papaya", "image_url": "https://s3-media2.fl.yelpcdn.com/bphoto/Y4hRS4VWZnhmM8II9aUtYw/o.jpg", "is_closed": false, "url": "https://www.yelp.com/biz/green-papaya-hamburg?adjust_creative=hBJOknVQJ58S5goQyjmwRw&utm_campaign=yelp_api_v3&utm_medium=api_v3_business_search&utm_source=hBJOknVQJ58S5goQyjmwRw", "review_count": 80, "categories": [{"alias": "vietnamese", "title": "Vietnamese"}], "rating": 3.5, "coordinates": {"latitude": 53.5525852, "longitude": 9.9299172}, "transactions": [], "price": "\u20ac\u20ac", "location": {"address1": "Bahrenfelder Str. 105", "address2": "", "address3": "", "city": "Hamburg", "zip_code": "22765", "country": "DE", "state": "HH", "display_address": ["Bahrenfelder Str. 105", "22765 Hamburg", "Germany"]}, "phone": "+494039909598", "display_phone": "+49 40 39909598", "distance": 3866.1972045846587}, {"id": "cQEp-XBYcsDs6kaMWTxWeQ", "alias": "kumpir-hamburg-4", "name": "Kumpir", "image_url": "https://s3-media3.fl.yelpcdn.com/bphoto/uYUN3uVNwVKYLPXg_nv05w/o.jpg", "is_closed": false, "url": "https://www.yelp.com/biz/kumpir-hamburg-4?adjust_creative=hBJOknVQJ58S5goQyjmwRw&utm_campaign=yelp_api_v3&utm_medium=api_v3_business_search&utm_source=hBJOknVQJ58S5goQyjmwRw", "review_count": 62, "categories": [{"alias": "falafel", "title": "Falafel"}, {"alias": "potatoes", "title": "Potatoes"}], "rating": 4.0, "coordinates": {"latitude": 53.5541, "longitude": 9.92876}, "transactions": [], "price": "\u20ac", "location": {"address1": "Bahrenfelder Str. 168", "address2": null, "address3": null, "city": "Hamburg", "zip_code": "22765", "country": "DE", "state": "HH", "display_address": ["Bahrenfelder Str. 168", "22765 Hamburg", "Germany"]}, "phone": "+494063655200", "display_phone": "+49 40 63655200", "distance": 3993.9525679863223}, {"id": "O9cLlJIpBL_4xzR5cHVBTw", "alias": "caf\u00e9-schmidt-hamburg-3", "name": "Caf\u00e9 Schmidt", "image_url": "https://s3-media1.fl.yelpcdn.com/bphoto/ynKWWjF-5EfCzRuASQtRCg/o.jpg", "is_closed": false, "url": "https://www.yelp.com/biz/caf%C3%A9-schmidt-hamburg-3?adjust_creative=hBJOknVQJ58S5goQyjmwRw&utm_campaign=yelp_api_v3&utm_medium=api_v3_business_search&utm_source=hBJOknVQJ58S5goQyjmwRw", "review_count": 23, "categories": [{"alias": "cafes", "title": "Cafes"}, {"alias": "cakeshop", "title": "Patisserie/Cake Shop"}], "rating": 4.0, "coordinates": {"latitude": 53.559648, "longitude": 9.888449}, "transactions": [], "price": "\u20ac\u20ac", "location": {"address1": "Beselerplatz 10", "address2": null, "address3": null, "city": "Hamburg", "zip_code": "22607", "country": "DE", "state": "HH", "display_address": ["Beselerplatz 10", "22607 Hamburg", "Germany"]}, "phone": "+4940893995", "display_phone": "+49 40 893995", "distance": 4519.901396369194}, {"id": "Avsh1Ua6FDRWof3xZSH4aQ", "alias": "drilling-hamburg", "name": "Drilling", "image_url": "https://s3-media1.fl.yelpcdn.com/bphoto/s-DG69pKun2QCUcA4ku0sw/o.jpg", "is_closed": false, "url": "https://www.yelp.com/biz/drilling-hamburg?adjust_creative=hBJOknVQJ58S5goQyjmwRw&utm_campaign=yelp_api_v3&utm_medium=api_v3_business_search&utm_source=hBJOknVQJ58S5goQyjmwRw", "review_count": 2, "categories": [{"alias": "bars", "title": "Bars"}, {"alias": "cafes", "title": "Cafes"}], "rating": 5.0, "coordinates": {"latitude": 53.558069, "longitude": 9.908789}, "transactions": [], "location": {"address1": "Friesenweg 4", "address2": "", "address3": null, "city": "Hamburg", "zip_code": "22763", "country": "DE", "state": "HH", "display_address": ["Friesenweg 4", "22763 Hamburg", "Germany"]}, "phone": "+491799769435", "display_phone": "+49 179 9769435", "distance": 4173.123263143644}, {"id": "0A2Har7dKsWHvVhK5DvpEA", "alias": "asia-hip-hamburg", "name": "Asia Hip", "image_url": "https://s3-media1.fl.yelpcdn.com/bphoto/kSzm7cx9yD_6l3fvuRmIgg/o.jpg", "is_closed": false, "url": "https://www.yelp.com/biz/asia-hip-hamburg?adjust_creative=hBJOknVQJ58S5goQyjmwRw&utm_campaign=yelp_api_v3&utm_medium=api_v3_business_search&utm_source=hBJOknVQJ58S5goQyjmwRw", "review_count": 3, "categories": [{"alias": "sushi", "title": "Sushi Bars"}, {"alias": "panasian", "title": "Pan Asian"}], "rating": 3.5, "coordinates": {"latitude": 53.5591803358362, "longitude": 9.91213872630952}, "transactions": [], "location": {"address1": "Friedensallee 270", "address2": "", "address3": "", "city": "Hamburg", "zip_code": "22763", "country": "DE", "state": "HH", "display_address": ["Friedensallee 270", "22763 Hamburg", "Germany"]}, "phone": "+49408801391", "display_phone": "+49 40 8801391", "distance": 4307.857929507544}, {"id": "szp0WBf4mdqrC2fgUYhdpg", "alias": "el-rojito-hamburg-3", "name": "el rojito", "image_url": "https://s3-media1.fl.yelpcdn.com/bphoto/sz37PkkDCmGmkm80QVq68A/o.jpg", "is_closed": false, "url": "https://www.yelp.com/biz/el-rojito-hamburg-3?adjust_creative=hBJOknVQJ58S5goQyjmwRw&utm_campaign=yelp_api_v3&utm_medium=api_v3_business_search&utm_source=hBJOknVQJ58S5goQyjmwRw", "review_count": 26, "categories": [{"alias": "cafes", "title": "Cafes"}, {"alias": "cakeshop", "title": "Patisserie/Cake Shop"}], "rating": 4.5, "coordinates": {"latitude": 53.5511787, "longitude": 9.92585}, "transactions": [], "price": "\u20ac\u20ac", "location": {"address1": "Gro\u00dfe Brunnenstr. 68", "address2": null, "address3": null, "city": "Hamburg", "zip_code": "22763", "country": "DE", "state": "HH", "display_address": ["Gro\u00dfe Brunnenstr. 68", "22763 Hamburg", "Germany"]}, "phone": "+494030764849", "display_phone": "+49 40 30764849", "distance": 3622.429499924267}, {"id": "h79i_XdIZk_SR7IM7LnrYg", "alias": "l\u00fctt-d\u00f6ns-hamburg", "name": "L\u00fctt D\u00f6ns", "image_url": "https://s3-media1.fl.yelpcdn.com/bphoto/KVNNMPzKaC4wx0vu4F5-3A/o.jpg", "is_closed": false, "url": "https://www.yelp.com/biz/l%C3%BCtt-d%C3%B6ns-hamburg?adjust_creative=hBJOknVQJ58S5goQyjmwRw&utm_campaign=yelp_api_v3&utm_medium=api_v3_business_search&utm_source=hBJOknVQJ58S5goQyjmwRw", "review_count": 10, "categories": [{"alias": "sportsbars", "title": "Sports Bars"}, {"alias": "beergarden", "title": "Beer Garden"}], "rating": 4.5, "coordinates": {"latitude": 53.5591099, "longitude": 9.88734}, "transactions": [], "price": "\u20ac", "location": {"address1": "Reventlowstr. 64 a", "address2": "", "address3": "", "city": "Hamburg", "zip_code": "22605", "country": "DE", "state": "HH", "display_address": ["Reventlowstr. 64 a", "22605 Hamburg", "Germany"]}, "phone": "+49408801762", "display_phone": "+49 40 8801762", "distance": 4471.034676615492}, {"id": "zKRsTNUnF3UvKuZNMZS9HA", "alias": "el-iberico-hamburg", "name": "El Iberico", "image_url": "https://s3-media2.fl.yelpcdn.com/bphoto/m4fzFKzV7jxS3aDIlAP1cQ/o.jpg", "is_closed": false, "url": "https://www.yelp.com/biz/el-iberico-hamburg?adjust_creative=hBJOknVQJ58S5goQyjmwRw&utm_campaign=yelp_api_v3&utm_medium=api_v3_business_search&utm_source=hBJOknVQJ58S5goQyjmwRw", "review_count": 19, "categories": [{"alias": "tapas", "title": "Tapas Bars"}, {"alias": "spanish", "title": "Spanish"}], "rating": 3.5, "coordinates": {"latitude": 53.5553933193965, "longitude": 9.92642901654771}, "transactions": [], "price": "\u20ac\u20ac", "location": {"address1": "Friedensallee 34 a", "address2": "", "address3": "", "city": "Hamburg", "zip_code": "22765", "country": "DE", "state": "HH", "display_address": ["Friedensallee 34 a", "22765 Hamburg", "Germany"]}, "phone": "+494025768984", "display_phone": "+49 40 25768984", "distance": 4077.9177169365103}, {"id": "oyWCB7WacmChOybPm7NgoA", "alias": "vulc\u0101o-hamburg-3", "name": "Vulc\u0101o", "image_url": "https://s3-media4.fl.yelpcdn.com/bphoto/qCnQt8J5YYgfvXSQBWkZ9w/o.jpg", "is_closed": false, "url": "https://www.yelp.com/biz/vulc%C4%81o-hamburg-3?adjust_creative=hBJOknVQJ58S5goQyjmwRw&utm_campaign=yelp_api_v3&utm_medium=api_v3_business_search&utm_source=hBJOknVQJ58S5goQyjmwRw", "review_count": 20, "categories": [{"alias": "cafes", "title": "Cafes"}, {"alias": "portuguese", "title": "Portuguese"}], "rating": 4.5, "coordinates": {"latitude": 53.55433, "longitude": 9.928413}, "transactions": [], "price": "\u20ac\u20ac", "location": {"address1": "Bahrenfelder Str. 165", "address2": "", "address3": "", "city": "Hamburg", "zip_code": "22765", "country": "DE", "state": "HH", "display_address": ["Bahrenfelder Str. 165", "22765 Hamburg", "Germany"]}, "phone": "+491724123593", "display_phone": "+49 172 4123593", "distance": 4009.763398317712}, {"id": "bCsV0p5dTtNdJQnFgzwjdw", "alias": "friede-freude-hamburg", "name": "friede, freude, ...", "image_url": "https://s3-media1.fl.yelpcdn.com/bphoto/_FLlGndjQTbNuqmt9jwqBw/o.jpg", "is_closed": false, "url": "https://www.yelp.com/biz/friede-freude-hamburg?adjust_creative=hBJOknVQJ58S5goQyjmwRw&utm_campaign=yelp_api_v3&utm_medium=api_v3_business_search&utm_source=hBJOknVQJ58S5goQyjmwRw", "review_count": 2, "categories": [{"alias": "cafes", "title": "Cafes"}], "rating": 5.0, "coordinates": {"latitude": 53.5588, "longitude": 9.91319}, "transactions": [], "price": "\u20ac\u20ac\u20ac\u20ac", "location": {"address1": "Friedensallee 264", "address2": null, "address3": null, "city": "Hamburg", "zip_code": "22763", "country": "DE", "state": "HH", "display_address": ["Friedensallee 264", "22763 Hamburg", "Germany"]}, "phone": "+494088129808", "display_phone": "+49 40 88129808", "distance": 4271.599779061871}, {"id": "p2E0mTFqAWCe3-frEWUviw", "alias": "cuore-mio-hamburg", "name": "Cuore Mio", "image_url": "https://s3-media2.fl.yelpcdn.com/bphoto/i4p558DZ1zHbRwSH1z42Tw/o.jpg", "is_closed": false, "url": "https://www.yelp.com/biz/cuore-mio-hamburg?adjust_creative=hBJOknVQJ58S5goQyjmwRw&utm_campaign=yelp_api_v3&utm_medium=api_v3_business_search&utm_source=hBJOknVQJ58S5goQyjmwRw", "review_count": 27, "categories": [{"alias": "italian", "title": "Italian"}], "rating": 4.0, "coordinates": {"latitude": 53.54949, "longitude": 9.92743}, "transactions": [], "price": "\u20ac\u20ac\u20ac", "location": {"address1": "Rothestr. 38", "address2": null, "address3": null, "city": "Hamburg", "zip_code": "22765", "country": "DE", "state": "HH", "display_address": ["Rothestr. 38", "22765 Hamburg", "Germany"]}, "phone": "+494039906029", "display_phone": "+49 40 39906029", "distance": 3487.4875048231056}, {"id": "OmTpp5NRgEKUBfn7xSSlRA", "alias": "poke-n-roll-hamburg-2", "name": "Poke 'n' Roll", "image_url": "https://s3-media4.fl.yelpcdn.com/bphoto/ikoKa4qPAlc9G6m0hvOxrg/o.jpg", "is_closed": false, "url": "https://www.yelp.com/biz/poke-n-roll-hamburg-2?adjust_creative=hBJOknVQJ58S5goQyjmwRw&utm_campaign=yelp_api_v3&utm_medium=api_v3_business_search&utm_source=hBJOknVQJ58S5goQyjmwRw", "review_count": 8, "categories": [{"alias": "hawaiian", "title": "Hawaiian"}], "rating": 4.0, "coordinates": {"latitude": 53.5523953631344, "longitude": 9.929987}, "transactions": [], "location": {"address1": "Bahrenfelder Str. 97", "address2": "", "address3": null, "city": "Hamburg", "zip_code": "22765", "country": "DE", "state": "HH", "display_address": ["Bahrenfelder Str. 97", "22765 Hamburg", "Germany"]}, "phone": "", "display_phone": "", "distance": 3848.564292174971}, {"id": "bmHLeUl-Duz0UbabKDMWVg", "alias": "pyramides-hamburg-2", "name": "Pyramides", "image_url": "https://s3-media2.fl.yelpcdn.com/bphoto/gRtW4Kzq-l76w_Umgll-bQ/o.jpg", "is_closed": false, "url": "https://www.yelp.com/biz/pyramides-hamburg-2?adjust_creative=hBJOknVQJ58S5goQyjmwRw&utm_campaign=yelp_api_v3&utm_medium=api_v3_business_search&utm_source=hBJOknVQJ58S5goQyjmwRw", "review_count": 5, "categories": [{"alias": "kebab", "title": "Kebab"}, {"alias": "falafel", "title": "Falafel"}, {"alias": "foodstands", "title": "Food Stands"}], "rating": 4.5, "coordinates": {"latitude": 53.55596796377, "longitude": 9.92855105549097}, "transactions": [], "price": "\u20ac", "location": {"address1": "Bahrenfelder Str. 232", "address2": "", "address3": "", "city": "Hamburg", "zip_code": "22765", "country": "DE", "state": "HH", "display_address": ["Bahrenfelder Str. 232", "22765 Hamburg", "Germany"]}, "phone": "+494036911035", "display_phone": "+49 40 36911035", "distance": 4183.918801851179}, {"id": "16CcNj9EZGvGMNgm__-AbQ", "alias": "mundfein-pizzawerkstatt-hamburg-8", "name": "Mundfein Pizzawerkstatt", "image_url": "https://s3-media2.fl.yelpcdn.com/bphoto/dnuqrCqfyjb3ggQK9uQGjw/o.jpg", "is_closed": false, "url": "https://www.yelp.com/biz/mundfein-pizzawerkstatt-hamburg-8?adjust_creative=hBJOknVQJ58S5goQyjmwRw&utm_campaign=yelp_api_v3&utm_medium=api_v3_business_search&utm_source=hBJOknVQJ58S5goQyjmwRw", "review_count": 2, "categories": [{"alias": "pizza", "title": "Pizza"}], "rating": 4.0, "coordinates": {"latitude": 53.557577, "longitude": 9.914251}, "transactions": [], "location": {"address1": "Gr\u00fcnebergstr.  85", "address2": "", "address3": "", "city": "Hamburg", "zip_code": "22763", "country": "DE", "state": "HH", "display_address": ["Gr\u00fcnebergstr.  85", "22763 Hamburg", "Germany"]}, "phone": "+494053309686", "display_phone": "+49 40 53309686", "distance": 4146.697434287583}, {"id": "xsZHnSCWIgqF8i1isIPxSQ", "alias": "fischrestaurant-hoppe-hamburg", "name": "Fischrestaurant Hoppe", "image_url": "https://s3-media2.fl.yelpcdn.com/bphoto/MdKg88A-bPH_zFnadaMtvg/o.jpg", "is_closed": false, "url": "https://www.yelp.com/biz/fischrestaurant-hoppe-hamburg?adjust_creative=hBJOknVQJ58S5goQyjmwRw&utm_campaign=yelp_api_v3&utm_medium=api_v3_business_search&utm_source=hBJOknVQJ58S5goQyjmwRw", "review_count": 27, "categories": [{"alias": "seafood", "title": "Seafood"}, {"alias": "german", "title": "German"}], "rating": 3.0, "coordinates": {"latitude": 53.54468, "longitude": 9.91329}, "transactions": [], "price": "\u20ac\u20ac\u20ac", "location": {"address1": "\u00d6velg\u00f6nne 6", "address2": null, "address3": null, "city": "Hamburg", "zip_code": "22605", "country": "DE", "state": "HH", "display_address": ["\u00d6velg\u00f6nne 6", "22605 Hamburg", "Germany"]}, "phone": "+49408800445", "display_phone": "+49 40 8800445", "distance": 2722.179318603611}, {"id": "qAYKUlLT1nu1zcweQart8g", "alias": "block-house-hamburg-15", "name": "Block House", "image_url": "https://s3-media3.fl.yelpcdn.com/bphoto/9F3mdAuap4afgW6JE7XmUw/o.jpg", "is_closed": false, "url": "https://www.yelp.com/biz/block-house-hamburg-15?adjust_creative=hBJOknVQJ58S5goQyjmwRw&utm_campaign=yelp_api_v3&utm_medium=api_v3_business_search&utm_source=hBJOknVQJ58S5goQyjmwRw", "review_count": 86, "categories": [{"alias": "steak", "title": "Steakhouses"}], "rating": 4.0, "coordinates": {"latitude": 53.55955, "longitude": 9.88659}, "transactions": [], "price": "\u20ac\u20ac\u20ac", "location": {"address1": "Waitzstr. 1", "address2": null, "address3": null, "city": "Hamburg", "zip_code": "22607", "country": "DE", "state": "HH", "display_address": ["Waitzstr. 1", "22607 Hamburg", "Germany"]}, "phone": "+49408907273", "display_phone": "+49 40 8907273", "distance": 4541.97289723473}, {"id": "WmsCUchzV0-B6EXcQS_L1g", "alias": "special-curry-hamburg-2", "name": "Special Curry", "image_url": "https://s3-media2.fl.yelpcdn.com/bphoto/ZX4UV1UiCaoYYYrQSDh5Kg/o.jpg", "is_closed": false, "url": "https://www.yelp.com/biz/special-curry-hamburg-2?adjust_creative=hBJOknVQJ58S5goQyjmwRw&utm_campaign=yelp_api_v3&utm_medium=api_v3_business_search&utm_source=hBJOknVQJ58S5goQyjmwRw", "review_count": 10, "categories": [{"alias": "indpak", "title": "Indian"}, {"alias": "thai", "title": "Thai"}], "rating": 3.5, "coordinates": {"latitude": 53.5554142, "longitude": 9.929928}, "transactions": [], "price": "\u20ac", "location": {"address1": "Ottenser Hauptstr. 10", "address2": null, "address3": null, "city": "Hamburg", "zip_code": "22765", "country": "DE", "state": "HH", "display_address": ["Ottenser Hauptstr. 10", "22765 Hamburg", "Germany"]}, "phone": "+491624135021", "display_phone": "+49 162 4135021", "distance": 4158.05431501951}, {"id": "vbdvY_GOZ29nxctXwbxMcw", "alias": "goldene-gans-hamburg", "name": "Goldene Gans", "image_url": "https://s3-media2.fl.yelpcdn.com/bphoto/xrTqyIteW1pBK0lu9asNiQ/o.jpg", "is_closed": false, "url": "https://www.yelp.com/biz/goldene-gans-hamburg?adjust_creative=hBJOknVQJ58S5goQyjmwRw&utm_campaign=yelp_api_v3&utm_medium=api_v3_business_search&utm_source=hBJOknVQJ58S5goQyjmwRw", "review_count": 93, "categories": [{"alias": "french", "title": "French"}, {"alias": "german", "title": "German"}, {"alias": "bistros", "title": "Bistros"}], "rating": 4.0, "coordinates": {"latitude": 53.55162, "longitude": 9.92738}, "transactions": [], "price": "\u20ac\u20ac\u20ac", "location": {"address1": "Rothestr. 70", "address2": null, "address3": null, "city": "Hamburg", "zip_code": "22765", "country": "DE", "state": "HH", "display_address": ["Rothestr. 70", "22765 Hamburg", "Germany"]}, "phone": "+494039909878", "display_phone": "+49 40 39909878", "distance": 3706.3385479145813}, {"id": "puAHlkODbjH--3UZ4dZ6_A", "alias": "l-bar-hamburg-2", "name": "L.Bar", "image_url": "https://s3-media3.fl.yelpcdn.com/bphoto/NKSBU4Pr1AzrOpwICc9a6A/o.jpg", "is_closed": false, "url": "https://www.yelp.com/biz/l-bar-hamburg-2?adjust_creative=hBJOknVQJ58S5goQyjmwRw&utm_campaign=yelp_api_v3&utm_medium=api_v3_business_search&utm_source=hBJOknVQJ58S5goQyjmwRw", "review_count": 5, "categories": [{"alias": "international", "title": "International"}, {"alias": "cocktailbars", "title": "Cocktail Bars"}], "rating": 4.0, "coordinates": {"latitude": 53.56278, "longitude": 9.91937}, "transactions": [], "price": "\u20ac\u20ac\u20ac", "location": {"address1": "Gastwerk Hotel Hamburg", "address2": "Beim Alten Gaswerk 3", "address3": null, "city": "Hamburg", "zip_code": "22761", "country": "DE", "state": "HH", "display_address": ["Gastwerk Hotel Hamburg", "Beim Alten Gaswerk 3", "22761 Hamburg", "Germany"]}, "phone": "+494089062464", "display_phone": "+49 40 89062464", "distance": 4764.288823860283}, {"id": "oqbozCdwuRnqUMMR1aEX2Q", "alias": "wehmanns-bistro-hamburg", "name": "Wehmanns Bistro", "image_url": "https://s3-media2.fl.yelpcdn.com/bphoto/Eb59YP_dOkqsYP9k3pOlUA/o.jpg", "is_closed": false, "url": "https://www.yelp.com/biz/wehmanns-bistro-hamburg?adjust_creative=hBJOknVQJ58S5goQyjmwRw&utm_campaign=yelp_api_v3&utm_medium=api_v3_business_search&utm_source=hBJOknVQJ58S5goQyjmwRw", "review_count": 5, "categories": [{"alias": "wine_bars", "title": "Wine Bars"}, {"alias": "german", "title": "German"}, {"alias": "bistros", "title": "Bistros"}], "rating": 4.0, "coordinates": {"latitude": 53.5461029, "longitude": 9.9164315}, "transactions": [], "price": "\u20ac\u20ac\u20ac", "location": {"address1": "Landhaus Scherrer", "address2": "Elbchaussee 130", "address3": "", "city": "Hamburg", "zip_code": "22763", "country": "DE", "state": "HH", "display_address": ["Landhaus Scherrer", "Elbchaussee 130", "22763 Hamburg", "Germany"]}, "phone": "+4940883070050", "display_phone": "+49 40 883070050", "distance": 2906.3721399842398}, {"id": "tEPgj2yMXvUKkq-SdZa3Pw", "alias": "brooklyn-bbq-bar-hamburg", "name": "Brooklyn BBQ Bar", "image_url": "https://s3-media3.fl.yelpcdn.com/bphoto/-A13xPz21-nR8OHpMQ8-Uw/o.jpg", "is_closed": false, "url": "https://www.yelp.com/biz/brooklyn-bbq-bar-hamburg?adjust_creative=hBJOknVQJ58S5goQyjmwRw&utm_campaign=yelp_api_v3&utm_medium=api_v3_business_search&utm_source=hBJOknVQJ58S5goQyjmwRw", "review_count": 5, "categories": [{"alias": "bars", "title": "Bars"}, {"alias": "bbq", "title": "Barbeque"}, {"alias": "burgers", "title": "Burgers"}], "rating": 3.5, "coordinates": {"latitude": 53.55648, "longitude": 9.92802}, "transactions": [], "price": "\u20ac\u20ac", "location": {"address1": "Bahrenfelder Str. 221", "address2": "", "address3": null, "city": "Hamburg", "zip_code": "22765", "country": "DE", "state": "HH", "display_address": ["Bahrenfelder Str. 221", "22765 Hamburg", "Germany"]}, "phone": "+494060792430", "display_phone": "+49 40 60792430", "distance": 4221.372394795223}, {"id": "bOhSXxW09ad9pB2roPgiFw", "alias": "warenwirtschaft-cblk-hamburg", "name": "Warenwirtschaft Cblk", "image_url": "https://s3-media1.fl.yelpcdn.com/bphoto/F1m013iPyfb-Nsx0lQFdOw/o.jpg", "is_closed": false, "url": "https://www.yelp.com/biz/warenwirtschaft-cblk-hamburg?adjust_creative=hBJOknVQJ58S5goQyjmwRw&utm_campaign=yelp_api_v3&utm_medium=api_v3_business_search&utm_source=hBJOknVQJ58S5goQyjmwRw", "review_count": 8, "categories": [{"alias": "cafes", "title": "Cafes"}, {"alias": "organic_stores", "title": "Organic Stores"}], "rating": 4.5, "coordinates": {"latitude": 53.55567, "longitude": 9.92131}, "transactions": [], "price": "\u20ac", "location": {"address1": "Gro\u00dfe Brunnenstr. 141", "address2": "", "address3": null, "city": "Hamburg", "zip_code": "22763", "country": "DE", "state": "HH", "display_address": ["Gro\u00dfe Brunnenstr. 141", "22763 Hamburg", "Germany"]}, "phone": "+494063675734", "display_phone": "+49 40 63675734", "distance": 4014.352850965575}, {"id": "y0NtsMVJJKcJXb2bEyD8KQ", "alias": "froindlichst-hamburg-2", "name": "Froindlichst", "image_url": "https://s3-media2.fl.yelpcdn.com/bphoto/SUPY8Hbz20ZPAne7DdkCCg/o.jpg", "is_closed": false, "url": "https://www.yelp.com/biz/froindlichst-hamburg-2?adjust_creative=hBJOknVQJ58S5goQyjmwRw&utm_campaign=yelp_api_v3&utm_medium=api_v3_business_search&utm_source=hBJOknVQJ58S5goQyjmwRw", "review_count": 5, "categories": [{"alias": "vegan", "title": "Vegan"}, {"alias": "cafes", "title": "Cafes"}, {"alias": "burgers", "title": "Burgers"}], "rating": 4.5, "coordinates": {"latitude": 53.55683, "longitude": 9.92148}, "transactions": [], "location": {"address1": "Daimlerstr. 12", "address2": null, "address3": "", "city": "Hamburg", "zip_code": "22763", "country": "DE", "state": "HH", "display_address": ["Daimlerstr. 12", "22763 Hamburg", "Germany"]}, "phone": "+494088177878", "display_phone": "+49 40 88177878", "distance": 4147.516386335053}, {"id": "7v0u6Xs6eJeHsFx_JPt8SQ", "alias": "elbwarte-hamburg", "name": "Elbwarte", "image_url": "https://s3-media4.fl.yelpcdn.com/bphoto/IdqcqgmiD3sm4CD8jkuejg/o.jpg", "is_closed": false, "url": "https://www.yelp.com/biz/elbwarte-hamburg?adjust_creative=hBJOknVQJ58S5goQyjmwRw&utm_campaign=yelp_api_v3&utm_medium=api_v3_business_search&utm_source=hBJOknVQJ58S5goQyjmwRw", "review_count": 4, "categories": [{"alias": "cafes", "title": "Cafes"}, {"alias": "international", "title": "International"}], "rating": 5.0, "coordinates": {"latitude": 53.54392, "longitude": 9.91661}, "transactions": [], "location": {"address1": "Augustinum Hamburg", "address2": "Neum\u00fchlen 37", "address3": "", "city": "Hamburg", "zip_code": "22763", "country": "DE", "state": "HH", "display_address": ["Augustinum Hamburg", "Neum\u00fchlen 37", "22763 Hamburg", "Germany"]}, "phone": "+494039194999", "display_phone": "+49 40 39194999", "distance": 2672.3121725119418}, {"id": "MOb6KCdsuv0IVJzWRFxU2g", "alias": "liebes-bisschen-hamburg-2", "name": "Liebes Bisschen", "image_url": "https://s3-media1.fl.yelpcdn.com/bphoto/RPjIehHOMiNBcuvaAAtQYw/o.jpg", "is_closed": false, "url": "https://www.yelp.com/biz/liebes-bisschen-hamburg-2?adjust_creative=hBJOknVQJ58S5goQyjmwRw&utm_campaign=yelp_api_v3&utm_medium=api_v3_business_search&utm_source=hBJOknVQJ58S5goQyjmwRw", "review_count": 7, "categories": [{"alias": "cupcakes", "title": "Cupcakes"}, {"alias": "cakeshop", "title": "Patisserie/Cake Shop"}, {"alias": "cafes", "title": "Cafes"}], "rating": 4.0, "coordinates": {"latitude": 53.551237, "longitude": 9.930775}, "transactions": [], "price": "\u20ac", "location": {"address1": "Spritzenplatz 5", "address2": "", "address3": null, "city": "Hamburg", "zip_code": "22765", "country": "DE", "state": "HH", "display_address": ["Spritzenplatz 5", "22765 Hamburg", "Germany"]}, "phone": "+494032967824", "display_phone": "+49 40 32967824", "distance": 3749.758142489909}, {"id": "48CB0w4Tw4k-4VEl1mfJkQ", "alias": "souperia-ottensen-hamburg", "name": "Souperia Ottensen", "image_url": "https://s3-media4.fl.yelpcdn.com/bphoto/D9p4Ex-AmLvpkotW4XLU6w/o.jpg", "is_closed": false, "url": "https://www.yelp.com/biz/souperia-ottensen-hamburg?adjust_creative=hBJOknVQJ58S5goQyjmwRw&utm_campaign=yelp_api_v3&utm_medium=api_v3_business_search&utm_source=hBJOknVQJ58S5goQyjmwRw", "review_count": 1, "categories": [{"alias": "salad", "title": "Salad"}, {"alias": "soup", "title": "Soup"}], "rating": 5.0, "coordinates": {"latitude": 53.5549088, "longitude": 9.9271097}, "transactions": [], "price": "\u20ac", "location": {"address1": "Friedensallee 28", "address2": "", "address3": "", "city": "Hamburg", "zip_code": "22765", "country": "DE", "state": "HH", "display_address": ["Friedensallee 28", "22765 Hamburg", "Germany"]}, "phone": "+494038042308", "display_phone": "+49 40 38042308", "distance": 4044.068001707169}, {"id": "fU0sm9rL72C7oYhunndwhA", "alias": "eaton-place-hamburg", "name": "Eaton Place", "image_url": "https://s3-media3.fl.yelpcdn.com/bphoto/rO3k3mRJFxRDnqGNQhsGWA/o.jpg", "is_closed": false, "url": "https://www.yelp.com/biz/eaton-place-hamburg?adjust_creative=hBJOknVQJ58S5goQyjmwRw&utm_campaign=yelp_api_v3&utm_medium=api_v3_business_search&utm_source=hBJOknVQJ58S5goQyjmwRw", "review_count": 4, "categories": [{"alias": "cafes", "title": "Cafes"}, {"alias": "tea", "title": "Tea Rooms"}], "rating": 4.5, "coordinates": {"latitude": 53.5506676304152, "longitude": 9.93026982088655}, "transactions": [], "location": {"address1": "Bahrenfelder Str. 80 - 82", "address2": "", "address3": null, "city": "Hamburg", "zip_code": "22765", "country": "DE", "state": "HH", "display_address": ["Bahrenfelder Str. 80 - 82", "22765 Hamburg", "Germany"]}, "phone": "+494055641892", "display_phone": "+49 40 55641892", "distance": 3656.2708173716746}, {"id": "u2JkbkvRSfnQb2pfsX18fQ", "alias": "knuth-hamburg-2", "name": "Knuth", "image_url": "https://s3-media2.fl.yelpcdn.com/bphoto/kAluxyVihcwuy3Y9iQhfqw/o.jpg", "is_closed": false, "url": "https://www.yelp.com/biz/knuth-hamburg-2?adjust_creative=hBJOknVQJ58S5goQyjmwRw&utm_campaign=yelp_api_v3&utm_medium=api_v3_business_search&utm_source=hBJOknVQJ58S5goQyjmwRw", "review_count": 181, "categories": [{"alias": "cafes", "title": "Cafes"}, {"alias": "breakfast_brunch", "title": "Breakfast & Brunch"}], "rating": 4.0, "coordinates": {"latitude": 53.55304, "longitude": 9.93105}, "transactions": [], "price": "\u20ac\u20ac", "location": {"address1": "Gro\u00dfe Rainstr. 21", "address2": null, "address3": null, "city": "Hamburg", "zip_code": "22765", "country": "DE", "state": "HH", "display_address": ["Gro\u00dfe Rainstr. 21", "22765 Hamburg", "Germany"]}, "phone": "+494046008708", "display_phone": "+49 40 46008708", "distance": 3944.506393599926}, {"id": "qGV5JvH4UrpqcnRvoXahMg", "alias": "lila-nashorn-hamburg", "name": "Lila Nashorn", "image_url": "https://s3-media3.fl.yelpcdn.com/bphoto/tiM_DIXhWVztH6lAIQW8xg/o.jpg", "is_closed": false, "url": "https://www.yelp.com/biz/lila-nashorn-hamburg?adjust_creative=hBJOknVQJ58S5goQyjmwRw&utm_campaign=yelp_api_v3&utm_medium=api_v3_business_search&utm_source=hBJOknVQJ58S5goQyjmwRw", "review_count": 3, "categories": [{"alias": "international", "title": "International"}], "rating": 3.5, "coordinates": {"latitude": 53.554319302294, "longitude": 9.92719862800909}, "transactions": [], "price": "\u20ac\u20ac\u20ac", "location": {"address1": "Friedensallee 7 - 9", "address2": "", "address3": "", "city": "Hamburg", "zip_code": "22765", "country": "DE", "state": "HH", "display_address": ["Friedensallee 7 - 9", "22765 Hamburg", "Germany"]}, "phone": "+494018122382", "display_phone": "+49 40 18122382", "distance": 3981.2558166324866}, {"id": "DFIV8d17PMfdr1IadyooHA", "alias": "caf\u00e9-lisboa-hamburg", "name": "Caf\u00e9 Lisboa", "image_url": "https://s3-media1.fl.yelpcdn.com/bphoto/F8-O09s94aQ94QaDwFYlAg/o.jpg", "is_closed": false, "url": "https://www.yelp.com/biz/caf%C3%A9-lisboa-hamburg?adjust_creative=hBJOknVQJ58S5goQyjmwRw&utm_campaign=yelp_api_v3&utm_medium=api_v3_business_search&utm_source=hBJOknVQJ58S5goQyjmwRw", "review_count": 17, "categories": [{"alias": "portuguese", "title": "Portuguese"}, {"alias": "coffee", "title": "Coffee & Tea"}], "rating": 4.5, "coordinates": {"latitude": 53.5491, "longitude": 9.9258}, "transactions": [], "price": "\u20ac\u20ac", "location": {"address1": "Arnoldstr. 48", "address2": "", "address3": null, "city": "Hamburg", "zip_code": "22765", "country": "DE", "state": "HH", "display_address": ["Arnoldstr. 48", "22765 Hamburg", "Germany"]}, "phone": "+494039909761", "display_phone": "+49 40 39909761", "distance": 3404.8509840689717}, {"id": "LAjvBw-M85p76m9grMReFQ", "alias": "il-vagabondo-hamburg", "name": "Il Vagabondo", "image_url": "https://s3-media2.fl.yelpcdn.com/bphoto/i7TJ3zeWvdegh30Xg1r0bQ/o.jpg", "is_closed": false, "url": "https://www.yelp.com/biz/il-vagabondo-hamburg?adjust_creative=hBJOknVQJ58S5goQyjmwRw&utm_campaign=yelp_api_v3&utm_medium=api_v3_business_search&utm_source=hBJOknVQJ58S5goQyjmwRw", "review_count": 56, "categories": [{"alias": "italian", "title": "Italian"}], "rating": 3.5, "coordinates": {"latitude": 53.5568, "longitude": 9.9284}, "transactions": [], "price": "\u20ac\u20ac\u20ac", "location": {"address1": "Bahrenfelder Str. 242", "address2": null, "address3": null, "city": "Hamburg", "zip_code": "22765", "country": "DE", "state": "HH", "display_address": ["Bahrenfelder Str. 242", "22765 Hamburg", "Germany"]}, "phone": "+49403903598", "display_phone": "+49 40 3903598", "distance": 4267.8197872417895}, {"id": "Gw9-WydKktREhoncru8iZA", "alias": "black-delight-hamburg-2", "name": "Black Delight", "image_url": "https://s3-media4.fl.yelpcdn.com/bphoto/TZxwXotny93-Kn3aOYjFbA/o.jpg", "is_closed": false, "url": "https://www.yelp.com/biz/black-delight-hamburg-2?adjust_creative=hBJOknVQJ58S5goQyjmwRw&utm_campaign=yelp_api_v3&utm_medium=api_v3_business_search&utm_source=hBJOknVQJ58S5goQyjmwRw", "review_count": 1, "categories": [{"alias": "cafes", "title": "Cafes"}], "rating": 4.0, "coordinates": {"latitude": 53.555163, "longitude": 9.926839}, "transactions": [], "location": {"address1": "Friedensallee 32", "address2": "", "address3": null, "city": "Hamburg", "zip_code": "22765", "country": "DE", "state": "HH", "display_address": ["Friedensallee 32", "22765 Hamburg", "Germany"]}, "phone": "", "display_phone": "", "distance": 4062.1832354685816}, {"id": "qcQCtM1bULZy0AyWxAC4XA", "alias": "jeffs-cheesecake-hamburg", "name": "Jeff's Cheesecake", "image_url": "https://s3-media4.fl.yelpcdn.com/bphoto/Bsnhie-mO4ly9HTyD4Devw/o.jpg", "is_closed": false, "url": "https://www.yelp.com/biz/jeffs-cheesecake-hamburg?adjust_creative=hBJOknVQJ58S5goQyjmwRw&utm_campaign=yelp_api_v3&utm_medium=api_v3_business_search&utm_source=hBJOknVQJ58S5goQyjmwRw", "review_count": 3, "categories": [{"alias": "cafes", "title": "Cafes"}, {"alias": "cakeshop", "title": "Patisserie/Cake Shop"}], "rating": 4.5, "coordinates": {"latitude": 53.5551499789781, "longitude": 9.9268401414156}, "transactions": [], "location": {"address1": "Friedensallee 32", "address2": "", "address3": "", "city": "Hamburg", "zip_code": "22765", "country": "DE", "state": "HH", "display_address": ["Friedensallee 32", "22765 Hamburg", "Germany"]}, "phone": "+494035583203", "display_phone": "+49 40 35583203", "distance": 4060.8357194451896}, {"id": "EQpAMzM49u5LiCDLYCFoLQ", "alias": "viacaf\u00e9lier-hamburg-2", "name": "ViaCaf\u00e9lier", "image_url": "https://s3-media2.fl.yelpcdn.com/bphoto/8_WMUKAs56RG2sQYlopgeg/o.jpg", "is_closed": false, "url": "https://www.yelp.com/biz/viacaf%C3%A9lier-hamburg-2?adjust_creative=hBJOknVQJ58S5goQyjmwRw&utm_campaign=yelp_api_v3&utm_medium=api_v3_business_search&utm_source=hBJOknVQJ58S5goQyjmwRw", "review_count": 6, "categories": [{"alias": "cafes", "title": "Cafes"}], "rating": 4.5, "coordinates": {"latitude": 53.56298, "longitude": 9.9155}, "transactions": [], "price": "\u20ac", "location": {"address1": "Paul-Dessau-Str. 4", "address2": "", "address3": "", "city": "Hamburg", "zip_code": "22761", "country": "DE", "state": "HH", "display_address": ["Paul-Dessau-Str. 4", "22761 Hamburg", "Germany"]}, "phone": "+494088177700", "display_phone": "+49 40 88177700", "distance": 4749.830543298007}, {"id": "vuwOYmGD26JwPcMrhqM0qA", "alias": "gecko-hamburg-2", "name": "Gecko", "image_url": "https://s3-media1.fl.yelpcdn.com/bphoto/lb9VjW4DlxOume7IDehmCA/o.jpg", "is_closed": false, "url": "https://www.yelp.com/biz/gecko-hamburg-2?adjust_creative=hBJOknVQJ58S5goQyjmwRw&utm_campaign=yelp_api_v3&utm_medium=api_v3_business_search&utm_source=hBJOknVQJ58S5goQyjmwRw", "review_count": 1, "categories": [{"alias": "hotdogs", "title": "Fast Food"}, {"alias": "tex-mex", "title": "Tex-Mex"}, {"alias": "mexican", "title": "Mexican"}], "rating": 5.0, "coordinates": {"latitude": 53.5524, "longitude": 9.93232}, "transactions": [], "location": {"address1": "Ottenser Hauptstr.10", "address2": "", "address3": null, "city": "Hamburg", "zip_code": "22765", "country": "DE", "state": "HH", "display_address": ["Ottenser Hauptstr.10", "22765 Hamburg", "Germany"]}, "phone": "+491736777894", "display_phone": "+49 173 6777894", "distance": 3912.0095565824136}, {"id": "eqUho5sGedwKQqyEhRnNGQ", "alias": "tide-hamburg-4", "name": "TIDE", "image_url": "https://s3-media1.fl.yelpcdn.com/bphoto/h3czFgvZlm97c-67MUS4ow/o.jpg", "is_closed": false, "url": "https://www.yelp.com/biz/tide-hamburg-4?adjust_creative=hBJOknVQJ58S5goQyjmwRw&utm_campaign=yelp_api_v3&utm_medium=api_v3_business_search&utm_source=hBJOknVQJ58S5goQyjmwRw", "review_count": 27, "categories": [{"alias": "cafes", "title": "Cafes"}, {"alias": "delicatessen", "title": "Delicatessen"}], "rating": 4.5, "coordinates": {"latitude": 53.55121, "longitude": 9.92707}, "transactions": [], "price": "\u20ac\u20ac", "location": {"address1": "Rothestr. 53", "address2": "", "address3": "", "city": "Hamburg", "zip_code": "22765", "country": "DE", "state": "HH", "display_address": ["Rothestr. 53", "22765 Hamburg", "Germany"]}, "phone": "+494041111499", "display_phone": "+49 40 41111499", "distance": 3651.051340270803}, {"id": "8r1lxPAsqdM71QYueHgJRA", "alias": "restaurant-alara-hamburg", "name": "Restaurant Alara", "image_url": "https://s3-media2.fl.yelpcdn.com/bphoto/DI5SarC4HhmSMvZZl9yGjw/o.jpg", "is_closed": false, "url": "https://www.yelp.com/biz/restaurant-alara-hamburg?adjust_creative=hBJOknVQJ58S5goQyjmwRw&utm_campaign=yelp_api_v3&utm_medium=api_v3_business_search&utm_source=hBJOknVQJ58S5goQyjmwRw", "review_count": 1, "categories": [{"alias": "german", "title": "German"}], "rating": 4.0, "coordinates": {"latitude": 53.55397, "longitude": 9.92888}, "transactions": [], "location": {"address1": "Bahrenfelderstr. 160", "address2": null, "address3": null, "city": "Hamburg", "zip_code": "22765", "country": "DE", "state": "HH", "display_address": ["Bahrenfelderstr. 160", "22765 Hamburg", "Germany"]}, "phone": "+494028493661", "display_phone": "+49 40 28493661", "distance": 3988.167574949491}, {"id": "pe75Flq09afy6pkEgSkDKw", "alias": "eclair-au-caf\u00e9-hamburg-4", "name": "Eclair au caf\u00e9", "image_url": "https://s3-media3.fl.yelpcdn.com/bphoto/1TQGCNhq1b6zUyJ9fcGDDg/o.jpg", "is_closed": false, "url": "https://www.yelp.com/biz/eclair-au-caf%C3%A9-hamburg-4?adjust_creative=hBJOknVQJ58S5goQyjmwRw&utm_campaign=yelp_api_v3&utm_medium=api_v3_business_search&utm_source=hBJOknVQJ58S5goQyjmwRw", "review_count": 27, "categories": [{"alias": "french", "title": "French"}, {"alias": "cafes", "title": "Cafes"}], "rating": 4.5, "coordinates": {"latitude": 53.55369, "longitude": 9.92879}, "transactions": [], "location": {"address1": "Kleine Rainstr. 1", "address2": "", "address3": null, "city": "Hamburg", "zip_code": "22765", "country": "DE", "state": "HH", "display_address": ["Kleine Rainstr. 1", "22765 Hamburg", "Germany"]}, "phone": "+494074109022", "display_phone": "+49 40 74109022", "distance": 3952.1231877888663}, {"id": "Yo1NyGm1_CJIQsXjl7zgLg", "alias": "bio-dito-hamburg", "name": "Bio Dito", "image_url": "https://s3-media2.fl.yelpcdn.com/bphoto/ccZLAEaVEjFImBcOAufZPA/o.jpg", "is_closed": false, "url": "https://www.yelp.com/biz/bio-dito-hamburg?adjust_creative=hBJOknVQJ58S5goQyjmwRw&utm_campaign=yelp_api_v3&utm_medium=api_v3_business_search&utm_source=hBJOknVQJ58S5goQyjmwRw", "review_count": 10, "categories": [{"alias": "bistros", "title": "Bistros"}], "rating": 3.5, "coordinates": {"latitude": 53.5634157, "longitude": 9.9161893}, "transactions": [], "price": "\u20ac\u20ac", "location": {"address1": "Paul-Dessau Str. 1", "address2": null, "address3": null, "city": "Hamburg", "zip_code": "22761", "country": "DE", "state": "HH", "display_address": ["Paul-Dessau Str. 1", "22761 Hamburg", "Germany"]}, "phone": "+494089726863", "display_phone": "+49 40 89726863", "distance": 4803.3929268045495}, {"id": "EscJVVW2TUy1VGMwfm59ow", "alias": "piazza-italiana-hamburg", "name": "Piazza Italiana", "image_url": "https://s3-media1.fl.yelpcdn.com/bphoto/VDSuvu0frqWqbHsDeoDHLw/o.jpg", "is_closed": false, "url": "https://www.yelp.com/biz/piazza-italiana-hamburg?adjust_creative=hBJOknVQJ58S5goQyjmwRw&utm_campaign=yelp_api_v3&utm_medium=api_v3_business_search&utm_source=hBJOknVQJ58S5goQyjmwRw", "review_count": 4, "categories": [{"alias": "pizza", "title": "Pizza"}, {"alias": "italian", "title": "Italian"}], "rating": 3.0, "coordinates": {"latitude": 53.55392, "longitude": 9.9289}, "transactions": [], "location": {"address1": "Bahrenfelder Str. 158", "address2": "", "address3": null, "city": "Hamburg", "zip_code": "22765", "country": "DE", "state": "HH", "display_address": ["Bahrenfelder Str. 158", "22765 Hamburg", "Germany"]}, "phone": "+494039909366", "display_phone": "+49 40 39909366", "distance": 3983.3044903889595}, {"id": "1PN_geEcLHvqVvuE_0FUqg", "alias": "mamma-mia-hamburg", "name": "Mamma Mia", "image_url": "https://s3-media2.fl.yelpcdn.com/bphoto/-Ut5U1xVxs6u5rfaswU_Vg/o.jpg", "is_closed": false, "url": "https://www.yelp.com/biz/mamma-mia-hamburg?adjust_creative=hBJOknVQJ58S5goQyjmwRw&utm_campaign=yelp_api_v3&utm_medium=api_v3_business_search&utm_source=hBJOknVQJ58S5goQyjmwRw", "review_count": 150, "categories": [{"alias": "italian", "title": "Italian"}, {"alias": "pizza", "title": "Pizza"}], "rating": 4.0, "coordinates": {"latitude": 53.55618, "longitude": 9.92806}, "transactions": [], "price": "\u20ac\u20ac", "location": {"address1": "Barnerstr. 42", "address2": null, "address3": null, "city": "Hamburg", "zip_code": "22765", "country": "DE", "state": "HH", "display_address": ["Barnerstr. 42", "22765 Hamburg", "Germany"]}, "phone": "+49403900386", "display_phone": "+49 40 3900386", "distance": 4199.6981716087885}, {"id": "awHerqBA6b7vfwfI7BxLIA", "alias": "caf\u00e9-centrale-hamburg", "name": "Caf\u00e9 Centrale", "image_url": "https://s3-media2.fl.yelpcdn.com/bphoto/B5kOCH3aeTwc0Ih4gx5saw/o.jpg", "is_closed": false, "url": "https://www.yelp.com/biz/caf%C3%A9-centrale-hamburg?adjust_creative=hBJOknVQJ58S5goQyjmwRw&utm_campaign=yelp_api_v3&utm_medium=api_v3_business_search&utm_source=hBJOknVQJ58S5goQyjmwRw", "review_count": 18, "categories": [{"alias": "cafes", "title": "Cafes"}], "rating": 4.0, "coordinates": {"latitude": 53.5538483, "longitude": 9.9282103}, "transactions": [], "price": "\u20ac\u20ac", "location": {"address1": "N\u00f6ltingstr. 4", "address2": "", "address3": "", "city": "Hamburg", "zip_code": "22765", "country": "DE", "state": "HH", "display_address": ["N\u00f6ltingstr. 4", "22765 Hamburg", "Germany"]}, "phone": "", "display_phone": "", "distance": 3952.4442089581994}, {"id": "zijY57ORJ_fijc4qTNAt0g", "alias": "the-wheel-cafe-hamburg", "name": "The Wheel Cafe", "image_url": "https://s3-media1.fl.yelpcdn.com/bphoto/_yJA4wUzejLtDGeY5jLYFA/o.jpg", "is_closed": false, "url": "https://www.yelp.com/biz/the-wheel-cafe-hamburg?adjust_creative=hBJOknVQJ58S5goQyjmwRw&utm_campaign=yelp_api_v3&utm_medium=api_v3_business_search&utm_source=hBJOknVQJ58S5goQyjmwRw", "review_count": 1, "categories": [{"alias": "cafes", "title": "Cafes"}], "rating": 4.0, "coordinates": {"latitude": 53.55913, "longitude": 9.9276}, "transactions": [], "location": {"address1": "Bahrenfelder Str. 329", "address2": "", "address3": null, "city": "Hamburg", "zip_code": "22765", "country": "DE", "state": "HH", "display_address": ["Bahrenfelder Str. 329", "22765 Hamburg", "Germany"]}, "phone": "", "display_phone": "", "distance": 4497.356004198844}, {"id": "QTW19WcZ9vkeG0iTkTs24A", "alias": "falafel-zauber-hamburg", "name": "Falafel Zauber", "image_url": "https://s3-media1.fl.yelpcdn.com/bphoto/Tuc0qBhXdp7unHIPpKYY4A/o.jpg", "is_closed": false, "url": "https://www.yelp.com/biz/falafel-zauber-hamburg?adjust_creative=hBJOknVQJ58S5goQyjmwRw&utm_campaign=yelp_api_v3&utm_medium=api_v3_business_search&utm_source=hBJOknVQJ58S5goQyjmwRw", "review_count": 3, "categories": [{"alias": "foodstands", "title": "Food Stands"}], "rating": 4.5, "coordinates": {"latitude": 53.55194, "longitude": 9.92955}, "transactions": [], "location": {"address1": "Ottensener Hauptstr. 33", "address2": "", "address3": "", "city": "Hamburg", "zip_code": "22765", "country": "DE", "state": "HH", "display_address": ["Ottensener Hauptstr. 33", "22765 Hamburg", "Germany"]}, "phone": "+494033428161", "display_phone": "+49 40 33428161", "distance": 3784.738843989896}, {"id": "-jIUPH5cidxcyrkl4mC6Ww", "alias": "sushi-ten-hamburg", "name": "Sushi Ten", "image_url": "https://s3-media4.fl.yelpcdn.com/bphoto/5hFPLpzbREQ_7CCZrxVvWA/o.jpg", "is_closed": false, "url": "https://www.yelp.com/biz/sushi-ten-hamburg?adjust_creative=hBJOknVQJ58S5goQyjmwRw&utm_campaign=yelp_api_v3&utm_medium=api_v3_business_search&utm_source=hBJOknVQJ58S5goQyjmwRw", "review_count": 16, "categories": [{"alias": "sushi", "title": "Sushi Bars"}, {"alias": "panasian", "title": "Pan Asian"}], "rating": 4.0, "coordinates": {"latitude": 53.55232, "longitude": 9.93244}, "transactions": [], "price": "\u20ac\u20ac", "location": {"address1": "Ottenser Hauptstr. 10", "address2": "", "address3": "", "city": "Hamburg", "zip_code": "22765", "country": "DE", "state": "HH", "display_address": ["Ottenser Hauptstr. 10", "22765 Hamburg", "Germany"]}, "phone": "+494039805520", "display_phone": "+49 40 39805520", "distance": 3898.2752373187914}, {"id": "T5RWIzZm9xoA1Wuy_8G-UQ", "alias": "l-italiano-hamburg", "name": "L'Italiano", "image_url": "https://s3-media2.fl.yelpcdn.com/bphoto/6-B9baT5IuDVptWqppRsQQ/o.jpg", "is_closed": false, "url": "https://www.yelp.com/biz/l-italiano-hamburg?adjust_creative=hBJOknVQJ58S5goQyjmwRw&utm_campaign=yelp_api_v3&utm_medium=api_v3_business_search&utm_source=hBJOknVQJ58S5goQyjmwRw", "review_count": 3, "categories": [{"alias": "italian", "title": "Italian"}], "rating": 3.0, "coordinates": {"latitude": 53.55953, "longitude": 9.88597}, "transactions": [], "location": {"address1": "Waitzstr. 3", "address2": null, "address3": null, "city": "Hamburg", "zip_code": "22607", "country": "DE", "state": "HH", "display_address": ["Waitzstr. 3", "22607 Hamburg", "Germany"]}, "phone": "+494089064802", "display_phone": "+49 40 89064802", "distance": 4549.355308408762}, {"id": "GgDRkf45C9zV38p7FoxqjA", "alias": "sch\u00f6necke-hamburg-3", "name": "Sch\u00f6necke", "image_url": "https://s3-media3.fl.yelpcdn.com/bphoto/7812ywDxj44c8Poymni-gQ/o.jpg", "is_closed": false, "url": "https://www.yelp.com/biz/sch%C3%B6necke-hamburg-3?adjust_creative=hBJOknVQJ58S5goQyjmwRw&utm_campaign=yelp_api_v3&utm_medium=api_v3_business_search&utm_source=hBJOknVQJ58S5goQyjmwRw", "review_count": 12, "categories": [{"alias": "hotdogs", "title": "Fast Food"}, {"alias": "meats", "title": "Meat Shops"}], "rating": 4.5, "coordinates": {"latitude": 53.5525333197243, "longitude": 9.93179481747438}, "transactions": [], "location": {"address1": "Ottenser Hauptstr. 10", "address2": "", "address3": null, "city": "Hamburg", "zip_code": "22765", "country": "DE", "state": "HH", "display_address": ["Ottenser Hauptstr. 10", "22765 Hamburg", "Germany"]}, "phone": "+494039905408", "display_phone": "+49 40 39905408", "distance": 3910.8651464354857}, {"id": "gcX8MbgWGIoHv3VpCLNMCg", "alias": "ribatejo-hamburg", "name": "Ribatejo", "image_url": "https://s3-media2.fl.yelpcdn.com/bphoto/GX4L_03kgP5nlzef6r-XXA/o.jpg", "is_closed": false, "url": "https://www.yelp.com/biz/ribatejo-hamburg?adjust_creative=hBJOknVQJ58S5goQyjmwRw&utm_campaign=yelp_api_v3&utm_medium=api_v3_business_search&utm_source=hBJOknVQJ58S5goQyjmwRw", "review_count": 66, "categories": [{"alias": "portuguese", "title": "Portuguese"}, {"alias": "cafes", "title": "Cafes"}], "rating": 3.5, "coordinates": {"latitude": 53.54995, "longitude": 9.9303899}, "transactions": [], "price": "\u20ac\u20ac", "location": {"address1": "Bahrenfelder Str. 56", "address2": "", "address3": null, "city": "Hamburg", "zip_code": "22765", "country": "DE", "state": "HH", "display_address": ["Bahrenfelder Str. 56", "22765 Hamburg", "Germany"]}, "phone": "+494041287911", "display_phone": "+49 40 41287911", "distance": 3597.209329173403}, {"id": "Y9f22dor_Pm4kZJAZ6GOfw", "alias": "le-canard-nouveau-hamburg", "name": "Le Canard nouveau", "image_url": "https://s3-media3.fl.yelpcdn.com/bphoto/YJkzuYtMAfrKA0G1Bqaa0A/o.jpg", "is_closed": false, "url": "https://www.yelp.com/biz/le-canard-nouveau-hamburg?adjust_creative=hBJOknVQJ58S5goQyjmwRw&utm_campaign=yelp_api_v3&utm_medium=api_v3_business_search&utm_source=hBJOknVQJ58S5goQyjmwRw", "review_count": 84, "categories": [{"alias": "international", "title": "International"}], "rating": 4.5, "coordinates": {"latitude": 53.545946, "longitude": 9.914011}, "transactions": [], "price": "\u20ac\u20ac\u20ac\u20ac", "location": {"address1": "Elbchaussee 139", "address2": null, "address3": null, "city": "Hamburg", "zip_code": "22763", "country": "DE", "state": "HH", "display_address": ["Elbchaussee 139", "22763 Hamburg", "Germany"]}, "phone": "+494088129532", "display_phone": "+49 40 88129532", "distance": 2862.485276032371}, {"id": "WWUhizRRPR7wRGr0mnBo2Q", "alias": "al-arabi-hamburg", "name": "Al Arabi", "image_url": "https://s3-media4.fl.yelpcdn.com/bphoto/qSBAGbqcOhlN_846jznqvg/o.jpg", "is_closed": false, "url": "https://www.yelp.com/biz/al-arabi-hamburg?adjust_creative=hBJOknVQJ58S5goQyjmwRw&utm_campaign=yelp_api_v3&utm_medium=api_v3_business_search&utm_source=hBJOknVQJ58S5goQyjmwRw", "review_count": 49, "categories": [{"alias": "hotdogs", "title": "Fast Food"}, {"alias": "mideastern", "title": "Middle Eastern"}], "rating": 4.0, "coordinates": {"latitude": 53.55618, "longitude": 9.92806}, "transactions": [], "price": "\u20ac\u20ac", "location": {"address1": "Barnerstr. 42", "address2": "", "address3": "", "city": "Hamburg", "zip_code": "22765", "country": "DE", "state": "HH", "display_address": ["Barnerstr. 42", "22765 Hamburg", "Germany"]}, "phone": "+494032522891", "display_phone": "+49 40 32522891", "distance": 4199.6981716087885}, {"id": "qGvK2JCkAjqsQkz30sU5_g", "alias": "frische-markt-hamburg", "name": "Frische-Markt", "image_url": "https://s3-media1.fl.yelpcdn.com/bphoto/LBfbuqjyLjInRvee10dgEQ/o.jpg", "is_closed": false, "url": "https://www.yelp.com/biz/frische-markt-hamburg?adjust_creative=hBJOknVQJ58S5goQyjmwRw&utm_campaign=yelp_api_v3&utm_medium=api_v3_business_search&utm_source=hBJOknVQJ58S5goQyjmwRw", "review_count": 4, "categories": [{"alias": "food_court", "title": "Food Court"}], "rating": 5.0, "coordinates": {"latitude": 53.55232, "longitude": 9.93244}, "transactions": [], "price": "\u20ac\u20ac", "location": {"address1": "Ottenser Hauptstr. 10", "address2": "", "address3": "", "city": "Hamburg", "zip_code": "22765", "country": "DE", "state": "HH", "display_address": ["Ottenser Hauptstr. 10", "22765 Hamburg", "Germany"]}, "phone": "", "display_phone": "", "distance": 3898.2752373187914}, {"id": "NI0kFNz0-iornAkH0dVYhQ", "alias": "katelbach-hamburg", "name": "Katelbach", "image_url": "https://s3-media4.fl.yelpcdn.com/bphoto/0GMfg1qRZ8Nd8Y0kiPdV_Q/o.jpg", "is_closed": false, "url": "https://www.yelp.com/biz/katelbach-hamburg?adjust_creative=hBJOknVQJ58S5goQyjmwRw&utm_campaign=yelp_api_v3&utm_medium=api_v3_business_search&utm_source=hBJOknVQJ58S5goQyjmwRw", "review_count": 51, "categories": [{"alias": "bistros", "title": "Bistros"}, {"alias": "cafes", "title": "Cafes"}], "rating": 3.5, "coordinates": {"latitude": 53.55062, "longitude": 9.92566}, "transactions": [], "price": "\u20ac\u20ac", "location": {"address1": "Gro\u00dfe Brunnenstr. 60", "address2": null, "address3": null, "city": "Hamburg", "zip_code": "22763", "country": "DE", "state": "HH", "display_address": ["Gro\u00dfe Brunnenstr. 60", "22763 Hamburg", "Germany"]}, "phone": "+49403905511", "display_phone": "+49 40 3905511", "distance": 3561.4897823934057}, {"id": "gsNs4CiZOOkF0ig4wIpb-Q", "alias": "patan-cafe-hamburg", "name": "Patan Cafe", "image_url": "https://s3-media2.fl.yelpcdn.com/bphoto/u-4VVqtt1Xbc-FWfYjXXnQ/o.jpg", "is_closed": false, "url": "https://www.yelp.com/biz/patan-cafe-hamburg?adjust_creative=hBJOknVQJ58S5goQyjmwRw&utm_campaign=yelp_api_v3&utm_medium=api_v3_business_search&utm_source=hBJOknVQJ58S5goQyjmwRw", "review_count": 1, "categories": [{"alias": "cafes", "title": "Cafes"}, {"alias": "kiosk", "title": "Kiosk"}], "rating": 5.0, "coordinates": {"latitude": 53.54898, "longitude": 9.92753}, "transactions": [], "location": {"address1": "Rothestr. 37", "address2": "", "address3": "", "city": "Hamburg", "zip_code": "22765", "country": "DE", "state": "HH", "display_address": ["Rothestr. 37", "22765 Hamburg", "Germany"]}, "phone": "+494035628733", "display_phone": "+49 40 35628733", "distance": 3432.780416323929}, {"id": "VVHcAebfTvEsyxl0jn4R-w", "alias": "lillisu-hamburg-2", "name": "LilliSu", "image_url": "https://s3-media2.fl.yelpcdn.com/bphoto/VvjJL2bEb_hOTivzIAf0pw/o.jpg", "is_closed": false, "url": "https://www.yelp.com/biz/lillisu-hamburg-2?adjust_creative=hBJOknVQJ58S5goQyjmwRw&utm_campaign=yelp_api_v3&utm_medium=api_v3_business_search&utm_source=hBJOknVQJ58S5goQyjmwRw", "review_count": 59, "categories": [{"alias": "cafes", "title": "Cafes"}], "rating": 4.0, "coordinates": {"latitude": 53.552569, "longitude": 9.930812}, "transactions": [], "price": "\u20ac\u20ac", "location": {"address1": "Gro\u00dfe Rainstr. 18", "address2": null, "address3": null, "city": "Hamburg", "zip_code": "22765", "country": "DE", "state": "HH", "display_address": ["Gro\u00dfe Rainstr. 18", "22765 Hamburg", "Germany"]}, "phone": "+49403902491", "display_phone": "+49 40 3902491", "distance": 3887.921022639789}, {"id": "wloTSi-4spBPZOs7krSPdg", "alias": "asia-top-hamburg", "name": "Asia Top", "image_url": "https://s3-media1.fl.yelpcdn.com/bphoto/Er6ZaYJFjtO8fX8YeW6LmQ/o.jpg", "is_closed": false, "url": "https://www.yelp.com/biz/asia-top-hamburg?adjust_creative=hBJOknVQJ58S5goQyjmwRw&utm_campaign=yelp_api_v3&utm_medium=api_v3_business_search&utm_source=hBJOknVQJ58S5goQyjmwRw", "review_count": 2, "categories": [{"alias": "panasian", "title": "Pan Asian"}], "rating": 3.5, "coordinates": {"latitude": 53.559295, "longitude": 9.927989}, "transactions": [], "location": {"address1": "Bahrenfelder Str. 332", "address2": "", "address3": "", "city": "Hamburg", "zip_code": "22765", "country": "DE", "state": "HH", "display_address": ["Bahrenfelder Str. 332", "22765 Hamburg", "Germany"]}, "phone": "+494030603455", "display_phone": "+49 40 30603455", "distance": 4526.336537769683}, {"id": "LfdL4mkHqrzhcDCL_IAm-w", "alias": "newport-cafe-hamburg", "name": "NewPort Cafe", "image_url": "https://s3-media4.fl.yelpcdn.com/bphoto/rAqv2_DuxXORaEgfuTuaaw/o.jpg", "is_closed": false, "url": "https://www.yelp.com/biz/newport-cafe-hamburg?adjust_creative=hBJOknVQJ58S5goQyjmwRw&utm_campaign=yelp_api_v3&utm_medium=api_v3_business_search&utm_source=hBJOknVQJ58S5goQyjmwRw", "review_count": 15, "categories": [{"alias": "breakfast_brunch", "title": "Breakfast & Brunch"}, {"alias": "cafes", "title": "Cafes"}], "rating": 4.5, "coordinates": {"latitude": 53.55963, "longitude": 9.8836}, "transactions": [], "price": "\u20ac\u20ac", "location": {"address1": "Waitzstr. 18", "address2": "", "address3": "", "city": "Hamburg", "zip_code": "22607", "country": "DE", "state": "HH", "display_address": ["Waitzstr. 18", "22607 Hamburg", "Germany"]}, "phone": "+494022623045", "display_phone": "+49 40 22623045", "distance": 4620.461724098167}, {"id": "HUe_2Q-S8ijQAuqS7VybjQ", "alias": "salman-imbiss-hamburg-2", "name": "Salman Imbiss", "image_url": "https://s3-media3.fl.yelpcdn.com/bphoto/4vkJv1FnfOU1PIVX5S-R7Q/o.jpg", "is_closed": false, "url": "https://www.yelp.com/biz/salman-imbiss-hamburg-2?adjust_creative=hBJOknVQJ58S5goQyjmwRw&utm_campaign=yelp_api_v3&utm_medium=api_v3_business_search&utm_source=hBJOknVQJ58S5goQyjmwRw", "review_count": 6, "categories": [{"alias": "kebab", "title": "Kebab"}], "rating": 4.5, "coordinates": {"latitude": 53.5519409, "longitude": 9.9295502}, "transactions": [], "price": "\u20ac\u20ac", "location": {"address1": "Ottenser Haupstr. 33", "address2": "", "address3": "", "city": "Hamburg", "zip_code": "22765", "country": "DE", "state": "HH", "display_address": ["Ottenser Haupstr. 33", "22765 Hamburg", "Germany"]}, "phone": "", "display_phone": "", "distance": 3784.5993949798312}, {"id": "mtdrOFp-pWjQ7KXjvoSkSw", "alias": "balutschistan-hamburg-5", "name": "Balutschistan", "image_url": "https://s3-media4.fl.yelpcdn.com/bphoto/bHn_dWJP6sg2s4GnSNNKqQ/o.jpg", "is_closed": false, "url": "https://www.yelp.com/biz/balutschistan-hamburg-5?adjust_creative=hBJOknVQJ58S5goQyjmwRw&utm_campaign=yelp_api_v3&utm_medium=api_v3_business_search&utm_source=hBJOknVQJ58S5goQyjmwRw", "review_count": 38, "categories": [{"alias": "pakistani", "title": "Pakistani"}], "rating": 3.5, "coordinates": {"latitude": 53.5544336, "longitude": 9.9282932}, "transactions": [], "price": "\u20ac\u20ac", "location": {"address1": "Bahrenfelder Str. 169", "address2": null, "address3": null, "city": "Hamburg", "zip_code": "22765", "country": "DE", "state": "HH", "display_address": ["Bahrenfelder Str. 169", "22765 Hamburg", "Germany"]}, "phone": "+49403902229", "display_phone": "+49 40 3902229", "distance": 4017.7981865463507}, {"id": "lI69j2_bOdFWSp1CBPGYvA", "alias": "laundrette-hamburg", "name": "Laundrette", "image_url": "https://s3-media4.fl.yelpcdn.com/bphoto/w98r9ly2QHpglaPYunkrCQ/o.jpg", "is_closed": false, "url": "https://www.yelp.com/biz/laundrette-hamburg?adjust_creative=hBJOknVQJ58S5goQyjmwRw&utm_campaign=yelp_api_v3&utm_medium=api_v3_business_search&utm_source=hBJOknVQJ58S5goQyjmwRw", "review_count": 52, "categories": [{"alias": "cafes", "title": "Cafes"}, {"alias": "laundryservices", "title": "Laundry Services"}], "rating": 4.5, "coordinates": {"latitude": 53.551742, "longitude": 9.9267816}, "transactions": [], "price": "\u20ac\u20ac", "location": {"address1": "Ottenser Hauptstr. 56", "address2": null, "address3": null, "city": "Hamburg", "zip_code": "22765", "country": "DE", "state": "HH", "display_address": ["Ottenser Hauptstr. 56", "22765 Hamburg", "Germany"]}, "phone": "+494063733600", "display_phone": "+49 40 63733600", "distance": 3702.474172193386}, {"id": "rfeOoZAns6nczSBnZ5v6sQ", "alias": "filmhauskneipe-hamburg", "name": "Filmhauskneipe", "image_url": "https://s3-media3.fl.yelpcdn.com/bphoto/Ij4cdXjtgUXq-jwf2lsNiA/o.jpg", "is_closed": false, "url": "https://www.yelp.com/biz/filmhauskneipe-hamburg?adjust_creative=hBJOknVQJ58S5goQyjmwRw&utm_campaign=yelp_api_v3&utm_medium=api_v3_business_search&utm_source=hBJOknVQJ58S5goQyjmwRw", "review_count": 56, "categories": [{"alias": "divebars", "title": "Dive Bars"}, {"alias": "cafes", "title": "Cafes"}], "rating": 3.5, "coordinates": {"latitude": 53.55439, "longitude": 9.9275}, "transactions": [], "price": "\u20ac\u20ac", "location": {"address1": "Friedensallee 7", "address2": null, "address3": null, "city": "Hamburg", "zip_code": "22765", "country": "DE", "state": "HH", "display_address": ["Friedensallee 7", "22765 Hamburg", "Germany"]}, "phone": "+494039908025", "display_phone": "+49 40 39908025", "distance": 3962.7941550815253}, {"id": "khOBeCOJzg7Y1qpjnlFzEA", "alias": "la-cr\u00e8me-de-la-cr\u00eape-hamburg", "name": "La Cr\u00e8me de la Cr\u00eape", "image_url": "https://s3-media3.fl.yelpcdn.com/bphoto/BCPy9yFEgkFpSOMumstMNQ/o.jpg", "is_closed": false, "url": "https://www.yelp.com/biz/la-cr%C3%A8me-de-la-cr%C3%AApe-hamburg?adjust_creative=hBJOknVQJ58S5goQyjmwRw&utm_campaign=yelp_api_v3&utm_medium=api_v3_business_search&utm_source=hBJOknVQJ58S5goQyjmwRw", "review_count": 1, "categories": [{"alias": "creperies", "title": "Creperies"}], "rating": 2.0, "coordinates": {"latitude": 53.550766, "longitude": 9.932535}, "transactions": [], "location": {"address1": "Erzbergerstra\u00dfe 14", "address2": "", "address3": null, "city": "Hamburg", "zip_code": "22765", "country": "DE", "state": "HH", "display_address": ["Erzbergerstra\u00dfe 14", "22765 Hamburg", "Germany"]}, "phone": "", "display_phone": "", "distance": 3762.9568665040133}, {"id": "-IvWvciCuuz1EbiM3EB-sw", "alias": "suppen-welt-hamburg", "name": "Suppen Welt", "image_url": "https://s3-media2.fl.yelpcdn.com/bphoto/ZWzaJPpnHL1GUiBTf9gquQ/o.jpg", "is_closed": false, "url": "https://www.yelp.com/biz/suppen-welt-hamburg?adjust_creative=hBJOknVQJ58S5goQyjmwRw&utm_campaign=yelp_api_v3&utm_medium=api_v3_business_search&utm_source=hBJOknVQJ58S5goQyjmwRw", "review_count": 2, "categories": [{"alias": "soup", "title": "Soup"}], "rating": 4.0, "coordinates": {"latitude": 53.552358, "longitude": 9.929967}, "transactions": [], "location": {"address1": "Bahrenfelder Str. 97", "address2": "", "address3": "", "city": "Hamburg", "zip_code": "22765", "country": "DE", "state": "HH", "display_address": ["Bahrenfelder Str. 97", "22765 Hamburg", "Germany"]}, "phone": "+494039808807", "display_phone": "+49 40 39808807", "distance": 3843.2510865710124}, {"id": "CC_Wr5HpSrp_XVv9cBDbVg", "alias": "jools-hamburg", "name": "Jools", "image_url": "https://s3-media3.fl.yelpcdn.com/bphoto/qXv1bN2Ao8hnB7U_6VZL1w/o.jpg", "is_closed": false, "url": "https://www.yelp.com/biz/jools-hamburg?adjust_creative=hBJOknVQJ58S5goQyjmwRw&utm_campaign=yelp_api_v3&utm_medium=api_v3_business_search&utm_source=hBJOknVQJ58S5goQyjmwRw", "review_count": 13, "categories": [{"alias": "cafes", "title": "Cafes"}, {"alias": "breakfast_brunch", "title": "Breakfast & Brunch"}, {"alias": "international", "title": "International"}], "rating": 4.5, "coordinates": {"latitude": 53.5482101, "longitude": 9.9230499}, "transactions": [], "price": "\u20ac\u20ac", "location": {"address1": "Bernadottestr. 20", "address2": null, "address3": "", "city": "Hamburg", "zip_code": "22763", "country": "DE", "state": "HH", "display_address": ["Bernadottestr. 20", "22763 Hamburg", "Germany"]}, "phone": "+494088128646", "display_phone": "+49 40 88128646", "distance": 3255.278442582021}, {"id": "iZU-Bxz_7F55FcX25eV8rw", "alias": "boussi-falafel-hamburg-2", "name": "Boussi Falafel", "image_url": "https://s3-media2.fl.yelpcdn.com/bphoto/WFU7_Ojo1yx3c-Z_OwA3MA/o.jpg", "is_closed": false, "url": "https://www.yelp.com/biz/boussi-falafel-hamburg-2?adjust_creative=hBJOknVQJ58S5goQyjmwRw&utm_campaign=yelp_api_v3&utm_medium=api_v3_business_search&utm_source=hBJOknVQJ58S5goQyjmwRw", "review_count": 12, "categories": [{"alias": "falafel", "title": "Falafel"}], "rating": 4.0, "coordinates": {"latitude": 53.5522790399076, "longitude": 9.93221495300531}, "transactions": [], "price": "\u20ac\u20ac", "location": {"address1": "Ottenser Hauptstr. 19", "address2": "", "address3": "", "city": "Hamburg", "zip_code": "22765", "country": "DE", "state": "HH", "display_address": ["Ottenser Hauptstr. 19", "22765 Hamburg", "Germany"]}, "phone": "+4940180021784", "display_phone": "+49 40 180021784", "distance": 3896.8853903304184}, {"id": "KeYRL03cYzXxOX4h1xkzAg", "alias": "shikara-hamburg-3", "name": "Shikara", "image_url": "https://s3-media1.fl.yelpcdn.com/bphoto/5zLAVQ6JLYmGlH-XEP4m6Q/o.jpg", "is_closed": false, "url": "https://www.yelp.com/biz/shikara-hamburg-3?adjust_creative=hBJOknVQJ58S5goQyjmwRw&utm_campaign=yelp_api_v3&utm_medium=api_v3_business_search&utm_source=hBJOknVQJ58S5goQyjmwRw", "review_count": 66, "categories": [{"alias": "indpak", "title": "Indian"}], "rating": 4.0, "coordinates": {"latitude": 53.557293, "longitude": 9.927928}, "transactions": [], "price": "\u20ac\u20ac", "location": {"address1": "Bahrenfelder Str. 241", "address2": null, "address3": null, "city": "Hamburg", "zip_code": "22765", "country": "DE", "state": "HH", "display_address": ["Bahrenfelder Str. 241", "22765 Hamburg", "Germany"]}, "phone": "+494039906696", "display_phone": "+49 40 39906696", "distance": 4309.598502511274}, {"id": "CVTfbRbNmKfvaqvwFumncQ", "alias": "madrigal-hamburg-5", "name": "Madrigal", "image_url": "https://s3-media1.fl.yelpcdn.com/bphoto/cS1RDgCJ4Wp67Augg-Sjwg/o.jpg", "is_closed": false, "url": "https://www.yelp.com/biz/madrigal-hamburg-5?adjust_creative=hBJOknVQJ58S5goQyjmwRw&utm_campaign=yelp_api_v3&utm_medium=api_v3_business_search&utm_source=hBJOknVQJ58S5goQyjmwRw", "review_count": 25, "categories": [{"alias": "spanish", "title": "Spanish"}], "rating": 3.0, "coordinates": {"latitude": 53.55439, "longitude": 9.9275}, "transactions": [], "price": "\u20ac\u20ac", "location": {"address1": "Friedensallee 7", "address2": "", "address3": "", "city": "Hamburg", "zip_code": "22765", "country": "DE", "state": "HH", "display_address": ["Friedensallee 7", "22765 Hamburg", "Germany"]}, "phone": "+494039106076", "display_phone": "+49 40 39106076", "distance": 3962.7941550815253}, {"id": "zyTxQM6Ada_EIeVHDqbifA", "alias": "osaka-hamburg-2", "name": "Osaka", "image_url": "https://s3-media3.fl.yelpcdn.com/bphoto/qwwH7wXvFPAQ8ahm-DpqnQ/o.jpg", "is_closed": false, "url": "https://www.yelp.com/biz/osaka-hamburg-2?adjust_creative=hBJOknVQJ58S5goQyjmwRw&utm_campaign=yelp_api_v3&utm_medium=api_v3_business_search&utm_source=hBJOknVQJ58S5goQyjmwRw", "review_count": 26, "categories": [{"alias": "sushi", "title": "Sushi Bars"}], "rating": 2.5, "coordinates": {"latitude": 53.5594, "longitude": 9.8837}, "transactions": [], "price": "\u20ac\u20ac", "location": {"address1": "Waitzstr. 19", "address2": null, "address3": null, "city": "Hamburg", "zip_code": "22607", "country": "DE", "state": "HH", "display_address": ["Waitzstr. 19", "22607 Hamburg", "Germany"]}, "phone": "+494085506793", "display_phone": "+49 40 85506793", "distance": 4589.702809993906}, {"id": "Ygvjo-F5LpDRTwelCTwv-A", "alias": "cafe-veloso-hamburg-5", "name": "Cafe Veloso", "image_url": "https://s3-media2.fl.yelpcdn.com/bphoto/lA9bi5kZWnhNUVcuYEJ4hw/o.jpg", "is_closed": false, "url": "https://www.yelp.com/biz/cafe-veloso-hamburg-5?adjust_creative=hBJOknVQJ58S5goQyjmwRw&utm_campaign=yelp_api_v3&utm_medium=api_v3_business_search&utm_source=hBJOknVQJ58S5goQyjmwRw", "review_count": 3, "categories": [{"alias": "cafes", "title": "Cafes"}], "rating": 4.5, "coordinates": {"latitude": 53.554377, "longitude": 9.927986}, "transactions": [], "price": "\u20ac", "location": {"address1": "Friedensallee 8", "address2": "", "address3": "", "city": "Hamburg", "zip_code": "22765", "country": "DE", "state": "HH", "display_address": ["Friedensallee 8", "22765 Hamburg", "Germany"]}, "phone": "+494068992263", "display_phone": "+49 40 68992263", "distance": 4004.452595771276}, {"id": "jSWVccuVldSC4yHW0a0Cig", "alias": "tarsusi-anatolian-street-food-hamburg", "name": "Tarsusi - anatolian street food", "image_url": "https://s3-media4.fl.yelpcdn.com/bphoto/9sBdiNTcgALhtWiqP8w9oQ/o.jpg", "is_closed": false, "url": "https://www.yelp.com/biz/tarsusi-anatolian-street-food-hamburg?adjust_creative=hBJOknVQJ58S5goQyjmwRw&utm_campaign=yelp_api_v3&utm_medium=api_v3_business_search&utm_source=hBJOknVQJ58S5goQyjmwRw", "review_count": 1, "categories": [{"alias": "turkish", "title": "Turkish"}], "rating": 4.0, "coordinates": {"latitude": 53.5557, "longitude": 9.92824}, "transactions": [], "location": {"address1": "Bahrenfelder Str. 205", "address2": null, "address3": "", "city": "Hamburg", "zip_code": "22765", "country": "DE", "state": "HH", "display_address": ["Bahrenfelder Str. 205", "22765 Hamburg", "Germany"]}, "phone": "+49403904829", "display_phone": "+49 40 3904829", "distance": 4148.943460080712}, {"id": "3XFsLgYyfBHEirNOO-CHcg", "alias": "bey-s-cafe-hamburg-2", "name": "Bey 's Cafe", "image_url": "https://s3-media4.fl.yelpcdn.com/bphoto/bB_tgqelWERwhXRwUhFP0w/o.jpg", "is_closed": false, "url": "https://www.yelp.com/biz/bey-s-cafe-hamburg-2?adjust_creative=hBJOknVQJ58S5goQyjmwRw&utm_campaign=yelp_api_v3&utm_medium=api_v3_business_search&utm_source=hBJOknVQJ58S5goQyjmwRw", "review_count": 8, "categories": [{"alias": "bistros", "title": "Bistros"}, {"alias": "cafes", "title": "Cafes"}], "rating": 4.0, "coordinates": {"latitude": 53.55173, "longitude": 9.92643}, "transactions": [], "price": "\u20ac\u20ac", "location": {"address1": "Ottenser Hauptstr. 64", "address2": null, "address3": null, "city": "Hamburg", "zip_code": "22765", "country": "DE", "state": "HH", "display_address": ["Ottenser Hauptstr. 64", "22765 Hamburg", "Germany"]}, "phone": "+494029812525", "display_phone": "+49 40 29812525", "distance": 3682.621109104609}, {"id": "FN8F9a2SL5Q9a317wmXiag", "alias": "die-p\u00e2tisserie-hamburg", "name": "Die P\u00e2tisserie", "image_url": "https://s3-media1.fl.yelpcdn.com/bphoto/MrTEo4jFGW4Y2si4MZ2Xxw/o.jpg", "is_closed": false, "url": "https://www.yelp.com/biz/die-p%C3%A2tisserie-hamburg?adjust_creative=hBJOknVQJ58S5goQyjmwRw&utm_campaign=yelp_api_v3&utm_medium=api_v3_business_search&utm_source=hBJOknVQJ58S5goQyjmwRw", "review_count": 13, "categories": [{"alias": "cakeshop", "title": "Patisserie/Cake Shop"}, {"alias": "cafes", "title": "Cafes"}], "rating": 4.5, "coordinates": {"latitude": 53.556709255052, "longitude": 9.92796130478382}, "transactions": [], "price": "\u20ac\u20ac", "location": {"address1": "Bahrenfelder Str. 231", "address2": null, "address3": "", "city": "Hamburg", "zip_code": "22765", "country": "DE", "state": "HH", "display_address": ["Bahrenfelder Str. 231", "22765 Hamburg", "Germany"]}, "phone": "+494030391516", "display_phone": "+49 40 30391516", "distance": 4248.829376535655}, {"id": "b2jyhPHCmwh3lOZwZqlC7g", "alias": "mokka-hamburg-2", "name": "Mokka", "image_url": "https://s3-media1.fl.yelpcdn.com/bphoto/XW9HeksbV7Y1pUiGWOBWLg/o.jpg", "is_closed": false, "url": "https://www.yelp.com/biz/mokka-hamburg-2?adjust_creative=hBJOknVQJ58S5goQyjmwRw&utm_campaign=yelp_api_v3&utm_medium=api_v3_business_search&utm_source=hBJOknVQJ58S5goQyjmwRw", "review_count": 12, "categories": [{"alias": "cafes", "title": "Cafes"}], "rating": 4.0, "coordinates": {"latitude": 53.5558506, "longitude": 9.9285279}, "transactions": [], "price": "\u20ac", "location": {"address1": "Bahrenfelder Str. 230", "address2": null, "address3": null, "city": "Hamburg", "zip_code": "22765", "country": "DE", "state": "HH", "display_address": ["Bahrenfelder Str. 230", "22765 Hamburg", "Germany"]}, "phone": "+494023849841", "display_phone": "+49 40 23849841", "distance": 4171.1202042429595}, {"id": "8XR-pIg9ErHLKrIsysoc6g", "alias": "manara-hamburg-2", "name": "Manara", "image_url": "https://s3-media2.fl.yelpcdn.com/bphoto/0DeALY1ciDLzeQwglmJRqw/o.jpg", "is_closed": false, "url": "https://www.yelp.com/biz/manara-hamburg-2?adjust_creative=hBJOknVQJ58S5goQyjmwRw&utm_campaign=yelp_api_v3&utm_medium=api_v3_business_search&utm_source=hBJOknVQJ58S5goQyjmwRw", "review_count": 22, "categories": [{"alias": "hookah_bars", "title": "Hookah Bars"}, {"alias": "cafes", "title": "Cafes"}], "rating": 4.0, "coordinates": {"latitude": 53.55635, "longitude": 9.92807}, "transactions": [], "price": "\u20ac\u20ac", "location": {"address1": "Bahrenfelderstr. 215", "address2": "", "address3": "", "city": "Hamburg", "zip_code": "22765", "country": "DE", "state": "HH", "display_address": ["Bahrenfelderstr. 215", "22765 Hamburg", "Germany"]}, "phone": "+494032522891", "display_phone": "+49 40 32522891", "distance": 4208.140184453928}, {"id": "ryBKgiMFBJtYwnLBf627aw", "alias": "mikkels-hamburg", "name": "Mikkels", "image_url": "https://s3-media2.fl.yelpcdn.com/bphoto/DDHeSyzuUjuIpjZi_L6pMQ/o.jpg", "is_closed": false, "url": "https://www.yelp.com/biz/mikkels-hamburg?adjust_creative=hBJOknVQJ58S5goQyjmwRw&utm_campaign=yelp_api_v3&utm_medium=api_v3_business_search&utm_source=hBJOknVQJ58S5goQyjmwRw", "review_count": 38, "categories": [{"alias": "cafes", "title": "Cafes"}, {"alias": "breakfast_brunch", "title": "Breakfast & Brunch"}], "rating": 4.5, "coordinates": {"latitude": 53.55375, "longitude": 9.92948}, "transactions": [], "price": "\u20ac\u20ac", "location": {"address1": "Kleine Rainstr. 10", "address2": "", "address3": "", "city": "Hamburg", "zip_code": "22765", "country": "DE", "state": "HH", "display_address": ["Kleine Rainstr. 10", "22765 Hamburg", "Germany"]}, "phone": "+494076995072", "display_phone": "+49 40 76995072", "distance": 3975.327535647778}, {"id": "67e_-1DsnOCSREPxbUq6nA", "alias": "von-der-motte-hamburg", "name": "Von Der Motte", "image_url": "https://s3-media4.fl.yelpcdn.com/bphoto/ZankXBA2eQI-3xhrBCSfrQ/o.jpg", "is_closed": false, "url": "https://www.yelp.com/biz/von-der-motte-hamburg?adjust_creative=hBJOknVQJ58S5goQyjmwRw&utm_campaign=yelp_api_v3&utm_medium=api_v3_business_search&utm_source=hBJOknVQJ58S5goQyjmwRw", "review_count": 26, "categories": [{"alias": "breakfast_brunch", "title": "Breakfast & Brunch"}, {"alias": "cafes", "title": "Cafes"}], "rating": 4.0, "coordinates": {"latitude": 53.55102, "longitude": 9.92901}, "transactions": [], "price": "\u20ac\u20ac", "location": {"address1": "Mottenburger Twiete 14", "address2": null, "address3": null, "city": "Hamburg", "zip_code": "22765", "country": "DE", "state": "HH", "display_address": ["Mottenburger Twiete 14", "22765 Hamburg", "Germany"]}, "phone": "+494057240962", "display_phone": "+49 40 57240962", "distance": 3682.5709262683963}, {"id": "d31D5VwmAC9qRuMdi_V6-A", "alias": "villa-im-heine-park-hamburg", "name": "Villa im Heine-Park", "image_url": "https://s3-media4.fl.yelpcdn.com/bphoto/mCxq0xG_4snQeUb0SQuLTA/o.jpg", "is_closed": false, "url": "https://www.yelp.com/biz/villa-im-heine-park-hamburg?adjust_creative=hBJOknVQJ58S5goQyjmwRw&utm_campaign=yelp_api_v3&utm_medium=api_v3_business_search&utm_source=hBJOknVQJ58S5goQyjmwRw", "review_count": 2, "categories": [{"alias": "venues", "title": "Venues & Event Spaces"}, {"alias": "cafes", "title": "Cafes"}], "rating": 5.0, "coordinates": {"latitude": 53.54555, "longitude": 9.92707}, "transactions": [], "location": {"address1": "Elbchaussee 43", "address2": "", "address3": "", "city": "Hamburg", "zip_code": "22765", "country": "DE", "state": "HH", "display_address": ["Elbchaussee 43", "22765 Hamburg", "Germany"]}, "phone": "+4940421070180", "display_phone": "+49 40 421070180", "distance": 3075.1461289712856}, {"id": "-zZ2OjM3mpP8tk9TDO7vEg", "alias": "pasta-and-co-hamburg", "name": "Pasta & Co", "image_url": "https://s3-media1.fl.yelpcdn.com/bphoto/tqnodgjZiahr2V_BDcMcpQ/o.jpg", "is_closed": false, "url": "https://www.yelp.com/biz/pasta-and-co-hamburg?adjust_creative=hBJOknVQJ58S5goQyjmwRw&utm_campaign=yelp_api_v3&utm_medium=api_v3_business_search&utm_source=hBJOknVQJ58S5goQyjmwRw", "review_count": 14, "categories": [{"alias": "italian", "title": "Italian"}], "rating": 4.0, "coordinates": {"latitude": 53.55232, "longitude": 9.93244}, "transactions": [], "price": "\u20ac\u20ac", "location": {"address1": "Ottenser Hauptstr. 10", "address2": "", "address3": "", "city": "Hamburg", "zip_code": "22765", "country": "DE", "state": "HH", "display_address": ["Ottenser Hauptstr. 10", "22765 Hamburg", "Germany"]}, "phone": "+494039907427", "display_phone": "+49 40 39907427", "distance": 3898.2752373187914}, {"id": "AEfqxVeMSQM_EswX-K7UVg", "alias": "cafe-reise-bar-hamburg", "name": "Cafe Reise Bar", "image_url": "https://s3-media1.fl.yelpcdn.com/bphoto/AB6jPSibxUNvJATmrH77cw/o.jpg", "is_closed": false, "url": "https://www.yelp.com/biz/cafe-reise-bar-hamburg?adjust_creative=hBJOknVQJ58S5goQyjmwRw&utm_campaign=yelp_api_v3&utm_medium=api_v3_business_search&utm_source=hBJOknVQJ58S5goQyjmwRw", "review_count": 110, "categories": [{"alias": "cafes", "title": "Cafes"}, {"alias": "cocktailbars", "title": "Cocktail Bars"}], "rating": 3.0, "coordinates": {"latitude": 53.5520448, "longitude": 9.9294817}, "transactions": [], "price": "\u20ac\u20ac", "location": {"address1": "Ottenser Hauptstr. 30", "address2": "", "address3": "", "city": "Hamburg", "zip_code": "22765", "country": "DE", "state": "HH", "display_address": ["Ottenser Hauptstr. 30", "22765 Hamburg", "Germany"]}, "phone": "+494060867733", "display_phone": "+49 40 60867733", "distance": 3799.650625096455}, {"id": "pyWUObb5eJX0Ht5W7cj26Q", "alias": "liquid-hamburg", "name": "Liquid", "image_url": "https://s3-media4.fl.yelpcdn.com/bphoto/U3zEzQ-ahRP5Ooe47hQwdg/o.jpg", "is_closed": false, "url": "https://www.yelp.com/biz/liquid-hamburg?adjust_creative=hBJOknVQJ58S5goQyjmwRw&utm_campaign=yelp_api_v3&utm_medium=api_v3_business_search&utm_source=hBJOknVQJ58S5goQyjmwRw", "review_count": 18, "categories": [{"alias": "bars", "title": "Bars"}, {"alias": "cafes", "title": "Cafes"}, {"alias": "bagels", "title": "Bagels"}], "rating": 4.0, "coordinates": {"latitude": 53.55091, "longitude": 9.92965}, "transactions": [], "price": "\u20ac\u20ac", "location": {"address1": "Mottenburger Twiete 8", "address2": null, "address3": null, "city": "Hamburg", "zip_code": "22765", "country": "DE", "state": "HH", "display_address": ["Mottenburger Twiete 8", "22765 Hamburg", "Germany"]}, "phone": "+49403907763", "display_phone": "+49 40 3907763", "distance": 3673.9293190398084}, {"id": "5jDhWYIqSKM3T39i86IsaA", "alias": "venezia-hamburg", "name": "Venezia", "image_url": "https://s3-media4.fl.yelpcdn.com/bphoto/aEvYq_l7lja6RvIt3ZTdrA/o.jpg", "is_closed": false, "url": "https://www.yelp.com/biz/venezia-hamburg?adjust_creative=hBJOknVQJ58S5goQyjmwRw&utm_campaign=yelp_api_v3&utm_medium=api_v3_business_search&utm_source=hBJOknVQJ58S5goQyjmwRw", "review_count": 36, "categories": [{"alias": "icecream", "title": "Ice Cream & Frozen Yogurt"}, {"alias": "cafes", "title": "Cafes"}], "rating": 4.5, "coordinates": {"latitude": 53.55201, "longitude": 9.9308099}, "transactions": [], "price": "\u20ac\u20ac", "location": {"address1": "Ottenser Hauptstr. 23", "address2": "", "address3": null, "city": "Hamburg", "zip_code": "22765", "country": "DE", "state": "HH", "display_address": ["Ottenser Hauptstr. 23", "22765 Hamburg", "Germany"]}, "phone": "+4940396239", "display_phone": "+49 40 396239", "distance": 3832.252596430881}, {"id": "Dto3z2F0Gy8Fn3I-Sw5czQ", "alias": "tarifa-hamburg", "name": "Tarifa", "image_url": "https://s3-media2.fl.yelpcdn.com/bphoto/vg7Ha90voqoj7meYanNE_Q/o.jpg", "is_closed": false, "url": "https://www.yelp.com/biz/tarifa-hamburg?adjust_creative=hBJOknVQJ58S5goQyjmwRw&utm_campaign=yelp_api_v3&utm_medium=api_v3_business_search&utm_source=hBJOknVQJ58S5goQyjmwRw", "review_count": 33, "categories": [{"alias": "breakfast_brunch", "title": "Breakfast & Brunch"}, {"alias": "tapas", "title": "Tapas Bars"}], "rating": 3.5, "coordinates": {"latitude": 53.553230549745, "longitude": 9.9312152829642}, "transactions": [], "price": "\u20ac\u20ac", "location": {"address1": "Gro\u00dfe Rainstr. 23", "address2": "", "address3": "", "city": "Hamburg", "zip_code": "22765", "country": "DE", "state": "HH", "display_address": ["Gro\u00dfe Rainstr. 23", "22765 Hamburg", "Germany"]}, "phone": "+494039903529", "display_phone": "+49 40 39903529", "distance": 3965.989026236008}, {"id": "gJ8VMvMJCAGtXn_ZxhAD0w", "alias": "asia-imbiss-hamburg-14", "name": "Asia Imbiss", "image_url": "https://s3-media2.fl.yelpcdn.com/bphoto/s3sYhCniC1DLHIbSADZ_fA/o.jpg", "is_closed": false, "url": "https://www.yelp.com/biz/asia-imbiss-hamburg-14?adjust_creative=hBJOknVQJ58S5goQyjmwRw&utm_campaign=yelp_api_v3&utm_medium=api_v3_business_search&utm_source=hBJOknVQJ58S5goQyjmwRw", "review_count": 74, "categories": [{"alias": "panasian", "title": "Pan Asian"}], "rating": 3.5, "coordinates": {"latitude": 53.5547747650948, "longitude": 9.92882284019777}, "transactions": [], "price": "\u20ac", "location": {"address1": "Bahrenfelder Str. 182", "address2": "", "address3": null, "city": "Hamburg", "zip_code": "22765", "country": "DE", "state": "HH", "display_address": ["Bahrenfelder Str. 182", "22765 Hamburg", "Germany"]}, "phone": "+494039106066", "display_phone": "+49 40 39106066", "distance": 4065.576267270959}, {"id": "DwKv-GllrjiAw8UDZdPk2g", "alias": "j\u00f6-makr\u00f6nchen-hamburg", "name": "J\u00f6 Makr\u00f6nchen", "image_url": "https://s3-media3.fl.yelpcdn.com/bphoto/lRhY5LlcmnxI7fw8yJlsbg/o.jpg", "is_closed": false, "url": "https://www.yelp.com/biz/j%C3%B6-makr%C3%B6nchen-hamburg?adjust_creative=hBJOknVQJ58S5goQyjmwRw&utm_campaign=yelp_api_v3&utm_medium=api_v3_business_search&utm_source=hBJOknVQJ58S5goQyjmwRw", "review_count": 11, "categories": [{"alias": "macarons", "title": "Macarons"}, {"alias": "cafes", "title": "Cafes"}], "rating": 4.5, "coordinates": {"latitude": 53.5542762095544, "longitude": 9.92806725203991}, "transactions": [], "price": "\u20ac\u20ac\u20ac", "location": {"address1": "Friedensallee 6", "address2": "", "address3": "", "city": "Hamburg", "zip_code": "22765", "country": "DE", "state": "HH", "display_address": ["Friedensallee 6", "22765 Hamburg", "Germany"]}, "phone": "+494079697690", "display_phone": "+49 40 79697690", "distance": 3996.208570714463}, {"id": "VjSoKsB0KkcWj2GYCXpS0A", "alias": "mai-asia-imbiss-hamburg", "name": "Mai Asia Imbiss", "image_url": "https://s3-media3.fl.yelpcdn.com/bphoto/skCGMcs1Gn6dlOJ0d79YHw/o.jpg", "is_closed": false, "url": "https://www.yelp.com/biz/mai-asia-imbiss-hamburg?adjust_creative=hBJOknVQJ58S5goQyjmwRw&utm_campaign=yelp_api_v3&utm_medium=api_v3_business_search&utm_source=hBJOknVQJ58S5goQyjmwRw", "review_count": 12, "categories": [{"alias": "chinese", "title": "Chinese"}, {"alias": "thai", "title": "Thai"}], "rating": 4.5, "coordinates": {"latitude": 53.5478, "longitude": 9.93166}, "transactions": [], "price": "\u20ac\u20ac", "location": {"address1": "Holl\u00e4ndische Reihe 1", "address2": null, "address3": null, "city": "Hamburg", "zip_code": "22765", "country": "DE", "state": "HH", "display_address": ["Holl\u00e4ndische Reihe 1", "22765 Hamburg", "Germany"]}, "phone": "+494039907220", "display_phone": "+49 40 39907220", "distance": 3435.0894944814518}, {"id": "TGm1ET-Zp329TORei8mTgw", "alias": "nasip-grill-hamburg", "name": "Nasip Grill", "image_url": "https://s3-media3.fl.yelpcdn.com/bphoto/jh0BjD59VMp-UV2neQyVeg/o.jpg", "is_closed": false, "url": "https://www.yelp.com/biz/nasip-grill-hamburg?adjust_creative=hBJOknVQJ58S5goQyjmwRw&utm_campaign=yelp_api_v3&utm_medium=api_v3_business_search&utm_source=hBJOknVQJ58S5goQyjmwRw", "review_count": 3, "categories": [{"alias": "turkish", "title": "Turkish"}, {"alias": "hotdogs", "title": "Fast Food"}, {"alias": "kebab", "title": "Kebab"}], "rating": 4.0, "coordinates": {"latitude": 53.555008, "longitude": 9.928359}, "transactions": [], "location": {"address1": "Bahrenfelder Str. 183", "address2": "", "address3": null, "city": "Hamburg", "zip_code": "22765", "country": "DE", "state": "HH", "display_address": ["Bahrenfelder Str. 183", "22765 Hamburg", "Germany"]}, "phone": "+494039109940", "display_phone": "+49 40 39109940", "distance": 4079.237406120918}, {"id": "NeElw4rRBXnU3G2sVWfOww", "alias": "balzac-coffee-hamburg-21", "name": "Balzac Coffee", "image_url": "https://s3-media3.fl.yelpcdn.com/bphoto/WZxygsjsqRKymdaWxq-vTQ/o.jpg", "is_closed": false, "url": "https://www.yelp.com/biz/balzac-coffee-hamburg-21?adjust_creative=hBJOknVQJ58S5goQyjmwRw&utm_campaign=yelp_api_v3&utm_medium=api_v3_business_search&utm_source=hBJOknVQJ58S5goQyjmwRw", "review_count": 39, "categories": [{"alias": "coffee", "title": "Coffee & Tea"}, {"alias": "cafes", "title": "Cafes"}], "rating": 3.5, "coordinates": {"latitude": 53.5519195, "longitude": 9.9310972}, "transactions": [], "price": "\u20ac\u20ac", "location": {"address1": "Ottenser Hauptstr. 19", "address2": "", "address3": "", "city": "Hamburg", "zip_code": "22765", "country": "DE", "state": "HH", "display_address": ["Ottenser Hauptstr. 19", "22765 Hamburg", "Germany"]}, "phone": "+494018989320", "display_phone": "+49 40 18989320", "distance": 3829.6465768684407}, {"id": "o4mdefz4JgVrM2f3VqExuA", "alias": "schnittchenwerkstatt-hamburg", "name": "Schnittchenwerkstatt", "image_url": "https://s3-media2.fl.yelpcdn.com/bphoto/hEuw8f1xqqZUtOLI18glJA/o.jpg", "is_closed": false, "url": "https://www.yelp.com/biz/schnittchenwerkstatt-hamburg?adjust_creative=hBJOknVQJ58S5goQyjmwRw&utm_campaign=yelp_api_v3&utm_medium=api_v3_business_search&utm_source=hBJOknVQJ58S5goQyjmwRw", "review_count": 12, "categories": [{"alias": "german", "title": "German"}], "rating": 3.0, "coordinates": {"latitude": 53.5634299, "longitude": 9.92003}, "transactions": [], "price": "\u20ac\u20ac\u20ac", "location": {"address1": "Bahrenfelder Steindann 104", "address2": "", "address3": "", "city": "Hamburg", "zip_code": "22761", "country": "DE", "state": "HH", "display_address": ["Bahrenfelder Steindann 104", "22761 Hamburg", "Germany"]}, "phone": "+494089064835", "display_phone": "+49 40 89064835", "distance": 4840.315452875833}, {"id": "cmi67h33EdTQXwfI-Yb5mg", "alias": "steak-club-by-most-wanted-hamburg", "name": "Steak Club by Most Wanted", "image_url": "https://s3-media3.fl.yelpcdn.com/bphoto/hn2yuCO3Ll_vVowwR-CuYw/o.jpg", "is_closed": false, "url": "https://www.yelp.com/biz/steak-club-by-most-wanted-hamburg?adjust_creative=hBJOknVQJ58S5goQyjmwRw&utm_campaign=yelp_api_v3&utm_medium=api_v3_business_search&utm_source=hBJOknVQJ58S5goQyjmwRw", "review_count": 5, "categories": [{"alias": "steak", "title": "Steakhouses"}], "rating": 3.0, "coordinates": {"latitude": 53.5587256712793, "longitude": 9.90921137777104}, "transactions": [], "location": {"address1": "Friesenweg 1", "address2": "", "address3": null, "city": "Hamburg", "zip_code": "22763", "country": "DE", "state": "HH", "display_address": ["Friesenweg 1", "22763 Hamburg", "Germany"]}, "phone": "+494067509900", "display_phone": "+49 40 67509900", "distance": 4246.913111353803}, {"id": "RFAeXqMAQVu5oLSpUljpzA", "alias": "behrings-hamburg-2", "name": "Behrings", "image_url": "https://s3-media3.fl.yelpcdn.com/bphoto/2mva8ILFIVNoS-cTkCvyNw/o.jpg", "is_closed": false, "url": "https://www.yelp.com/biz/behrings-hamburg-2?adjust_creative=hBJOknVQJ58S5goQyjmwRw&utm_campaign=yelp_api_v3&utm_medium=api_v3_business_search&utm_source=hBJOknVQJ58S5goQyjmwRw", "review_count": 1, "categories": [{"alias": "german", "title": "German"}, {"alias": "breakfast_brunch", "title": "Breakfast & Brunch"}, {"alias": "cocktailbars", "title": "Cocktail Bars"}], "rating": 1.0, "coordinates": {"latitude": 53.55413, "longitude": 9.91987}, "transactions": [], "location": {"address1": "Behringstr. 42", "address2": null, "address3": "", "city": "Hamburg", "zip_code": "22763", "country": "DE", "state": "HH", "display_address": ["Behringstr. 42", "22763 Hamburg", "Germany"]}, "phone": "+494030391340", "display_phone": "+49 40 30391340", "distance": 3835.661578569068}, {"id": "yUPK0xTN28mQ15iXOo3_1A", "alias": "wallys-coffee-hamburg", "name": "Wallys Coffee", "image_url": "https://s3-media3.fl.yelpcdn.com/bphoto/zVVZrUz_3ktsklp7VuqnYQ/o.jpg", "is_closed": false, "url": "https://www.yelp.com/biz/wallys-coffee-hamburg?adjust_creative=hBJOknVQJ58S5goQyjmwRw&utm_campaign=yelp_api_v3&utm_medium=api_v3_business_search&utm_source=hBJOknVQJ58S5goQyjmwRw", "review_count": 22, "categories": [{"alias": "cafes", "title": "Cafes"}], "rating": 3.5, "coordinates": {"latitude": 53.559913, "longitude": 9.910534}, "transactions": [], "price": "\u20ac", "location": {"address1": "Friedensallee 290", "address2": "", "address3": "", "city": "Hamburg", "zip_code": "22761", "country": "DE", "state": "HH", "display_address": ["Friedensallee 290", "22761 Hamburg", "Germany"]}, "phone": "+494060922632", "display_phone": "+49 40 60922632", "distance": 4379.039977153225}, {"id": "o1Q_8GvGngZpxz55v6swxQ", "alias": "bey-kebap-hamburg", "name": "Bey Kebap", "image_url": "https://s3-media1.fl.yelpcdn.com/bphoto/9923jDCBLtM-Yf8cCg23dw/o.jpg", "is_closed": false, "url": "https://www.yelp.com/biz/bey-kebap-hamburg?adjust_creative=hBJOknVQJ58S5goQyjmwRw&utm_campaign=yelp_api_v3&utm_medium=api_v3_business_search&utm_source=hBJOknVQJ58S5goQyjmwRw", "review_count": 13, "categories": [{"alias": "kebab", "title": "Kebab"}], "rating": 3.5, "coordinates": {"latitude": 53.55288, "longitude": 9.92961}, "transactions": [], "price": "\u20ac", "location": {"address1": "Bahrenfelder Str. 115", "address2": "", "address3": "", "city": "Hamburg", "zip_code": "22765", "country": "DE", "state": "HH", "display_address": ["Bahrenfelder Str. 115", "22765 Hamburg", "Germany"]}, "phone": "+494072966242", "display_phone": "+49 40 72966242", "distance": 3916.317766603505}, {"id": "8Rjy6XV0sRwQkSKNdBBnvw", "alias": "monsun-caf\u00e9-hamburg-2", "name": "Monsun Caf\u00e9", "image_url": "https://s3-media1.fl.yelpcdn.com/bphoto/lkutwvn7WBCKrrcWfwKX2g/o.jpg", "is_closed": false, "url": "https://www.yelp.com/biz/monsun-caf%C3%A9-hamburg-2?adjust_creative=hBJOknVQJ58S5goQyjmwRw&utm_campaign=yelp_api_v3&utm_medium=api_v3_business_search&utm_source=hBJOknVQJ58S5goQyjmwRw", "review_count": 2, "categories": [{"alias": "cafes", "title": "Cafes"}], "rating": 4.0, "coordinates": {"latitude": 53.55473, "longitude": 9.92739}, "transactions": [], "location": {"address1": "Friedensallee 20", "address2": "", "address3": "Monsun Theater", "city": "Hamburg", "zip_code": "22765", "country": "DE", "state": "HH", "display_address": ["Friedensallee 20", "Monsun Theater", "22765 Hamburg", "Germany"]}, "phone": "+49408052272", "display_phone": "+49 40 8052272", "distance": 4035.1871593519836}, {"id": "SazeOX_ObBLTEVsD1aYZfQ", "alias": "kumpir-k\u00f6nig-hamburg-4", "name": "Kumpir K\u00f6nig", "image_url": "https://s3-media1.fl.yelpcdn.com/bphoto/kmo_sum2olj3QChKZdbgrg/o.jpg", "is_closed": false, "url": "https://www.yelp.com/biz/kumpir-k%C3%B6nig-hamburg-4?adjust_creative=hBJOknVQJ58S5goQyjmwRw&utm_campaign=yelp_api_v3&utm_medium=api_v3_business_search&utm_source=hBJOknVQJ58S5goQyjmwRw", "review_count": 9, "categories": [{"alias": "potatoes", "title": "Potatoes"}], "rating": 3.0, "coordinates": {"latitude": 53.5523, "longitude": 9.93237}, "transactions": [], "price": "\u20ac", "location": {"address1": "Mercado", "address2": "Ottenser Hauptstr.10", "address3": null, "city": "Hamburg", "zip_code": "22765", "country": "DE", "state": "HH", "display_address": ["Mercado", "Ottenser Hauptstr.10", "22765 Hamburg", "Germany"]}, "phone": "+494043097604", "display_phone": "+49 40 43097604", "distance": 3903.355812983229}, {"id": "mBKbVzBU7brvpbdFWq28vA", "alias": "pavillon-hamburg", "name": "Pavillon", "image_url": "https://s3-media3.fl.yelpcdn.com/bphoto/rtgdTs__4lNEugZfN2AFuA/o.jpg", "is_closed": false, "url": "https://www.yelp.com/biz/pavillon-hamburg?adjust_creative=hBJOknVQJ58S5goQyjmwRw&utm_campaign=yelp_api_v3&utm_medium=api_v3_business_search&utm_source=hBJOknVQJ58S5goQyjmwRw", "review_count": 4, "categories": [{"alias": "cafes", "title": "Cafes"}], "rating": 3.5, "coordinates": {"latitude": 53.55099, "longitude": 9.9253}, "transactions": [], "location": {"address1": "Bei der Reitbahn 9", "address2": "", "address3": "", "city": "Hamburg", "zip_code": "22763", "country": "DE", "state": "HH", "display_address": ["Bei der Reitbahn 9", "22763 Hamburg", "Germany"]}, "phone": "+494039909330", "display_phone": "+49 40 39909330", "distance": 3610.472972924435}, {"id": "DgqktWK-Zk4qmKNp3fYS8A", "alias": "bar-vivo-sportsbar-hamburg", "name": "Bar Vivo Sportsbar", "image_url": "https://s3-media1.fl.yelpcdn.com/bphoto/iNPdoeVgeCdMLuK8REqrJg/o.jpg", "is_closed": false, "url": "https://www.yelp.com/biz/bar-vivo-sportsbar-hamburg?adjust_creative=hBJOknVQJ58S5goQyjmwRw&utm_campaign=yelp_api_v3&utm_medium=api_v3_business_search&utm_source=hBJOknVQJ58S5goQyjmwRw", "review_count": 28, "categories": [{"alias": "sportsbars", "title": "Sports Bars"}, {"alias": "cafes", "title": "Cafes"}], "rating": 3.5, "coordinates": {"latitude": 53.55822, "longitude": 9.9285599}, "transactions": [], "price": "\u20ac\u20ac", "location": {"address1": "Bahrenfelder Str. 260", "address2": "", "address3": "", "city": "Hamburg", "zip_code": "22765", "country": "DE", "state": "HH", "display_address": ["Bahrenfelder Str. 260", "22765 Hamburg", "Germany"]}, "phone": "+494039198676", "display_phone": "+49 40 39198676", "distance": 4447.155983589833}, {"id": "UdloEeC9yikVGAiLB_tDnw", "alias": "babylon-hamburg-2", "name": "Babylon", "image_url": "https://s3-media3.fl.yelpcdn.com/bphoto/MsyyH_UjkQQc0Ylu7c5gbg/o.jpg", "is_closed": false, "url": "https://www.yelp.com/biz/babylon-hamburg-2?adjust_creative=hBJOknVQJ58S5goQyjmwRw&utm_campaign=yelp_api_v3&utm_medium=api_v3_business_search&utm_source=hBJOknVQJ58S5goQyjmwRw", "review_count": 4, "categories": [{"alias": "hotdogs", "title": "Fast Food"}, {"alias": "kebab", "title": "Kebab"}, {"alias": "foodstands", "title": "Food Stands"}], "rating": 3.0, "coordinates": {"latitude": 53.5562, "longitude": 9.92812}, "transactions": [], "location": {"address1": "Barnerstr. 42", "address2": null, "address3": null, "city": "Hamburg", "zip_code": "22765", "country": "DE", "state": "HH", "display_address": ["Barnerstr. 42", "22765 Hamburg", "Germany"]}, "phone": "", "display_phone": "", "distance": 4198.7339529822275}, {"id": "oHWaEAXxxBTuQYzjzAJJrA", "alias": "croque-profis-hamburg", "name": "Croque Profis", "image_url": "https://s3-media1.fl.yelpcdn.com/bphoto/9Ms9E9Ia-Q9rz42C7PKtVQ/o.jpg", "is_closed": false, "url": "https://www.yelp.com/biz/croque-profis-hamburg?adjust_creative=hBJOknVQJ58S5goQyjmwRw&utm_campaign=yelp_api_v3&utm_medium=api_v3_business_search&utm_source=hBJOknVQJ58S5goQyjmwRw", "review_count": 31, "categories": [{"alias": "sandwiches", "title": "Sandwiches"}], "rating": 4.0, "coordinates": {"latitude": 53.55566, "longitude": 9.92859}, "transactions": [], "price": "\u20ac", "location": {"address1": "Bahrenfelder Str. 216", "address2": "", "address3": "", "city": "Hamburg", "zip_code": "22765", "country": "DE", "state": "HH", "display_address": ["Bahrenfelder Str. 216", "22765 Hamburg", "Germany"]}, "phone": "+494063677937", "display_phone": "+49 40 63677937", "distance": 4154.880828911827}, {"id": "m0k31Hxo7hWinbU6TsM5MQ", "alias": "mcdonalds-hamburg-29", "name": "McDonald's", "image_url": "https://s3-media2.fl.yelpcdn.com/bphoto/OkbyKlpnBGF7NDZ7c96PCw/o.jpg", "is_closed": false, "url": "https://www.yelp.com/biz/mcdonalds-hamburg-29?adjust_creative=hBJOknVQJ58S5goQyjmwRw&utm_campaign=yelp_api_v3&utm_medium=api_v3_business_search&utm_source=hBJOknVQJ58S5goQyjmwRw", "review_count": 22, "categories": [{"alias": "hotdogs", "title": "Fast Food"}, {"alias": "burgers", "title": "Burgers"}], "rating": 2.5, "coordinates": {"latitude": 53.56339, "longitude": 9.92346}, "transactions": [], "price": "\u20ac\u20ac", "location": {"address1": "Stresemannstr. 354", "address2": null, "address3": null, "city": "Hamburg", "zip_code": "22761", "country": "DE", "state": "HH", "display_address": ["Stresemannstr. 354", "22761 Hamburg", "Germany"]}, "phone": "+49408507879", "display_phone": "+49 40 8507879", "distance": 4883.522240965628}, {"id": "SGPCMemueCd_YkmAbiCRHg", "alias": "kaya-feinkost-hamburg-2", "name": "Kaya Feinkost", "image_url": "https://s3-media2.fl.yelpcdn.com/bphoto/gSfwT8Ob-wu8cPknCBZrfQ/o.jpg", "is_closed": false, "url": "https://www.yelp.com/biz/kaya-feinkost-hamburg-2?adjust_creative=hBJOknVQJ58S5goQyjmwRw&utm_campaign=yelp_api_v3&utm_medium=api_v3_business_search&utm_source=hBJOknVQJ58S5goQyjmwRw", "review_count": 1, "categories": [{"alias": "kebab", "title": "Kebab"}, {"alias": "delicatessen", "title": "Delicatessen"}], "rating": 4.0, "coordinates": {"latitude": 53.5633518, "longitude": 9.9321883}, "transactions": [], "price": "\u20ac", "location": {"address1": "Stresemannstr. 300", "address2": "", "address3": "", "city": "Hamburg", "zip_code": "22761", "country": "DE", "state": "HH", "display_address": ["Stresemannstr. 300", "22761 Hamburg", "Germany"]}, "phone": "", "display_phone": "", "distance": 4997.137412744459}, {"id": "W59bZGmC3azXY9ZbBMOrXQ", "alias": "frisierbar-ottensen-friseur-und-cafe-hamburg", "name": "FrisierBar Ottensen friseur&Cafe", "image_url": "https://s3-media1.fl.yelpcdn.com/bphoto/0pEm98vK7vWZlyTv2iSoOg/o.jpg", "is_closed": false, "url": "https://www.yelp.com/biz/frisierbar-ottensen-friseur-und-cafe-hamburg?adjust_creative=hBJOknVQJ58S5goQyjmwRw&utm_campaign=yelp_api_v3&utm_medium=api_v3_business_search&utm_source=hBJOknVQJ58S5goQyjmwRw", "review_count": 10, "categories": [{"alias": "hair", "title": "Hair Salons"}, {"alias": "cafes", "title": "Cafes"}], "rating": 4.5, "coordinates": {"latitude": 53.5551, "longitude": 9.9268}, "transactions": [], "price": "\u20ac", "location": {"address1": "Friedensallee 32", "address2": null, "address3": null, "city": "Hamburg", "zip_code": "22765", "country": "DE", "state": "HH", "display_address": ["Friedensallee 32", "22765 Hamburg", "Germany"]}, "phone": "+494039902226", "display_phone": "+49 40 39902226", "distance": 4054.721931733825}, {"id": "iqrhSoglBOcye888y_KMXw", "alias": "rain-cafeatery-hamburg", "name": "Rain Cafeatery", "image_url": "https://s3-media2.fl.yelpcdn.com/bphoto/F9OOF87SABquznl0IOD5Kw/o.jpg", "is_closed": false, "url": "https://www.yelp.com/biz/rain-cafeatery-hamburg?adjust_creative=hBJOknVQJ58S5goQyjmwRw&utm_campaign=yelp_api_v3&utm_medium=api_v3_business_search&utm_source=hBJOknVQJ58S5goQyjmwRw", "review_count": 18, "categories": [{"alias": "cafes", "title": "Cafes"}, {"alias": "breakfast_brunch", "title": "Breakfast & Brunch"}], "rating": 4.0, "coordinates": {"latitude": 53.55275070471, "longitude": 9.93088457733393}, "transactions": [], "price": "\u20ac", "location": {"address1": "Grosse Rainstr. 15", "address2": "", "address3": "", "city": "Hamburg", "zip_code": "22765", "country": "DE", "state": "HH", "display_address": ["Grosse Rainstr. 15", "22765 Hamburg", "Germany"]}, "phone": "+494030391130", "display_phone": "+49 40 30391130", "distance": 3908.35026355367}, {"id": "7v4Y75pQ-4V93AWtJo8flA", "alias": "caf\u00e9-kumpir-hamburg", "name": "Caf\u00e9 Kumpir", "image_url": "https://s3-media3.fl.yelpcdn.com/bphoto/aYRRxJ42_91uWrPdV_uWaQ/o.jpg", "is_closed": false, "url": "https://www.yelp.com/biz/caf%C3%A9-kumpir-hamburg?adjust_creative=hBJOknVQJ58S5goQyjmwRw&utm_campaign=yelp_api_v3&utm_medium=api_v3_business_search&utm_source=hBJOknVQJ58S5goQyjmwRw", "review_count": 1, "categories": [{"alias": "cafes", "title": "Cafes"}], "rating": 3.0, "coordinates": {"latitude": 53.55241, "longitude": 9.92998}, "transactions": [], "location": {"address1": "Bahrenfelder Str. 97", "address2": "", "address3": null, "city": "Hamburg", "zip_code": "22765", "country": "DE", "state": "HH", "display_address": ["Bahrenfelder Str. 97", "22765 Hamburg", "Germany"]}, "phone": "+4917645076344", "display_phone": "+49 176 45076344", "distance": 3843.128275062194}, {"id": "hSlbirXmf28wjan-7C_uAA", "alias": "kaiserwetter-hamburg-7", "name": "Kaiserwetter", "image_url": "https://s3-media3.fl.yelpcdn.com/bphoto/3L2NsQtg4VEiviIPhYCjJg/o.jpg", "is_closed": false, "url": "https://www.yelp.com/biz/kaiserwetter-hamburg-7?adjust_creative=hBJOknVQJ58S5goQyjmwRw&utm_campaign=yelp_api_v3&utm_medium=api_v3_business_search&utm_source=hBJOknVQJ58S5goQyjmwRw", "review_count": 1, "categories": [{"alias": "cafes", "title": "Cafes"}, {"alias": "salad", "title": "Salad"}], "rating": 2.0, "coordinates": {"latitude": 53.5549433966552, "longitude": 9.92655516733021}, "transactions": [], "location": {"address1": "Friedensallee 11", "address2": "", "address3": "Zeisehof", "city": "Hamburg", "zip_code": "22765", "country": "DE", "state": "HH", "display_address": ["Friedensallee 11", "Zeisehof", "22765 Hamburg", "Germany"]}, "phone": "", "display_phone": "", "distance": 4033.0600948519}, {"id": "yM23Q0pBqJuZnGmkO65Tvg", "alias": "manhattan-pizza-hamburg", "name": "Manhattan Pizza", "image_url": "https://s3-media1.fl.yelpcdn.com/bphoto/1xjXlSlrgWk5Sb2a3laayg/o.jpg", "is_closed": false, "url": "https://www.yelp.com/biz/manhattan-pizza-hamburg?adjust_creative=hBJOknVQJ58S5goQyjmwRw&utm_campaign=yelp_api_v3&utm_medium=api_v3_business_search&utm_source=hBJOknVQJ58S5goQyjmwRw", "review_count": 10, "categories": [{"alias": "pizza", "title": "Pizza"}, {"alias": "indpak", "title": "Indian"}], "rating": 2.5, "coordinates": {"latitude": 53.5601112211048, "longitude": 9.91162765771151}, "transactions": [], "location": {"address1": "Griegstr. 126", "address2": "", "address3": "", "city": "Hamburg", "zip_code": "22763", "country": "DE", "state": "HH", "display_address": ["Griegstr. 126", "22763 Hamburg", "Germany"]}, "phone": "+49408803035", "display_phone": "+49 40 8803035", "distance": 4408.688029182699}, {"id": "6sZ-pcKM4MQa03NlpYy2OA", "alias": "asia-hung-hamburg-12", "name": "asia hung", "image_url": "https://s3-media1.fl.yelpcdn.com/bphoto/VntjvZ44zaFhKbXOc9Tzog/o.jpg", "is_closed": false, "url": "https://www.yelp.com/biz/asia-hung-hamburg-12?adjust_creative=hBJOknVQJ58S5goQyjmwRw&utm_campaign=yelp_api_v3&utm_medium=api_v3_business_search&utm_source=hBJOknVQJ58S5goQyjmwRw", "review_count": 19, "categories": [{"alias": "hotdogs", "title": "Fast Food"}, {"alias": "panasian", "title": "Pan Asian"}], "rating": 3.5, "coordinates": {"latitude": 53.5554142, "longitude": 9.929928}, "transactions": [], "price": "\u20ac", "location": {"address1": "Ottenser Hauptstr. 10", "address2": "", "address3": "", "city": "Hamburg", "zip_code": "22765", "country": "DE", "state": "HH", "display_address": ["Ottenser Hauptstr. 10", "22765 Hamburg", "Germany"]}, "phone": "+49403986840", "display_phone": "+49 40 3986840", "distance": 4158.05431501951}, {"id": "EtzxSFjmDxEHv0aA2E5YlA", "alias": "d\u00f6ner-und-getr\u00e4nke-welt-hamburg", "name": "D\u00f6ner & Getr\u00e4nke Welt", "image_url": "https://s3-media2.fl.yelpcdn.com/bphoto/igM9QYu-XmqKQIiE4luW7w/o.jpg", "is_closed": false, "url": "https://www.yelp.com/biz/d%C3%B6ner-und-getr%C3%A4nke-welt-hamburg?adjust_creative=hBJOknVQJ58S5goQyjmwRw&utm_campaign=yelp_api_v3&utm_medium=api_v3_business_search&utm_source=hBJOknVQJ58S5goQyjmwRw", "review_count": 17, "categories": [{"alias": "kebab", "title": "Kebab"}, {"alias": "bistros", "title": "Bistros"}], "rating": 2.5, "coordinates": {"latitude": 53.55228, "longitude": 9.9305}, "transactions": [], "price": "\u20ac", "location": {"address1": "Gro\u00dfe Rainstr. 4", "address2": "", "address3": "", "city": "Hamburg", "zip_code": "22765", "country": "DE", "state": "HH", "display_address": ["Gro\u00dfe Rainstr. 4", "22765 Hamburg", "Germany"]}, "phone": "+494039808807", "display_phone": "+49 40 39808807", "distance": 3850.21579651182}, {"id": "RW1MUAalKF_EF4Z55328Ww", "alias": "back-factory-hamburg", "name": "Back-Factory", "image_url": "https://s3-media2.fl.yelpcdn.com/bphoto/Dly9uxRg5ApHkHDXyxJqLw/o.jpg", "is_closed": false, "url": "https://www.yelp.com/biz/back-factory-hamburg?adjust_creative=hBJOknVQJ58S5goQyjmwRw&utm_campaign=yelp_api_v3&utm_medium=api_v3_business_search&utm_source=hBJOknVQJ58S5goQyjmwRw", "review_count": 12, "categories": [{"alias": "bakeries", "title": "Bakeries"}, {"alias": "hotdogs", "title": "Fast Food"}], "rating": 3.0, "coordinates": {"latitude": 53.55204, "longitude": 9.93178}, "transactions": [], "price": "\u20ac", "location": {"address1": "Ottenser Hauptstr. 11", "address2": null, "address3": null, "city": "Hamburg", "zip_code": "22765", "country": "DE", "state": "HH", "display_address": ["Ottenser Hauptstr. 11", "22765 Hamburg", "Germany"]}, "phone": "+494028802701", "display_phone": "+49 40 28802701", "distance": 3860.5290491279666}, {"id": "HLijTjPuEdhfRzQaPLWSkw", "alias": "pastelaria-caf\u00e9-faro-hamburg-2", "name": "Pastelaria Caf\u00e9 Faro", "image_url": "https://s3-media4.fl.yelpcdn.com/bphoto/nSwS98aBjUCibs0t5sQSiA/o.jpg", "is_closed": false, "url": "https://www.yelp.com/biz/pastelaria-caf%C3%A9-faro-hamburg-2?adjust_creative=hBJOknVQJ58S5goQyjmwRw&utm_campaign=yelp_api_v3&utm_medium=api_v3_business_search&utm_source=hBJOknVQJ58S5goQyjmwRw", "review_count": 2, "categories": [{"alias": "desserts", "title": "Desserts"}, {"alias": "cafes", "title": "Cafes"}, {"alias": "coffee", "title": "Coffee & Tea"}], "rating": 3.5, "coordinates": {"latitude": 53.55102, "longitude": 9.92901}, "transactions": [], "price": "\u20ac", "location": {"address1": "Mottenburger Twiete 14", "address2": "", "address3": "", "city": "Hamburg", "zip_code": "22765", "country": "DE", "state": "HH", "display_address": ["Mottenburger Twiete 14", "22765 Hamburg", "Germany"]}, "phone": "+494028669718", "display_phone": "+49 40 28669718", "distance": 3682.5709262683963}, {"id": "Ao7NE4LZcKnxey59ORIWGg", "alias": "cafeteria-in-der-asklepios-klinik-altona-hamburg", "name": "Cafeteria in der Asklepios-Klinik Altona", "image_url": "https://s3-media4.fl.yelpcdn.com/bphoto/aGcbTeh3oIg7FMCAxzAcKA/o.jpg", "is_closed": false, "url": "https://www.yelp.com/biz/cafeteria-in-der-asklepios-klinik-altona-hamburg?adjust_creative=hBJOknVQJ58S5goQyjmwRw&utm_campaign=yelp_api_v3&utm_medium=api_v3_business_search&utm_source=hBJOknVQJ58S5goQyjmwRw", "review_count": 3, "categories": [{"alias": "cafes", "title": "Cafes"}], "rating": 1.5, "coordinates": {"latitude": 53.5542204502773, "longitude": 9.90173504655734}, "transactions": [], "location": {"address1": "Paul-Ehrlich-Str.1", "address2": null, "address3": null, "city": "Hamburg", "zip_code": "22763", "country": "DE", "state": "HH", "display_address": ["Paul-Ehrlich-Str.1", "22763 Hamburg", "Germany"]}, "phone": "", "display_phone": "", "distance": 3760.9981395672153}]