[{"id": "KaiHkk0dt2F3_zea9RbbMA", "alias": "san-lorenzo-ristorante-caff\u00e9-in-der-villa-bode-glinde", "name": "San Lorenzo Ristorante Caff\u00e9 in der Villa Bode", "image_url": "https://s3-media2.fl.yelpcdn.com/bphoto/s33hPN5pmiMmjz1U04z7eA/o.jpg", "is_closed": false, "url": "https://www.yelp.com/biz/san-lorenzo-ristorante-caff%C3%A9-in-der-villa-bode-glinde?adjust_creative=hBJOknVQJ58S5goQyjmwRw&utm_campaign=yelp_api_v3&utm_medium=api_v3_business_search&utm_source=hBJOknVQJ58S5goQyjmwRw", "review_count": 44, "categories": [{"alias": "italian", "title": "Italian"}], "rating": 4.5, "coordinates": {"latitude": 53.5488, "longitude": 10.2118}, "transactions": [], "price": "\u20ac\u20ac\u20ac", "location": {"address1": "Kupferm\u00fchlenweg 2", "address2": null, "address3": null, "city": "Glinde", "zip_code": "21509", "country": "DE", "state": "SH", "display_address": ["Kupferm\u00fchlenweg 2", "21509 Glinde", "Germany"]}, "phone": "+49407112424", "display_phone": "+49 40 7112424", "distance": 1448.9403064832322}, {"id": "0_c6d99SgBjPbOBstwaBcA", "alias": "sirtaki-glinde-2", "name": "Sirtaki", "image_url": "https://s3-media4.fl.yelpcdn.com/bphoto/4x3EMcd21rstF1FVmtv5ow/o.jpg", "is_closed": false, "url": "https://www.yelp.com/biz/sirtaki-glinde-2?adjust_creative=hBJOknVQJ58S5goQyjmwRw&utm_campaign=yelp_api_v3&utm_medium=api_v3_business_search&utm_source=hBJOknVQJ58S5goQyjmwRw", "review_count": 19, "categories": [{"alias": "greek", "title": "Greek"}], "rating": 4.5, "coordinates": {"latitude": 53.5411, "longitude": 10.2132}, "transactions": [], "price": "\u20ac\u20ac", "location": {"address1": "Markt 4h", "address2": null, "address3": null, "city": "Glinde", "zip_code": "21509", "country": "DE", "state": "SH", "display_address": ["Markt 4h", "21509 Glinde", "Germany"]}, "phone": "+49407107076", "display_phone": "+49 40 7107076", "distance": 638.1288519977578}, {"id": "blvC5dh9IP8TFla2vjk7Pg", "alias": "restaurant-opatija-glinde", "name": "Restaurant Opatija", "image_url": "https://s3-media2.fl.yelpcdn.com/bphoto/hCXY0hs-kpBTVffyp8spuA/o.jpg", "is_closed": false, "url": "https://www.yelp.com/biz/restaurant-opatija-glinde?adjust_creative=hBJOknVQJ58S5goQyjmwRw&utm_campaign=yelp_api_v3&utm_medium=api_v3_business_search&utm_source=hBJOknVQJ58S5goQyjmwRw", "review_count": 7, "categories": [{"alias": "international", "title": "International"}], "rating": 4.5, "coordinates": {"latitude": 53.5474, "longitude": 10.2176}, "transactions": [], "price": "\u20ac\u20ac", "location": {"address1": "Am Sportplatz 98", "address2": null, "address3": null, "city": "Glinde", "zip_code": "21509", "country": "DE", "state": "SH", "display_address": ["Am Sportplatz 98", "21509 Glinde", "Germany"]}, "phone": "+49407108388", "display_phone": "+49 40 7108388", "distance": 1396.4768607733522}, {"id": "5N_GFt0eu3sCXEbvuWF_xA", "alias": "fusion-hamburg-2", "name": "Fusion", "image_url": "https://s3-media4.fl.yelpcdn.com/bphoto/hVwUIu99nh1H2LrCTk-e7g/o.jpg", "is_closed": false, "url": "https://www.yelp.com/biz/fusion-hamburg-2?adjust_creative=hBJOknVQJ58S5goQyjmwRw&utm_campaign=yelp_api_v3&utm_medium=api_v3_business_search&utm_source=hBJOknVQJ58S5goQyjmwRw", "review_count": 16, "categories": [{"alias": "steak", "title": "Steakhouses"}], "rating": 4.5, "coordinates": {"latitude": 53.50163, "longitude": 10.20584}, "transactions": [], "price": "\u20ac\u20ac", "location": {"address1": "Leuschnerstr. 72", "address2": "", "address3": "", "city": "Hamburg", "zip_code": "21031", "country": "DE", "state": "HH", "display_address": ["Leuschnerstr. 72", "21031 Hamburg", "Germany"]}, "phone": "+494038633711", "display_phone": "+49 40 38633711", "distance": 3811.585203518629}, {"id": "F72nVfcfUXIn2CzO9uLBaw", "alias": "marktst\u00fcbchen-glinde", "name": "Marktst\u00fcbchen", "image_url": "", "is_closed": false, "url": "https://www.yelp.com/biz/marktst%C3%BCbchen-glinde?adjust_creative=hBJOknVQJ58S5goQyjmwRw&utm_campaign=yelp_api_v3&utm_medium=api_v3_business_search&utm_source=hBJOknVQJ58S5goQyjmwRw", "review_count": 2, "categories": [{"alias": "restaurants", "title": "Restaurants"}], "rating": 4.5, "coordinates": {"latitude": 53.54015, "longitude": 10.21285}, "transactions": [], "price": "\u20ac\u20ac", "location": {"address1": "Avenue St. Sebastien 8", "address2": null, "address3": null, "city": "Glinde", "zip_code": "21509", "country": "DE", "state": "SH", "display_address": ["Avenue St. Sebastien 8", "21509 Glinde", "Germany"]}, "phone": "+494071009988", "display_phone": "+49 40 71009988", "distance": 532.651598434195}, {"id": "nPQLEHdNcxG1ggK21Jg0og", "alias": "curryph\u00e4e-reinbek", "name": "Curryph\u00e4e", "image_url": "https://s3-media4.fl.yelpcdn.com/bphoto/c9l03AUzyV9TFWLLJBjNMA/o.jpg", "is_closed": false, "url": "https://www.yelp.com/biz/curryph%C3%A4e-reinbek?adjust_creative=hBJOknVQJ58S5goQyjmwRw&utm_campaign=yelp_api_v3&utm_medium=api_v3_business_search&utm_source=hBJOknVQJ58S5goQyjmwRw", "review_count": 4, "categories": [{"alias": "foodstands", "title": "Food Stands"}, {"alias": "bbq", "title": "Barbeque"}], "rating": 5.0, "coordinates": {"latitude": 53.52179, "longitude": 10.2319}, "transactions": [], "price": "\u20ac", "location": {"address1": "Liebigstr. 2", "address2": "", "address3": "", "city": "Reinbek", "zip_code": "21465", "country": "DE", "state": "SH", "display_address": ["Liebigstr. 2", "21465 Reinbek", "Germany"]}, "phone": "+494027824762", "display_phone": "+49 40 27824762", "distance": 2123.003504489313}, {"id": "aAKi6ncepOps5ayCZfZM8A", "alias": "casareccio-hamburg", "name": "Casareccio", "image_url": "https://s3-media2.fl.yelpcdn.com/bphoto/voClR3mHAFWPNNUol_xMqA/o.jpg", "is_closed": false, "url": "https://www.yelp.com/biz/casareccio-hamburg?adjust_creative=hBJOknVQJ58S5goQyjmwRw&utm_campaign=yelp_api_v3&utm_medium=api_v3_business_search&utm_source=hBJOknVQJ58S5goQyjmwRw", "review_count": 13, "categories": [{"alias": "italian", "title": "Italian"}], "rating": 4.5, "coordinates": {"latitude": 53.4955781280715, "longitude": 10.2065417837382}, "transactions": [], "price": "\u20ac\u20ac", "location": {"address1": "Lohbr\u00fcgger Markt 1", "address2": "", "address3": "", "city": "Hamburg", "zip_code": "21031", "country": "DE", "state": "HH", "display_address": ["Lohbr\u00fcgger Markt 1", "21031 Hamburg", "Germany"]}, "phone": "+494033986569", "display_phone": "+49 40 33986569", "distance": 4482.322826835542}, {"id": "UoVGXTMIpmIyl4eYseiGHw", "alias": "grando-sukredo-glinde", "name": "Grando Sukredo", "image_url": "https://s3-media2.fl.yelpcdn.com/bphoto/cMADuZwl8fW8xF2JLeX7Bg/o.jpg", "is_closed": false, "url": "https://www.yelp.com/biz/grando-sukredo-glinde?adjust_creative=hBJOknVQJ58S5goQyjmwRw&utm_campaign=yelp_api_v3&utm_medium=api_v3_business_search&utm_source=hBJOknVQJ58S5goQyjmwRw", "review_count": 19, "categories": [{"alias": "steak", "title": "Steakhouses"}], "rating": 3.5, "coordinates": {"latitude": 53.5400263, "longitude": 10.2100768}, "transactions": [], "price": "\u20ac\u20ac", "location": {"address1": "M\u00f6llner Landstr. 55", "address2": null, "address3": null, "city": "Glinde", "zip_code": "21509", "country": "DE", "state": "SH", "display_address": ["M\u00f6llner Landstr. 55", "21509 Glinde", "Germany"]}, "phone": "+494089708292", "display_phone": "+49 40 89708292", "distance": 466.73050599759455}, {"id": "ix7ng86Ou7GMvjGdzhwNaQ", "alias": "restaurant-golf-gut-glinde-glinde", "name": "Restaurant Golf Gut Glinde", "image_url": "https://s3-media2.fl.yelpcdn.com/bphoto/OQkLvbD1PVSqyhc7F741qQ/o.jpg", "is_closed": false, "url": "https://www.yelp.com/biz/restaurant-golf-gut-glinde-glinde?adjust_creative=hBJOknVQJ58S5goQyjmwRw&utm_campaign=yelp_api_v3&utm_medium=api_v3_business_search&utm_source=hBJOknVQJ58S5goQyjmwRw", "review_count": 3, "categories": [{"alias": "german", "title": "German"}], "rating": 4.0, "coordinates": {"latitude": 53.53165, "longitude": 10.20683}, "transactions": [], "price": "\u20ac\u20ac", "location": {"address1": "In der Trift 4", "address2": "", "address3": "", "city": "Glinde", "zip_code": "21509", "country": "DE", "state": "SH", "display_address": ["In der Trift 4", "21509 Glinde", "Germany"]}, "phone": "+49407100506", "display_phone": "+49 40 7100506", "distance": 494.8565355645849}, {"id": "cdWS6qwEh-jc4AV1LgSyMg", "alias": "d\u00f6nermann-reinbek", "name": "D\u00f6nermann", "image_url": "", "is_closed": false, "url": "https://www.yelp.com/biz/d%C3%B6nermann-reinbek?adjust_creative=hBJOknVQJ58S5goQyjmwRw&utm_campaign=yelp_api_v3&utm_medium=api_v3_business_search&utm_source=hBJOknVQJ58S5goQyjmwRw", "review_count": 4, "categories": [{"alias": "kebab", "title": "Kebab"}, {"alias": "turkish", "title": "Turkish"}], "rating": 4.0, "coordinates": {"latitude": 53.5234, "longitude": 10.2335}, "transactions": [], "price": "\u20ac\u20ac\u20ac\u20ac", "location": {"address1": "Gutenbergstr. 11", "address2": null, "address3": null, "city": "Reinbek", "zip_code": "21465", "country": "DE", "state": "SH", "display_address": ["Gutenbergstr. 11", "21465 Reinbek", "Germany"]}, "phone": "+494037084660", "display_phone": "+49 40 37084660", "distance": 2116.9240995170126}, {"id": "oPW51OhB-6g_olx51q2kTw", "alias": "meyrs-reinbek", "name": "Meyr's", "image_url": "https://s3-media3.fl.yelpcdn.com/bphoto/H3xPqsHQ6xAIX7iqWRnINQ/o.jpg", "is_closed": false, "url": "https://www.yelp.com/biz/meyrs-reinbek?adjust_creative=hBJOknVQJ58S5goQyjmwRw&utm_campaign=yelp_api_v3&utm_medium=api_v3_business_search&utm_source=hBJOknVQJ58S5goQyjmwRw", "review_count": 5, "categories": [{"alias": "german", "title": "German"}, {"alias": "bistros", "title": "Bistros"}], "rating": 4.5, "coordinates": {"latitude": 53.5152, "longitude": 10.2278}, "transactions": [], "price": "\u20ac\u20ac\u20ac", "location": {"address1": "Glinder Weg 25", "address2": null, "address3": null, "city": "Reinbek", "zip_code": "21465", "country": "DE", "state": "SH", "display_address": ["Glinder Weg 25", "21465 Reinbek", "Germany"]}, "phone": "+494072811257", "display_phone": "+49 40 72811257", "distance": 2602.765978725034}, {"id": "dNhOqtWOEdQyBNlJAzWGVA", "alias": "castello-glinde-glinde", "name": "Castello Glinde", "image_url": "https://s3-media2.fl.yelpcdn.com/bphoto/JoN2oORyRjbtjXNJwYbNpQ/o.jpg", "is_closed": false, "url": "https://www.yelp.com/biz/castello-glinde-glinde?adjust_creative=hBJOknVQJ58S5goQyjmwRw&utm_campaign=yelp_api_v3&utm_medium=api_v3_business_search&utm_source=hBJOknVQJ58S5goQyjmwRw", "review_count": 7, "categories": [{"alias": "mediterranean", "title": "Mediterranean"}], "rating": 3.5, "coordinates": {"latitude": 53.542474, "longitude": 10.2105752}, "transactions": [], "price": "\u20ac\u20ac\u20ac", "location": {"address1": "Dorf Str. 8", "address2": null, "address3": null, "city": "Glinde", "zip_code": "21509", "country": "DE", "state": "SH", "display_address": ["Dorf Str. 8", "21509 Glinde", "Germany"]}, "phone": "+49406032373", "display_phone": "+49 40 6032373", "distance": 740.8829247236906}, {"id": "ro0WL2LKDt9QzdE4QnuzoQ", "alias": "taverna-nostos-hamburg", "name": "Taverna Nostos", "image_url": "https://s3-media3.fl.yelpcdn.com/bphoto/txGbzBwUSbZ_yt_WEgWYFA/o.jpg", "is_closed": false, "url": "https://www.yelp.com/biz/taverna-nostos-hamburg?adjust_creative=hBJOknVQJ58S5goQyjmwRw&utm_campaign=yelp_api_v3&utm_medium=api_v3_business_search&utm_source=hBJOknVQJ58S5goQyjmwRw", "review_count": 12, "categories": [{"alias": "greek", "title": "Greek"}], "rating": 4.0, "coordinates": {"latitude": 53.4947, "longitude": 10.2062}, "transactions": [], "price": "\u20ac\u20ac", "location": {"address1": "Lohbr\u00fcgger Landstr. 1", "address2": null, "address3": null, "city": "Hamburg", "zip_code": "21031", "country": "DE", "state": "HH", "display_address": ["Lohbr\u00fcgger Landstr. 1", "21031 Hamburg", "Germany"]}, "phone": "+494072004128", "display_phone": "+49 40 72004128", "distance": 4580.836570618909}, {"id": "HulzwGeEub08NFh1HaYU4A", "alias": "kliemanns-grill-glinde", "name": "Kliemanns Grill", "image_url": "https://s3-media3.fl.yelpcdn.com/bphoto/IQE5mc9QPXg5pM37n57N6A/o.jpg", "is_closed": false, "url": "https://www.yelp.com/biz/kliemanns-grill-glinde?adjust_creative=hBJOknVQJ58S5goQyjmwRw&utm_campaign=yelp_api_v3&utm_medium=api_v3_business_search&utm_source=hBJOknVQJ58S5goQyjmwRw", "review_count": 7, "categories": [{"alias": "hotdogs", "title": "Fast Food"}, {"alias": "foodstands", "title": "Food Stands"}], "rating": 3.5, "coordinates": {"latitude": 53.540678234906, "longitude": 10.201831846757}, "transactions": [], "price": "\u20ac\u20ac", "location": {"address1": "M\u00f6llner Landstr. 35 B", "address2": null, "address3": null, "city": "Glinde", "zip_code": "21509", "country": "DE", "state": "SH", "display_address": ["M\u00f6llner Landstr. 35 B", "21509 Glinde", "Germany"]}, "phone": "+49407106902", "display_phone": "+49 40 7106902", "distance": 727.7678054124573}, {"id": "PdMnHFRCwzO1PGqvfCpnrg", "alias": "mensa-bergedorf-hamburg", "name": "Mensa Bergedorf", "image_url": "https://s3-media3.fl.yelpcdn.com/bphoto/A_DvNmVuKDG-fakHiga7pA/o.jpg", "is_closed": false, "url": "https://www.yelp.com/biz/mensa-bergedorf-hamburg?adjust_creative=hBJOknVQJ58S5goQyjmwRw&utm_campaign=yelp_api_v3&utm_medium=api_v3_business_search&utm_source=hBJOknVQJ58S5goQyjmwRw", "review_count": 3, "categories": [{"alias": "canteen", "title": "Canteen"}], "rating": 5.0, "coordinates": {"latitude": 53.493, "longitude": 10.1984}, "transactions": [], "location": {"address1": "Ulmenliet 20", "address2": null, "address3": null, "city": "Hamburg", "zip_code": "21033", "country": "DE", "state": "HH", "display_address": ["Ulmenliet 20", "21033 Hamburg", "Germany"]}, "phone": "+49407217633", "display_phone": "+49 40 7217633", "distance": 4819.316108365044}, {"id": "5ydZm3b-RP66ounJQNqK-w", "alias": "bistro-99-reinbek", "name": "Bistro 99", "image_url": "https://s3-media2.fl.yelpcdn.com/bphoto/c967imUyAH-Ox1qq_dra0w/o.jpg", "is_closed": false, "url": "https://www.yelp.com/biz/bistro-99-reinbek?adjust_creative=hBJOknVQJ58S5goQyjmwRw&utm_campaign=yelp_api_v3&utm_medium=api_v3_business_search&utm_source=hBJOknVQJ58S5goQyjmwRw", "review_count": 2, "categories": [{"alias": "bistros", "title": "Bistros"}], "rating": 2.5, "coordinates": {"latitude": 53.5236657385745, "longitude": 10.2344812539673}, "transactions": [], "price": "\u20ac\u20ac", "location": {"address1": "Gutenbergstr. 15", "address2": "", "address3": null, "city": "Reinbek", "zip_code": "21465", "country": "DE", "state": "SH", "display_address": ["Gutenbergstr. 15", "21465 Reinbek", "Germany"]}, "phone": "+494072813586", "display_phone": "+49 40 72813586", "distance": 2147.6130993134343}, {"id": "X0mS5-c6ES1xNI3RQ9zLpg", "alias": "miss-pepper-barsb\u00fcttel", "name": "Miss Pepper", "image_url": "https://s3-media1.fl.yelpcdn.com/bphoto/t8sTs0r2D75DA3Y8klw18g/o.jpg", "is_closed": false, "url": "https://www.yelp.com/biz/miss-pepper-barsb%C3%BCttel?adjust_creative=hBJOknVQJ58S5goQyjmwRw&utm_campaign=yelp_api_v3&utm_medium=api_v3_business_search&utm_source=hBJOknVQJ58S5goQyjmwRw", "review_count": 82, "categories": [{"alias": "burgers", "title": "Burgers"}, {"alias": "tradamerican", "title": "American (Traditional)"}, {"alias": "diners", "title": "Diners"}], "rating": 3.0, "coordinates": {"latitude": 53.577, "longitude": 10.1915}, "transactions": [], "price": "\u20ac\u20ac", "location": {"address1": "Hanskampring 1", "address2": null, "address3": null, "city": "Barsb\u00fcttel", "zip_code": "22885", "country": "DE", "state": "SH", "display_address": ["Hanskampring 1", "22885 Barsb\u00fcttel", "Germany"]}, "phone": "+494038088282", "display_phone": "+49 40 38088282", "distance": 4723.317941242054}, {"id": "_2qYJYNRbeHNqB6W6ALWxg", "alias": "lola-bar-hamburg", "name": "Lola Bar", "image_url": "https://s3-media2.fl.yelpcdn.com/bphoto/N58CKa2IAME-PKNivAAhDQ/o.jpg", "is_closed": false, "url": "https://www.yelp.com/biz/lola-bar-hamburg?adjust_creative=hBJOknVQJ58S5goQyjmwRw&utm_campaign=yelp_api_v3&utm_medium=api_v3_business_search&utm_source=hBJOknVQJ58S5goQyjmwRw", "review_count": 4, "categories": [{"alias": "bars", "title": "Bars"}, {"alias": "modern_european", "title": "Modern European"}], "rating": 4.5, "coordinates": {"latitude": 53.49544, "longitude": 10.20572}, "transactions": [], "price": "\u20ac\u20ac", "location": {"address1": "Lohbr\u00fcgger Landstr. 8", "address2": null, "address3": null, "city": "Hamburg", "zip_code": "21031", "country": "DE", "state": "HH", "display_address": ["Lohbr\u00fcgger Landstr. 8", "21031 Hamburg", "Germany"]}, "phone": "+49407249663", "display_phone": "+49 40 7249663", "distance": 4504.594271509333}, {"id": "u3ub5f0MS4qY67Q8XF9ZoA", "alias": "sodemanns-fisch-kutter-nr-1-hamburg", "name": "Sodemann's Fisch-Kutter Nr. 1", "image_url": "https://s3-media3.fl.yelpcdn.com/bphoto/BlysP6fVPaL0eEjKvEbByw/o.jpg", "is_closed": false, "url": "https://www.yelp.com/biz/sodemanns-fisch-kutter-nr-1-hamburg?adjust_creative=hBJOknVQJ58S5goQyjmwRw&utm_campaign=yelp_api_v3&utm_medium=api_v3_business_search&utm_source=hBJOknVQJ58S5goQyjmwRw", "review_count": 3, "categories": [{"alias": "foodtrucks", "title": "Food Trucks"}, {"alias": "fischbroetchen", "title": "Fischbroetchen"}], "rating": 5.0, "coordinates": {"latitude": 53.5537490844727, "longitude": 9.99182987213135}, "transactions": [], "price": "\u20ac\u20ac", "location": {"address1": "", "address2": null, "address3": "", "city": "Hamburg", "zip_code": "", "country": "DE", "state": "HH", "display_address": ["Hamburg", "Germany"]}, "phone": "+491773606663", "display_phone": "+49 177 3606663", "distance": 14345.439665802585}, {"id": "K4QqypO8q9mIwuqtDenVyQ", "alias": "zimmer-glinde", "name": "Zimmer", "image_url": "https://s3-media4.fl.yelpcdn.com/bphoto/aWZvAp3CE1EziB1yFzhZVg/o.jpg", "is_closed": false, "url": "https://www.yelp.com/biz/zimmer-glinde?adjust_creative=hBJOknVQJ58S5goQyjmwRw&utm_campaign=yelp_api_v3&utm_medium=api_v3_business_search&utm_source=hBJOknVQJ58S5goQyjmwRw", "review_count": 3, "categories": [{"alias": "cafes", "title": "Cafes"}, {"alias": "bakeries", "title": "Bakeries"}], "rating": 4.5, "coordinates": {"latitude": 53.5415, "longitude": 10.2134}, "transactions": [], "price": "\u20ac", "location": {"address1": "Markt 6", "address2": null, "address3": null, "city": "Glinde", "zip_code": "21509", "country": "DE", "state": "SH", "display_address": ["Markt 6", "21509 Glinde", "Germany"]}, "phone": "+494071001200", "display_phone": "+49 40 71001200", "distance": 684.166490635419}, {"id": "zonrbXJvqBtw1CA_5YMJRQ", "alias": "locanda-riva-hamburg-4", "name": "Locanda Riva", "image_url": "https://s3-media1.fl.yelpcdn.com/bphoto/tUbPNJc59zHLy3dPyExe4Q/o.jpg", "is_closed": false, "url": "https://www.yelp.com/biz/locanda-riva-hamburg-4?adjust_creative=hBJOknVQJ58S5goQyjmwRw&utm_campaign=yelp_api_v3&utm_medium=api_v3_business_search&utm_source=hBJOknVQJ58S5goQyjmwRw", "review_count": 9, "categories": [{"alias": "mediterranean", "title": "Mediterranean"}, {"alias": "italian", "title": "Italian"}], "rating": 4.0, "coordinates": {"latitude": 53.49331, "longitude": 10.21416}, "transactions": [], "price": "\u20ac\u20ac\u20ac", "location": {"address1": "Schillerufer 41", "address2": "", "address3": "", "city": "Hamburg", "zip_code": "21029", "country": "DE", "state": "HH", "display_address": ["Schillerufer 41", "21029 Hamburg", "Germany"]}, "phone": "+494075111933", "display_phone": "+49 40 75111933", "distance": 4741.874869716718}, {"id": "ssPTSOBjG7hS3h7hcOHsYQ", "alias": "rindocks-hamburg-3", "name": "Rindock's", "image_url": "https://s3-media2.fl.yelpcdn.com/bphoto/maMn7v-b7qsW214K30FKeQ/o.jpg", "is_closed": false, "url": "https://www.yelp.com/biz/rindocks-hamburg-3?adjust_creative=hBJOknVQJ58S5goQyjmwRw&utm_campaign=yelp_api_v3&utm_medium=api_v3_business_search&utm_source=hBJOknVQJ58S5goQyjmwRw", "review_count": 1, "categories": [{"alias": "steak", "title": "Steakhouses"}], "rating": 4.0, "coordinates": {"latitude": 53.50291, "longitude": 10.19312}, "transactions": [], "location": {"address1": "Lohbr\u00fcgger Landstr. 119", "address2": "", "address3": null, "city": "Hamburg", "zip_code": "21031", "country": "DE", "state": "HH", "display_address": ["Lohbr\u00fcgger Landstr. 119", "21031 Hamburg", "Germany"]}, "phone": "+494072106755", "display_phone": "+49 40 72106755", "distance": 3818.2912995268666}, {"id": "-p7U_9yGdzmIC6cm0TBfwA", "alias": "nomis-pizza-lieferservice-glinde", "name": "Nomi's Pizza Lieferservice", "image_url": "", "is_closed": false, "url": "https://www.yelp.com/biz/nomis-pizza-lieferservice-glinde?adjust_creative=hBJOknVQJ58S5goQyjmwRw&utm_campaign=yelp_api_v3&utm_medium=api_v3_business_search&utm_source=hBJOknVQJ58S5goQyjmwRw", "review_count": 1, "categories": [{"alias": "fooddeliveryservices", "title": "Food Delivery Services"}, {"alias": "italian", "title": "Italian"}], "rating": 3.0, "coordinates": {"latitude": 53.5341, "longitude": 10.2256}, "transactions": [], "location": {"address1": "Holstenkamp 11", "address2": null, "address3": null, "city": "Glinde", "zip_code": "21509", "country": "DE", "state": "SH", "display_address": ["Holstenkamp 11", "21509 Glinde", "Germany"]}, "phone": "+494071143340", "display_phone": "+49 40 71143340", "distance": 1096.201675317131}, {"id": "7EHpIWHvoW_oPx26KcXTRg", "alias": "hallo-pizza-hamburg-6", "name": "Hallo Pizza!", "image_url": "https://s3-media4.fl.yelpcdn.com/bphoto/qjHwhE3eheJPTrEzRdADEQ/o.jpg", "is_closed": false, "url": "https://www.yelp.com/biz/hallo-pizza-hamburg-6?adjust_creative=hBJOknVQJ58S5goQyjmwRw&utm_campaign=yelp_api_v3&utm_medium=api_v3_business_search&utm_source=hBJOknVQJ58S5goQyjmwRw", "review_count": 5, "categories": [{"alias": "pizza", "title": "Pizza"}], "rating": 3.0, "coordinates": {"latitude": 53.49397, "longitude": 10.2071}, "transactions": [], "location": {"address1": "Alte Holstenstr. 9", "address2": "", "address3": "", "city": "Hamburg", "zip_code": "21031", "country": "DE", "state": "HH", "display_address": ["Alte Holstenstr. 9", "21031 Hamburg", "Germany"]}, "phone": "+494081974880", "display_phone": "+49 40 81974880", "distance": 4648.680320574821}, {"id": "wpL3fJmVfD9BxMKKEUnTlg", "alias": "masala-indian-food-express-hamburg", "name": "Masala - Indian Food Express", "image_url": "", "is_closed": false, "url": "https://www.yelp.com/biz/masala-indian-food-express-hamburg?adjust_creative=hBJOknVQJ58S5goQyjmwRw&utm_campaign=yelp_api_v3&utm_medium=api_v3_business_search&utm_source=hBJOknVQJ58S5goQyjmwRw", "review_count": 1, "categories": [{"alias": "indpak", "title": "Indian"}, {"alias": "fooddeliveryservices", "title": "Food Delivery Services"}], "rating": 4.0, "coordinates": {"latitude": 53.50882, "longitude": 10.18629}, "transactions": [], "location": {"address1": "Mendelstra\u00dfe 26D", "address2": "", "address3": null, "city": "Hamburg", "zip_code": "21031", "country": "DE", "state": "HH", "display_address": ["Mendelstra\u00dfe 26D", "21031 Hamburg", "Germany"]}, "phone": "", "display_phone": "", "distance": 3386.366800209699}, {"id": "uvR7nZx1CY5pKQIM48ZZGA", "alias": "restaurant-alt-lohbr\u00fcgger-hof-hamburg", "name": "Restaurant Alt Lohbr\u00fcgger Hof", "image_url": "https://s3-media4.fl.yelpcdn.com/bphoto/Z_xhXthXpDjX4cWGx3JJsw/o.jpg", "is_closed": false, "url": "https://www.yelp.com/biz/restaurant-alt-lohbr%C3%BCgger-hof-hamburg?adjust_creative=hBJOknVQJ58S5goQyjmwRw&utm_campaign=yelp_api_v3&utm_medium=api_v3_business_search&utm_source=hBJOknVQJ58S5goQyjmwRw", "review_count": 10, "categories": [{"alias": "german", "title": "German"}], "rating": 3.5, "coordinates": {"latitude": 53.502, "longitude": 10.2054}, "transactions": [], "price": "\u20ac\u20ac\u20ac", "location": {"address1": "Leuschnerstr. 76", "address2": null, "address3": null, "city": "Hamburg", "zip_code": "21031", "country": "DE", "state": "HH", "display_address": ["Leuschnerstr. 76", "21031 Hamburg", "Germany"]}, "phone": "+49407396000", "display_phone": "+49 40 7396000", "distance": 3773.3115795664676}, {"id": "EObVY2Iy5wPsnu6thHvPmQ", "alias": "restaurant-kochm\u00fctze-barsb\u00fcttel", "name": "Restaurant Kochm\u00fctze", "image_url": "https://s3-media3.fl.yelpcdn.com/bphoto/8wiQPvzjpnMQktB0UCiBVA/o.jpg", "is_closed": false, "url": "https://www.yelp.com/biz/restaurant-kochm%C3%BCtze-barsb%C3%BCttel?adjust_creative=hBJOknVQJ58S5goQyjmwRw&utm_campaign=yelp_api_v3&utm_medium=api_v3_business_search&utm_source=hBJOknVQJ58S5goQyjmwRw", "review_count": 3, "categories": [{"alias": "breakfast_brunch", "title": "Breakfast & Brunch"}, {"alias": "buffets", "title": "Buffets"}], "rating": 3.5, "coordinates": {"latitude": 53.5781469080702, "longitude": 10.1961060985923}, "transactions": [], "location": {"address1": "Im H\u00f6ffner", "address2": "Rahlstedter Str. 1", "address3": "", "city": "Barsb\u00fcttel", "zip_code": "22885", "country": "DE", "state": "SH", "display_address": ["Im H\u00f6ffner", "Rahlstedter Str. 1", "22885 Barsb\u00fcttel", "Germany"]}, "phone": "+494039891334", "display_phone": "+49 40 39891334", "distance": 4782.35332972396}, {"id": "e6YCSoi5bMOCZVCmxNeunA", "alias": "kliemanns-croque-glinde", "name": "Kliemann's Croque", "image_url": "https://s3-media2.fl.yelpcdn.com/bphoto/L84qpsAnrgiWRarRT1GQbw/o.jpg", "is_closed": false, "url": "https://www.yelp.com/biz/kliemanns-croque-glinde?adjust_creative=hBJOknVQJ58S5goQyjmwRw&utm_campaign=yelp_api_v3&utm_medium=api_v3_business_search&utm_source=hBJOknVQJ58S5goQyjmwRw", "review_count": 10, "categories": [{"alias": "sandwiches", "title": "Sandwiches"}], "rating": 3.0, "coordinates": {"latitude": 53.5406456609283, "longitude": 10.2012315254397}, "transactions": [], "price": "\u20ac\u20ac\u20ac", "location": {"address1": "M\u00f6llner Landstr. 31", "address2": null, "address3": null, "city": "Glinde", "zip_code": "21509", "country": "DE", "state": "SH", "display_address": ["M\u00f6llner Landstr. 31", "21509 Glinde", "Germany"]}, "phone": "+49407101199", "display_phone": "+49 40 7101199", "distance": 752.5871504342739}, {"id": "wns0tEarHxA0M5UsbrY-XQ", "alias": "lohbr\u00fcgger-grill-hamburg-2", "name": "Lohbr\u00fcgger Grill", "image_url": "https://s3-media2.fl.yelpcdn.com/bphoto/jAbjpc2e08mEWz-0ev9adg/o.jpg", "is_closed": false, "url": "https://www.yelp.com/biz/lohbr%C3%BCgger-grill-hamburg-2?adjust_creative=hBJOknVQJ58S5goQyjmwRw&utm_campaign=yelp_api_v3&utm_medium=api_v3_business_search&utm_source=hBJOknVQJ58S5goQyjmwRw", "review_count": 2, "categories": [{"alias": "foodstands", "title": "Food Stands"}], "rating": 5.0, "coordinates": {"latitude": 53.4982264838837, "longitude": 10.2029393613338}, "transactions": [], "price": "\u20ac", "location": {"address1": "Lohbr\u00fcgger Landstr. 43", "address2": "", "address3": null, "city": "Hamburg", "zip_code": "21031", "country": "DE", "state": "HH", "display_address": ["Lohbr\u00fcgger Landstr. 43", "21031 Hamburg", "Germany"]}, "phone": "+494072005533", "display_phone": "+49 40 72005533", "distance": 4205.120980941155}, {"id": "OakpPP3OESsTSLAoX0AXCg", "alias": "kumpir-first-hamburg", "name": "Kumpir First", "image_url": "", "is_closed": false, "url": "https://www.yelp.com/biz/kumpir-first-hamburg?adjust_creative=hBJOknVQJ58S5goQyjmwRw&utm_campaign=yelp_api_v3&utm_medium=api_v3_business_search&utm_source=hBJOknVQJ58S5goQyjmwRw", "review_count": 2, "categories": [{"alias": "potatoes", "title": "Potatoes"}], "rating": 3.5, "coordinates": {"latitude": 53.493, "longitude": 10.2071}, "transactions": [], "price": "\u20ac\u20ac", "location": {"address1": "Ale Holstenstr. 22", "address2": null, "address3": null, "city": "Hamburg", "zip_code": "21031", "country": "DE", "state": "HH", "display_address": ["Ale Holstenstr. 22", "21031 Hamburg", "Germany"]}, "phone": "", "display_phone": "", "distance": 4767.520470226817}, {"id": "3iOc8w6sYCVtqP43tMLrag", "alias": "holstenhof-hamburg-2", "name": "Holstenhof", "image_url": "https://s3-media3.fl.yelpcdn.com/bphoto/Wlpmq6ruvqigkmtGEf1tcA/o.jpg", "is_closed": false, "url": "https://www.yelp.com/biz/holstenhof-hamburg-2?adjust_creative=hBJOknVQJ58S5goQyjmwRw&utm_campaign=yelp_api_v3&utm_medium=api_v3_business_search&utm_source=hBJOknVQJ58S5goQyjmwRw", "review_count": 8, "categories": [{"alias": "german", "title": "German"}], "rating": 4.0, "coordinates": {"latitude": 53.49846, "longitude": 10.20311}, "transactions": [], "price": "\u20ac\u20ac", "location": {"address1": "Lohbr\u00fcgger Landstr. 38", "address2": null, "address3": null, "city": "Hamburg", "zip_code": "21031", "country": "DE", "state": "HH", "display_address": ["Lohbr\u00fcgger Landstr. 38", "21031 Hamburg", "Germany"]}, "phone": "+49407399428", "display_phone": "+49 40 7399428", "distance": 4178.16898679786}, {"id": "YwskX4DDso1WQLrpsERCuw", "alias": "aldos-pizzeria-und-more-e-k-hamburg", "name": "Aldo's Pizzeria & More e.K.", "image_url": "https://s3-media2.fl.yelpcdn.com/bphoto/behwUs-gqFl_WC37C2AlfA/o.jpg", "is_closed": false, "url": "https://www.yelp.com/biz/aldos-pizzeria-und-more-e-k-hamburg?adjust_creative=hBJOknVQJ58S5goQyjmwRw&utm_campaign=yelp_api_v3&utm_medium=api_v3_business_search&utm_source=hBJOknVQJ58S5goQyjmwRw", "review_count": 2, "categories": [{"alias": "pizza", "title": "Pizza"}, {"alias": "italian", "title": "Italian"}], "rating": 4.0, "coordinates": {"latitude": 53.5009, "longitude": 10.1984}, "transactions": [], "price": "\u20ac", "location": {"address1": "Lohbr\u00fcgger Landstr. 80", "address2": null, "address3": null, "city": "Hamburg", "zip_code": "21031", "country": "DE", "state": "HH", "display_address": ["Lohbr\u00fcgger Landstr. 80", "21031 Hamburg", "Germany"]}, "phone": "+494089725548", "display_phone": "+49 40 89725548", "distance": 3952.876986401698}, {"id": "LPscYMQOIhBdkNmYsBSitw", "alias": "taverna-alexandros-hamburg", "name": "Taverna Alexandros", "image_url": "", "is_closed": false, "url": "https://www.yelp.com/biz/taverna-alexandros-hamburg?adjust_creative=hBJOknVQJ58S5goQyjmwRw&utm_campaign=yelp_api_v3&utm_medium=api_v3_business_search&utm_source=hBJOknVQJ58S5goQyjmwRw", "review_count": 1, "categories": [{"alias": "greek", "title": "Greek"}], "rating": 4.0, "coordinates": {"latitude": 53.4972, "longitude": 10.2042}, "transactions": [], "price": "\u20ac\u20ac", "location": {"address1": "Lohbr\u00fcgger Landstr. 26", "address2": null, "address3": null, "city": "Hamburg", "zip_code": "21031", "country": "DE", "state": "HH", "display_address": ["Lohbr\u00fcgger Landstr. 26", "21031 Hamburg", "Germany"]}, "phone": "+49407215680", "display_phone": "+49 40 7215680", "distance": 4311.418281405046}, {"id": "lASijVWpxLOBPX-oEzxx7g", "alias": "mcdonalds-glinde", "name": "McDonald's", "image_url": "https://s3-media2.fl.yelpcdn.com/bphoto/gAKejvk11mFZv12fuhgtew/o.jpg", "is_closed": false, "url": "https://www.yelp.com/biz/mcdonalds-glinde?adjust_creative=hBJOknVQJ58S5goQyjmwRw&utm_campaign=yelp_api_v3&utm_medium=api_v3_business_search&utm_source=hBJOknVQJ58S5goQyjmwRw", "review_count": 6, "categories": [{"alias": "hotdogs", "title": "Fast Food"}, {"alias": "burgers", "title": "Burgers"}], "rating": 4.0, "coordinates": {"latitude": 53.5236945069808, "longitude": 10.2284587453782}, "transactions": [], "price": "\u20ac", "location": {"address1": "Gutenbergstr. 1 a", "address2": null, "address3": null, "city": "Glinde", "zip_code": "21509", "country": "DE", "state": "SH", "display_address": ["Gutenbergstr. 1 a", "21509 Glinde", "Germany"]}, "phone": "+494072813081", "display_phone": "+49 40 72813081", "distance": 1853.6056208743316}, {"id": "a4PMQ5JQrr6kiNm88A2zCw", "alias": "restaurant-parga-hamburg", "name": "Restaurant Parga", "image_url": "https://s3-media3.fl.yelpcdn.com/bphoto/zxlO_j6Ie2ctSRBzg6BtNA/o.jpg", "is_closed": false, "url": "https://www.yelp.com/biz/restaurant-parga-hamburg?adjust_creative=hBJOknVQJ58S5goQyjmwRw&utm_campaign=yelp_api_v3&utm_medium=api_v3_business_search&utm_source=hBJOknVQJ58S5goQyjmwRw", "review_count": 12, "categories": [{"alias": "greek", "title": "Greek"}], "rating": 3.5, "coordinates": {"latitude": 53.4975104, "longitude": 10.2040032}, "transactions": [], "price": "\u20ac\u20ac", "location": {"address1": "Lohbr\u00fcgger Landstr.  32", "address2": null, "address3": null, "city": "Hamburg", "zip_code": "21031", "country": "DE", "state": "HH", "display_address": ["Lohbr\u00fcgger Landstr.  32", "21031 Hamburg", "Germany"]}, "phone": "+49407242382", "display_phone": "+49 40 7242382", "distance": 4278.04996199201}, {"id": "ECY6Bpg-yRIOkLiePIWplw", "alias": "schweinske-hamburg-25", "name": "Schweinske", "image_url": "https://s3-media1.fl.yelpcdn.com/bphoto/fHgtyH8f7T66J1ZlxPzwFg/o.jpg", "is_closed": false, "url": "https://www.yelp.com/biz/schweinske-hamburg-25?adjust_creative=hBJOknVQJ58S5goQyjmwRw&utm_campaign=yelp_api_v3&utm_medium=api_v3_business_search&utm_source=hBJOknVQJ58S5goQyjmwRw", "review_count": 13, "categories": [{"alias": "german", "title": "German"}, {"alias": "breakfast_brunch", "title": "Breakfast & Brunch"}], "rating": 3.5, "coordinates": {"latitude": 53.494164, "longitude": 10.206469}, "transactions": [], "price": "\u20ac\u20ac", "location": {"address1": "Alte Holstenstr. 2", "address2": null, "address3": null, "city": "Hamburg", "zip_code": "21031", "country": "DE", "state": "HH", "display_address": ["Alte Holstenstr. 2", "21031 Hamburg", "Germany"]}, "phone": "+494072697204", "display_phone": "+49 40 72697204", "distance": 4658.013744964989}, {"id": "ssnLRo5BRqn2epOzxnHryg", "alias": "smileys-hamburg-8", "name": "Smiley's", "image_url": "https://s3-media3.fl.yelpcdn.com/bphoto/sOMzVXvslVgd4uQ3GF2pdg/o.jpg", "is_closed": false, "url": "https://www.yelp.com/biz/smileys-hamburg-8?adjust_creative=hBJOknVQJ58S5goQyjmwRw&utm_campaign=yelp_api_v3&utm_medium=api_v3_business_search&utm_source=hBJOknVQJ58S5goQyjmwRw", "review_count": 5, "categories": [{"alias": "pizza", "title": "Pizza"}], "rating": 2.0, "coordinates": {"latitude": 53.504, "longitude": 10.2147}, "transactions": [], "price": "\u20ac\u20ac", "location": {"address1": "Binnenfeldredder 40", "address2": null, "address3": null, "city": "Hamburg", "zip_code": "21031", "country": "DE", "state": "HH", "display_address": ["Binnenfeldredder 40", "21031 Hamburg", "Germany"]}, "phone": "+4940751150303", "display_phone": "+49 40 751150303", "distance": 3560.2936471198364}, {"id": "U8ZdmizPZNi-wSW6nyMr5A", "alias": "croque-und-co-hamburg", "name": "Croque & Co.", "image_url": "https://s3-media4.fl.yelpcdn.com/bphoto/PHAgCtgXFSk8DFOajWt9fw/o.jpg", "is_closed": false, "url": "https://www.yelp.com/biz/croque-und-co-hamburg?adjust_creative=hBJOknVQJ58S5goQyjmwRw&utm_campaign=yelp_api_v3&utm_medium=api_v3_business_search&utm_source=hBJOknVQJ58S5goQyjmwRw", "review_count": 2, "categories": [{"alias": "italian", "title": "Italian"}], "rating": 2.0, "coordinates": {"latitude": 53.5008366509923, "longitude": 10.1987437158823}, "transactions": [], "price": "\u20ac\u20ac", "location": {"address1": "Lohbr\u00fcgger Landstr.80", "address2": "", "address3": "", "city": "Hamburg", "zip_code": "21031", "country": "DE", "state": "HH", "display_address": ["Lohbr\u00fcgger Landstr.80", "21031 Hamburg", "Germany"]}, "phone": "+491115x2230", "display_phone": "+49 1115 ext. 2230", "distance": 3955.7398993186903}, {"id": "APvIA_7ssxgC0atmQEFMcg", "alias": "burgerkultour-food-truck-hamburg-2", "name": "BurgerKultour Food Truck", "image_url": "https://s3-media4.fl.yelpcdn.com/bphoto/KoAuwalMnlAO8139MmdYBQ/o.jpg", "is_closed": false, "url": "https://www.yelp.com/biz/burgerkultour-food-truck-hamburg-2?adjust_creative=hBJOknVQJ58S5goQyjmwRw&utm_campaign=yelp_api_v3&utm_medium=api_v3_business_search&utm_source=hBJOknVQJ58S5goQyjmwRw", "review_count": 3, "categories": [{"alias": "foodtrucks", "title": "Food Trucks"}, {"alias": "burgers", "title": "Burgers"}], "rating": 4.5, "coordinates": {"latitude": 53.57154, "longitude": 9.95575}, "transactions": [], "price": "\u20ac\u20ac", "location": {"address1": "", "address2": "", "address3": "", "city": "Hamburg", "zip_code": "20259", "country": "DE", "state": "HH", "display_address": ["20259 Hamburg", "Germany"]}, "phone": "+4917626055122", "display_phone": "+49 176 26055122", "distance": 17156.85758144503}, {"id": "fa8IxUKMS_g7Vb5OZM4nrQ", "alias": "bacchus-hamburg-4", "name": "Bacchus", "image_url": "https://s3-media3.fl.yelpcdn.com/bphoto/-I-BNlVpKhsuJNkmmW-tNA/o.jpg", "is_closed": false, "url": "https://www.yelp.com/biz/bacchus-hamburg-4?adjust_creative=hBJOknVQJ58S5goQyjmwRw&utm_campaign=yelp_api_v3&utm_medium=api_v3_business_search&utm_source=hBJOknVQJ58S5goQyjmwRw", "review_count": 4, "categories": [{"alias": "greek", "title": "Greek"}], "rating": 4.0, "coordinates": {"latitude": 53.50132, "longitude": 10.1976}, "transactions": [], "location": {"address1": "Lohbr\u00fcgger Landstr. 90", "address2": "", "address3": null, "city": "Hamburg", "zip_code": "21031", "country": "DE", "state": "HH", "display_address": ["Lohbr\u00fcgger Landstr. 90", "21031 Hamburg", "Germany"]}, "phone": "+49407398990", "display_phone": "+49 40 7398990", "distance": 3912.4294610096176}, {"id": "cGIKCcR0wZszz8VldC2-7g", "alias": "currywerk-hamburg", "name": "curryWERK", "image_url": "https://s3-media4.fl.yelpcdn.com/bphoto/j_ZPQAB6JrAru84VDuLiRA/o.jpg", "is_closed": false, "url": "https://www.yelp.com/biz/currywerk-hamburg?adjust_creative=hBJOknVQJ58S5goQyjmwRw&utm_campaign=yelp_api_v3&utm_medium=api_v3_business_search&utm_source=hBJOknVQJ58S5goQyjmwRw", "review_count": 1, "categories": [{"alias": "foodtrucks", "title": "Food Trucks"}, {"alias": "currysausage", "title": "Curry Sausage"}], "rating": 4.0, "coordinates": {"latitude": 53.5498886108398, "longitude": 9.94732189178467}, "transactions": [], "price": "\u20ac\u20ac", "location": {"address1": "", "address2": "", "address3": "", "city": "Hamburg", "zip_code": "22767", "country": "DE", "state": "HH", "display_address": ["22767 Hamburg", "Germany"]}, "phone": "+4917632443433", "display_phone": "+49 176 32443433", "distance": 17679.76086902478}]