[{"id": "d3IaAPXLTYkqGqukAB81ig", "alias": "restaurant-rhodos-hamburg", "name": "Restaurant Rhodos", "image_url": "https://s3-media1.fl.yelpcdn.com/bphoto/BAyl-tsBuGD2Ja-FqHzoFQ/o.jpg", "is_closed": false, "url": "https://www.yelp.com/biz/restaurant-rhodos-hamburg?adjust_creative=hBJOknVQJ58S5goQyjmwRw&utm_campaign=yelp_api_v3&utm_medium=api_v3_business_search&utm_source=hBJOknVQJ58S5goQyjmwRw", "review_count": 12, "categories": [{"alias": "greek", "title": "Greek"}], "rating": 4.5, "coordinates": {"latitude": 53.5307, "longitude": 10.1257}, "transactions": [], "price": "\u20ac\u20ac", "location": {"address1": "Steinbeker Hauptstr. 75", "address2": "", "address3": null, "city": "Hamburg", "zip_code": "22117", "country": "DE", "state": "HH", "display_address": ["Steinbeker Hauptstr. 75", "22117 Hamburg", "Germany"]}, "phone": "+49407125732", "display_phone": "+49 40 7125732", "distance": 812.7877014622757}, {"id": "nUOFGotik8BYpYlFNev2wQ", "alias": "orkinus-fisch-grill-haus-hamburg", "name": "Orkinus Fisch-Grill-Haus", "image_url": "https://s3-media1.fl.yelpcdn.com/bphoto/hgzwti95kpzVl4LcuUSIew/o.jpg", "is_closed": false, "url": "https://www.yelp.com/biz/orkinus-fisch-grill-haus-hamburg?adjust_creative=hBJOknVQJ58S5goQyjmwRw&utm_campaign=yelp_api_v3&utm_medium=api_v3_business_search&utm_source=hBJOknVQJ58S5goQyjmwRw", "review_count": 36, "categories": [{"alias": "seafood", "title": "Seafood"}], "rating": 4.5, "coordinates": {"latitude": 53.5403374, "longitude": 10.1013957}, "transactions": [], "price": "\u20ac\u20ac", "location": {"address1": "Billstedter Hauptstr. 43", "address2": "", "address3": "", "city": "Hamburg", "zip_code": "22111", "country": "DE", "state": "HH", "display_address": ["Billstedter Hauptstr. 43", "22111 Hamburg", "Germany"]}, "phone": "+494032841201", "display_phone": "+49 40 32841201", "distance": 1215.6525260662397}, {"id": "RXRh4Wb1Os3YT2Fam1swVA", "alias": "sel-kebaps-hamburg-3", "name": "Sel Kebap's", "image_url": "https://s3-media4.fl.yelpcdn.com/bphoto/PUU457LahpNwzeysKymIJg/o.jpg", "is_closed": false, "url": "https://www.yelp.com/biz/sel-kebaps-hamburg-3?adjust_creative=hBJOknVQJ58S5goQyjmwRw&utm_campaign=yelp_api_v3&utm_medium=api_v3_business_search&utm_source=hBJOknVQJ58S5goQyjmwRw", "review_count": 1, "categories": [{"alias": "kebab", "title": "Kebab"}, {"alias": "turkish", "title": "Turkish"}], "rating": 5.0, "coordinates": {"latitude": 53.5400121164517, "longitude": 10.1023189723492}, "transactions": [], "location": {"address1": "Billstedter Hauptstr. 51", "address2": "", "address3": "", "city": "Hamburg", "zip_code": "22111", "country": "DE", "state": "HH", "display_address": ["Billstedter Hauptstr. 51", "22111 Hamburg", "Germany"]}, "phone": "", "display_phone": "", "distance": 1146.2235646393244}, {"id": "9nxX8JqkPfknCMZDoDQXbQ", "alias": "k\u00f6z-\u00e1-la-turca-hamburg-2", "name": "K\u00f6z \u00e1 la Turca", "image_url": "https://s3-media4.fl.yelpcdn.com/bphoto/Bie7L6e2PWZoKUBZ4GXgCw/o.jpg", "is_closed": false, "url": "https://www.yelp.com/biz/k%C3%B6z-%C3%A1-la-turca-hamburg-2?adjust_creative=hBJOknVQJ58S5goQyjmwRw&utm_campaign=yelp_api_v3&utm_medium=api_v3_business_search&utm_source=hBJOknVQJ58S5goQyjmwRw", "review_count": 2, "categories": [{"alias": "turkish", "title": "Turkish"}, {"alias": "mediterranean", "title": "Mediterranean"}], "rating": 5.0, "coordinates": {"latitude": 53.5401, "longitude": 10.1026}, "transactions": [], "price": "\u20ac\u20ac", "location": {"address1": "Billstedter Hauptstr. 53", "address2": null, "address3": null, "city": "Hamburg", "zip_code": "22111", "country": "DE", "state": "HH", "display_address": ["Billstedter Hauptstr. 53", "22111 Hamburg", "Germany"]}, "phone": "+494070296885", "display_phone": "+49 40 70296885", "distance": 1131.8205748157243}, {"id": "e1MAQ0OCg675wVd3DeB3Tw", "alias": "meram-restaurant-hamburg-2", "name": "Meram Restaurant", "image_url": "https://s3-media2.fl.yelpcdn.com/bphoto/wJV0u3WzHA11nTdGmfA9wg/o.jpg", "is_closed": false, "url": "https://www.yelp.com/biz/meram-restaurant-hamburg-2?adjust_creative=hBJOknVQJ58S5goQyjmwRw&utm_campaign=yelp_api_v3&utm_medium=api_v3_business_search&utm_source=hBJOknVQJ58S5goQyjmwRw", "review_count": 61, "categories": [{"alias": "turkish", "title": "Turkish"}], "rating": 4.0, "coordinates": {"latitude": 53.54025, "longitude": 10.10179}, "transactions": [], "price": "\u20ac\u20ac", "location": {"address1": "Billstedter Hauptstr. 47", "address2": "", "address3": null, "city": "Hamburg", "zip_code": "22111", "country": "DE", "state": "HH", "display_address": ["Billstedter Hauptstr. 47", "22111 Hamburg", "Germany"]}, "phone": "+49407314656", "display_phone": "+49 40 7314656", "distance": 1191.9608727122115}, {"id": "PwnixbNNj6YxpjgCZXA3lQ", "alias": "hoang-mai-hamburg-2", "name": "Hoang Mai", "image_url": "https://s3-media1.fl.yelpcdn.com/bphoto/awdWkMRK6HkE6VeRsgv5EQ/o.jpg", "is_closed": false, "url": "https://www.yelp.com/biz/hoang-mai-hamburg-2?adjust_creative=hBJOknVQJ58S5goQyjmwRw&utm_campaign=yelp_api_v3&utm_medium=api_v3_business_search&utm_source=hBJOknVQJ58S5goQyjmwRw", "review_count": 29, "categories": [{"alias": "vietnamese", "title": "Vietnamese"}], "rating": 4.5, "coordinates": {"latitude": 53.5704, "longitude": 10.1358}, "transactions": [], "price": "\u20ac", "location": {"address1": "\u00d6jendorfer Damm 42", "address2": null, "address3": null, "city": "Hamburg", "zip_code": "22043", "country": "DE", "state": "HH", "display_address": ["\u00d6jendorfer Damm 42", "22043 Hamburg", "Germany"]}, "phone": "+494063643661", "display_phone": "+49 40 63643661", "distance": 3908.628486418065}, {"id": "rDlxd3UlHXEkW57iYRzuRw", "alias": "arams-pizzaservice-hamburg", "name": "Arams Pizzaservice", "image_url": "https://s3-media1.fl.yelpcdn.com/bphoto/sbiCVzLNTTBYfVJ-c9h49A/o.jpg", "is_closed": false, "url": "https://www.yelp.com/biz/arams-pizzaservice-hamburg?adjust_creative=hBJOknVQJ58S5goQyjmwRw&utm_campaign=yelp_api_v3&utm_medium=api_v3_business_search&utm_source=hBJOknVQJ58S5goQyjmwRw", "review_count": 8, "categories": [{"alias": "italian", "title": "Italian"}, {"alias": "hotdogs", "title": "Fast Food"}], "rating": 4.5, "coordinates": {"latitude": 53.5293, "longitude": 10.1262}, "transactions": [], "price": "\u20ac\u20ac", "location": {"address1": "Steinbeker Hauptstr. 70", "address2": null, "address3": null, "city": "Hamburg", "zip_code": "22117", "country": "DE", "state": "HH", "display_address": ["Steinbeker Hauptstr. 70", "22117 Hamburg", "Germany"]}, "phone": "+494018995618", "display_phone": "+49 40 18995618", "distance": 961.8956439968199}, {"id": "qYozPFddHgpXS-_RSZ7Tgg", "alias": "corfu-grill-hamburg-4", "name": "Corfu Grill", "image_url": "https://s3-media3.fl.yelpcdn.com/bphoto/Xm2njL2L4yVCzk9AvmWJlQ/o.jpg", "is_closed": false, "url": "https://www.yelp.com/biz/corfu-grill-hamburg-4?adjust_creative=hBJOknVQJ58S5goQyjmwRw&utm_campaign=yelp_api_v3&utm_medium=api_v3_business_search&utm_source=hBJOknVQJ58S5goQyjmwRw", "review_count": 43, "categories": [{"alias": "greek", "title": "Greek"}], "rating": 4.5, "coordinates": {"latitude": 53.54598, "longitude": 10.106358}, "transactions": [], "price": "\u20ac\u20ac", "location": {"address1": "Schiffbeker Weg 66", "address2": "", "address3": "", "city": "Hamburg", "zip_code": "22119", "country": "DE", "state": "HH", "display_address": ["Schiffbeker Weg 66", "22119 Hamburg", "Germany"]}, "phone": "+494029810001", "display_phone": "+49 40 29810001", "distance": 1314.0741401582936}, {"id": "XPuVFytYhvVWWXO01qGyew", "alias": "pascha-d\u00f6ner-hamburg", "name": "Pascha D\u00f6ner", "image_url": "https://s3-media3.fl.yelpcdn.com/bphoto/olRB1zRRp9rBuXoIrf9kKg/o.jpg", "is_closed": false, "url": "https://www.yelp.com/biz/pascha-d%C3%B6ner-hamburg?adjust_creative=hBJOknVQJ58S5goQyjmwRw&utm_campaign=yelp_api_v3&utm_medium=api_v3_business_search&utm_source=hBJOknVQJ58S5goQyjmwRw", "review_count": 2, "categories": [{"alias": "kebab", "title": "Kebab"}], "rating": 3.5, "coordinates": {"latitude": 53.53844, "longitude": 10.12413}, "transactions": [], "price": "\u20ac", "location": {"address1": "M\u00f6llner Landstr. 130", "address2": "", "address3": "", "city": "Hamburg", "zip_code": "22117", "country": "DE", "state": "HH", "display_address": ["M\u00f6llner Landstr. 130", "22117 Hamburg", "Germany"]}, "phone": "", "display_phone": "", "distance": 401.8901751383703}, {"id": "7N9yEdpjKU2hFEhuKJDUsw", "alias": "betriebsrestaurant-billstedt-hamburg", "name": "Betriebsrestaurant Billstedt", "image_url": "https://s3-media2.fl.yelpcdn.com/bphoto/9b8pnnOHIYREqx3PKzBwOg/o.jpg", "is_closed": false, "url": "https://www.yelp.com/biz/betriebsrestaurant-billstedt-hamburg?adjust_creative=hBJOknVQJ58S5goQyjmwRw&utm_campaign=yelp_api_v3&utm_medium=api_v3_business_search&utm_source=hBJOknVQJ58S5goQyjmwRw", "review_count": 2, "categories": [{"alias": "canteen", "title": "Canteen"}], "rating": 4.0, "coordinates": {"latitude": 53.5404399, "longitude": 10.10682}, "transactions": [], "price": "\u20ac", "location": {"address1": "\u00d6jendorferweg 9", "address2": "", "address3": "", "city": "Hamburg", "zip_code": "22111", "country": "DE", "state": "HH", "display_address": ["\u00d6jendorferweg 9", "22111 Hamburg", "Germany"]}, "phone": "+49407314900", "display_phone": "+49 40 7314900", "distance": 916.4023289508124}, {"id": "SGap-Co7AAtFf9Oe8GfH5g", "alias": "palastk\u00fcche-hamburg", "name": "Palastk\u00fcche", "image_url": "https://s3-media1.fl.yelpcdn.com/bphoto/YrX_qatf2-B9JfySCxzD0g/o.jpg", "is_closed": false, "url": "https://www.yelp.com/biz/palastk%C3%BCche-hamburg?adjust_creative=hBJOknVQJ58S5goQyjmwRw&utm_campaign=yelp_api_v3&utm_medium=api_v3_business_search&utm_source=hBJOknVQJ58S5goQyjmwRw", "review_count": 3, "categories": [{"alias": "german", "title": "German"}], "rating": 4.0, "coordinates": {"latitude": 53.54228, "longitude": 10.11027}, "transactions": [], "price": "\u20ac\u20ac\u20ac", "location": {"address1": "\u00d6jendorfer Weg 30 A", "address2": "", "address3": null, "city": "Hamburg", "zip_code": "22119", "country": "DE", "state": "HH", "display_address": ["\u00d6jendorfer Weg 30 A", "22119 Hamburg", "Germany"]}, "phone": "+494028407777", "display_phone": "+49 40 28407777", "distance": 793.7594003462259}, {"id": "ofxa-7nT9RdNxCdDqZoaxQ", "alias": "restaurant-schnitzelhus-hamburg", "name": "Restaurant Schnitzelhus", "image_url": "https://s3-media3.fl.yelpcdn.com/bphoto/LuMoUgo2X37y8fS-Pzrrgg/o.jpg", "is_closed": false, "url": "https://www.yelp.com/biz/restaurant-schnitzelhus-hamburg?adjust_creative=hBJOknVQJ58S5goQyjmwRw&utm_campaign=yelp_api_v3&utm_medium=api_v3_business_search&utm_source=hBJOknVQJ58S5goQyjmwRw", "review_count": 70, "categories": [{"alias": "schnitzel", "title": "Schnitzel"}], "rating": 4.5, "coordinates": {"latitude": 53.578322, "longitude": 10.0941034}, "transactions": [], "price": "\u20ac\u20ac", "location": {"address1": "Luetkensallee 1", "address2": "", "address3": null, "city": "Hamburg", "zip_code": "22041", "country": "DE", "state": "HH", "display_address": ["Luetkensallee 1", "22041 Hamburg", "Germany"]}, "phone": "+494023999823", "display_phone": "+49 40 23999823", "distance": 4902.5876012173085}, {"id": "SlTXq8HEtujfMAVIyvBYHg", "alias": "cevapcici-und-burek-hamburg", "name": "Cevapcici & Burek", "image_url": "https://s3-media3.fl.yelpcdn.com/bphoto/-TKeutnVAgeqUB9XllvCww/o.jpg", "is_closed": false, "url": "https://www.yelp.com/biz/cevapcici-und-burek-hamburg?adjust_creative=hBJOknVQJ58S5goQyjmwRw&utm_campaign=yelp_api_v3&utm_medium=api_v3_business_search&utm_source=hBJOknVQJ58S5goQyjmwRw", "review_count": 3, "categories": [{"alias": "german", "title": "German"}], "rating": 4.5, "coordinates": {"latitude": 53.54102, "longitude": 10.10102}, "transactions": [], "price": "\u20ac\u20ac", "location": {"address1": "Schiffbeker Weg 3", "address2": "", "address3": null, "city": "Hamburg", "zip_code": "22111", "country": "DE", "state": "HH", "display_address": ["Schiffbeker Weg 3", "22111 Hamburg", "Germany"]}, "phone": "+494023954224", "display_phone": "+49 40 23954224", "distance": 1276.4872716943707}, {"id": "tgldf5W4qcSGZElSAqchMg", "alias": "l-italian-hamburg", "name": "L\u00b4Italian", "image_url": "https://s3-media4.fl.yelpcdn.com/bphoto/gYseBdz6ANtBBhY4wjEtcQ/o.jpg", "is_closed": false, "url": "https://www.yelp.com/biz/l-italian-hamburg?adjust_creative=hBJOknVQJ58S5goQyjmwRw&utm_campaign=yelp_api_v3&utm_medium=api_v3_business_search&utm_source=hBJOknVQJ58S5goQyjmwRw", "review_count": 4, "categories": [{"alias": "italian", "title": "Italian"}], "rating": 3.0, "coordinates": {"latitude": 53.53979, "longitude": 10.10457}, "transactions": [], "price": "\u20ac\u20ac", "location": {"address1": "M\u00f6llner Landstr. 3", "address2": "", "address3": "", "city": "Hamburg", "zip_code": "22111", "country": "DE", "state": "HH", "display_address": ["M\u00f6llner Landstr. 3", "22111 Hamburg", "Germany"]}, "phone": "", "display_phone": "", "distance": 997.6205225622975}, {"id": "iJ_ll0vgvroDzBmPm7lncQ", "alias": "athen-palast-hamburg", "name": "Athen Palast", "image_url": "https://s3-media2.fl.yelpcdn.com/bphoto/HIJIJFHTZg4YodN1lKgeAA/o.jpg", "is_closed": false, "url": "https://www.yelp.com/biz/athen-palast-hamburg?adjust_creative=hBJOknVQJ58S5goQyjmwRw&utm_campaign=yelp_api_v3&utm_medium=api_v3_business_search&utm_source=hBJOknVQJ58S5goQyjmwRw", "review_count": 15, "categories": [{"alias": "greek", "title": "Greek"}], "rating": 4.5, "coordinates": {"latitude": 53.571, "longitude": 10.132}, "transactions": [], "price": "\u20ac\u20ac", "location": {"address1": "Rodigallee 294", "address2": null, "address3": null, "city": "Hamburg", "zip_code": "22043", "country": "DE", "state": "HH", "display_address": ["Rodigallee 294", "22043 Hamburg", "Germany"]}, "phone": "+494076976861", "display_phone": "+49 40 76976861", "distance": 3908.884735449639}, {"id": "dbuDvcKN08AwyYSCumGXLw", "alias": "mr-grande-hamburg-3", "name": "Mr. Grande", "image_url": "https://s3-media4.fl.yelpcdn.com/bphoto/WonA8UDiFLw53BTfqLFcPg/o.jpg", "is_closed": false, "url": "https://www.yelp.com/biz/mr-grande-hamburg-3?adjust_creative=hBJOknVQJ58S5goQyjmwRw&utm_campaign=yelp_api_v3&utm_medium=api_v3_business_search&utm_source=hBJOknVQJ58S5goQyjmwRw", "review_count": 13, "categories": [{"alias": "tradamerican", "title": "American (Traditional)"}, {"alias": "steak", "title": "Steakhouses"}, {"alias": "bistros", "title": "Bistros"}], "rating": 4.0, "coordinates": {"latitude": 53.571000771076, "longitude": 10.1257433742285}, "transactions": [], "price": "\u20ac\u20ac", "location": {"address1": "Rodigallee 233", "address2": "", "address3": "", "city": "Hamburg", "zip_code": "22043", "country": "DE", "state": "HH", "display_address": ["Rodigallee 233", "22043 Hamburg", "Germany"]}, "phone": "+494065726655", "display_phone": "+49 40 65726655", "distance": 3837.737886041055}, {"id": "U9PC9xkZgrE_sRpktMvnaA", "alias": "afghanische-konditorei-hamburg", "name": "Afghanische Konditorei", "image_url": "", "is_closed": false, "url": "https://www.yelp.com/biz/afghanische-konditorei-hamburg?adjust_creative=hBJOknVQJ58S5goQyjmwRw&utm_campaign=yelp_api_v3&utm_medium=api_v3_business_search&utm_source=hBJOknVQJ58S5goQyjmwRw", "review_count": 1, "categories": [{"alias": "cakeshop", "title": "Patisserie/Cake Shop"}, {"alias": "afghani", "title": "Afghan"}], "rating": 4.0, "coordinates": {"latitude": 53.5421384684295, "longitude": 10.0963474070709}, "transactions": [], "location": {"address1": "Billstedter Hauptstr. 12", "address2": "", "address3": null, "city": "Hamburg", "zip_code": "22111", "country": "DE", "state": "HH", "display_address": ["Billstedter Hauptstr. 12", "22111 Hamburg", "Germany"]}, "phone": "+494084709732", "display_phone": "+49 40 84709732", "distance": 1598.5298183202092}, {"id": "02tJXWUwOkLqFCIuESVXqw", "alias": "b\u00e4ckerei-caf\u00e9-konditorei-bohnenkamp-hamburg", "name": "B\u00e4ckerei-Caf\u00e9-Konditorei Bohnenkamp", "image_url": "https://s3-media3.fl.yelpcdn.com/bphoto/q110h-dkTJR0w43r6AkTEA/o.jpg", "is_closed": false, "url": "https://www.yelp.com/biz/b%C3%A4ckerei-caf%C3%A9-konditorei-bohnenkamp-hamburg?adjust_creative=hBJOknVQJ58S5goQyjmwRw&utm_campaign=yelp_api_v3&utm_medium=api_v3_business_search&utm_source=hBJOknVQJ58S5goQyjmwRw", "review_count": 9, "categories": [{"alias": "bakeries", "title": "Bakeries"}, {"alias": "cafes", "title": "Cafes"}, {"alias": "cakeshop", "title": "Patisserie/Cake Shop"}], "rating": 4.5, "coordinates": {"latitude": 53.5467, "longitude": 10.1067}, "transactions": [], "price": "\u20ac\u20ac", "location": {"address1": "Schiffbeker Weg 72", "address2": null, "address3": null, "city": "Hamburg", "zip_code": "22119", "country": "DE", "state": "HH", "display_address": ["Schiffbeker Weg 72", "22119 Hamburg", "Germany"]}, "phone": "+494073113790", "display_phone": "+49 40 73113790", "distance": 1364.894612058964}, {"id": "TGllMw7dQQtI2ZvtS868mA", "alias": "billstedter-biergarten-hamburg", "name": "Billstedter Biergarten", "image_url": "https://s3-media3.fl.yelpcdn.com/bphoto/e2ipBAodlvOB-8HO9oN5Hg/o.jpg", "is_closed": false, "url": "https://www.yelp.com/biz/billstedter-biergarten-hamburg?adjust_creative=hBJOknVQJ58S5goQyjmwRw&utm_campaign=yelp_api_v3&utm_medium=api_v3_business_search&utm_source=hBJOknVQJ58S5goQyjmwRw", "review_count": 2, "categories": [{"alias": "beergarden", "title": "Beer Garden"}], "rating": 4.0, "coordinates": {"latitude": 53.53841, "longitude": 10.10607}, "transactions": [], "price": "\u20ac\u20ac", "location": {"address1": "Billstedter Hauptstr. 73", "address2": "", "address3": null, "city": "Hamburg", "zip_code": "22111", "country": "DE", "state": "HH", "display_address": ["Billstedter Hauptstr. 73", "22111 Hamburg", "Germany"]}, "phone": "+49407337958", "display_phone": "+49 40 7337958", "distance": 864.592475860956}, {"id": "rAsVelSwPKX0rwgdY9du6A", "alias": "athina-hamburg-2", "name": "Athina", "image_url": "https://s3-media1.fl.yelpcdn.com/bphoto/neJUJ1smDqW-T2KDiInYrw/o.jpg", "is_closed": false, "url": "https://www.yelp.com/biz/athina-hamburg-2?adjust_creative=hBJOknVQJ58S5goQyjmwRw&utm_campaign=yelp_api_v3&utm_medium=api_v3_business_search&utm_source=hBJOknVQJ58S5goQyjmwRw", "review_count": 11, "categories": [{"alias": "greek", "title": "Greek"}], "rating": 3.5, "coordinates": {"latitude": 53.5399168041103, "longitude": 10.1349412213544}, "transactions": [], "price": "\u20ac\u20ac", "location": {"address1": "Wegkoppel 3", "address2": null, "address3": null, "city": "Hamburg", "zip_code": "22117", "country": "DE", "state": "HH", "display_address": ["Wegkoppel 3", "22117 Hamburg", "Germany"]}, "phone": "+494063655580", "display_phone": "+49 40 63655580", "distance": 1125.8560473754567}, {"id": "Qmu-xTS39IvusBrpQyFjdQ", "alias": "tunicis-restaurant-dubrovnik-hamburg-2", "name": "Tunici's Restaurant Dubrovnik", "image_url": "https://s3-media2.fl.yelpcdn.com/bphoto/A4sPuzVGzxk8pafzIkrWkg/o.jpg", "is_closed": false, "url": "https://www.yelp.com/biz/tunicis-restaurant-dubrovnik-hamburg-2?adjust_creative=hBJOknVQJ58S5goQyjmwRw&utm_campaign=yelp_api_v3&utm_medium=api_v3_business_search&utm_source=hBJOknVQJ58S5goQyjmwRw", "review_count": 21, "categories": [{"alias": "serbocroatian", "title": "Serbo Croatian"}], "rating": 4.0, "coordinates": {"latitude": 53.5491, "longitude": 10.1088}, "transactions": [], "price": "\u20ac\u20ac", "location": {"address1": "Schiffbeker Weg 96", "address2": null, "address3": null, "city": "Hamburg", "zip_code": "22119", "country": "DE", "state": "HH", "display_address": ["Schiffbeker Weg 96", "22119 Hamburg", "Germany"]}, "phone": "+49407314788", "display_phone": "+49 40 7314788", "distance": 1524.277510035172}, {"id": "YljwUsa40IemittL_EO12w", "alias": "donja-hamburg", "name": "Donja", "image_url": "https://s3-media4.fl.yelpcdn.com/bphoto/IgSijvZnjPBzvHyEhYkT6g/o.jpg", "is_closed": false, "url": "https://www.yelp.com/biz/donja-hamburg?adjust_creative=hBJOknVQJ58S5goQyjmwRw&utm_campaign=yelp_api_v3&utm_medium=api_v3_business_search&utm_source=hBJOknVQJ58S5goQyjmwRw", "review_count": 9, "categories": [{"alias": "afghani", "title": "Afghan"}], "rating": 4.0, "coordinates": {"latitude": 53.54197, "longitude": 10.09844}, "transactions": [], "price": "\u20ac\u20ac", "location": {"address1": "Billstedter Hauptstr. 17", "address2": "", "address3": "", "city": "Hamburg", "zip_code": "22111", "country": "DE", "state": "HH", "display_address": ["Billstedter Hauptstr. 17", "22111 Hamburg", "Germany"]}, "phone": "+494073677417", "display_phone": "+49 40 73677417", "distance": 1461.5355018254882}, {"id": "SNPvqQxaRxQIra7hgjev2Q", "alias": "zum-kl\u00f6nschnack-hamburg", "name": "Zum Kl\u00f6nschnack", "image_url": "", "is_closed": false, "url": "https://www.yelp.com/biz/zum-kl%C3%B6nschnack-hamburg?adjust_creative=hBJOknVQJ58S5goQyjmwRw&utm_campaign=yelp_api_v3&utm_medium=api_v3_business_search&utm_source=hBJOknVQJ58S5goQyjmwRw", "review_count": 1, "categories": [{"alias": "currysausage", "title": "Curry Sausage"}], "rating": 4.0, "coordinates": {"latitude": 53.5333, "longitude": 10.097}, "transactions": [], "price": "\u20ac\u20ac", "location": {"address1": "Moorfleeter Str. 25", "address2": null, "address3": null, "city": "Hamburg", "zip_code": "22113", "country": "DE", "state": "HH", "display_address": ["Moorfleeter Str. 25", "22113 Hamburg", "Germany"]}, "phone": "", "display_phone": "", "distance": 1488.332148304462}, {"id": "Fay28Bc25iicsyM_EEI1tQ", "alias": "pink-balkan-imbiss-hamburg", "name": "Pink Balkan Imbiss", "image_url": "https://s3-media1.fl.yelpcdn.com/bphoto/-U63FrCtE8eUws3FvxF_9A/o.jpg", "is_closed": false, "url": "https://www.yelp.com/biz/pink-balkan-imbiss-hamburg?adjust_creative=hBJOknVQJ58S5goQyjmwRw&utm_campaign=yelp_api_v3&utm_medium=api_v3_business_search&utm_source=hBJOknVQJ58S5goQyjmwRw", "review_count": 12, "categories": [{"alias": "bbq", "title": "Barbeque"}, {"alias": "serbocroatian", "title": "Serbo Croatian"}], "rating": 4.0, "coordinates": {"latitude": 53.5562, "longitude": 10.0974}, "transactions": [], "price": "\u20ac\u20ac", "location": {"address1": "Manshardtstr. 66", "address2": null, "address3": null, "city": "Hamburg", "zip_code": "22119", "country": "DE", "state": "HH", "display_address": ["Manshardtstr. 66", "22119 Hamburg", "Germany"]}, "phone": "+494067109502", "display_phone": "+49 40 67109502", "distance": 2583.867138783098}, {"id": "3nKXBJvBXNiYggCiTC1dXw", "alias": "sunar-kebap-haus-hamburg", "name": "Sunar Kebap Haus", "image_url": "https://s3-media2.fl.yelpcdn.com/bphoto/QxvXwV4fZc6eF47X0rz4lw/o.jpg", "is_closed": false, "url": "https://www.yelp.com/biz/sunar-kebap-haus-hamburg?adjust_creative=hBJOknVQJ58S5goQyjmwRw&utm_campaign=yelp_api_v3&utm_medium=api_v3_business_search&utm_source=hBJOknVQJ58S5goQyjmwRw", "review_count": 2, "categories": [{"alias": "kebab", "title": "Kebab"}], "rating": 4.5, "coordinates": {"latitude": 53.5599, "longitude": 10.1086}, "transactions": [], "price": "\u20ac\u20ac", "location": {"address1": "Dannerallee 1a", "address2": null, "address3": null, "city": "Hamburg", "zip_code": "22119", "country": "DE", "state": "HH", "display_address": ["Dannerallee 1a", "22119 Hamburg", "Germany"]}, "phone": "+494088155672", "display_phone": "+49 40 88155672", "distance": 2661.73578477456}, {"id": "iky1wcqgbisBxoQR-AS4kQ", "alias": "ach-der-deniz-hamburg-3", "name": "Ach Der Deniz", "image_url": "https://s3-media3.fl.yelpcdn.com/bphoto/Lhdt9WtcMIaKKNkqKqIAzw/o.jpg", "is_closed": false, "url": "https://www.yelp.com/biz/ach-der-deniz-hamburg-3?adjust_creative=hBJOknVQJ58S5goQyjmwRw&utm_campaign=yelp_api_v3&utm_medium=api_v3_business_search&utm_source=hBJOknVQJ58S5goQyjmwRw", "review_count": 2, "categories": [{"alias": "kebab", "title": "Kebab"}], "rating": 3.5, "coordinates": {"latitude": 53.538735, "longitude": 10.122476}, "transactions": [], "location": {"address1": "M\u00f6llner Landstr. 123", "address2": "", "address3": null, "city": "Hamburg", "zip_code": "22117", "country": "DE", "state": "HH", "display_address": ["M\u00f6llner Landstr. 123", "22117 Hamburg", "Germany"]}, "phone": "", "display_phone": "", "distance": 317.67153114560944}, {"id": "V4bKMm8OGNYtdGsZNyt5fg", "alias": "nordsee-hamburg-19", "name": "Nordsee", "image_url": "https://s3-media1.fl.yelpcdn.com/bphoto/zagNky8-J7YRTkIlytvZKA/o.jpg", "is_closed": false, "url": "https://www.yelp.com/biz/nordsee-hamburg-19?adjust_creative=hBJOknVQJ58S5goQyjmwRw&utm_campaign=yelp_api_v3&utm_medium=api_v3_business_search&utm_source=hBJOknVQJ58S5goQyjmwRw", "review_count": 5, "categories": [{"alias": "fischbroetchen", "title": "Fischbroetchen"}], "rating": 4.0, "coordinates": {"latitude": 53.5409, "longitude": 10.1055}, "transactions": [], "price": "\u20ac\u20ac", "location": {"address1": "M\u00f6llner Landstr. 3", "address2": "", "address3": null, "city": "Hamburg", "zip_code": "22111", "country": "DE", "state": "HH", "display_address": ["M\u00f6llner Landstr. 3", "22111 Hamburg", "Germany"]}, "phone": "+494073670510", "display_phone": "+49 40 73670510", "distance": 991.33174401917}, {"id": "cENV4e-uYI6n9rz-djMLpg", "alias": "fresh-factory-hamburg", "name": "Fresh Factory", "image_url": "", "is_closed": false, "url": "https://www.yelp.com/biz/fresh-factory-hamburg?adjust_creative=hBJOknVQJ58S5goQyjmwRw&utm_campaign=yelp_api_v3&utm_medium=api_v3_business_search&utm_source=hBJOknVQJ58S5goQyjmwRw", "review_count": 1, "categories": [{"alias": "salad", "title": "Salad"}, {"alias": "juicebars", "title": "Juice Bars & Smoothies"}], "rating": 4.0, "coordinates": {"latitude": 53.52276, "longitude": 10.09576}, "transactions": [], "location": {"address1": "Porgesring 11", "address2": "", "address3": "", "city": "Hamburg", "zip_code": "22113", "country": "DE", "state": "HH", "display_address": ["Porgesring 11", "22113 Hamburg", "Germany"]}, "phone": "+494054750750", "display_phone": "+49 40 54750750", "distance": 2146.0491405542634}, {"id": "e0VSS8cgiOI05OFDJTtcJA", "alias": "zum-pr\u00f6sterchen-hamburg", "name": "Zum Pr\u00f6sterchen", "image_url": "https://s3-media2.fl.yelpcdn.com/bphoto/-Fs69fMD4Vm4XESapntCkQ/o.jpg", "is_closed": false, "url": "https://www.yelp.com/biz/zum-pr%C3%B6sterchen-hamburg?adjust_creative=hBJOknVQJ58S5goQyjmwRw&utm_campaign=yelp_api_v3&utm_medium=api_v3_business_search&utm_source=hBJOknVQJ58S5goQyjmwRw", "review_count": 1, "categories": [{"alias": "beerbar", "title": "Beer Bar"}, {"alias": "northerngerman", "title": "Northern German"}], "rating": 4.0, "coordinates": {"latitude": 53.53928, "longitude": 10.1057}, "transactions": [], "price": "\u20ac", "location": {"address1": "M\u00f6llner Landstr. 18", "address2": "", "address3": null, "city": "Hamburg", "zip_code": "22111", "country": "DE", "state": "HH", "display_address": ["M\u00f6llner Landstr. 18", "22111 Hamburg", "Germany"]}, "phone": "+49407314698", "display_phone": "+49 40 7314698", "distance": 907.8978476122571}, {"id": "zDBc6IZrtooKf3VIjwNbIA", "alias": "apollo-pizza-hamburg", "name": "Apollo Pizza", "image_url": "https://s3-media3.fl.yelpcdn.com/bphoto/bmlAoSkT98rY5_ArvhGK8Q/o.jpg", "is_closed": false, "url": "https://www.yelp.com/biz/apollo-pizza-hamburg?adjust_creative=hBJOknVQJ58S5goQyjmwRw&utm_campaign=yelp_api_v3&utm_medium=api_v3_business_search&utm_source=hBJOknVQJ58S5goQyjmwRw", "review_count": 8, "categories": [{"alias": "pizza", "title": "Pizza"}], "rating": 3.0, "coordinates": {"latitude": 53.5377, "longitude": 10.1118}, "transactions": [], "price": "\u20ac", "location": {"address1": "Sp\u00f6kelbarg 20", "address2": null, "address3": null, "city": "Hamburg", "zip_code": "22117", "country": "DE", "state": "HH", "display_address": ["Sp\u00f6kelbarg 20", "22117 Hamburg", "Germany"]}, "phone": "+494021987411", "display_phone": "+49 40 21987411", "distance": 472.6158331339027}, {"id": "FvpTumAZMtccgdMlUkSr2A", "alias": "hallo-pizza-hamburg-7", "name": "Hallo Pizza!", "image_url": "https://s3-media2.fl.yelpcdn.com/bphoto/U-MQv6oe7Kn8i7P9yqdCUA/o.jpg", "is_closed": false, "url": "https://www.yelp.com/biz/hallo-pizza-hamburg-7?adjust_creative=hBJOknVQJ58S5goQyjmwRw&utm_campaign=yelp_api_v3&utm_medium=api_v3_business_search&utm_source=hBJOknVQJ58S5goQyjmwRw", "review_count": 7, "categories": [{"alias": "pizza", "title": "Pizza"}], "rating": 3.5, "coordinates": {"latitude": 53.5487, "longitude": 10.1089}, "transactions": [], "price": "\u20ac\u20ac", "location": {"address1": "Schiffbeker Weg 94", "address2": null, "address3": null, "city": "Hamburg", "zip_code": "22119", "country": "DE", "state": "HH", "display_address": ["Schiffbeker Weg 94", "22119 Hamburg", "Germany"]}, "phone": "+494081995800", "display_phone": "+49 40 81995800", "distance": 1481.3702709710446}, {"id": "sEkpM7--ZMmNjrVd6MNyOA", "alias": "knappis-imbiss-hamburg-3", "name": "Knappis Imbiss", "image_url": "https://s3-media1.fl.yelpcdn.com/bphoto/5oKcQAiuz9KcJT7y9Bc90g/o.jpg", "is_closed": false, "url": "https://www.yelp.com/biz/knappis-imbiss-hamburg-3?adjust_creative=hBJOknVQJ58S5goQyjmwRw&utm_campaign=yelp_api_v3&utm_medium=api_v3_business_search&utm_source=hBJOknVQJ58S5goQyjmwRw", "review_count": 1, "categories": [{"alias": "currysausage", "title": "Curry Sausage"}], "rating": 5.0, "coordinates": {"latitude": 53.5392586, "longitude": 10.1063802}, "transactions": [], "price": "\u20ac", "location": {"address1": "M\u00f6llner Landstra\u00dfe", "address2": null, "address3": null, "city": "Hamburg", "zip_code": "22111", "country": "DE", "state": "HH", "display_address": ["M\u00f6llner Landstra\u00dfe", "22111 Hamburg", "Germany"]}, "phone": "", "display_phone": "", "distance": 865.1637056593976}, {"id": "iHJu41roXfxTfqW8EifbVA", "alias": "dolce-italia-hamburg", "name": "Dolce Italia", "image_url": "", "is_closed": false, "url": "https://www.yelp.com/biz/dolce-italia-hamburg?adjust_creative=hBJOknVQJ58S5goQyjmwRw&utm_campaign=yelp_api_v3&utm_medium=api_v3_business_search&utm_source=hBJOknVQJ58S5goQyjmwRw", "review_count": 4, "categories": [{"alias": "italian", "title": "Italian"}], "rating": 4.0, "coordinates": {"latitude": 53.559, "longitude": 10.107}, "transactions": [], "location": {"address1": "Manshardtstr. 111", "address2": null, "address3": null, "city": "Hamburg", "zip_code": "22119", "country": "DE", "state": "HH", "display_address": ["Manshardtstr. 111", "22119 Hamburg", "Germany"]}, "phone": "", "display_phone": "", "distance": 2594.709032922634}, {"id": "BpSJW907Ej6BBEXxNG2gAw", "alias": "suja-hamburg-3", "name": "Suja", "image_url": "https://s3-media3.fl.yelpcdn.com/bphoto/fCqhAhrNmcf_dgzMif1rvQ/o.jpg", "is_closed": false, "url": "https://www.yelp.com/biz/suja-hamburg-3?adjust_creative=hBJOknVQJ58S5goQyjmwRw&utm_campaign=yelp_api_v3&utm_medium=api_v3_business_search&utm_source=hBJOknVQJ58S5goQyjmwRw", "review_count": 4, "categories": [{"alias": "indpak", "title": "Indian"}, {"alias": "fooddeliveryservices", "title": "Food Delivery Services"}], "rating": 2.5, "coordinates": {"latitude": 53.54013, "longitude": 10.10337}, "transactions": [], "price": "\u20ac\u20ac", "location": {"address1": "M\u00f6llner Landstr. 3", "address2": "", "address3": "1. OG", "city": "Hamburg", "zip_code": "22111", "country": "DE", "state": "HH", "display_address": ["M\u00f6llner Landstr. 3", "1. OG", "22111 Hamburg", "Germany"]}, "phone": "+494022610860", "display_phone": "+49 40 22610860", "distance": 992.9054165059733}, {"id": "EZILGQV8FIXerqudRluW4Q", "alias": "d\u00f6ner-company-hamburg-2", "name": "D\u00f6ner Company", "image_url": "https://s3-media1.fl.yelpcdn.com/bphoto/MyVEYS5Gdq5FSs6Za7M5kg/o.jpg", "is_closed": false, "url": "https://www.yelp.com/biz/d%C3%B6ner-company-hamburg-2?adjust_creative=hBJOknVQJ58S5goQyjmwRw&utm_campaign=yelp_api_v3&utm_medium=api_v3_business_search&utm_source=hBJOknVQJ58S5goQyjmwRw", "review_count": 6, "categories": [{"alias": "kebab", "title": "Kebab"}], "rating": 3.0, "coordinates": {"latitude": 53.54237, "longitude": 10.10559}, "transactions": [], "price": "\u20ac\u20ac", "location": {"address1": "Reclamstr. 2", "address2": null, "address3": null, "city": "Hamburg", "zip_code": "22111", "country": "DE", "state": "HH", "display_address": ["Reclamstr. 2", "22111 Hamburg", "Germany"]}, "phone": "+494089728833", "display_phone": "+49 40 89728833", "distance": 1046.3826288240482}, {"id": "Sj3UwAhi9vGlIKnXqkeRxQ", "alias": "grill-j\u00fcrs-hamburg", "name": "Grill J\u00fcrs", "image_url": "https://s3-media3.fl.yelpcdn.com/bphoto/-lm-EJQXLT887MJqjQObXw/o.jpg", "is_closed": false, "url": "https://www.yelp.com/biz/grill-j%C3%BCrs-hamburg?adjust_creative=hBJOknVQJ58S5goQyjmwRw&utm_campaign=yelp_api_v3&utm_medium=api_v3_business_search&utm_source=hBJOknVQJ58S5goQyjmwRw", "review_count": 3, "categories": [{"alias": "chickenshop", "title": "Chicken Shop"}, {"alias": "hotdogs", "title": "Fast Food"}], "rating": 2.5, "coordinates": {"latitude": 53.53276, "longitude": 10.127}, "transactions": [], "price": "\u20ac\u20ac", "location": {"address1": "Kapellenstr. 95", "address2": "", "address3": null, "city": "Hamburg", "zip_code": "22117", "country": "DE", "state": "HH", "display_address": ["Kapellenstr. 95", "22117 Hamburg", "Germany"]}, "phone": "", "display_phone": "", "distance": 701.7099994290179}, {"id": "uowcUv_zNFP2MIHxcVMvwQ", "alias": "mcdonalds-hamburg-45", "name": "McDonald's", "image_url": "https://s3-media1.fl.yelpcdn.com/bphoto/81A7pzdZ0CM5ZZztlvbqyg/o.jpg", "is_closed": false, "url": "https://www.yelp.com/biz/mcdonalds-hamburg-45?adjust_creative=hBJOknVQJ58S5goQyjmwRw&utm_campaign=yelp_api_v3&utm_medium=api_v3_business_search&utm_source=hBJOknVQJ58S5goQyjmwRw", "review_count": 11, "categories": [{"alias": "burgers", "title": "Burgers"}, {"alias": "hotdogs", "title": "Fast Food"}], "rating": 2.5, "coordinates": {"latitude": 53.5415, "longitude": 10.0991}, "transactions": [], "price": "\u20ac\u20ac", "location": {"address1": "Billstedter Hauptstr. 23-25", "address2": null, "address3": null, "city": "Hamburg", "zip_code": "22111", "country": "DE", "state": "HH", "display_address": ["Billstedter Hauptstr. 23-25", "22111 Hamburg", "Germany"]}, "phone": "+494021987533", "display_phone": "+49 40 21987533", "distance": 1403.3033558941097}, {"id": "K4B-CHJDsU_In3DP2LziiA", "alias": "call-a-pizza-hamburg-7", "name": "Call a Pizza", "image_url": "https://s3-media2.fl.yelpcdn.com/bphoto/rELdVa8hQyxKVegEi_LOnw/o.jpg", "is_closed": false, "url": "https://www.yelp.com/biz/call-a-pizza-hamburg-7?adjust_creative=hBJOknVQJ58S5goQyjmwRw&utm_campaign=yelp_api_v3&utm_medium=api_v3_business_search&utm_source=hBJOknVQJ58S5goQyjmwRw", "review_count": 5, "categories": [{"alias": "pizza", "title": "Pizza"}], "rating": 3.5, "coordinates": {"latitude": 53.5428429, "longitude": 10.1028221}, "transactions": [], "price": "\u20ac\u20ac", "location": {"address1": "Schiffbecker Weg 29", "address2": null, "address3": null, "city": "Hamburg", "zip_code": "22111", "country": "DE", "state": "HH", "display_address": ["Schiffbecker Weg 29", "22111 Hamburg", "Germany"]}, "phone": "+494073115181", "display_phone": "+49 40 73115181", "distance": 1253.369922123753}, {"id": "smxdoZuHpRCuDDVqCaqcDQ", "alias": "zenthai-hamburg-3", "name": "Zenthai", "image_url": "https://s3-media3.fl.yelpcdn.com/bphoto/231WD874e1FRLV5x669NlA/o.jpg", "is_closed": false, "url": "https://www.yelp.com/biz/zenthai-hamburg-3?adjust_creative=hBJOknVQJ58S5goQyjmwRw&utm_campaign=yelp_api_v3&utm_medium=api_v3_business_search&utm_source=hBJOknVQJ58S5goQyjmwRw", "review_count": 6, "categories": [{"alias": "panasian", "title": "Pan Asian"}], "rating": 3.0, "coordinates": {"latitude": 53.5397891, "longitude": 10.1045729}, "transactions": [], "price": "\u20ac\u20ac", "location": {"address1": "M\u00f6llner Landstr. 3", "address2": "", "address3": "1. OG", "city": "Hamburg", "zip_code": "22111", "country": "DE", "state": "HH", "display_address": ["M\u00f6llner Landstr. 3", "1. OG", "22111 Hamburg", "Germany"]}, "phone": "+494073675939", "display_phone": "+49 40 73675939", "distance": 997.4062780423568}, {"id": "HNqlIYhxzjON1G_cQ6ilbw", "alias": "kapelleneck-hamburg", "name": "Kapelleneck", "image_url": "https://s3-media2.fl.yelpcdn.com/bphoto/kGZCIcicPFPngv0eUX0pXQ/o.jpg", "is_closed": false, "url": "https://www.yelp.com/biz/kapelleneck-hamburg?adjust_creative=hBJOknVQJ58S5goQyjmwRw&utm_campaign=yelp_api_v3&utm_medium=api_v3_business_search&utm_source=hBJOknVQJ58S5goQyjmwRw", "review_count": 2, "categories": [{"alias": "gastropubs", "title": "Gastropubs"}, {"alias": "divebars", "title": "Dive Bars"}], "rating": 2.0, "coordinates": {"latitude": 53.53252, "longitude": 10.12782}, "transactions": [], "price": "\u20ac\u20ac", "location": {"address1": "Kapellenstr. 101", "address2": "", "address3": "", "city": "Hamburg", "zip_code": "22117", "country": "DE", "state": "HH", "display_address": ["Kapellenstr. 101", "22117 Hamburg", "Germany"]}, "phone": "", "display_phone": "", "distance": 753.9015714072422}, {"id": "xwj4BT0-5XSoAJb03OJW0g", "alias": "kneipe-leos-hamburg", "name": "Kneipe Leo's", "image_url": "", "is_closed": false, "url": "https://www.yelp.com/biz/kneipe-leos-hamburg?adjust_creative=hBJOknVQJ58S5goQyjmwRw&utm_campaign=yelp_api_v3&utm_medium=api_v3_business_search&utm_source=hBJOknVQJ58S5goQyjmwRw", "review_count": 6, "categories": [{"alias": "divebars", "title": "Dive Bars"}, {"alias": "gastropubs", "title": "Gastropubs"}], "rating": 5.0, "coordinates": {"latitude": 53.5596114, "longitude": 10.0956549}, "transactions": [], "price": "\u20ac\u20ac\u20ac", "location": {"address1": "Stoltenstr. 26", "address2": "", "address3": null, "city": "Hamburg", "zip_code": "22119", "country": "DE", "state": "HH", "display_address": ["Stoltenstr. 26", "22119 Hamburg", "Germany"]}, "phone": "+49406513808", "display_phone": "+49 40 6513808", "distance": 2966.607176416573}, {"id": "wQk9fn-Vh-TdrgC8j7m0lw", "alias": "imbiss-am-\u00f6jendorfer-park-hamburg", "name": "Imbiss am \u00d6jendorfer Park", "image_url": "https://s3-media3.fl.yelpcdn.com/bphoto/ooKVTJw1FvzHrke2_KOrug/o.jpg", "is_closed": false, "url": "https://www.yelp.com/biz/imbiss-am-%C3%B6jendorfer-park-hamburg?adjust_creative=hBJOknVQJ58S5goQyjmwRw&utm_campaign=yelp_api_v3&utm_medium=api_v3_business_search&utm_source=hBJOknVQJ58S5goQyjmwRw", "review_count": 3, "categories": [{"alias": "hotdogs", "title": "Fast Food"}], "rating": 4.0, "coordinates": {"latitude": 53.5645, "longitude": 10.1411}, "transactions": [], "location": {"address1": "Grootmoorredder", "address2": null, "address3": null, "city": "Hamburg", "zip_code": "22117", "country": "DE", "state": "HH", "display_address": ["Grootmoorredder", "22117 Hamburg", "Germany"]}, "phone": "+49407133270", "display_phone": "+49 40 7133270", "distance": 3421.5736492656924}, {"id": "FRmfMd1RyzCEGobD0V4SwQ", "alias": "anatolya-grill-haus-hamburg", "name": "Anatolya Grill-Haus", "image_url": "https://s3-media2.fl.yelpcdn.com/bphoto/t5sUs72PtLkdRk7aAjl68A/o.jpg", "is_closed": false, "url": "https://www.yelp.com/biz/anatolya-grill-haus-hamburg?adjust_creative=hBJOknVQJ58S5goQyjmwRw&utm_campaign=yelp_api_v3&utm_medium=api_v3_business_search&utm_source=hBJOknVQJ58S5goQyjmwRw", "review_count": 2, "categories": [{"alias": "kebab", "title": "Kebab"}], "rating": 2.5, "coordinates": {"latitude": 53.5404, "longitude": 10.1012}, "transactions": [], "price": "\u20ac\u20ac", "location": {"address1": "Billstedter Hauptstr.", "address2": null, "address3": null, "city": "Hamburg", "zip_code": "22111", "country": "DE", "state": "HH", "display_address": ["Billstedter Hauptstr.", "22111 Hamburg", "Germany"]}, "phone": "", "display_phone": "", "distance": 1230.1569399150933}, {"id": "2ncLFilbbL3p2VwDs9fpGQ", "alias": "meyns-hamburg-2", "name": "Meyns", "image_url": "https://s3-media4.fl.yelpcdn.com/bphoto/KpQEGi338DIWzv1yBI2VEQ/o.jpg", "is_closed": false, "url": "https://www.yelp.com/biz/meyns-hamburg-2?adjust_creative=hBJOknVQJ58S5goQyjmwRw&utm_campaign=yelp_api_v3&utm_medium=api_v3_business_search&utm_source=hBJOknVQJ58S5goQyjmwRw", "review_count": 2, "categories": [{"alias": "cafes", "title": "Cafes"}], "rating": 4.5, "coordinates": {"latitude": 53.542, "longitude": 10.1392}, "transactions": [], "price": "\u20ac\u20ac", "location": {"address1": "M\u00f6llner Landstr. 229", "address2": null, "address3": null, "city": "Hamburg", "zip_code": "22117", "country": "DE", "state": "HH", "display_address": ["M\u00f6llner Landstr. 229", "22117 Hamburg", "Germany"]}, "phone": "+494089708422", "display_phone": "+49 40 89708422", "distance": 1471.651053918288}, {"id": "yqk1NxWrR6Jp3IOyks0cSQ", "alias": "schweinske-hamburg-29", "name": "Schweinske", "image_url": "https://s3-media3.fl.yelpcdn.com/bphoto/LWx1Qfrr6CLbQoqxc7GUAQ/o.jpg", "is_closed": false, "url": "https://www.yelp.com/biz/schweinske-hamburg-29?adjust_creative=hBJOknVQJ58S5goQyjmwRw&utm_campaign=yelp_api_v3&utm_medium=api_v3_business_search&utm_source=hBJOknVQJ58S5goQyjmwRw", "review_count": 26, "categories": [{"alias": "german", "title": "German"}], "rating": 2.5, "coordinates": {"latitude": 53.5386279623028, "longitude": 10.1104775816202}, "transactions": [], "price": "\u20ac", "location": {"address1": "M\u00f6llner Landstr. 2", "address2": "", "address3": null, "city": "Hamburg", "zip_code": "22111", "country": "DE", "state": "HH", "display_address": ["M\u00f6llner Landstr. 2", "22111 Hamburg", "Germany"]}, "phone": "+494073433380", "display_phone": "+49 40 73433380", "distance": 586.6834629360459}, {"id": "0Dq2u8WaFJlQnWTVpIHsDw", "alias": "bermudadreieck-hamburg", "name": "Bermudadreieck", "image_url": "https://s3-media1.fl.yelpcdn.com/bphoto/Il20waVhS8IK9_oTX9TOLw/o.jpg", "is_closed": false, "url": "https://www.yelp.com/biz/bermudadreieck-hamburg?adjust_creative=hBJOknVQJ58S5goQyjmwRw&utm_campaign=yelp_api_v3&utm_medium=api_v3_business_search&utm_source=hBJOknVQJ58S5goQyjmwRw", "review_count": 2, "categories": [{"alias": "restaurants", "title": "Restaurants"}], "rating": 3.0, "coordinates": {"latitude": 53.52567, "longitude": 10.11074}, "transactions": [], "price": "\u20ac", "location": {"address1": "Billwerder Billdeich 1", "address2": "", "address3": "", "city": "Hamburg", "zip_code": "22113", "country": "DE", "state": "HH", "display_address": ["Billwerder Billdeich 1", "22113 Hamburg", "Germany"]}, "phone": "", "display_phone": "", "distance": 1341.8843206941767}, {"id": "Rb1tYn5UC6Re9nZvD7hkJg", "alias": "thai-und-wok-hamburg", "name": "Thai & Wok", "image_url": "https://s3-media1.fl.yelpcdn.com/bphoto/ZHkaIOAAntArKo1JVSbZFA/o.jpg", "is_closed": false, "url": "https://www.yelp.com/biz/thai-und-wok-hamburg?adjust_creative=hBJOknVQJ58S5goQyjmwRw&utm_campaign=yelp_api_v3&utm_medium=api_v3_business_search&utm_source=hBJOknVQJ58S5goQyjmwRw", "review_count": 8, "categories": [{"alias": "thai", "title": "Thai"}, {"alias": "wok", "title": "Wok"}], "rating": 2.0, "coordinates": {"latitude": 53.5594, "longitude": 10.1076}, "transactions": [], "price": "\u20ac", "location": {"address1": "Manshardtstr. 115", "address2": null, "address3": null, "city": "Hamburg", "zip_code": "22119", "country": "DE", "state": "HH", "display_address": ["Manshardtstr. 115", "22119 Hamburg", "Germany"]}, "phone": "+494068284641", "display_phone": "+49 40 68284641", "distance": 2625.7658750083347}, {"id": "TGlVX1NeqMNA95qxbES1Rg", "alias": "caf\u00e9-winter-hamburg", "name": "Caf\u00e9 Winter", "image_url": "https://s3-media1.fl.yelpcdn.com/bphoto/ia4QVOBTLuG2yoMpxlaicQ/o.jpg", "is_closed": false, "url": "https://www.yelp.com/biz/caf%C3%A9-winter-hamburg?adjust_creative=hBJOknVQJ58S5goQyjmwRw&utm_campaign=yelp_api_v3&utm_medium=api_v3_business_search&utm_source=hBJOknVQJ58S5goQyjmwRw", "review_count": 2, "categories": [{"alias": "cafes", "title": "Cafes"}, {"alias": "cakeshop", "title": "Patisserie/Cake Shop"}], "rating": 3.5, "coordinates": {"latitude": 53.5403885, "longitude": 10.1359522}, "transactions": [], "location": {"address1": "M\u00f6llner Landstr. 202", "address2": "", "address3": "", "city": "Hamburg", "zip_code": "22117", "country": "DE", "state": "HH", "display_address": ["M\u00f6llner Landstr. 202", "22117 Hamburg", "Germany"]}, "phone": "+49407123388", "display_phone": "+49 40 7123388", "distance": 1206.0934257178642}, {"id": "4FpU3bFIM9Qg_WU--dIXMg", "alias": "asiahung-hamburg-18", "name": "asiahung", "image_url": "https://s3-media3.fl.yelpcdn.com/bphoto/xR3SsObZDqrBBHV7p-MkGA/o.jpg", "is_closed": false, "url": "https://www.yelp.com/biz/asiahung-hamburg-18?adjust_creative=hBJOknVQJ58S5goQyjmwRw&utm_campaign=yelp_api_v3&utm_medium=api_v3_business_search&utm_source=hBJOknVQJ58S5goQyjmwRw", "review_count": 8, "categories": [{"alias": "hotdogs", "title": "Fast Food"}, {"alias": "panasian", "title": "Pan Asian"}], "rating": 3.5, "coordinates": {"latitude": 53.5418, "longitude": 10.1061}, "transactions": [], "price": "\u20ac", "location": {"address1": "M\u00f6llner Landstr. 3", "address2": "", "address3": null, "city": "Hamburg", "zip_code": "22111", "country": "DE", "state": "HH", "display_address": ["M\u00f6llner Landstr. 3", "22111 Hamburg", "Germany"]}, "phone": "", "display_phone": "", "distance": 1008.6871636369859}, {"id": "MmYbD5eULMcs2pgW3hOrCw", "alias": "alaturca-hamburg", "name": "Alaturca", "image_url": "https://s3-media4.fl.yelpcdn.com/bphoto/oAaKUiu9XWJcj6VL2F2Ohw/o.jpg", "is_closed": false, "url": "https://www.yelp.com/biz/alaturca-hamburg?adjust_creative=hBJOknVQJ58S5goQyjmwRw&utm_campaign=yelp_api_v3&utm_medium=api_v3_business_search&utm_source=hBJOknVQJ58S5goQyjmwRw", "review_count": 18, "categories": [{"alias": "turkish", "title": "Turkish"}, {"alias": "kebab", "title": "Kebab"}], "rating": 3.0, "coordinates": {"latitude": 53.53974, "longitude": 10.10145}, "transactions": [], "price": "\u20ac\u20ac\u20ac", "location": {"address1": "Billstedter Hauptstr. 48 53", "address2": null, "address3": null, "city": "Hamburg", "zip_code": "22111", "country": "DE", "state": "HH", "display_address": ["Billstedter Hauptstr. 48 53", "22111 Hamburg", "Germany"]}, "phone": "+494070296885", "display_phone": "+49 40 70296885", "distance": 1191.985232517205}, {"id": "Yesr7nanDZ6qj_B9KlTWUA", "alias": "vu-imbiss-hamburg-2", "name": "Vu Imbiss", "image_url": "https://s3-media3.fl.yelpcdn.com/bphoto/Efpa3Z_bih_XM9cE3XQEaQ/o.jpg", "is_closed": false, "url": "https://www.yelp.com/biz/vu-imbiss-hamburg-2?adjust_creative=hBJOknVQJ58S5goQyjmwRw&utm_campaign=yelp_api_v3&utm_medium=api_v3_business_search&utm_source=hBJOknVQJ58S5goQyjmwRw", "review_count": 1, "categories": [{"alias": "panasian", "title": "Pan Asian"}, {"alias": "hotdogs", "title": "Fast Food"}], "rating": 3.0, "coordinates": {"latitude": 53.5422748, "longitude": 10.1404382}, "transactions": [], "location": {"address1": "M\u00f6llner Landstr. 240", "address2": "", "address3": null, "city": "Hamburg", "zip_code": "22117", "country": "DE", "state": "HH", "display_address": ["M\u00f6llner Landstr. 240", "22117 Hamburg", "Germany"]}, "phone": "", "display_phone": "", "distance": 1558.8767972522746}, {"id": "swdw2KoEeSi2QLWHHltnZQ", "alias": "mylos-hamburg-2", "name": "Mylos", "image_url": "https://s3-media3.fl.yelpcdn.com/bphoto/IMDD4JGhAyDMV_W8A2ylbQ/o.jpg", "is_closed": false, "url": "https://www.yelp.com/biz/mylos-hamburg-2?adjust_creative=hBJOknVQJ58S5goQyjmwRw&utm_campaign=yelp_api_v3&utm_medium=api_v3_business_search&utm_source=hBJOknVQJ58S5goQyjmwRw", "review_count": 26, "categories": [{"alias": "greek", "title": "Greek"}], "rating": 4.5, "coordinates": {"latitude": 53.57593, "longitude": 10.099365}, "transactions": [], "price": "\u20ac\u20ac", "location": {"address1": "Ziethenstr. 12", "address2": null, "address3": null, "city": "Hamburg", "zip_code": "22041", "country": "DE", "state": "HH", "display_address": ["Ziethenstr. 12", "22041 Hamburg", "Germany"]}, "phone": "+494069798441", "display_phone": "+49 40 69798441", "distance": 4542.5689466329795}, {"id": "FgojWBNCA17-6GbHsrDHrQ", "alias": "crazy-croque-hamburg-4", "name": "Crazy Croque", "image_url": "https://s3-media1.fl.yelpcdn.com/bphoto/N8RMFIvPcA3rbOVQbD05_Q/o.jpg", "is_closed": false, "url": "https://www.yelp.com/biz/crazy-croque-hamburg-4?adjust_creative=hBJOknVQJ58S5goQyjmwRw&utm_campaign=yelp_api_v3&utm_medium=api_v3_business_search&utm_source=hBJOknVQJ58S5goQyjmwRw", "review_count": 14, "categories": [{"alias": "sandwiches", "title": "Sandwiches"}, {"alias": "baguettes", "title": "Baguettes"}], "rating": 4.0, "coordinates": {"latitude": 53.5592435, "longitude": 10.1084427}, "transactions": [], "price": "\u20ac", "location": {"address1": "Manshardtstr. 117", "address2": null, "address3": null, "city": "Hamburg", "zip_code": "22119", "country": "DE", "state": "HH", "display_address": ["Manshardtstr. 117", "22119 Hamburg", "Germany"]}, "phone": "+49406532211", "display_phone": "+49 40 6532211", "distance": 2593.8782695780446}, {"id": "YegaVSTIXDOqvF4UKbRrwA", "alias": "pizza-max-hamburg-3", "name": "Pizza Max", "image_url": "https://s3-media3.fl.yelpcdn.com/bphoto/6EOS5sWgPWoDUmpMNGtc1Q/o.jpg", "is_closed": false, "url": "https://www.yelp.com/biz/pizza-max-hamburg-3?adjust_creative=hBJOknVQJ58S5goQyjmwRw&utm_campaign=yelp_api_v3&utm_medium=api_v3_business_search&utm_source=hBJOknVQJ58S5goQyjmwRw", "review_count": 27, "categories": [{"alias": "pizza", "title": "Pizza"}, {"alias": "burgers", "title": "Burgers"}], "rating": 3.5, "coordinates": {"latitude": 53.54304, "longitude": 10.09595}, "transactions": [], "price": "\u20ac\u20ac", "location": {"address1": "Washingtonallee 111", "address2": "", "address3": "", "city": "Hamburg", "zip_code": "22111", "country": "DE", "state": "HH", "display_address": ["Washingtonallee 111", "22111 Hamburg", "Germany"]}, "phone": "+494073670849", "display_phone": "+49 40 73670849", "distance": 1658.312368948192}, {"id": "vk3-NnVUiAvUP38GlzQzGA", "alias": "stehcafe-melli-hamburg", "name": "Stehcafe Melli", "image_url": "", "is_closed": false, "url": "https://www.yelp.com/biz/stehcafe-melli-hamburg?adjust_creative=hBJOknVQJ58S5goQyjmwRw&utm_campaign=yelp_api_v3&utm_medium=api_v3_business_search&utm_source=hBJOknVQJ58S5goQyjmwRw", "review_count": 1, "categories": [{"alias": "cafes", "title": "Cafes"}], "rating": 5.0, "coordinates": {"latitude": 53.5395851251921, "longitude": 10.0954826433472}, "transactions": [], "location": {"address1": "Billstedter Hauptstr. 1 - 5", "address2": "", "address3": "", "city": "Hamburg", "zip_code": "22111", "country": "DE", "state": "HH", "display_address": ["Billstedter Hauptstr. 1 - 5", "22111 Hamburg", "Germany"]}, "phone": "+494087882430", "display_phone": "+49 40 87882430", "distance": 1570.848487415574}, {"id": "tw9C5ljsuxZHQK4s89LpvA", "alias": "billstedter-bierstube-hamburg", "name": "Billstedter Bierstube", "image_url": "https://s3-media2.fl.yelpcdn.com/bphoto/y60neRVTsKgjRKUp3pZkNA/o.jpg", "is_closed": false, "url": "https://www.yelp.com/biz/billstedter-bierstube-hamburg?adjust_creative=hBJOknVQJ58S5goQyjmwRw&utm_campaign=yelp_api_v3&utm_medium=api_v3_business_search&utm_source=hBJOknVQJ58S5goQyjmwRw", "review_count": 1, "categories": [{"alias": "pubs", "title": "Pubs"}, {"alias": "restaurants", "title": "Restaurants"}], "rating": 3.0, "coordinates": {"latitude": 53.5396, "longitude": 10.1025}, "transactions": [], "location": {"address1": "Billstedter Hauptstr. 52", "address2": null, "address3": null, "city": "Hamburg", "zip_code": "22111", "country": "DE", "state": "HH", "display_address": ["Billstedter Hauptstr. 52", "22111 Hamburg", "Germany"]}, "phone": "+494028097339", "display_phone": "+49 40 28097339", "distance": 1121.0275805124293}, {"id": "PrvsgjS_h1jt_aC2dMhovQ", "alias": "restaurant-lindos-hamburg", "name": "Restaurant Lindos", "image_url": "https://s3-media1.fl.yelpcdn.com/bphoto/xk5nl3yE9qN-Gc0gyR5sCQ/o.jpg", "is_closed": false, "url": "https://www.yelp.com/biz/restaurant-lindos-hamburg?adjust_creative=hBJOknVQJ58S5goQyjmwRw&utm_campaign=yelp_api_v3&utm_medium=api_v3_business_search&utm_source=hBJOknVQJ58S5goQyjmwRw", "review_count": 1, "categories": [{"alias": "greek", "title": "Greek"}], "rating": 5.0, "coordinates": {"latitude": 53.57591, "longitude": 10.09919}, "transactions": [], "location": {"address1": "Ziethenstr. 12", "address2": null, "address3": null, "city": "Hamburg", "zip_code": "22041", "country": "DE", "state": "HH", "display_address": ["Ziethenstr. 12", "22041 Hamburg", "Germany"]}, "phone": "+49406565764", "display_phone": "+49 40 6565764", "distance": 4539.752679226956}, {"id": "MCQIuPcvqwbCJPy7ccJ18A", "alias": "sushi-corner-hamburg", "name": "Sushi Corner", "image_url": "https://s3-media3.fl.yelpcdn.com/bphoto/y7ESuSffrY0D0NafEcUyeg/o.jpg", "is_closed": false, "url": "https://www.yelp.com/biz/sushi-corner-hamburg?adjust_creative=hBJOknVQJ58S5goQyjmwRw&utm_campaign=yelp_api_v3&utm_medium=api_v3_business_search&utm_source=hBJOknVQJ58S5goQyjmwRw", "review_count": 2, "categories": [{"alias": "sushi", "title": "Sushi Bars"}], "rating": 2.5, "coordinates": {"latitude": 53.55937, "longitude": 10.10743}, "transactions": [], "location": {"address1": "Manshardtstr. 115 A", "address2": "", "address3": "", "city": "Hamburg", "zip_code": "22119", "country": "DE", "state": "HH", "display_address": ["Manshardtstr. 115 A", "22119 Hamburg", "Germany"]}, "phone": "+494068284641", "display_phone": "+49 40 68284641", "distance": 2617.4834825384632}, {"id": "mcoIIcxFqpgcsQsSB7w4gg", "alias": "sel-chicken-hamburg", "name": "Sel Chicken", "image_url": "", "is_closed": false, "url": "https://www.yelp.com/biz/sel-chicken-hamburg?adjust_creative=hBJOknVQJ58S5goQyjmwRw&utm_campaign=yelp_api_v3&utm_medium=api_v3_business_search&utm_source=hBJOknVQJ58S5goQyjmwRw", "review_count": 1, "categories": [{"alias": "chicken_wings", "title": "Chicken Wings"}, {"alias": "hotdogs", "title": "Fast Food"}], "rating": 1.0, "coordinates": {"latitude": 53.540088, "longitude": 10.102545}, "transactions": [], "price": "\u20ac\u20ac", "location": {"address1": "Billstedter Hauptstr. 51", "address2": "", "address3": null, "city": "Hamburg", "zip_code": "22111", "country": "DE", "state": "HH", "display_address": ["Billstedter Hauptstr. 51", "22111 Hamburg", "Germany"]}, "phone": "", "display_phone": "", "distance": 1134.812879823175}, {"id": "ZowjZ9bdVgxpVWOM4k-1UA", "alias": "subway-hamburg-29", "name": "Subway", "image_url": "https://s3-media2.fl.yelpcdn.com/bphoto/F9xIvjrCfpEPDoFbegH5Dg/o.jpg", "is_closed": false, "url": "https://www.yelp.com/biz/subway-hamburg-29?adjust_creative=hBJOknVQJ58S5goQyjmwRw&utm_campaign=yelp_api_v3&utm_medium=api_v3_business_search&utm_source=hBJOknVQJ58S5goQyjmwRw", "review_count": 7, "categories": [{"alias": "sandwiches", "title": "Sandwiches"}, {"alias": "hotdogs", "title": "Fast Food"}], "rating": 4.0, "coordinates": {"latitude": 53.539943, "longitude": 10.103886}, "transactions": [], "price": "\u20ac\u20ac\u20ac\u20ac", "location": {"address1": "M\u00f6llner Landstr. 3", "address2": "", "address3": "", "city": "Hamburg", "zip_code": "22111", "country": "DE", "state": "HH", "display_address": ["M\u00f6llner Landstr. 3", "22111 Hamburg", "Germany"]}, "phone": "+494033428595", "display_phone": "+49 40 33428595", "distance": 1045.9105692040484}, {"id": "6JEBAUugL1Rxwc3-NepyKQ", "alias": "dominos-hamburg-24", "name": "Domino's", "image_url": "", "is_closed": false, "url": "https://www.yelp.com/biz/dominos-hamburg-24?adjust_creative=hBJOknVQJ58S5goQyjmwRw&utm_campaign=yelp_api_v3&utm_medium=api_v3_business_search&utm_source=hBJOknVQJ58S5goQyjmwRw", "review_count": 1, "categories": [{"alias": "pizza", "title": "Pizza"}], "rating": 1.0, "coordinates": {"latitude": 53.55915, "longitude": 10.10594}, "transactions": [], "location": {"address1": "Manshardtstr. 107", "address2": null, "address3": null, "city": "Hamburg", "zip_code": "22119", "country": "DE", "state": "HH", "display_address": ["Manshardtstr. 107", "22119 Hamburg", "Germany"]}, "phone": "+4940777095", "display_phone": "+49 40 777095", "distance": 2634.4330695286617}, {"id": "xwYBQiBbAXJl3sAZwwsaUg", "alias": "krox-hamburg-7", "name": "Krox", "image_url": "https://s3-media3.fl.yelpcdn.com/bphoto/BHWjik_D16JK44ObnGav7Q/o.jpg", "is_closed": false, "url": "https://www.yelp.com/biz/krox-hamburg-7?adjust_creative=hBJOknVQJ58S5goQyjmwRw&utm_campaign=yelp_api_v3&utm_medium=api_v3_business_search&utm_source=hBJOknVQJ58S5goQyjmwRw", "review_count": 17, "categories": [{"alias": "sandwiches", "title": "Sandwiches"}, {"alias": "creperies", "title": "Creperies"}, {"alias": "pizza", "title": "Pizza"}], "rating": 3.0, "coordinates": {"latitude": 53.538735, "longitude": 10.122476}, "transactions": [], "price": "\u20ac\u20ac", "location": {"address1": "M\u00f6llner Landstr. 123", "address2": "", "address3": "", "city": "Hamburg", "zip_code": "22117", "country": "DE", "state": "HH", "display_address": ["M\u00f6llner Landstr. 123", "22117 Hamburg", "Germany"]}, "phone": "+49407133310", "display_phone": "+49 40 7133310", "distance": 317.67153114560944}, {"id": "ctCDPQumN0wiEQqkEk0Jzw", "alias": "emir-d\u00f6ner-hamburg", "name": "Emir D\u00f6ner", "image_url": "https://s3-media4.fl.yelpcdn.com/bphoto/aID8KlC8L2TLKWGkdpMJIw/o.jpg", "is_closed": false, "url": "https://www.yelp.com/biz/emir-d%C3%B6ner-hamburg?adjust_creative=hBJOknVQJ58S5goQyjmwRw&utm_campaign=yelp_api_v3&utm_medium=api_v3_business_search&utm_source=hBJOknVQJ58S5goQyjmwRw", "review_count": 2, "categories": [{"alias": "kebab", "title": "Kebab"}, {"alias": "cafes", "title": "Cafes"}], "rating": 2.5, "coordinates": {"latitude": 53.5402543935662, "longitude": 10.1050699129701}, "transactions": [], "price": "\u20ac\u20ac", "location": {"address1": "M\u00f6llner Landstr. 3", "address2": "", "address3": "", "city": "Hamburg", "zip_code": "22111", "country": "DE", "state": "HH", "display_address": ["M\u00f6llner Landstr. 3", "22111 Hamburg", "Germany"]}, "phone": "+494023498049", "display_phone": "+49 40 23498049", "distance": 985.9396900472996}, {"id": "BFSov6Q4m4OGbudFU3DvZA", "alias": "mcdonalds-hamburg-52", "name": "McDonald's", "image_url": "https://s3-media4.fl.yelpcdn.com/bphoto/9z82e7Vdha91FAaOWNZImw/o.jpg", "is_closed": false, "url": "https://www.yelp.com/biz/mcdonalds-hamburg-52?adjust_creative=hBJOknVQJ58S5goQyjmwRw&utm_campaign=yelp_api_v3&utm_medium=api_v3_business_search&utm_source=hBJOknVQJ58S5goQyjmwRw", "review_count": 2, "categories": [{"alias": "hotdogs", "title": "Fast Food"}, {"alias": "burgers", "title": "Burgers"}], "rating": 2.5, "coordinates": {"latitude": 53.5395934, "longitude": 10.1047763}, "transactions": [], "location": {"address1": "M\u00f6llner Landstr. 7a", "address2": null, "address3": null, "city": "Hamburg", "zip_code": "22111", "country": "DE", "state": "HH", "display_address": ["M\u00f6llner Landstr. 7a", "22111 Hamburg", "Germany"]}, "phone": "+49407325722", "display_phone": "+49 40 7325722", "distance": 1014.9613218523601}, {"id": "A8N57ICSJD8o7yw5XrY9Gg", "alias": "zum-\u00f6sterreicher-hamburg", "name": "Zum \u00d6sterreicher", "image_url": "https://s3-media1.fl.yelpcdn.com/bphoto/s8GD9zEsmwMJcwUt1gfYig/o.jpg", "is_closed": false, "url": "https://www.yelp.com/biz/zum-%C3%B6sterreicher-hamburg?adjust_creative=hBJOknVQJ58S5goQyjmwRw&utm_campaign=yelp_api_v3&utm_medium=api_v3_business_search&utm_source=hBJOknVQJ58S5goQyjmwRw", "review_count": 20, "categories": [{"alias": "austrian", "title": "Austrian"}], "rating": 3.0, "coordinates": {"latitude": 53.5704, "longitude": 10.1432}, "transactions": [], "price": "\u20ac\u20ac", "location": {"address1": "Barsb\u00fctteler Str. 43", "address2": null, "address3": null, "city": "Hamburg", "zip_code": "22043", "country": "DE", "state": "HH", "display_address": ["Barsb\u00fctteler Str. 43", "22043 Hamburg", "Germany"]}, "phone": "+49406545362", "display_phone": "+49 40 6545362", "distance": 4076.324024470001}, {"id": "gIrRs118ZpavQ1dFibXAlA", "alias": "rose-rote-veranstaltungs-center-hamburg", "name": "Rose Rote Veranstaltungs Center", "image_url": "", "is_closed": false, "url": "https://www.yelp.com/biz/rose-rote-veranstaltungs-center-hamburg?adjust_creative=hBJOknVQJ58S5goQyjmwRw&utm_campaign=yelp_api_v3&utm_medium=api_v3_business_search&utm_source=hBJOknVQJ58S5goQyjmwRw", "review_count": 1, "categories": [{"alias": "hotelstravel", "title": "Hotels & Travel"}, {"alias": "restaurants", "title": "Restaurants"}], "rating": 4.0, "coordinates": {"latitude": 53.5401, "longitude": 10.1024}, "transactions": [], "price": "\u20ac", "location": {"address1": "Billstedter Hauptstr. 51", "address2": null, "address3": null, "city": "Hamburg", "zip_code": "22111", "country": "DE", "state": "HH", "display_address": ["Billstedter Hauptstr. 51", "22111 Hamburg", "Germany"]}, "phone": "", "display_phone": "", "distance": 1144.3029438665799}, {"id": "il8FEDFNPrw_B8UfjigGkw", "alias": "back-lava-hamburg-3", "name": "Back-Lava", "image_url": "https://s3-media2.fl.yelpcdn.com/bphoto/4dED60GL0dQuN4slUM0Fpg/o.jpg", "is_closed": false, "url": "https://www.yelp.com/biz/back-lava-hamburg-3?adjust_creative=hBJOknVQJ58S5goQyjmwRw&utm_campaign=yelp_api_v3&utm_medium=api_v3_business_search&utm_source=hBJOknVQJ58S5goQyjmwRw", "review_count": 1, "categories": [{"alias": "bakeries", "title": "Bakeries"}, {"alias": "turkish", "title": "Turkish"}, {"alias": "cakeshop", "title": "Patisserie/Cake Shop"}], "rating": 2.0, "coordinates": {"latitude": 53.54084, "longitude": 10.10021}, "transactions": [], "location": {"address1": "Billstedter Hauptstr. 35", "address2": null, "address3": null, "city": "Hamburg", "zip_code": "22111", "country": "DE", "state": "HH", "display_address": ["Billstedter Hauptstr. 35", "22111 Hamburg", "Germany"]}, "phone": "+494051907247", "display_phone": "+49 40 51907247", "distance": 1308.3101638386413}, {"id": "QKXV1M2pdEvzJTtJf4ctEA", "alias": "restaurant-panorama-hamburg", "name": "Restaurant Panorama", "image_url": "", "is_closed": false, "url": "https://www.yelp.com/biz/restaurant-panorama-hamburg?adjust_creative=hBJOknVQJ58S5goQyjmwRw&utm_campaign=yelp_api_v3&utm_medium=api_v3_business_search&utm_source=hBJOknVQJ58S5goQyjmwRw", "review_count": 1, "categories": [{"alias": "german", "title": "German"}], "rating": 4.0, "coordinates": {"latitude": 53.5397, "longitude": 10.1014}, "transactions": [], "location": {"address1": "Hotel Panorama Billstedt", "address2": "Billstedter Hauptstr. 44", "address3": null, "city": "Hamburg", "zip_code": "22111", "country": "DE", "state": "HH", "display_address": ["Hotel Panorama Billstedt", "Billstedter Hauptstr. 44", "22111 Hamburg", "Germany"]}, "phone": "+4940733590", "display_phone": "+49 40 733590", "distance": 1193.9228266043149}, {"id": "5Sn38ahcsarLwL27Rsy5NQ", "alias": "urfa-sofrasi-hamburg", "name": "Urfa Sofrasi", "image_url": "", "is_closed": false, "url": "https://www.yelp.com/biz/urfa-sofrasi-hamburg?adjust_creative=hBJOknVQJ58S5goQyjmwRw&utm_campaign=yelp_api_v3&utm_medium=api_v3_business_search&utm_source=hBJOknVQJ58S5goQyjmwRw", "review_count": 2, "categories": [{"alias": "turkish", "title": "Turkish"}, {"alias": "hotdogs", "title": "Fast Food"}], "rating": 3.0, "coordinates": {"latitude": 53.5709, "longitude": 10.1364}, "transactions": [], "location": {"address1": "Barsb\u00fctteler Str. 2", "address2": null, "address3": null, "city": "Hamburg", "zip_code": "22043", "country": "DE", "state": "HH", "display_address": ["Barsb\u00fctteler Str. 2", "22043 Hamburg", "Germany"]}, "phone": "", "display_phone": "", "distance": 3973.340986225609}, {"id": "W1elnIGTIpBmYCn11yhzRQ", "alias": "adriatik-hamburg", "name": "Adriatik", "image_url": "", "is_closed": false, "url": "https://www.yelp.com/biz/adriatik-hamburg?adjust_creative=hBJOknVQJ58S5goQyjmwRw&utm_campaign=yelp_api_v3&utm_medium=api_v3_business_search&utm_source=hBJOknVQJ58S5goQyjmwRw", "review_count": 2, "categories": [{"alias": "german", "title": "German"}], "rating": 4.5, "coordinates": {"latitude": 53.559, "longitude": 10.1079}, "transactions": [], "location": {"address1": "Manshardtstr. 115", "address2": null, "address3": null, "city": "Hamburg", "zip_code": "22119", "country": "DE", "state": "HH", "display_address": ["Manshardtstr. 115", "22119 Hamburg", "Germany"]}, "phone": "+494065491678", "display_phone": "+49 40 65491678", "distance": 2577.5202997731362}, {"id": "vrlAmOoaKTGM_b4_FMaRdQ", "alias": "h\u00e4hnchen-grill-hamburg", "name": "H\u00e4hnchen Grill", "image_url": "https://s3-media2.fl.yelpcdn.com/bphoto/vAQnrItTD_GSC9Xj0rNbEg/o.jpg", "is_closed": false, "url": "https://www.yelp.com/biz/h%C3%A4hnchen-grill-hamburg?adjust_creative=hBJOknVQJ58S5goQyjmwRw&utm_campaign=yelp_api_v3&utm_medium=api_v3_business_search&utm_source=hBJOknVQJ58S5goQyjmwRw", "review_count": 4, "categories": [{"alias": "hotdogs", "title": "Fast Food"}, {"alias": "kebab", "title": "Kebab"}], "rating": 3.5, "coordinates": {"latitude": 53.5726, "longitude": 10.1362}, "transactions": [], "location": {"address1": "Bei den H\u00f6fen 82", "address2": null, "address3": null, "city": "Hamburg", "zip_code": "22043", "country": "DE", "state": "HH", "display_address": ["Bei den H\u00f6fen 82", "22043 Hamburg", "Germany"]}, "phone": "+494049297744", "display_phone": "+49 40 49297744", "distance": 4150.744425750849}, {"id": "05yN6vX4GZjaksTXtS9yoA", "alias": "mcdonalds-hamburg-54", "name": "McDonald's", "image_url": "", "is_closed": false, "url": "https://www.yelp.com/biz/mcdonalds-hamburg-54?adjust_creative=hBJOknVQJ58S5goQyjmwRw&utm_campaign=yelp_api_v3&utm_medium=api_v3_business_search&utm_source=hBJOknVQJ58S5goQyjmwRw", "review_count": 8, "categories": [{"alias": "hotdogs", "title": "Fast Food"}, {"alias": "burgers", "title": "Burgers"}], "rating": 2.0, "coordinates": {"latitude": 53.5704, "longitude": 10.144}, "transactions": [], "price": "\u20ac\u20ac\u20ac", "location": {"address1": "Barsb\u00fctteler Str. 45", "address2": null, "address3": null, "city": "Hamburg", "zip_code": "22043", "country": "DE", "state": "HH", "display_address": ["Barsb\u00fctteler Str. 45", "22043 Hamburg", "Germany"]}, "phone": "+494071403859", "display_phone": "+49 40 71403859", "distance": 4097.5363313988255}, {"id": "P8P5_LvPRtGXRGJyMs6skg", "alias": "baustellen-casino-hamburg", "name": "Baustellen Casino", "image_url": "https://s3-media4.fl.yelpcdn.com/bphoto/q5Q3sJTyy275JykHLwxJxA/o.jpg", "is_closed": false, "url": "https://www.yelp.com/biz/baustellen-casino-hamburg?adjust_creative=hBJOknVQJ58S5goQyjmwRw&utm_campaign=yelp_api_v3&utm_medium=api_v3_business_search&utm_source=hBJOknVQJ58S5goQyjmwRw", "review_count": 1, "categories": [{"alias": "german", "title": "German"}], "rating": 4.0, "coordinates": {"latitude": 53.542219, "longitude": 10.1101957}, "transactions": [], "price": "\u20ac", "location": {"address1": "\u00d6jendorfer Weg 30a", "address2": null, "address3": null, "city": "Hamburg", "zip_code": "22119", "country": "DE", "state": "HH", "display_address": ["\u00d6jendorfer Weg 30a", "22119 Hamburg", "Germany"]}, "phone": "+494071404155", "display_phone": "+49 40 71404155", "distance": 832.040069130711}, {"id": "3YztXT5dmOGD-i9ZwYfDWw", "alias": "burger-king-hamburg-12", "name": "Burger King", "image_url": "https://s3-media3.fl.yelpcdn.com/bphoto/_7T-i176DAQ09IW_u9oq3A/o.jpg", "is_closed": false, "url": "https://www.yelp.com/biz/burger-king-hamburg-12?adjust_creative=hBJOknVQJ58S5goQyjmwRw&utm_campaign=yelp_api_v3&utm_medium=api_v3_business_search&utm_source=hBJOknVQJ58S5goQyjmwRw", "review_count": 5, "categories": [{"alias": "burgers", "title": "Burgers"}, {"alias": "hotdogs", "title": "Fast Food"}], "rating": 2.5, "coordinates": {"latitude": 53.54013, "longitude": 10.10337}, "transactions": [], "price": "\u20ac\u20ac", "location": {"address1": "M\u00f6llner Landstr. 3", "address2": "", "address3": null, "city": "Hamburg", "zip_code": "22111", "country": "DE", "state": "HH", "display_address": ["M\u00f6llner Landstr. 3", "22111 Hamburg", "Germany"]}, "phone": "+494073679659", "display_phone": "+49 40 73679659", "distance": 992.9054165059733}, {"id": "cVtqr-CLZgOP7-5DzRs-FQ", "alias": "asia-wok-leviet-hamburg", "name": "Asia Wok Leviet", "image_url": "https://s3-media1.fl.yelpcdn.com/bphoto/HvgxnIlIqtwPUvmoanLiwA/o.jpg", "is_closed": false, "url": "https://www.yelp.com/biz/asia-wok-leviet-hamburg?adjust_creative=hBJOknVQJ58S5goQyjmwRw&utm_campaign=yelp_api_v3&utm_medium=api_v3_business_search&utm_source=hBJOknVQJ58S5goQyjmwRw", "review_count": 2, "categories": [{"alias": "chinese", "title": "Chinese"}], "rating": 2.5, "coordinates": {"latitude": 53.5711, "longitude": 10.1355}, "transactions": [], "price": "\u20ac", "location": {"address1": "Rodigallee 303", "address2": null, "address3": null, "city": "Hamburg", "zip_code": "22043", "country": "DE", "state": "HH", "display_address": ["Rodigallee 303", "22043 Hamburg", "Germany"]}, "phone": "+494088305569", "display_phone": "+49 40 88305569", "distance": 3977.6773088296086}, {"id": "qV3uV0Qds1DSvMobqqNBLA", "alias": "smileys-hamburg-10", "name": "Smiley's", "image_url": "", "is_closed": false, "url": "https://www.yelp.com/biz/smileys-hamburg-10?adjust_creative=hBJOknVQJ58S5goQyjmwRw&utm_campaign=yelp_api_v3&utm_medium=api_v3_business_search&utm_source=hBJOknVQJ58S5goQyjmwRw", "review_count": 14, "categories": [{"alias": "pizza", "title": "Pizza"}], "rating": 3.0, "coordinates": {"latitude": 53.5475, "longitude": 10.1069}, "transactions": [], "price": "\u20ac\u20ac\u20ac", "location": {"address1": "Schiffbeker Weg 85", "address2": null, "address3": null, "city": "Hamburg", "zip_code": "22119", "country": "DE", "state": "HH", "display_address": ["Schiffbeker Weg 85", "22119 Hamburg", "Germany"]}, "phone": "+49407331586", "display_phone": "+49 40 7331586", "distance": 1430.7477287980678}, {"id": "HObQtAcQIPyQujRCkY9yug", "alias": "mon-ami-hamburg", "name": "Mon Ami", "image_url": "https://s3-media4.fl.yelpcdn.com/bphoto/_OUmVcRqI51CCbAa3NQ6gw/o.jpg", "is_closed": false, "url": "https://www.yelp.com/biz/mon-ami-hamburg?adjust_creative=hBJOknVQJ58S5goQyjmwRw&utm_campaign=yelp_api_v3&utm_medium=api_v3_business_search&utm_source=hBJOknVQJ58S5goQyjmwRw", "review_count": 1, "categories": [{"alias": "seafood", "title": "Seafood"}, {"alias": "mediterranean", "title": "Mediterranean"}, {"alias": "pizza", "title": "Pizza"}], "rating": 1.0, "coordinates": {"latitude": 53.5710073412351, "longitude": 10.111719109118}, "transactions": [], "price": "\u20ac\u20ac\u20ac", "location": {"address1": "Rodigallee 139", "address2": "", "address3": "", "city": "Hamburg", "zip_code": "22043", "country": "DE", "state": "HH", "display_address": ["Rodigallee 139", "22043 Hamburg", "Germany"]}, "phone": "+494068946363", "display_phone": "+49 40 68946363", "distance": 3839.0146091150214}]