[{"id": "Mht3cgKJjA_rrfxla8x6rA", "alias": "the-table-hamburg", "name": "The Table", "image_url": "https://s3-media2.fl.yelpcdn.com/bphoto/hEQnX6xYCz2buBeR53DDug/o.jpg", "is_closed": false, "url": "https://www.yelp.com/biz/the-table-hamburg?adjust_creative=hBJOknVQJ58S5goQyjmwRw&utm_campaign=yelp_api_v3&utm_medium=api_v3_business_search&utm_source=hBJOknVQJ58S5goQyjmwRw", "review_count": 12, "categories": [{"alias": "modern_european", "title": "Modern European"}], "rating": 5.0, "coordinates": {"latitude": 53.54261, "longitude": 10.00305}, "transactions": [], "price": "\u20ac\u20ac\u20ac\u20ac", "location": {"address1": "Shanghaiallee 15", "address2": "", "address3": "", "city": "Hamburg", "zip_code": "20457", "country": "DE", "state": "HH", "display_address": ["Shanghaiallee 15", "20457 Hamburg", "Germany"]}, "phone": "+494022867422", "display_phone": "+49 40 22867422", "distance": 1053.5542330882201}, {"id": "G8vTrkjmYm7ymw8fYQ_-0A", "alias": "baakennest-hamburg", "name": "BaakenNest", "image_url": "https://s3-media3.fl.yelpcdn.com/bphoto/qeJrORu6lUhM5uLKtraHew/o.jpg", "is_closed": false, "url": "https://www.yelp.com/biz/baakennest-hamburg?adjust_creative=hBJOknVQJ58S5goQyjmwRw&utm_campaign=yelp_api_v3&utm_medium=api_v3_business_search&utm_source=hBJOknVQJ58S5goQyjmwRw", "review_count": 1, "categories": [{"alias": "bars", "title": "Bars"}, {"alias": "delis", "title": "Delis"}], "rating": 5.0, "coordinates": {"latitude": 53.5397197726081, "longitude": 10.0116428015394}, "transactions": [], "location": {"address1": "Versmannstr. 24", "address2": "", "address3": null, "city": "Hamburg", "zip_code": "20457", "country": "DE", "state": "HH", "display_address": ["Versmannstr. 24", "20457 Hamburg", "Germany"]}, "phone": "+494030094120", "display_phone": "+49 40 30094120", "distance": 825.7706312010504}, {"id": "3H3LA7zHDQMKxhbKZ_uXXA", "alias": "weltcaf\u00e9-elbfaire-hamburg", "name": "Weltcaf\u00e9 ElbFaire", "image_url": "https://s3-media3.fl.yelpcdn.com/bphoto/M3fR1UtCWWFDDOmBfbcdOw/o.jpg", "is_closed": false, "url": "https://www.yelp.com/biz/weltcaf%C3%A9-elbfaire-hamburg?adjust_creative=hBJOknVQJ58S5goQyjmwRw&utm_campaign=yelp_api_v3&utm_medium=api_v3_business_search&utm_source=hBJOknVQJ58S5goQyjmwRw", "review_count": 3, "categories": [{"alias": "cafes", "title": "Cafes"}], "rating": 4.5, "coordinates": {"latitude": 53.5430102, "longitude": 10.0025401}, "transactions": [], "price": "\u20ac\u20ac", "location": {"address1": "Shanghaiallee 12", "address2": null, "address3": null, "city": "Hamburg", "zip_code": "20457", "country": "DE", "state": "HH", "display_address": ["Shanghaiallee 12", "20457 Hamburg", "Germany"]}, "phone": "", "display_phone": "", "distance": 1103.0943309089032}, {"id": "ZmEJfw6CqWOPYTeJqIi8Jg", "alias": "alte-liebe-hamburg", "name": "Alte Liebe", "image_url": "https://s3-media1.fl.yelpcdn.com/bphoto/kjIfO01e7mj1kTmfPPjuLg/o.jpg", "is_closed": false, "url": "https://www.yelp.com/biz/alte-liebe-hamburg?adjust_creative=hBJOknVQJ58S5goQyjmwRw&utm_campaign=yelp_api_v3&utm_medium=api_v3_business_search&utm_source=hBJOknVQJ58S5goQyjmwRw", "review_count": 4, "categories": [{"alias": "german", "title": "German"}, {"alias": "cafes", "title": "Cafes"}], "rating": 3.5, "coordinates": {"latitude": 53.5432380614137, "longitude": 9.99964057380339}, "transactions": [], "price": "\u20ac\u20ac", "location": {"address1": "Koreastr. 1", "address2": "", "address3": "", "city": "Hamburg", "zip_code": "20457", "country": "DE", "state": "HH", "display_address": ["Koreastr. 1", "20457 Hamburg", "Germany"]}, "phone": "+494045060626", "display_phone": "+49 40 45060626", "distance": 1176.6293082948846}, {"id": "aUpUwcXH49H6mXw1kuMw9Q", "alias": "hamburg-im-s\u00fcden-hamburg", "name": "Hamburg im S\u00fcden", "image_url": "https://s3-media3.fl.yelpcdn.com/bphoto/_jWfnDmeoM090OwKGsO4ZA/o.jpg", "is_closed": false, "url": "https://www.yelp.com/biz/hamburg-im-s%C3%BCden-hamburg?adjust_creative=hBJOknVQJ58S5goQyjmwRw&utm_campaign=yelp_api_v3&utm_medium=api_v3_business_search&utm_source=hBJOknVQJ58S5goQyjmwRw", "review_count": 12, "categories": [{"alias": "wine_bars", "title": "Wine Bars"}, {"alias": "tapas", "title": "Tapas Bars"}, {"alias": "seafood", "title": "Seafood"}], "rating": 4.0, "coordinates": {"latitude": 53.5429832312882, "longitude": 10.0004207404741}, "transactions": [], "price": "\u20ac\u20ac\u20ac", "location": {"address1": "Koreastr. 2", "address2": "", "address3": "", "city": "Hamburg", "zip_code": "20354", "country": "DE", "state": "HH", "display_address": ["Koreastr. 2", "20354 Hamburg", "Germany"]}, "phone": "+4940226161511", "display_phone": "+49 40 226161511", "distance": 1133.558818609861}, {"id": "Y47o8F3lu0e3uZ96elthMg", "alias": "catch-of-the-day-hamburg-4", "name": "Catch of the Day", "image_url": "https://s3-media2.fl.yelpcdn.com/bphoto/wvZRWQA2m3PU5ZyozkCRMg/o.jpg", "is_closed": false, "url": "https://www.yelp.com/biz/catch-of-the-day-hamburg-4?adjust_creative=hBJOknVQJ58S5goQyjmwRw&utm_campaign=yelp_api_v3&utm_medium=api_v3_business_search&utm_source=hBJOknVQJ58S5goQyjmwRw", "review_count": 18, "categories": [{"alias": "bistros", "title": "Bistros"}, {"alias": "seafood", "title": "Seafood"}, {"alias": "cafes", "title": "Cafes"}], "rating": 3.5, "coordinates": {"latitude": 53.5431786, "longitude": 9.9997797}, "transactions": [], "price": "\u20ac\u20ac", "location": {"address1": "Koreastr. 1", "address2": "", "address3": "", "city": "Hamburg", "zip_code": "20457", "country": "DE", "state": "HH", "display_address": ["Koreastr. 1", "20457 Hamburg", "Germany"]}, "phone": "+494076797235", "display_phone": "+49 40 76797235", "distance": 1168.0570447955201}, {"id": "_wb_8bDSfSZXZ76NwNKA5w", "alias": "hobenk\u00f6\u00f6k-hamburg", "name": "Hobenk\u00f6\u00f6k", "image_url": "https://s3-media3.fl.yelpcdn.com/bphoto/LjtRNE6Y6Ah17f5LLCnfNQ/o.jpg", "is_closed": false, "url": "https://www.yelp.com/biz/hobenk%C3%B6%C3%B6k-hamburg?adjust_creative=hBJOknVQJ58S5goQyjmwRw&utm_campaign=yelp_api_v3&utm_medium=api_v3_business_search&utm_source=hBJOknVQJ58S5goQyjmwRw", "review_count": 8, "categories": [{"alias": "german", "title": "German"}], "rating": 3.5, "coordinates": {"latitude": 53.5433450982727, "longitude": 10.0082123279572}, "transactions": [], "location": {"address1": "Stockmeyerstr. 43", "address2": "", "address3": null, "city": "Hamburg", "zip_code": "20457", "country": "DE", "state": "HH", "display_address": ["Stockmeyerstr. 43", "20457 Hamburg", "Germany"]}, "phone": "+494022865538", "display_phone": "+49 40 22865538", "distance": 1136.7828748383113}, {"id": "G_bKcShBqhkMyTjZAALNLg", "alias": "mensa-hcu-hamburg", "name": "Mensa HCU", "image_url": "https://s3-media4.fl.yelpcdn.com/bphoto/Zug2F4de_gaB3NAj4RuHWw/o.jpg", "is_closed": false, "url": "https://www.yelp.com/biz/mensa-hcu-hamburg?adjust_creative=hBJOknVQJ58S5goQyjmwRw&utm_campaign=yelp_api_v3&utm_medium=api_v3_business_search&utm_source=hBJOknVQJ58S5goQyjmwRw", "review_count": 1, "categories": [{"alias": "canteen", "title": "Canteen"}], "rating": 4.0, "coordinates": {"latitude": 53.540228, "longitude": 10.005366}, "transactions": [], "location": {"address1": "\u00dcberseeallee 16", "address2": "", "address3": "", "city": "Hamburg", "zip_code": "20457", "country": "DE", "state": "HH", "display_address": ["\u00dcberseeallee 16", "20457 Hamburg", "Germany"]}, "phone": "+494028472722", "display_phone": "+49 40 28472722", "distance": 776.1554809730783}, {"id": "Nu_jP17T-c_gSG-zV7lhQQ", "alias": "strauchs-falco-hamburg", "name": "Strauchs Falco", "image_url": "https://s3-media1.fl.yelpcdn.com/bphoto/K6tnNATGqezXEEI74ZyNKA/o.jpg", "is_closed": false, "url": "https://www.yelp.com/biz/strauchs-falco-hamburg?adjust_creative=hBJOknVQJ58S5goQyjmwRw&utm_campaign=yelp_api_v3&utm_medium=api_v3_business_search&utm_source=hBJOknVQJ58S5goQyjmwRw", "review_count": 23, "categories": [{"alias": "northerngerman", "title": "Northern German"}, {"alias": "mediterranean", "title": "Mediterranean"}], "rating": 3.5, "coordinates": {"latitude": 53.5429387276499, "longitude": 10.0003442924706}, "transactions": [], "price": "\u20ac\u20ac\u20ac", "location": {"address1": "Koreastr. 2", "address2": "", "address3": "", "city": "Hamburg", "zip_code": "20354", "country": "DE", "state": "HH", "display_address": ["Koreastr. 2", "20354 Hamburg", "Germany"]}, "phone": "+4940226161511", "display_phone": "+49 40 226161511", "distance": 1130.3505196330414}, {"id": "IXtkTDyPslFKFzjZouTG1Q", "alias": "eat-brazil-hamburg", "name": "EAT Brazil", "image_url": "https://s3-media2.fl.yelpcdn.com/bphoto/99loJJz5AmyQlu4TwJ0CmA/o.jpg", "is_closed": false, "url": "https://www.yelp.com/biz/eat-brazil-hamburg?adjust_creative=hBJOknVQJ58S5goQyjmwRw&utm_campaign=yelp_api_v3&utm_medium=api_v3_business_search&utm_source=hBJOknVQJ58S5goQyjmwRw", "review_count": 1, "categories": [{"alias": "brazilian", "title": "Brazilian"}, {"alias": "cafes", "title": "Cafes"}], "rating": 2.0, "coordinates": {"latitude": 53.5398, "longitude": 10.01088}, "transactions": [], "location": {"address1": "Versmannstr. 24", "address2": "", "address3": null, "city": "Hamburg", "zip_code": "20457", "country": "DE", "state": "HH", "display_address": ["Versmannstr. 24", "20457 Hamburg", "Germany"]}, "phone": "+491719544987", "display_phone": "+49 171 9544987", "distance": 820.4105742201442}, {"id": "cT2d2Pahuc7CYZislHoyGw", "alias": "surfkitchen-hamburg-2", "name": "Surfkitchen", "image_url": "https://s3-media2.fl.yelpcdn.com/bphoto/aL6EwgpqWL31BtzmHNuqPA/o.jpg", "is_closed": false, "url": "https://www.yelp.com/biz/surfkitchen-hamburg-2?adjust_creative=hBJOknVQJ58S5goQyjmwRw&utm_campaign=yelp_api_v3&utm_medium=api_v3_business_search&utm_source=hBJOknVQJ58S5goQyjmwRw", "review_count": 44, "categories": [{"alias": "pizza", "title": "Pizza"}], "rating": 3.5, "coordinates": {"latitude": 53.542744, "longitude": 10.000565}, "transactions": [], "price": "\u20ac\u20ac", "location": {"address1": "Hongkongstr. 2 - 4", "address2": null, "address3": "", "city": "Hamburg", "zip_code": "20457", "country": "DE", "state": "HH", "display_address": ["Hongkongstr. 2 - 4", "20457 Hamburg", "Germany"]}, "phone": "+494032041258", "display_phone": "+49 40 32041258", "distance": 1105.3277017817536}, {"id": "-7AsMKjzFEqv08oGkTiRJQ", "alias": "caf\u00e9-erlk\u00f6nig-hamburg", "name": "Caf\u00e9 Erlk\u00f6nig", "image_url": "https://s3-media1.fl.yelpcdn.com/bphoto/hchHbCdP0ugRIThJuyszDw/o.jpg", "is_closed": false, "url": "https://www.yelp.com/biz/caf%C3%A9-erlk%C3%B6nig-hamburg?adjust_creative=hBJOknVQJ58S5goQyjmwRw&utm_campaign=yelp_api_v3&utm_medium=api_v3_business_search&utm_source=hBJOknVQJ58S5goQyjmwRw", "review_count": 1, "categories": [{"alias": "bistros", "title": "Bistros"}, {"alias": "cafes", "title": "Cafes"}], "rating": 4.0, "coordinates": {"latitude": 53.54332, "longitude": 10.00248}, "transactions": [], "location": {"address1": "Prototyp Museum", "address2": "Shanghaiallee 7", "address3": "", "city": "Hamburg", "zip_code": "20457", "country": "DE", "state": "HH", "display_address": ["Prototyp Museum", "Shanghaiallee 7", "20457 Hamburg", "Germany"]}, "phone": "+494039996969", "display_phone": "+49 40 39996969", "distance": 1123.1725211253572}, {"id": "aH8otpspbETCTVVXTzibog", "alias": "kleine-heimat-hamburg-2", "name": "Kleine Heimat", "image_url": "https://s3-media1.fl.yelpcdn.com/bphoto/GIoxzMepntooyWwAB75-7w/o.jpg", "is_closed": false, "url": "https://www.yelp.com/biz/kleine-heimat-hamburg-2?adjust_creative=hBJOknVQJ58S5goQyjmwRw&utm_campaign=yelp_api_v3&utm_medium=api_v3_business_search&utm_source=hBJOknVQJ58S5goQyjmwRw", "review_count": 2, "categories": [{"alias": "cafes", "title": "Cafes"}, {"alias": "bistros", "title": "Bistros"}], "rating": 3.5, "coordinates": {"latitude": 53.54305, "longitude": 10.00059}, "transactions": [], "price": "\u20ac\u20ac", "location": {"address1": "Hongkongstr. 2 - 4", "address2": "", "address3": "", "city": "Hamburg", "zip_code": "20457", "country": "DE", "state": "HH", "display_address": ["Hongkongstr. 2 - 4", "20457 Hamburg", "Germany"]}, "phone": "+494032041259", "display_phone": "+49 40 32041259", "distance": 1115.324680615096}, {"id": "pRji4PKv8PrO3T9nDpt1Rg", "alias": "le-qu\u00e1n-hamburg-4", "name": "Le Qu\u00e1n", "image_url": "https://s3-media3.fl.yelpcdn.com/bphoto/MS255rUXtP1DIhZ-M1fz_A/o.jpg", "is_closed": false, "url": "https://www.yelp.com/biz/le-qu%C3%A1n-hamburg-4?adjust_creative=hBJOknVQJ58S5goQyjmwRw&utm_campaign=yelp_api_v3&utm_medium=api_v3_business_search&utm_source=hBJOknVQJ58S5goQyjmwRw", "review_count": 2, "categories": [{"alias": "vietnamese", "title": "Vietnamese"}], "rating": 2.0, "coordinates": {"latitude": 53.54270263082, "longitude": 10.0030912661316}, "transactions": [], "location": {"address1": "Steinschanze 2 A", "address2": "", "address3": null, "city": "Hamburg", "zip_code": "20457", "country": "DE", "state": "HH", "display_address": ["Steinschanze 2 A", "20457 Hamburg", "Germany"]}, "phone": "", "display_phone": "", "distance": 1063.3709334850712}, {"id": "agsFxbQGQBvZYfcNyHkhFg", "alias": "elbarkaden-lounge-hamburg", "name": "Elbarkaden Lounge", "image_url": "https://s3-media2.fl.yelpcdn.com/bphoto/B0R9SzdZcLEwpBu50TLGhA/o.jpg", "is_closed": false, "url": "https://www.yelp.com/biz/elbarkaden-lounge-hamburg?adjust_creative=hBJOknVQJ58S5goQyjmwRw&utm_campaign=yelp_api_v3&utm_medium=api_v3_business_search&utm_source=hBJOknVQJ58S5goQyjmwRw", "review_count": 7, "categories": [{"alias": "theater", "title": "Performing Arts"}, {"alias": "cafes", "title": "Cafes"}], "rating": 3.0, "coordinates": {"latitude": 53.5428944, "longitude": 10.0010078}, "transactions": [], "price": "\u20ac\u20ac", "location": {"address1": "Hongkongstr. 2 - 4", "address2": "", "address3": "", "city": "Hamburg", "zip_code": "20539", "country": "DE", "state": "HH", "display_address": ["Hongkongstr. 2 - 4", "20539 Hamburg", "Germany"]}, "phone": "+494035770777", "display_phone": "+49 40 35770777", "distance": 1113.133381211289}]