[{"id": "qx7w7LWJk0dhxP_9QcUlJw", "alias": "gasthaus-zur-post-hamburg", "name": "Gasthaus Zur Post", "image_url": "https://s3-media4.fl.yelpcdn.com/bphoto/jQXSKKFiMHuBVm3nQpWsgw/o.jpg", "is_closed": false, "url": "https://www.yelp.com/biz/gasthaus-zur-post-hamburg?adjust_creative=hBJOknVQJ58S5goQyjmwRw&utm_campaign=yelp_api_v3&utm_medium=api_v3_business_search&utm_source=hBJOknVQJ58S5goQyjmwRw", "review_count": 24, "categories": [{"alias": "german", "title": "German"}, {"alias": "seafood", "title": "Seafood"}], "rating": 4.5, "coordinates": {"latitude": 53.5346336458307, "longitude": 9.77853611111641}, "transactions": [], "price": "\u20ac\u20ac", "location": {"address1": "Estedeich 88", "address2": "", "address3": "", "city": "Hamburg", "zip_code": "21129", "country": "DE", "state": "HH", "display_address": ["Estedeich 88", "21129 Hamburg", "Germany"]}, "phone": "+49407459409", "display_phone": "+49 40 7459409", "distance": 1545.6420133494933}, {"id": "2wMF98mwT2lTdaQd7cVUgA", "alias": "restaurant-hintze-jork", "name": "Restaurant Hintze", "image_url": "https://s3-media2.fl.yelpcdn.com/bphoto/On32FoJuhMUKzZ2GkHokPw/o.jpg", "is_closed": false, "url": "https://www.yelp.com/biz/restaurant-hintze-jork?adjust_creative=hBJOknVQJ58S5goQyjmwRw&utm_campaign=yelp_api_v3&utm_medium=api_v3_business_search&utm_source=hBJOknVQJ58S5goQyjmwRw", "review_count": 5, "categories": [{"alias": "german", "title": "German"}], "rating": 4.0, "coordinates": {"latitude": 53.53201, "longitude": 9.76469}, "transactions": [], "price": "\u20ac\u20ac", "location": {"address1": "Leeswig 106", "address2": null, "address3": null, "city": "Jork", "zip_code": "21635", "country": "DE", "state": "NI", "display_address": ["Leeswig 106", "21635 Jork", "Germany"]}, "phone": "+49407459386", "display_phone": "+49 40 7459386", "distance": 994.1723488331832}, {"id": "pmfjBbGjE6HF23JPYRXdxw", "alias": "l\u00fctt-falkenstein-hamburg", "name": "L\u00fctt Falkenstein", "image_url": "https://s3-media3.fl.yelpcdn.com/bphoto/1cglaaLk9sntX0KRP5Z35A/o.jpg", "is_closed": false, "url": "https://www.yelp.com/biz/l%C3%BCtt-falkenstein-hamburg?adjust_creative=hBJOknVQJ58S5goQyjmwRw&utm_campaign=yelp_api_v3&utm_medium=api_v3_business_search&utm_source=hBJOknVQJ58S5goQyjmwRw", "review_count": 1, "categories": [{"alias": "bistros", "title": "Bistros"}], "rating": 5.0, "coordinates": {"latitude": 53.5622474893341, "longitude": 9.77977322366829}, "transactions": [], "location": {"address1": "Falkensteiner Ufer 54", "address2": "", "address3": "", "city": "Hamburg", "zip_code": "22587", "country": "DE", "state": "HH", "display_address": ["Falkensteiner Ufer 54", "22587 Hamburg", "Germany"]}, "phone": "+49408663023", "display_phone": "+49 40 8663023", "distance": 2946.744354413329}, {"id": "tO8v3GHCHj1-MNwL_qoTOg", "alias": "messologi-hamburg", "name": "Messologi", "image_url": "https://s3-media1.fl.yelpcdn.com/bphoto/JMa9ktHIf0rRnhCZBqw92A/o.jpg", "is_closed": false, "url": "https://www.yelp.com/biz/messologi-hamburg?adjust_creative=hBJOknVQJ58S5goQyjmwRw&utm_campaign=yelp_api_v3&utm_medium=api_v3_business_search&utm_source=hBJOknVQJ58S5goQyjmwRw", "review_count": 4, "categories": [{"alias": "greek", "title": "Greek"}], "rating": 5.0, "coordinates": {"latitude": 53.58144, "longitude": 9.76352}, "transactions": [], "price": "\u20ac\u20ac", "location": {"address1": "Alte S\u00fclldorfer Landstr. 422", "address2": "", "address3": null, "city": "Hamburg", "zip_code": "22559", "country": "DE", "state": "HH", "display_address": ["Alte S\u00fclldorfer Landstr. 422", "22559 Hamburg", "Germany"]}, "phone": "+494046649347", "display_phone": "+49 40 46649347", "distance": 4686.961922417005}, {"id": "M82FIuxPwcp7YmmKBQq_dw", "alias": "restaurant-altes-f\u00e4hrhaus-hamburg", "name": "Restaurant Altes F\u00e4hrhaus", "image_url": "https://s3-media3.fl.yelpcdn.com/bphoto/0iATsFKwDDuLZUSkafqOBQ/o.jpg", "is_closed": false, "url": "https://www.yelp.com/biz/restaurant-altes-f%C3%A4hrhaus-hamburg?adjust_creative=hBJOknVQJ58S5goQyjmwRw&utm_campaign=yelp_api_v3&utm_medium=api_v3_business_search&utm_source=hBJOknVQJ58S5goQyjmwRw", "review_count": 18, "categories": [{"alias": "cafes", "title": "Cafes"}, {"alias": "northerngerman", "title": "Northern German"}], "rating": 3.5, "coordinates": {"latitude": 53.534651, "longitude": 9.779566}, "transactions": [], "price": "\u20ac\u20ac", "location": {"address1": "Estedeich 94", "address2": "", "address3": "", "city": "Hamburg", "zip_code": "21129", "country": "DE", "state": "HH", "display_address": ["Estedeich 94", "21129 Hamburg", "Germany"]}, "phone": "+49407459132", "display_phone": "+49 40 7459132", "distance": 1608.7761915323765}, {"id": "yl5LluLYKFewDRZ0Z7lX5Q", "alias": "la-fattoria-hamburg", "name": "La Fattoria", "image_url": "https://s3-media4.fl.yelpcdn.com/bphoto/bHX7MFqrAYE6q5S56T0IlQ/o.jpg", "is_closed": false, "url": "https://www.yelp.com/biz/la-fattoria-hamburg?adjust_creative=hBJOknVQJ58S5goQyjmwRw&utm_campaign=yelp_api_v3&utm_medium=api_v3_business_search&utm_source=hBJOknVQJ58S5goQyjmwRw", "review_count": 22, "categories": [{"alias": "italian", "title": "Italian"}], "rating": 4.0, "coordinates": {"latitude": 53.5816, "longitude": 9.76039}, "transactions": [], "price": "\u20ac\u20ac", "location": {"address1": "Wedeler Landstr. 14", "address2": null, "address3": null, "city": "Hamburg", "zip_code": "22559", "country": "DE", "state": "HH", "display_address": ["Wedeler Landstr. 14", "22559 Hamburg", "Germany"]}, "phone": "+4940818121", "display_phone": "+49 40 818121", "distance": 4679.245369289656}, {"id": "hP-_zp7vj6qZ35tFWdZvtQ", "alias": "l-unico-hamburg", "name": "L'Unico", "image_url": "https://s3-media3.fl.yelpcdn.com/bphoto/G6EBPdxJ4K1CJL3GxpU6gA/o.jpg", "is_closed": false, "url": "https://www.yelp.com/biz/l-unico-hamburg?adjust_creative=hBJOknVQJ58S5goQyjmwRw&utm_campaign=yelp_api_v3&utm_medium=api_v3_business_search&utm_source=hBJOknVQJ58S5goQyjmwRw", "review_count": 18, "categories": [{"alias": "italian", "title": "Italian"}], "rating": 4.0, "coordinates": {"latitude": 53.5810025, "longitude": 9.7564681}, "transactions": [], "price": "\u20ac\u20ac", "location": {"address1": "Wedeler Landstr. 39", "address2": null, "address3": null, "city": "Hamburg", "zip_code": "22559", "country": "DE", "state": "HH", "display_address": ["Wedeler Landstr. 39", "22559 Hamburg", "Germany"]}, "phone": "+494082244924", "display_phone": "+49 40 82244924", "distance": 4606.390911063462}, {"id": "gk8jYhmGLaS-7YG-K6Bd8Q", "alias": "bistro-elbe-camp-hamburg", "name": "Bistro Elbe Camp", "image_url": "https://s3-media3.fl.yelpcdn.com/bphoto/Vo_HcQxkhEZnmvBDb_fTiA/o.jpg", "is_closed": false, "url": "https://www.yelp.com/biz/bistro-elbe-camp-hamburg?adjust_creative=hBJOknVQJ58S5goQyjmwRw&utm_campaign=yelp_api_v3&utm_medium=api_v3_business_search&utm_source=hBJOknVQJ58S5goQyjmwRw", "review_count": 1, "categories": [{"alias": "foodstands", "title": "Food Stands"}], "rating": 4.0, "coordinates": {"latitude": 53.56448, "longitude": 9.7672}, "transactions": [], "location": {"address1": "Falkensteiner Ufer 101", "address2": "", "address3": "", "city": "Hamburg", "zip_code": "22587", "country": "DE", "state": "HH", "display_address": ["Falkensteiner Ufer 101", "22587 Hamburg", "Germany"]}, "phone": "+4940812949", "display_phone": "+49 40 812949", "distance": 2781.0925682267853}, {"id": "9cNYn0POHbQXrmubo-Xpvw", "alias": "grossmutters-laecheln-hamburg", "name": "Grossmutters Laecheln", "image_url": "https://s3-media2.fl.yelpcdn.com/bphoto/1IFr9LiOdGw_vnRHA2vYJQ/o.jpg", "is_closed": false, "url": "https://www.yelp.com/biz/grossmutters-laecheln-hamburg?adjust_creative=hBJOknVQJ58S5goQyjmwRw&utm_campaign=yelp_api_v3&utm_medium=api_v3_business_search&utm_source=hBJOknVQJ58S5goQyjmwRw", "review_count": 5, "categories": [{"alias": "international", "title": "International"}, {"alias": "german", "title": "German"}], "rating": 3.5, "coordinates": {"latitude": 53.58168, "longitude": 9.76465}, "transactions": [], "price": "\u20ac\u20ac", "location": {"address1": "Alte S\u00fclldorfer Landstr. 420 C", "address2": null, "address3": "", "city": "Hamburg", "zip_code": "22559", "country": "DE", "state": "HH", "display_address": ["Alte S\u00fclldorfer Landstr. 420 C", "22559 Hamburg", "Germany"]}, "phone": "+4940180243405", "display_phone": "+49 40 180243405", "distance": 4715.071095469549}, {"id": "oDMAr7VX8Hs4morkGlFZGw", "alias": "zum-falkenstein-hamburg", "name": "Zum Falkenstein", "image_url": "https://s3-media3.fl.yelpcdn.com/bphoto/4QVVSkUDrCUNc5QTKPVoVw/o.jpg", "is_closed": false, "url": "https://www.yelp.com/biz/zum-falkenstein-hamburg?adjust_creative=hBJOknVQJ58S5goQyjmwRw&utm_campaign=yelp_api_v3&utm_medium=api_v3_business_search&utm_source=hBJOknVQJ58S5goQyjmwRw", "review_count": 35, "categories": [{"alias": "german", "title": "German"}], "rating": 3.0, "coordinates": {"latitude": 53.56726, "longitude": 9.7799}, "transactions": [], "price": "\u20ac\u20ac", "location": {"address1": "K\u00f6sterbergstr. 105", "address2": null, "address3": null, "city": "Hamburg", "zip_code": "22587", "country": "DE", "state": "HH", "display_address": ["K\u00f6sterbergstr. 105", "22587 Hamburg", "Germany"]}, "phone": "+4940861342", "display_phone": "+49 40 861342", "distance": 3444.014194155456}, {"id": "8avHWRsgk5z-CGajk6gNFQ", "alias": "imbiss-am-falkensteiner-ufer-hamburg", "name": "Imbiss am Falkensteiner Ufer", "image_url": "https://s3-media3.fl.yelpcdn.com/bphoto/6B9juUamE0TF6LAUAsE_tA/o.jpg", "is_closed": false, "url": "https://www.yelp.com/biz/imbiss-am-falkensteiner-ufer-hamburg?adjust_creative=hBJOknVQJ58S5goQyjmwRw&utm_campaign=yelp_api_v3&utm_medium=api_v3_business_search&utm_source=hBJOknVQJ58S5goQyjmwRw", "review_count": 5, "categories": [{"alias": "foodstands", "title": "Food Stands"}], "rating": 4.5, "coordinates": {"latitude": 53.56226, "longitude": 9.77992}, "transactions": [], "location": {"address1": "Falkensteiner Ufer 54", "address2": "", "address3": "", "city": "Hamburg", "zip_code": "22587", "country": "DE", "state": "HH", "display_address": ["Falkensteiner Ufer 54", "22587 Hamburg", "Germany"]}, "phone": "+49408663023", "display_phone": "+49 40 8663023", "distance": 2872.069365205423}, {"id": "TDRqBvQb5BCnLepqmgid_g", "alias": "kaffeeklatsch-hamburg", "name": "KaffeeKlatsch", "image_url": "https://s3-media3.fl.yelpcdn.com/bphoto/135blYig9_mHwRyig3YlFg/o.jpg", "is_closed": false, "url": "https://www.yelp.com/biz/kaffeeklatsch-hamburg?adjust_creative=hBJOknVQJ58S5goQyjmwRw&utm_campaign=yelp_api_v3&utm_medium=api_v3_business_search&utm_source=hBJOknVQJ58S5goQyjmwRw", "review_count": 1, "categories": [{"alias": "cafes", "title": "Cafes"}, {"alias": "bistros", "title": "Bistros"}, {"alias": "breakfast_brunch", "title": "Breakfast & Brunch"}], "rating": 5.0, "coordinates": {"latitude": 53.5819054315346, "longitude": 9.75603438913822}, "transactions": [], "price": "\u20ac\u20ac", "location": {"address1": "Wedeler Landstr. 44", "address2": "", "address3": "", "city": "Hamburg", "zip_code": "22559", "country": "DE", "state": "HH", "display_address": ["Wedeler Landstr. 44", "22559 Hamburg", "Germany"]}, "phone": "+494081997380", "display_phone": "+49 40 81997380", "distance": 4706.962271357392}, {"id": "h6sKaLEtgWEmk11-Hhr2-A", "alias": "d\u00f6ner-pavillon-hamburg-2", "name": "D\u00f6ner pavillon", "image_url": "https://s3-media1.fl.yelpcdn.com/bphoto/oAXuC1jnZ4koEx-bA3EeMg/o.jpg", "is_closed": false, "url": "https://www.yelp.com/biz/d%C3%B6ner-pavillon-hamburg-2?adjust_creative=hBJOknVQJ58S5goQyjmwRw&utm_campaign=yelp_api_v3&utm_medium=api_v3_business_search&utm_source=hBJOknVQJ58S5goQyjmwRw", "review_count": 4, "categories": [{"alias": "kebab", "title": "Kebab"}, {"alias": "cafes", "title": "Cafes"}], "rating": 4.5, "coordinates": {"latitude": 53.581732, "longitude": 9.754668}, "transactions": [], "price": "\u20ac\u20ac", "location": {"address1": "Wedeler Landstr. 53", "address2": null, "address3": null, "city": "Hamburg", "zip_code": "22559", "country": "DE", "state": "HH", "display_address": ["Wedeler Landstr. 53", "22559 Hamburg", "Germany"]}, "phone": "+494081956329", "display_phone": "+49 40 81956329", "distance": 4689.361839465663}, {"id": "oUBaCbG3SV1rBi1X80qPQw", "alias": "eis-kalte-schnauze-hamburg", "name": "Eis Kalte Schnauze", "image_url": "https://s3-media4.fl.yelpcdn.com/bphoto/R59AbpbRYQ9MsqnCtJ8-Vw/o.jpg", "is_closed": false, "url": "https://www.yelp.com/biz/eis-kalte-schnauze-hamburg?adjust_creative=hBJOknVQJ58S5goQyjmwRw&utm_campaign=yelp_api_v3&utm_medium=api_v3_business_search&utm_source=hBJOknVQJ58S5goQyjmwRw", "review_count": 6, "categories": [{"alias": "cafes", "title": "Cafes"}, {"alias": "icecream", "title": "Ice Cream & Frozen Yogurt"}], "rating": 4.5, "coordinates": {"latitude": 53.5818859251788, "longitude": 9.75732386112213}, "transactions": [], "price": "\u20ac", "location": {"address1": "Wedeler Landstr. 34", "address2": "", "address3": "", "city": "Hamburg", "zip_code": "22559", "country": "DE", "state": "HH", "display_address": ["Wedeler Landstr. 34", "22559 Hamburg", "Germany"]}, "phone": "+494033450670", "display_phone": "+49 40 33450670", "distance": 4704.797766648905}, {"id": "f3omhBxut0ZG1cXVNk9dwg", "alias": "delhi-masala-hamburg", "name": "Delhi Masala", "image_url": "https://s3-media1.fl.yelpcdn.com/bphoto/K98_NEbAF6euEgXt4KvurQ/o.jpg", "is_closed": false, "url": "https://www.yelp.com/biz/delhi-masala-hamburg?adjust_creative=hBJOknVQJ58S5goQyjmwRw&utm_campaign=yelp_api_v3&utm_medium=api_v3_business_search&utm_source=hBJOknVQJ58S5goQyjmwRw", "review_count": 2, "categories": [{"alias": "indpak", "title": "Indian"}], "rating": 3.5, "coordinates": {"latitude": 53.5816299, "longitude": 9.75837}, "transactions": [], "location": {"address1": "Wedeler Landstr. 29", "address2": "", "address3": null, "city": "Hamburg", "zip_code": "22559", "country": "DE", "state": "HH", "display_address": ["Wedeler Landstr. 29", "22559 Hamburg", "Germany"]}, "phone": "+494082244770", "display_phone": "+49 40 82244770", "distance": 4661.656326345613}, {"id": "mkZnMbI3jPtq3W1EHMsAFA", "alias": "pizza-service-johlo-hamburg", "name": "Pizza Service Johlo", "image_url": "https://s3-media2.fl.yelpcdn.com/bphoto/lzEL8j-Wm0zdecYDxvcsSg/o.jpg", "is_closed": false, "url": "https://www.yelp.com/biz/pizza-service-johlo-hamburg?adjust_creative=hBJOknVQJ58S5goQyjmwRw&utm_campaign=yelp_api_v3&utm_medium=api_v3_business_search&utm_source=hBJOknVQJ58S5goQyjmwRw", "review_count": 13, "categories": [{"alias": "pizza", "title": "Pizza"}], "rating": 3.5, "coordinates": {"latitude": 53.581772, "longitude": 9.754523}, "transactions": [], "price": "\u20ac\u20ac\u20ac\u20ac", "location": {"address1": "Wedeler Landstr. 53 F", "address2": null, "address3": null, "city": "Hamburg", "zip_code": "22559", "country": "DE", "state": "HH", "display_address": ["Wedeler Landstr. 53 F", "22559 Hamburg", "Germany"]}, "phone": "+4940818185", "display_phone": "+49 40 818185", "distance": 4694.088124907469}]