[{"id": "ehIPeTZTX2wUv9G75gaRlw", "alias": "restaurant-avantgarde-oststeinbek-2", "name": "Restaurant Avantgarde", "image_url": "https://s3-media1.fl.yelpcdn.com/bphoto/o1qQRcbHntXRepG0fSoYZw/o.jpg", "is_closed": false, "url": "https://www.yelp.com/biz/restaurant-avantgarde-oststeinbek-2?adjust_creative=hBJOknVQJ58S5goQyjmwRw&utm_campaign=yelp_api_v3&utm_medium=api_v3_business_search&utm_source=hBJOknVQJ58S5goQyjmwRw", "review_count": 13, "categories": [{"alias": "mediterranean", "title": "Mediterranean"}, {"alias": "international", "title": "International"}, {"alias": "italian", "title": "Italian"}], "rating": 5.0, "coordinates": {"latitude": 53.54229, "longitude": 10.16505}, "transactions": [], "price": "\u20ac\u20ac", "location": {"address1": "M\u00f6llner Landstr. 53 B", "address2": "", "address3": "", "city": "Oststeinbek", "zip_code": "22113", "country": "DE", "state": "SH", "display_address": ["M\u00f6llner Landstr. 53 B", "22113 Oststeinbek", "Germany"]}, "phone": "+494039909038", "display_phone": "+49 40 39909038", "distance": 1269.4442766060613}, {"id": "d3IaAPXLTYkqGqukAB81ig", "alias": "restaurant-rhodos-hamburg", "name": "Restaurant Rhodos", "image_url": "https://s3-media1.fl.yelpcdn.com/bphoto/BAyl-tsBuGD2Ja-FqHzoFQ/o.jpg", "is_closed": false, "url": "https://www.yelp.com/biz/restaurant-rhodos-hamburg?adjust_creative=hBJOknVQJ58S5goQyjmwRw&utm_campaign=yelp_api_v3&utm_medium=api_v3_business_search&utm_source=hBJOknVQJ58S5goQyjmwRw", "review_count": 12, "categories": [{"alias": "greek", "title": "Greek"}], "rating": 4.5, "coordinates": {"latitude": 53.5307, "longitude": 10.1257}, "transactions": [], "price": "\u20ac\u20ac", "location": {"address1": "Steinbeker Hauptstr. 75", "address2": "", "address3": null, "city": "Hamburg", "zip_code": "22117", "country": "DE", "state": "HH", "display_address": ["Steinbeker Hauptstr. 75", "22117 Hamburg", "Germany"]}, "phone": "+49407125732", "display_phone": "+49 40 7125732", "distance": 1663.5249233379577}, {"id": "MILCR88NZjj9cKF4jMdhZQ", "alias": "gasthaus-pampilo-oststeinbek-2", "name": "Gasthaus Pampilo", "image_url": "https://s3-media1.fl.yelpcdn.com/bphoto/PC0ouVQsR0-L1AHij4yQsQ/o.jpg", "is_closed": false, "url": "https://www.yelp.com/biz/gasthaus-pampilo-oststeinbek-2?adjust_creative=hBJOknVQJ58S5goQyjmwRw&utm_campaign=yelp_api_v3&utm_medium=api_v3_business_search&utm_source=hBJOknVQJ58S5goQyjmwRw", "review_count": 5, "categories": [{"alias": "steak", "title": "Steakhouses"}, {"alias": "german", "title": "German"}, {"alias": "guesthouses", "title": "Guest Houses"}], "rating": 3.5, "coordinates": {"latitude": 53.5413018185175, "longitude": 10.163794409787}, "transactions": [], "price": "\u20ac\u20ac", "location": {"address1": "M\u00f6llner Landstr. 22", "address2": "", "address3": "", "city": "Oststeinbek", "zip_code": "22113", "country": "DE", "state": "SH", "display_address": ["M\u00f6llner Landstr. 22", "22113 Oststeinbek", "Germany"]}, "phone": "+494071403410", "display_phone": "+49 40 71403410", "distance": 1120.2021377799501}, {"id": "zrz_KLCNk22s82RPnn8mNw", "alias": "weinkontor-retana-oststeinbek-2", "name": "Weinkontor Retana", "image_url": "https://s3-media2.fl.yelpcdn.com/bphoto/cu9XTncBI584BgUBqQAaJg/o.jpg", "is_closed": false, "url": "https://www.yelp.com/biz/weinkontor-retana-oststeinbek-2?adjust_creative=hBJOknVQJ58S5goQyjmwRw&utm_campaign=yelp_api_v3&utm_medium=api_v3_business_search&utm_source=hBJOknVQJ58S5goQyjmwRw", "review_count": 2, "categories": [{"alias": "tapas", "title": "Tapas Bars"}, {"alias": "wine_bars", "title": "Wine Bars"}, {"alias": "beer_and_wine", "title": "Beer, Wine & Spirits"}], "rating": 5.0, "coordinates": {"latitude": 53.5226187361936, "longitude": 10.1647896319628}, "transactions": [], "location": {"address1": "Dorfstr. 10", "address2": "", "address3": "", "city": "Oststeinbek", "zip_code": "22113", "country": "DE", "state": "SH", "display_address": ["Dorfstr. 10", "22113 Oststeinbek", "Germany"]}, "phone": "+494060174920", "display_phone": "+49 40 60174920", "distance": 1861.0393450451254}, {"id": "rHeMmmhUly1CN1-Ji-_ieA", "alias": "gasthof-schwarzenbeck-oststeinbek-2", "name": "Gasthof Schwarzenbeck", "image_url": "https://s3-media2.fl.yelpcdn.com/bphoto/GyazVxvfgiU9AFwVLyUswA/o.jpg", "is_closed": false, "url": "https://www.yelp.com/biz/gasthof-schwarzenbeck-oststeinbek-2?adjust_creative=hBJOknVQJ58S5goQyjmwRw&utm_campaign=yelp_api_v3&utm_medium=api_v3_business_search&utm_source=hBJOknVQJ58S5goQyjmwRw", "review_count": 5, "categories": [{"alias": "german", "title": "German"}], "rating": 5.0, "coordinates": {"latitude": 53.5258, "longitude": 10.1681}, "transactions": [], "price": "\u20ac", "location": {"address1": "Dorfstr. 26", "address2": null, "address3": null, "city": "Oststeinbek", "zip_code": "22113", "country": "DE", "state": "SH", "display_address": ["Dorfstr. 26", "22113 Oststeinbek", "Germany"]}, "phone": "+49407399494", "display_phone": "+49 40 7399494", "distance": 1733.9873425168216}, {"id": "PwnixbNNj6YxpjgCZXA3lQ", "alias": "hoang-mai-hamburg-2", "name": "Hoang Mai", "image_url": "https://s3-media1.fl.yelpcdn.com/bphoto/awdWkMRK6HkE6VeRsgv5EQ/o.jpg", "is_closed": false, "url": "https://www.yelp.com/biz/hoang-mai-hamburg-2?adjust_creative=hBJOknVQJ58S5goQyjmwRw&utm_campaign=yelp_api_v3&utm_medium=api_v3_business_search&utm_source=hBJOknVQJ58S5goQyjmwRw", "review_count": 29, "categories": [{"alias": "vietnamese", "title": "Vietnamese"}], "rating": 4.5, "coordinates": {"latitude": 53.5704, "longitude": 10.1358}, "transactions": [], "price": "\u20ac", "location": {"address1": "\u00d6jendorfer Damm 42", "address2": null, "address3": null, "city": "Hamburg", "zip_code": "22043", "country": "DE", "state": "HH", "display_address": ["\u00d6jendorfer Damm 42", "22043 Hamburg", "Germany"]}, "phone": "+494063643661", "display_phone": "+49 40 63643661", "distance": 3873.4318088918635}, {"id": "UZKZlvMH7wgM_xmO7Dmy6A", "alias": "china-restaurant-low-oststeinbek", "name": "China Restaurant Low", "image_url": "https://s3-media3.fl.yelpcdn.com/bphoto/eMmeNRhSJGaEkgDI1psJJQ/o.jpg", "is_closed": false, "url": "https://www.yelp.com/biz/china-restaurant-low-oststeinbek?adjust_creative=hBJOknVQJ58S5goQyjmwRw&utm_campaign=yelp_api_v3&utm_medium=api_v3_business_search&utm_source=hBJOknVQJ58S5goQyjmwRw", "review_count": 10, "categories": [{"alias": "chinese", "title": "Chinese"}], "rating": 4.5, "coordinates": {"latitude": 53.5422, "longitude": 10.1687}, "transactions": [], "price": "\u20ac\u20ac", "location": {"address1": "M\u00f6llner Landstr. 75", "address2": null, "address3": null, "city": "Oststeinbek", "zip_code": "22113", "country": "DE", "state": "SH", "display_address": ["M\u00f6llner Landstr. 75", "22113 Oststeinbek", "Germany"]}, "phone": "+49407132826", "display_phone": "+49 40 7132826", "distance": 1454.0064335681504}, {"id": "mZe6j2QML6tF6d3NR2nbTw", "alias": "akropolis-oststeinbek", "name": "Akropolis", "image_url": "https://s3-media3.fl.yelpcdn.com/bphoto/IRjUlv1doqNVBo9pZ0ynnA/o.jpg", "is_closed": false, "url": "https://www.yelp.com/biz/akropolis-oststeinbek?adjust_creative=hBJOknVQJ58S5goQyjmwRw&utm_campaign=yelp_api_v3&utm_medium=api_v3_business_search&utm_source=hBJOknVQJ58S5goQyjmwRw", "review_count": 19, "categories": [{"alias": "greek", "title": "Greek"}], "rating": 5.0, "coordinates": {"latitude": 53.5424, "longitude": 10.1727}, "transactions": [], "price": "\u20ac\u20ac", "location": {"address1": "M\u00f6llner Landstr.", "address2": null, "address3": null, "city": "Oststeinbek", "zip_code": "22113", "country": "DE", "state": "SH", "display_address": ["M\u00f6llner Landstr.", "22113 Oststeinbek", "Germany"]}, "phone": "+49407133752", "display_phone": "+49 40 7133752", "distance": 1703.9022369777492}, {"id": "r8OhsxjfOVrYibCJAKn9YQ", "alias": "restaurant-hellena-oststeinbek", "name": "Restaurant Hellena", "image_url": "https://s3-media2.fl.yelpcdn.com/bphoto/qZy41WwVa69VMr_5nw30IA/o.jpg", "is_closed": false, "url": "https://www.yelp.com/biz/restaurant-hellena-oststeinbek?adjust_creative=hBJOknVQJ58S5goQyjmwRw&utm_campaign=yelp_api_v3&utm_medium=api_v3_business_search&utm_source=hBJOknVQJ58S5goQyjmwRw", "review_count": 1, "categories": [{"alias": "greek", "title": "Greek"}], "rating": 5.0, "coordinates": {"latitude": 53.548, "longitude": 10.1681}, "transactions": [], "price": "\u20ac\u20ac", "location": {"address1": "Barsb\u00fctteler Weg 30", "address2": null, "address3": null, "city": "Oststeinbek", "zip_code": "22113", "country": "DE", "state": "SH", "display_address": ["Barsb\u00fctteler Weg 30", "22113 Oststeinbek", "Germany"]}, "phone": "+494071009431", "display_phone": "+49 40 71009431", "distance": 1803.452816879365}, {"id": "rDlxd3UlHXEkW57iYRzuRw", "alias": "arams-pizzaservice-hamburg", "name": "Arams Pizzaservice", "image_url": "https://s3-media1.fl.yelpcdn.com/bphoto/sbiCVzLNTTBYfVJ-c9h49A/o.jpg", "is_closed": false, "url": "https://www.yelp.com/biz/arams-pizzaservice-hamburg?adjust_creative=hBJOknVQJ58S5goQyjmwRw&utm_campaign=yelp_api_v3&utm_medium=api_v3_business_search&utm_source=hBJOknVQJ58S5goQyjmwRw", "review_count": 8, "categories": [{"alias": "italian", "title": "Italian"}, {"alias": "hotdogs", "title": "Fast Food"}], "rating": 4.5, "coordinates": {"latitude": 53.5293, "longitude": 10.1262}, "transactions": [], "price": "\u20ac\u20ac", "location": {"address1": "Steinbeker Hauptstr. 70", "address2": null, "address3": null, "city": "Hamburg", "zip_code": "22117", "country": "DE", "state": "HH", "display_address": ["Steinbeker Hauptstr. 70", "22117 Hamburg", "Germany"]}, "phone": "+494018995618", "display_phone": "+49 40 18995618", "distance": 1700.093255831641}, {"id": "6vMGNx_8DLrlBBt4Ih4VTw", "alias": "haifisch-sepp-hamburg", "name": "Haifisch Sepp", "image_url": "https://s3-media1.fl.yelpcdn.com/bphoto/PO1_9tZgitfbn4b2mze2Dg/o.jpg", "is_closed": false, "url": "https://www.yelp.com/biz/haifisch-sepp-hamburg?adjust_creative=hBJOknVQJ58S5goQyjmwRw&utm_campaign=yelp_api_v3&utm_medium=api_v3_business_search&utm_source=hBJOknVQJ58S5goQyjmwRw", "review_count": 4, "categories": [{"alias": "seafood", "title": "Seafood"}], "rating": 5.0, "coordinates": {"latitude": 53.5438666685488, "longitude": 10.1483882591128}, "transactions": [], "location": {"address1": "Glinder Str. 1", "address2": "", "address3": null, "city": "Hamburg", "zip_code": "22117", "country": "DE", "state": "HH", "display_address": ["Glinder Str. 1", "22117 Hamburg", "Germany"]}, "phone": "+494071009750", "display_phone": "+49 40 71009750", "distance": 825.397246359688}, {"id": "XPuVFytYhvVWWXO01qGyew", "alias": "pascha-d\u00f6ner-hamburg", "name": "Pascha D\u00f6ner", "image_url": "https://s3-media3.fl.yelpcdn.com/bphoto/olRB1zRRp9rBuXoIrf9kKg/o.jpg", "is_closed": false, "url": "https://www.yelp.com/biz/pascha-d%C3%B6ner-hamburg?adjust_creative=hBJOknVQJ58S5goQyjmwRw&utm_campaign=yelp_api_v3&utm_medium=api_v3_business_search&utm_source=hBJOknVQJ58S5goQyjmwRw", "review_count": 2, "categories": [{"alias": "kebab", "title": "Kebab"}], "rating": 3.5, "coordinates": {"latitude": 53.53844, "longitude": 10.12413}, "transactions": [], "price": "\u20ac", "location": {"address1": "M\u00f6llner Landstr. 130", "address2": "", "address3": "", "city": "Hamburg", "zip_code": "22117", "country": "DE", "state": "HH", "display_address": ["M\u00f6llner Landstr. 130", "22117 Hamburg", "Germany"]}, "phone": "", "display_phone": "", "distance": 1654.1719931433172}, {"id": "iJ_ll0vgvroDzBmPm7lncQ", "alias": "athen-palast-hamburg", "name": "Athen Palast", "image_url": "https://s3-media2.fl.yelpcdn.com/bphoto/HIJIJFHTZg4YodN1lKgeAA/o.jpg", "is_closed": false, "url": "https://www.yelp.com/biz/athen-palast-hamburg?adjust_creative=hBJOknVQJ58S5goQyjmwRw&utm_campaign=yelp_api_v3&utm_medium=api_v3_business_search&utm_source=hBJOknVQJ58S5goQyjmwRw", "review_count": 15, "categories": [{"alias": "greek", "title": "Greek"}], "rating": 4.5, "coordinates": {"latitude": 53.571, "longitude": 10.132}, "transactions": [], "price": "\u20ac\u20ac", "location": {"address1": "Rodigallee 294", "address2": null, "address3": null, "city": "Hamburg", "zip_code": "22043", "country": "DE", "state": "HH", "display_address": ["Rodigallee 294", "22043 Hamburg", "Germany"]}, "phone": "+494076976861", "display_phone": "+49 40 76976861", "distance": 4001.2871024661963}, {"id": "dbuDvcKN08AwyYSCumGXLw", "alias": "mr-grande-hamburg-3", "name": "Mr. Grande", "image_url": "https://s3-media4.fl.yelpcdn.com/bphoto/WonA8UDiFLw53BTfqLFcPg/o.jpg", "is_closed": false, "url": "https://www.yelp.com/biz/mr-grande-hamburg-3?adjust_creative=hBJOknVQJ58S5goQyjmwRw&utm_campaign=yelp_api_v3&utm_medium=api_v3_business_search&utm_source=hBJOknVQJ58S5goQyjmwRw", "review_count": 13, "categories": [{"alias": "tradamerican", "title": "American (Traditional)"}, {"alias": "steak", "title": "Steakhouses"}, {"alias": "bistros", "title": "Bistros"}], "rating": 4.0, "coordinates": {"latitude": 53.571000771076, "longitude": 10.1257433742285}, "transactions": [], "price": "\u20ac\u20ac", "location": {"address1": "Rodigallee 233", "address2": "", "address3": "", "city": "Hamburg", "zip_code": "22043", "country": "DE", "state": "HH", "display_address": ["Rodigallee 233", "22043 Hamburg", "Germany"]}, "phone": "+494065726655", "display_phone": "+49 40 65726655", "distance": 4136.009610317452}, {"id": "rAsVelSwPKX0rwgdY9du6A", "alias": "athina-hamburg-2", "name": "Athina", "image_url": "https://s3-media1.fl.yelpcdn.com/bphoto/neJUJ1smDqW-T2KDiInYrw/o.jpg", "is_closed": false, "url": "https://www.yelp.com/biz/athina-hamburg-2?adjust_creative=hBJOknVQJ58S5goQyjmwRw&utm_campaign=yelp_api_v3&utm_medium=api_v3_business_search&utm_source=hBJOknVQJ58S5goQyjmwRw", "review_count": 11, "categories": [{"alias": "greek", "title": "Greek"}], "rating": 3.5, "coordinates": {"latitude": 53.5399168041103, "longitude": 10.1349412213544}, "transactions": [], "price": "\u20ac\u20ac", "location": {"address1": "Wegkoppel 3", "address2": null, "address3": null, "city": "Hamburg", "zip_code": "22117", "country": "DE", "state": "HH", "display_address": ["Wegkoppel 3", "22117 Hamburg", "Germany"]}, "phone": "+494063655580", "display_phone": "+49 40 63655580", "distance": 1001.9519063158242}, {"id": "3H_lOdHixjS5Rd5zI3NmQg", "alias": "kinh-do-oststeinbek", "name": "Kinh Do", "image_url": "https://s3-media2.fl.yelpcdn.com/bphoto/1_jRLPtKCnu7AtAO2Ssnzg/o.jpg", "is_closed": false, "url": "https://www.yelp.com/biz/kinh-do-oststeinbek?adjust_creative=hBJOknVQJ58S5goQyjmwRw&utm_campaign=yelp_api_v3&utm_medium=api_v3_business_search&utm_source=hBJOknVQJ58S5goQyjmwRw", "review_count": 15, "categories": [{"alias": "vietnamese", "title": "Vietnamese"}], "rating": 3.5, "coordinates": {"latitude": 53.5499, "longitude": 10.1567}, "transactions": [], "price": "\u20ac\u20ac", "location": {"address1": "Gewerbering 12", "address2": null, "address3": null, "city": "Oststeinbek", "zip_code": "22113", "country": "DE", "state": "SH", "display_address": ["Gewerbering 12", "22113 Oststeinbek", "Germany"]}, "phone": "+494068871334", "display_phone": "+49 40 68871334", "distance": 1580.9941051301998}, {"id": "_vg4pfyemc0v2DEhXlfV_w", "alias": "deniz-kebap-haus-hamburg", "name": "Deniz Kebap Haus", "image_url": "", "is_closed": false, "url": "https://www.yelp.com/biz/deniz-kebap-haus-hamburg?adjust_creative=hBJOknVQJ58S5goQyjmwRw&utm_campaign=yelp_api_v3&utm_medium=api_v3_business_search&utm_source=hBJOknVQJ58S5goQyjmwRw", "review_count": 1, "categories": [{"alias": "kebab", "title": "Kebab"}], "rating": 5.0, "coordinates": {"latitude": 53.52541, "longitude": 10.15065}, "transactions": [], "location": {"address1": "Kandinskyallee 4 - 8", "address2": "", "address3": "", "city": "Hamburg", "zip_code": "22115", "country": "DE", "state": "HH", "display_address": ["Kandinskyallee 4 - 8", "22115 Hamburg", "Germany"]}, "phone": "", "display_phone": "", "distance": 1219.4016990702216}, {"id": "2ncLFilbbL3p2VwDs9fpGQ", "alias": "meyns-hamburg-2", "name": "Meyns", "image_url": "https://s3-media4.fl.yelpcdn.com/bphoto/KpQEGi338DIWzv1yBI2VEQ/o.jpg", "is_closed": false, "url": "https://www.yelp.com/biz/meyns-hamburg-2?adjust_creative=hBJOknVQJ58S5goQyjmwRw&utm_campaign=yelp_api_v3&utm_medium=api_v3_business_search&utm_source=hBJOknVQJ58S5goQyjmwRw", "review_count": 2, "categories": [{"alias": "cafes", "title": "Cafes"}], "rating": 4.5, "coordinates": {"latitude": 53.542, "longitude": 10.1392}, "transactions": [], "price": "\u20ac\u20ac", "location": {"address1": "M\u00f6llner Landstr. 229", "address2": null, "address3": null, "city": "Hamburg", "zip_code": "22117", "country": "DE", "state": "HH", "display_address": ["M\u00f6llner Landstr. 229", "22117 Hamburg", "Germany"]}, "phone": "+494089708422", "display_phone": "+49 40 89708422", "distance": 891.4750283646066}, {"id": "dGHvj7ZvUZcTMzLWoNlb0A", "alias": "dorfkrug-hamburg-3", "name": "Dorfkrug", "image_url": "https://s3-media4.fl.yelpcdn.com/bphoto/hlW6I8HGP3zTxxLSTNhBEw/o.jpg", "is_closed": false, "url": "https://www.yelp.com/biz/dorfkrug-hamburg-3?adjust_creative=hBJOknVQJ58S5goQyjmwRw&utm_campaign=yelp_api_v3&utm_medium=api_v3_business_search&utm_source=hBJOknVQJ58S5goQyjmwRw", "review_count": 30, "categories": [{"alias": "german", "title": "German"}], "rating": 3.0, "coordinates": {"latitude": 53.5069, "longitude": 10.1622}, "transactions": [], "price": "\u20ac\u20ac", "location": {"address1": "Boberger Furtweg 1", "address2": null, "address3": null, "city": "Hamburg", "zip_code": "21033", "country": "DE", "state": "HH", "display_address": ["Boberger Furtweg 1", "21033 Hamburg", "Germany"]}, "phone": "+49407398190", "display_phone": "+49 40 7398190", "distance": 3400.8658899355537}, {"id": "7n3VbNvGndnknyhA1KcYYw", "alias": "akropolis-restaurant-hamburg", "name": "Akropolis Restaurant", "image_url": "", "is_closed": false, "url": "https://www.yelp.com/biz/akropolis-restaurant-hamburg?adjust_creative=hBJOknVQJ58S5goQyjmwRw&utm_campaign=yelp_api_v3&utm_medium=api_v3_business_search&utm_source=hBJOknVQJ58S5goQyjmwRw", "review_count": 2, "categories": [{"alias": "steak", "title": "Steakhouses"}], "rating": 4.0, "coordinates": {"latitude": 53.51469, "longitude": 10.16777}, "transactions": [], "location": {"address1": "Heidhorst 4", "address2": "", "address3": null, "city": "Hamburg", "zip_code": "21031", "country": "DE", "state": "HH", "display_address": ["Heidhorst 4", "21031 Hamburg", "Germany"]}, "phone": "+494018235999", "display_phone": "+49 40 18235999", "distance": 2725.6881130210013}, {"id": "wQk9fn-Vh-TdrgC8j7m0lw", "alias": "imbiss-am-\u00f6jendorfer-park-hamburg", "name": "Imbiss am \u00d6jendorfer Park", "image_url": "https://s3-media3.fl.yelpcdn.com/bphoto/ooKVTJw1FvzHrke2_KOrug/o.jpg", "is_closed": false, "url": "https://www.yelp.com/biz/imbiss-am-%C3%B6jendorfer-park-hamburg?adjust_creative=hBJOknVQJ58S5goQyjmwRw&utm_campaign=yelp_api_v3&utm_medium=api_v3_business_search&utm_source=hBJOknVQJ58S5goQyjmwRw", "review_count": 3, "categories": [{"alias": "hotdogs", "title": "Fast Food"}], "rating": 4.0, "coordinates": {"latitude": 53.5645, "longitude": 10.1411}, "transactions": [], "location": {"address1": "Grootmoorredder", "address2": null, "address3": null, "city": "Hamburg", "zip_code": "22117", "country": "DE", "state": "HH", "display_address": ["Grootmoorredder", "22117 Hamburg", "Germany"]}, "phone": "+49407133270", "display_phone": "+49 40 7133270", "distance": 3161.598851974889}, {"id": "gvtbA9qV81QUCbQLCmLJ_A", "alias": "hof-neun-linden-hamburg", "name": "Hof Neun Linden", "image_url": "https://s3-media2.fl.yelpcdn.com/bphoto/WIFol5c1vAeZWyafy6dtzw/o.jpg", "is_closed": false, "url": "https://www.yelp.com/biz/hof-neun-linden-hamburg?adjust_creative=hBJOknVQJ58S5goQyjmwRw&utm_campaign=yelp_api_v3&utm_medium=api_v3_business_search&utm_source=hBJOknVQJ58S5goQyjmwRw", "review_count": 7, "categories": [{"alias": "cafes", "title": "Cafes"}, {"alias": "organic_stores", "title": "Organic Stores"}], "rating": 4.5, "coordinates": {"latitude": 53.5047, "longitude": 10.16919}, "transactions": [], "price": "\u20ac\u20ac\u20ac", "location": {"address1": "Billwerder Billdeich 480", "address2": "", "address3": "", "city": "Hamburg", "zip_code": "21033", "country": "DE", "state": "HH", "display_address": ["Billwerder Billdeich 480", "21033 Hamburg", "Germany"]}, "phone": "+494073928199", "display_phone": "+49 40 73928199", "distance": 3784.6966849612645}, {"id": "33QlrSuFYe5OTSqG3j7i-A", "alias": "hofladen-bernekehof-barsb\u00fcttel", "name": "Hofladen Bernekehof", "image_url": "https://s3-media2.fl.yelpcdn.com/bphoto/lcWzMgACoqFSse7iGh6FIQ/o.jpg", "is_closed": false, "url": "https://www.yelp.com/biz/hofladen-bernekehof-barsb%C3%BCttel?adjust_creative=hBJOknVQJ58S5goQyjmwRw&utm_campaign=yelp_api_v3&utm_medium=api_v3_business_search&utm_source=hBJOknVQJ58S5goQyjmwRw", "review_count": 1, "categories": [{"alias": "cafes", "title": "Cafes"}, {"alias": "organic_stores", "title": "Organic Stores"}], "rating": 5.0, "coordinates": {"latitude": 53.576038190667, "longitude": 10.169076807797}, "transactions": [], "location": {"address1": "R\u00e4hnwischredder 5", "address2": "", "address3": "", "city": "Barsb\u00fcttel", "zip_code": "22885", "country": "DE", "state": "SH", "display_address": ["R\u00e4hnwischredder 5", "22885 Barsb\u00fcttel", "Germany"]}, "phone": "+494067081458", "display_phone": "+49 40 67081458", "distance": 4598.530119474666}, {"id": "W9EAWUwf4GOi5eQkci3bHQ", "alias": "weinhaus-an-der-bergstrasse-hamburg-4", "name": "Weinhaus an der Bergstrasse", "image_url": "https://s3-media3.fl.yelpcdn.com/bphoto/m3tXdKYTsM4UdnF2INBrHg/o.jpg", "is_closed": false, "url": "https://www.yelp.com/biz/weinhaus-an-der-bergstrasse-hamburg-4?adjust_creative=hBJOknVQJ58S5goQyjmwRw&utm_campaign=yelp_api_v3&utm_medium=api_v3_business_search&utm_source=hBJOknVQJ58S5goQyjmwRw", "review_count": 6, "categories": [{"alias": "shopping", "title": "Shopping"}, {"alias": "bistros", "title": "Bistros"}, {"alias": "vacation_rentals", "title": "Vacation Rentals"}], "rating": 4.5, "coordinates": {"latitude": 53.51666, "longitude": 10.1574}, "transactions": [], "location": {"address1": "Am Langberg 104", "address2": "", "address3": "", "city": "Hamburg", "zip_code": "21033", "country": "DE", "state": "HH", "display_address": ["Am Langberg 104", "21033 Hamburg", "Germany"]}, "phone": "+49407399642", "display_phone": "+49 40 7399642", "distance": 2265.6646510073765}, {"id": "TGlVX1NeqMNA95qxbES1Rg", "alias": "caf\u00e9-winter-hamburg", "name": "Caf\u00e9 Winter", "image_url": "https://s3-media1.fl.yelpcdn.com/bphoto/ia4QVOBTLuG2yoMpxlaicQ/o.jpg", "is_closed": false, "url": "https://www.yelp.com/biz/caf%C3%A9-winter-hamburg?adjust_creative=hBJOknVQJ58S5goQyjmwRw&utm_campaign=yelp_api_v3&utm_medium=api_v3_business_search&utm_source=hBJOknVQJ58S5goQyjmwRw", "review_count": 2, "categories": [{"alias": "cafes", "title": "Cafes"}, {"alias": "cakeshop", "title": "Patisserie/Cake Shop"}], "rating": 3.5, "coordinates": {"latitude": 53.5403885, "longitude": 10.1359522}, "transactions": [], "location": {"address1": "M\u00f6llner Landstr. 202", "address2": "", "address3": "", "city": "Hamburg", "zip_code": "22117", "country": "DE", "state": "HH", "display_address": ["M\u00f6llner Landstr. 202", "22117 Hamburg", "Germany"]}, "phone": "+49407123388", "display_phone": "+49 40 7123388", "distance": 963.3101669707261}, {"id": "Yesr7nanDZ6qj_B9KlTWUA", "alias": "vu-imbiss-hamburg-2", "name": "Vu Imbiss", "image_url": "https://s3-media3.fl.yelpcdn.com/bphoto/Efpa3Z_bih_XM9cE3XQEaQ/o.jpg", "is_closed": false, "url": "https://www.yelp.com/biz/vu-imbiss-hamburg-2?adjust_creative=hBJOknVQJ58S5goQyjmwRw&utm_campaign=yelp_api_v3&utm_medium=api_v3_business_search&utm_source=hBJOknVQJ58S5goQyjmwRw", "review_count": 1, "categories": [{"alias": "panasian", "title": "Pan Asian"}, {"alias": "hotdogs", "title": "Fast Food"}], "rating": 3.0, "coordinates": {"latitude": 53.5422748, "longitude": 10.1404382}, "transactions": [], "location": {"address1": "M\u00f6llner Landstr. 240", "address2": "", "address3": null, "city": "Hamburg", "zip_code": "22117", "country": "DE", "state": "HH", "display_address": ["M\u00f6llner Landstr. 240", "22117 Hamburg", "Germany"]}, "phone": "", "display_phone": "", "distance": 857.1887360730772}, {"id": "3oy0T0eSrgkYIG3OVt31CQ", "alias": "restaurant-madison-hamburg", "name": "Restaurant Madison", "image_url": "https://s3-media1.fl.yelpcdn.com/bphoto/p0fgR9O22AnSiSiqpOr1Vg/o.jpg", "is_closed": false, "url": "https://www.yelp.com/biz/restaurant-madison-hamburg?adjust_creative=hBJOknVQJ58S5goQyjmwRw&utm_campaign=yelp_api_v3&utm_medium=api_v3_business_search&utm_source=hBJOknVQJ58S5goQyjmwRw", "review_count": 1, "categories": [{"alias": "international", "title": "International"}, {"alias": "greek", "title": "Greek"}], "rating": 3.0, "coordinates": {"latitude": 53.53109, "longitude": 10.14964}, "transactions": [], "location": {"address1": "Kandinskyallee 27", "address2": "", "address3": null, "city": "Hamburg", "zip_code": "22115", "country": "DE", "state": "HH", "display_address": ["Kandinskyallee 27", "22115 Hamburg", "Germany"]}, "phone": "+49407161983", "display_phone": "+49 40 7161983", "distance": 362.528875122646}, {"id": "pedUYCXfp2wOXnGQBPfzqw", "alias": "schwarzenbeck-oststeinbek-havighorst", "name": "Schwarzenbeck", "image_url": "https://s3-media2.fl.yelpcdn.com/bphoto/u4ZvIfwyLUJf4bGgxT3unw/o.jpg", "is_closed": false, "url": "https://www.yelp.com/biz/schwarzenbeck-oststeinbek-havighorst?adjust_creative=hBJOknVQJ58S5goQyjmwRw&utm_campaign=yelp_api_v3&utm_medium=api_v3_business_search&utm_source=hBJOknVQJ58S5goQyjmwRw", "review_count": 1, "categories": [{"alias": "german", "title": "German"}], "rating": 5.0, "coordinates": {"latitude": 53.5252914, "longitude": 10.1684103}, "transactions": [], "location": {"address1": "Dorfstr. 26", "address2": null, "address3": "", "city": "Oststeinbek-Havighorst", "zip_code": "22113", "country": "DE", "state": "SH", "display_address": ["Dorfstr. 26", "22113 Oststeinbek-Havighorst", "Germany"]}, "phone": "+49407399494", "display_phone": "+49 40 7399494", "distance": 1774.8969191800818}, {"id": "Sj3UwAhi9vGlIKnXqkeRxQ", "alias": "grill-j\u00fcrs-hamburg", "name": "Grill J\u00fcrs", "image_url": "https://s3-media3.fl.yelpcdn.com/bphoto/-lm-EJQXLT887MJqjQObXw/o.jpg", "is_closed": false, "url": "https://www.yelp.com/biz/grill-j%C3%BCrs-hamburg?adjust_creative=hBJOknVQJ58S5goQyjmwRw&utm_campaign=yelp_api_v3&utm_medium=api_v3_business_search&utm_source=hBJOknVQJ58S5goQyjmwRw", "review_count": 3, "categories": [{"alias": "chickenshop", "title": "Chicken Shop"}, {"alias": "hotdogs", "title": "Fast Food"}], "rating": 2.5, "coordinates": {"latitude": 53.53276, "longitude": 10.127}, "transactions": [], "price": "\u20ac\u20ac", "location": {"address1": "Kapellenstr. 95", "address2": "", "address3": null, "city": "Hamburg", "zip_code": "22117", "country": "DE", "state": "HH", "display_address": ["Kapellenstr. 95", "22117 Hamburg", "Germany"]}, "phone": "", "display_phone": "", "distance": 1506.0917182767596}, {"id": "HNqlIYhxzjON1G_cQ6ilbw", "alias": "kapelleneck-hamburg", "name": "Kapelleneck", "image_url": "https://s3-media2.fl.yelpcdn.com/bphoto/kGZCIcicPFPngv0eUX0pXQ/o.jpg", "is_closed": false, "url": "https://www.yelp.com/biz/kapelleneck-hamburg?adjust_creative=hBJOknVQJ58S5goQyjmwRw&utm_campaign=yelp_api_v3&utm_medium=api_v3_business_search&utm_source=hBJOknVQJ58S5goQyjmwRw", "review_count": 2, "categories": [{"alias": "gastropubs", "title": "Gastropubs"}, {"alias": "divebars", "title": "Dive Bars"}], "rating": 2.0, "coordinates": {"latitude": 53.53252, "longitude": 10.12782}, "transactions": [], "price": "\u20ac\u20ac", "location": {"address1": "Kapellenstr. 101", "address2": "", "address3": "", "city": "Hamburg", "zip_code": "22117", "country": "DE", "state": "HH", "display_address": ["Kapellenstr. 101", "22117 Hamburg", "Germany"]}, "phone": "", "display_phone": "", "distance": 1464.6709608044662}, {"id": "u3ub5f0MS4qY67Q8XF9ZoA", "alias": "sodemanns-fisch-kutter-nr-1-hamburg", "name": "Sodemann's Fisch-Kutter Nr. 1", "image_url": "https://s3-media3.fl.yelpcdn.com/bphoto/BlysP6fVPaL0eEjKvEbByw/o.jpg", "is_closed": false, "url": "https://www.yelp.com/biz/sodemanns-fisch-kutter-nr-1-hamburg?adjust_creative=hBJOknVQJ58S5goQyjmwRw&utm_campaign=yelp_api_v3&utm_medium=api_v3_business_search&utm_source=hBJOknVQJ58S5goQyjmwRw", "review_count": 3, "categories": [{"alias": "foodtrucks", "title": "Food Trucks"}, {"alias": "fischbroetchen", "title": "Fischbroetchen"}], "rating": 5.0, "coordinates": {"latitude": 53.5537490844727, "longitude": 9.99182987213135}, "transactions": [], "price": "\u20ac\u20ac", "location": {"address1": "", "address2": null, "address3": "", "city": "Hamburg", "zip_code": "", "country": "DE", "state": "HH", "display_address": ["Hamburg", "Germany"]}, "phone": "+491773606663", "display_phone": "+49 177 3606663", "distance": 10386.410588409972}, {"id": "yYwGm74NMQzZOS179rAIyg", "alias": "tunicis-restaurant-dubrovnik-hamburg-8", "name": "Tunici's Restaurant Dubrovnik", "image_url": "https://s3-media4.fl.yelpcdn.com/bphoto/zlt-f8RcuTk_ZBTqSBTIhQ/o.jpg", "is_closed": false, "url": "https://www.yelp.com/biz/tunicis-restaurant-dubrovnik-hamburg-8?adjust_creative=hBJOknVQJ58S5goQyjmwRw&utm_campaign=yelp_api_v3&utm_medium=api_v3_business_search&utm_source=hBJOknVQJ58S5goQyjmwRw", "review_count": 9, "categories": [{"alias": "serbocroatian", "title": "Serbo Croatian"}], "rating": 4.0, "coordinates": {"latitude": 53.5690861, "longitude": 10.1481019}, "transactions": [], "price": "\u20ac\u20ac", "location": {"address1": "Holsteiner Tor 2", "address2": "", "address3": "", "city": "Hamburg", "zip_code": "22043", "country": "DE", "state": "HH", "display_address": ["Holsteiner Tor 2", "22043 Hamburg", "Germany"]}, "phone": "+494053034944", "display_phone": "+49 40 53034944", "distance": 3629.289338721035}, {"id": "xIius7WMA0Bi73G0Pr1ebg", "alias": "artemis-hamburg-3", "name": "Artemis", "image_url": "", "is_closed": false, "url": "https://www.yelp.com/biz/artemis-hamburg-3?adjust_creative=hBJOknVQJ58S5goQyjmwRw&utm_campaign=yelp_api_v3&utm_medium=api_v3_business_search&utm_source=hBJOknVQJ58S5goQyjmwRw", "review_count": 2, "categories": [{"alias": "kebab", "title": "Kebab"}, {"alias": "turkish", "title": "Turkish"}], "rating": 4.0, "coordinates": {"latitude": 53.52957, "longitude": 10.14906}, "transactions": [], "location": {"address1": "M\u00fcmmelmannsberg 80", "address2": "", "address3": "", "city": "Hamburg", "zip_code": "22115", "country": "DE", "state": "HH", "display_address": ["M\u00fcmmelmannsberg 80", "22115 Hamburg", "Germany"]}, "phone": "+494076979530", "display_phone": "+49 40 76979530", "distance": 786.9131563017086}, {"id": "w3OLrOWhMpVNcX4z-L6tIA", "alias": "k\u00f6ray-burger-hamburg", "name": "K\u00f6ray Burger", "image_url": "", "is_closed": false, "url": "https://www.yelp.com/biz/k%C3%B6ray-burger-hamburg?adjust_creative=hBJOknVQJ58S5goQyjmwRw&utm_campaign=yelp_api_v3&utm_medium=api_v3_business_search&utm_source=hBJOknVQJ58S5goQyjmwRw", "review_count": 1, "categories": [{"alias": "halal", "title": "Halal"}, {"alias": "burgers", "title": "Burgers"}], "rating": 2.0, "coordinates": {"latitude": 53.52845, "longitude": 10.1490602}, "transactions": [], "price": "\u20ac", "location": {"address1": "Feiningerstr. 1", "address2": "", "address3": "", "city": "Hamburg", "zip_code": "22115", "country": "DE", "state": "HH", "display_address": ["Feiningerstr. 1", "22115 Hamburg", "Germany"]}, "phone": "", "display_phone": "", "distance": 887.4727458209095}, {"id": "rVH0jMvK1fmqnssif1buPQ", "alias": "backparadies-hornung-barsb\u00fcttel", "name": "Backparadies Hornung", "image_url": "https://s3-media1.fl.yelpcdn.com/bphoto/CCyhElpkoLsR8UCV6MwTOg/o.jpg", "is_closed": false, "url": "https://www.yelp.com/biz/backparadies-hornung-barsb%C3%BCttel?adjust_creative=hBJOknVQJ58S5goQyjmwRw&utm_campaign=yelp_api_v3&utm_medium=api_v3_business_search&utm_source=hBJOknVQJ58S5goQyjmwRw", "review_count": 4, "categories": [{"alias": "bakeries", "title": "Bakeries"}, {"alias": "restaurants", "title": "Restaurants"}], "rating": 4.5, "coordinates": {"latitude": 53.5692, "longitude": 10.1654}, "transactions": [], "price": "\u20ac\u20ac", "location": {"address1": "Barsb\u00fctteler Hof 2", "address2": null, "address3": null, "city": "Barsb\u00fcttel", "zip_code": "22885", "country": "DE", "state": "SH", "display_address": ["Barsb\u00fctteler Hof 2", "22885 Barsb\u00fcttel", "Germany"]}, "phone": "+49406704164", "display_phone": "+49 40 6704164", "distance": 3800.4583482414832}, {"id": "n_Yio-a9VzssOtDbgezpRA", "alias": "subu-sushi-burrito-hamburg-3", "name": "Subu Sushi Burrito", "image_url": "https://s3-media3.fl.yelpcdn.com/bphoto/x2oh5mzvkzvrXjswE_MjXQ/o.jpg", "is_closed": false, "url": "https://www.yelp.com/biz/subu-sushi-burrito-hamburg-3?adjust_creative=hBJOknVQJ58S5goQyjmwRw&utm_campaign=yelp_api_v3&utm_medium=api_v3_business_search&utm_source=hBJOknVQJ58S5goQyjmwRw", "review_count": 3, "categories": [{"alias": "foodtrucks", "title": "Food Trucks"}, {"alias": "sushi", "title": "Sushi Bars"}], "rating": 5.0, "coordinates": {"latitude": 53.5526819869811, "longitude": 10.0010880455375}, "transactions": [], "price": "\u20ac", "location": {"address1": "", "address2": "", "address3": "", "city": "Hamburg", "zip_code": "", "country": "DE", "state": "HH", "display_address": ["Hamburg", "Germany"]}, "phone": "+4917670834316", "display_phone": "+49 176 70834316", "distance": 9933.952915401243}, {"id": "2jzIbZsfzca5drJYk7JwbQ", "alias": "the-bao-bros-hamburg-2", "name": "The Bao Bros", "image_url": "https://s3-media1.fl.yelpcdn.com/bphoto/vUMA4Y35x3UwZk6fMJfZRw/o.jpg", "is_closed": false, "url": "https://www.yelp.com/biz/the-bao-bros-hamburg-2?adjust_creative=hBJOknVQJ58S5goQyjmwRw&utm_campaign=yelp_api_v3&utm_medium=api_v3_business_search&utm_source=hBJOknVQJ58S5goQyjmwRw", "review_count": 2, "categories": [{"alias": "foodtrucks", "title": "Food Trucks"}, {"alias": "burgers", "title": "Burgers"}], "rating": 4.0, "coordinates": {"latitude": 53.5533409118652, "longitude": 9.99246978759766}, "transactions": [], "price": "\u20ac", "location": {"address1": "", "address2": "", "address3": "", "city": "Hamburg", "zip_code": "", "country": "DE", "state": "HH", "display_address": ["Hamburg", "Germany"]}, "phone": "+4915140700076", "display_phone": "+49 1514 0700076", "distance": 10386.417114107306}, {"id": "Rgpp58Al09G3BqeH6Fjb0A", "alias": "mcdonalds-oststeinbek", "name": "McDonald's", "image_url": "https://s3-media3.fl.yelpcdn.com/bphoto/2TAGvWDAT1uZxiwPFwj5AA/o.jpg", "is_closed": false, "url": "https://www.yelp.com/biz/mcdonalds-oststeinbek?adjust_creative=hBJOknVQJ58S5goQyjmwRw&utm_campaign=yelp_api_v3&utm_medium=api_v3_business_search&utm_source=hBJOknVQJ58S5goQyjmwRw", "review_count": 5, "categories": [{"alias": "hotdogs", "title": "Fast Food"}, {"alias": "burgers", "title": "Burgers"}], "rating": 3.0, "coordinates": {"latitude": 53.54554, "longitude": 10.15259}, "transactions": [], "price": "\u20ac\u20ac", "location": {"address1": "Willinghusener Weg 1", "address2": null, "address3": null, "city": "Oststeinbek", "zip_code": "22113", "country": "DE", "state": "SH", "display_address": ["Willinghusener Weg 1", "22113 Oststeinbek", "Germany"]}, "phone": "", "display_phone": "", "distance": 1183.9129758146187}, {"id": "A8N57ICSJD8o7yw5XrY9Gg", "alias": "zum-\u00f6sterreicher-hamburg", "name": "Zum \u00d6sterreicher", "image_url": "https://s3-media1.fl.yelpcdn.com/bphoto/s8GD9zEsmwMJcwUt1gfYig/o.jpg", "is_closed": false, "url": "https://www.yelp.com/biz/zum-%C3%B6sterreicher-hamburg?adjust_creative=hBJOknVQJ58S5goQyjmwRw&utm_campaign=yelp_api_v3&utm_medium=api_v3_business_search&utm_source=hBJOknVQJ58S5goQyjmwRw", "review_count": 20, "categories": [{"alias": "austrian", "title": "Austrian"}], "rating": 3.0, "coordinates": {"latitude": 53.5704, "longitude": 10.1432}, "transactions": [], "price": "\u20ac\u20ac", "location": {"address1": "Barsb\u00fctteler Str. 43", "address2": null, "address3": null, "city": "Hamburg", "zip_code": "22043", "country": "DE", "state": "HH", "display_address": ["Barsb\u00fctteler Str. 43", "22043 Hamburg", "Germany"]}, "phone": "+49406545362", "display_phone": "+49 40 6545362", "distance": 3793.9442465180614}, {"id": "aIUJZyGJvftjDPuVqYqW9Q", "alias": "china-restaurant-china-town-barsb\u00fcttel", "name": "China-Restaurant China-Town", "image_url": "", "is_closed": false, "url": "https://www.yelp.com/biz/china-restaurant-china-town-barsb%C3%BCttel?adjust_creative=hBJOknVQJ58S5goQyjmwRw&utm_campaign=yelp_api_v3&utm_medium=api_v3_business_search&utm_source=hBJOknVQJ58S5goQyjmwRw", "review_count": 10, "categories": [{"alias": "chinese", "title": "Chinese"}], "rating": 3.5, "coordinates": {"latitude": 53.568716, "longitude": 10.170994}, "transactions": [], "price": "\u20ac\u20ac\u20ac", "location": {"address1": "Willinghusener Landstr. 18", "address2": null, "address3": null, "city": "Barsb\u00fcttel", "zip_code": "22885", "country": "DE", "state": "SH", "display_address": ["Willinghusener Landstr. 18", "22885 Barsb\u00fcttel", "Germany"]}, "phone": "+49406703677", "display_phone": "+49 40 6703677", "distance": 3872.3051079303937}, {"id": "pnsy0L9Tq_pRFPNPx7TGFg", "alias": "kayas-feinkost-oststeinbek", "name": "Kayas Feinkost", "image_url": "", "is_closed": false, "url": "https://www.yelp.com/biz/kayas-feinkost-oststeinbek?adjust_creative=hBJOknVQJ58S5goQyjmwRw&utm_campaign=yelp_api_v3&utm_medium=api_v3_business_search&utm_source=hBJOknVQJ58S5goQyjmwRw", "review_count": 1, "categories": [{"alias": "turkish", "title": "Turkish"}, {"alias": "delicatessen", "title": "Delicatessen"}], "rating": 4.0, "coordinates": {"latitude": 53.5455399, "longitude": 10.1525898}, "transactions": [], "location": {"address1": "im Ostkreuz Center", "address2": "Willinghusener Weg 1", "address3": "", "city": "Oststeinbek", "zip_code": "22113", "country": "DE", "state": "SH", "display_address": ["im Ostkreuz Center", "Willinghusener Weg 1", "22113 Oststeinbek", "Germany"]}, "phone": "", "display_phone": "", "distance": 1183.9129758146187}, {"id": "Ei_xSdhQJn3KWWWJmcP8nA", "alias": "asia-fu-loi-oststeinbek", "name": "Asia Fu Loi", "image_url": "https://s3-media1.fl.yelpcdn.com/bphoto/2TkbbYBj8Mj4Lta5BfNdhA/o.jpg", "is_closed": false, "url": "https://www.yelp.com/biz/asia-fu-loi-oststeinbek?adjust_creative=hBJOknVQJ58S5goQyjmwRw&utm_campaign=yelp_api_v3&utm_medium=api_v3_business_search&utm_source=hBJOknVQJ58S5goQyjmwRw", "review_count": 4, "categories": [{"alias": "panasian", "title": "Pan Asian"}, {"alias": "chinese", "title": "Chinese"}], "rating": 3.5, "coordinates": {"latitude": 53.54554, "longitude": 10.15259}, "transactions": [], "price": "\u20ac", "location": {"address1": "Willinghusener Weg 1", "address2": "", "address3": null, "city": "Oststeinbek", "zip_code": "22113", "country": "DE", "state": "SH", "display_address": ["Willinghusener Weg 1", "22113 Oststeinbek", "Germany"]}, "phone": "+494089708589", "display_phone": "+49 40 89708589", "distance": 1183.9129758146187}, {"id": "xTsKbMgTYm_2OW3Y_LBAEA", "alias": "hei\u00dfe-theke-oststeinbek", "name": "Hei\u00dfe Theke", "image_url": "https://s3-media2.fl.yelpcdn.com/bphoto/NIDTtyhZCWA2ho_-CeoPtA/o.jpg", "is_closed": false, "url": "https://www.yelp.com/biz/hei%C3%9Fe-theke-oststeinbek?adjust_creative=hBJOknVQJ58S5goQyjmwRw&utm_campaign=yelp_api_v3&utm_medium=api_v3_business_search&utm_source=hBJOknVQJ58S5goQyjmwRw", "review_count": 1, "categories": [{"alias": "hotdogs", "title": "Fast Food"}, {"alias": "breakfast_brunch", "title": "Breakfast & Brunch"}], "rating": 3.0, "coordinates": {"latitude": 53.54554, "longitude": 10.15259}, "transactions": [], "price": "\u20ac", "location": {"address1": "Willinghusener Weg 1", "address2": "", "address3": null, "city": "Oststeinbek", "zip_code": "22113", "country": "DE", "state": "SH", "display_address": ["Willinghusener Weg 1", "22113 Oststeinbek", "Germany"]}, "phone": "+491763915382", "display_phone": "+49 176 3915382", "distance": 1183.9129758146187}, {"id": "5Sn38ahcsarLwL27Rsy5NQ", "alias": "urfa-sofrasi-hamburg", "name": "Urfa Sofrasi", "image_url": "", "is_closed": false, "url": "https://www.yelp.com/biz/urfa-sofrasi-hamburg?adjust_creative=hBJOknVQJ58S5goQyjmwRw&utm_campaign=yelp_api_v3&utm_medium=api_v3_business_search&utm_source=hBJOknVQJ58S5goQyjmwRw", "review_count": 2, "categories": [{"alias": "turkish", "title": "Turkish"}, {"alias": "hotdogs", "title": "Fast Food"}], "rating": 3.0, "coordinates": {"latitude": 53.5709, "longitude": 10.1364}, "transactions": [], "location": {"address1": "Barsb\u00fctteler Str. 2", "address2": null, "address3": null, "city": "Hamburg", "zip_code": "22043", "country": "DE", "state": "HH", "display_address": ["Barsb\u00fctteler Str. 2", "22043 Hamburg", "Germany"]}, "phone": "", "display_phone": "", "distance": 3919.068061198969}, {"id": "05yN6vX4GZjaksTXtS9yoA", "alias": "mcdonalds-hamburg-54", "name": "McDonald's", "image_url": "", "is_closed": false, "url": "https://www.yelp.com/biz/mcdonalds-hamburg-54?adjust_creative=hBJOknVQJ58S5goQyjmwRw&utm_campaign=yelp_api_v3&utm_medium=api_v3_business_search&utm_source=hBJOknVQJ58S5goQyjmwRw", "review_count": 8, "categories": [{"alias": "hotdogs", "title": "Fast Food"}, {"alias": "burgers", "title": "Burgers"}], "rating": 2.0, "coordinates": {"latitude": 53.5704, "longitude": 10.144}, "transactions": [], "price": "\u20ac\u20ac\u20ac", "location": {"address1": "Barsb\u00fctteler Str. 45", "address2": null, "address3": null, "city": "Hamburg", "zip_code": "22043", "country": "DE", "state": "HH", "display_address": ["Barsb\u00fctteler Str. 45", "22043 Hamburg", "Germany"]}, "phone": "+494071403859", "display_phone": "+49 40 71403859", "distance": 3789.0303135013955}, {"id": "vrlAmOoaKTGM_b4_FMaRdQ", "alias": "h\u00e4hnchen-grill-hamburg", "name": "H\u00e4hnchen Grill", "image_url": "https://s3-media2.fl.yelpcdn.com/bphoto/vAQnrItTD_GSC9Xj0rNbEg/o.jpg", "is_closed": false, "url": "https://www.yelp.com/biz/h%C3%A4hnchen-grill-hamburg?adjust_creative=hBJOknVQJ58S5goQyjmwRw&utm_campaign=yelp_api_v3&utm_medium=api_v3_business_search&utm_source=hBJOknVQJ58S5goQyjmwRw", "review_count": 4, "categories": [{"alias": "hotdogs", "title": "Fast Food"}, {"alias": "kebab", "title": "Kebab"}], "rating": 3.5, "coordinates": {"latitude": 53.5726, "longitude": 10.1362}, "transactions": [], "location": {"address1": "Bei den H\u00f6fen 82", "address2": null, "address3": null, "city": "Hamburg", "zip_code": "22043", "country": "DE", "state": "HH", "display_address": ["Bei den H\u00f6fen 82", "22043 Hamburg", "Germany"]}, "phone": "+494049297744", "display_phone": "+49 40 49297744", "distance": 4106.707771424891}, {"id": "WydBmafvTE05XL8cvXh1tg", "alias": "burger-king-hamburg-20", "name": "Burger King", "image_url": "https://s3-media4.fl.yelpcdn.com/bphoto/V3cb0OD0lYxuwjOswhJ4DA/o.jpg", "is_closed": false, "url": "https://www.yelp.com/biz/burger-king-hamburg-20?adjust_creative=hBJOknVQJ58S5goQyjmwRw&utm_campaign=yelp_api_v3&utm_medium=api_v3_business_search&utm_source=hBJOknVQJ58S5goQyjmwRw", "review_count": 21, "categories": [{"alias": "burgers", "title": "Burgers"}, {"alias": "hotdogs", "title": "Fast Food"}], "rating": 2.5, "coordinates": {"latitude": 53.5139571611171, "longitude": 10.1691299087044}, "transactions": [], "price": "\u20ac\u20ac", "location": {"address1": "Reinbeker Redder 2", "address2": "", "address3": "", "city": "Hamburg", "zip_code": "21031", "country": "DE", "state": "HH", "display_address": ["Reinbeker Redder 2", "21031 Hamburg", "Germany"]}, "phone": "+494041092480", "display_phone": "+49 40 41092480", "distance": 2835.059790235452}, {"id": "SeodQIjOcsrznD7rwIB-Jw", "alias": "the-big-balmy-hamburg-2", "name": "The Big Balmy", "image_url": "https://s3-media2.fl.yelpcdn.com/bphoto/KWUCQvGDONs_iDxlKXzgvQ/o.jpg", "is_closed": false, "url": "https://www.yelp.com/biz/the-big-balmy-hamburg-2?adjust_creative=hBJOknVQJ58S5goQyjmwRw&utm_campaign=yelp_api_v3&utm_medium=api_v3_business_search&utm_source=hBJOknVQJ58S5goQyjmwRw", "review_count": 27, "categories": [{"alias": "burgers", "title": "Burgers"}, {"alias": "foodtrucks", "title": "Food Trucks"}], "rating": 3.5, "coordinates": {"latitude": 53.537786, "longitude": 10.028218}, "transactions": [], "price": "\u20ac\u20ac", "location": {"address1": "", "address2": null, "address3": null, "city": "Hamburg", "zip_code": "", "country": "DE", "state": "HH", "display_address": ["Hamburg", "Germany"]}, "phone": "+494069278630", "display_phone": "+49 40 69278630", "distance": 7978.890648621624}, {"id": "APvIA_7ssxgC0atmQEFMcg", "alias": "burgerkultour-food-truck-hamburg-2", "name": "BurgerKultour Food Truck", "image_url": "https://s3-media4.fl.yelpcdn.com/bphoto/KoAuwalMnlAO8139MmdYBQ/o.jpg", "is_closed": false, "url": "https://www.yelp.com/biz/burgerkultour-food-truck-hamburg-2?adjust_creative=hBJOknVQJ58S5goQyjmwRw&utm_campaign=yelp_api_v3&utm_medium=api_v3_business_search&utm_source=hBJOknVQJ58S5goQyjmwRw", "review_count": 3, "categories": [{"alias": "foodtrucks", "title": "Food Trucks"}, {"alias": "burgers", "title": "Burgers"}], "rating": 4.5, "coordinates": {"latitude": 53.57154, "longitude": 9.95575}, "transactions": [], "price": "\u20ac\u20ac", "location": {"address1": "", "address2": "", "address3": "", "city": "Hamburg", "zip_code": "20259", "country": "DE", "state": "HH", "display_address": ["20259 Hamburg", "Germany"]}, "phone": "+4917626055122", "display_phone": "+49 176 26055122", "distance": 13287.012512103272}, {"id": "cVtqr-CLZgOP7-5DzRs-FQ", "alias": "asia-wok-leviet-hamburg", "name": "Asia Wok Leviet", "image_url": "https://s3-media1.fl.yelpcdn.com/bphoto/HvgxnIlIqtwPUvmoanLiwA/o.jpg", "is_closed": false, "url": "https://www.yelp.com/biz/asia-wok-leviet-hamburg?adjust_creative=hBJOknVQJ58S5goQyjmwRw&utm_campaign=yelp_api_v3&utm_medium=api_v3_business_search&utm_source=hBJOknVQJ58S5goQyjmwRw", "review_count": 2, "categories": [{"alias": "chinese", "title": "Chinese"}], "rating": 2.5, "coordinates": {"latitude": 53.5711, "longitude": 10.1355}, "transactions": [], "price": "\u20ac", "location": {"address1": "Rodigallee 303", "address2": null, "address3": null, "city": "Hamburg", "zip_code": "22043", "country": "DE", "state": "HH", "display_address": ["Rodigallee 303", "22043 Hamburg", "Germany"]}, "phone": "+494088305569", "display_phone": "+49 40 88305569", "distance": 3953.7282410445832}, {"id": "LIA9nEzM_IPAg7aWOAuvjg", "alias": "tasty-croque-barsb\u00fcttel", "name": "Tasty Croque", "image_url": "", "is_closed": false, "url": "https://www.yelp.com/biz/tasty-croque-barsb%C3%BCttel?adjust_creative=hBJOknVQJ58S5goQyjmwRw&utm_campaign=yelp_api_v3&utm_medium=api_v3_business_search&utm_source=hBJOknVQJ58S5goQyjmwRw", "review_count": 13, "categories": [{"alias": "creperies", "title": "Creperies"}, {"alias": "sandwiches", "title": "Sandwiches"}], "rating": 3.5, "coordinates": {"latitude": 53.5689387, "longitude": 10.1739782}, "transactions": [], "price": "\u20ac", "location": {"address1": "Willinghusener Landstr. 11b", "address2": null, "address3": null, "city": "Barsb\u00fcttel", "zip_code": "22885", "country": "DE", "state": "SH", "display_address": ["Willinghusener Landstr. 11b", "22885 Barsb\u00fcttel", "Germany"]}, "phone": "+49406703588", "display_phone": "+49 40 6703588", "distance": 3973.2059929929233}, {"id": "cGIKCcR0wZszz8VldC2-7g", "alias": "currywerk-hamburg", "name": "curryWERK", "image_url": "https://s3-media4.fl.yelpcdn.com/bphoto/j_ZPQAB6JrAru84VDuLiRA/o.jpg", "is_closed": false, "url": "https://www.yelp.com/biz/currywerk-hamburg?adjust_creative=hBJOknVQJ58S5goQyjmwRw&utm_campaign=yelp_api_v3&utm_medium=api_v3_business_search&utm_source=hBJOknVQJ58S5goQyjmwRw", "review_count": 1, "categories": [{"alias": "foodtrucks", "title": "Food Trucks"}, {"alias": "currysausage", "title": "Curry Sausage"}], "rating": 4.0, "coordinates": {"latitude": 53.5498886108398, "longitude": 9.94732189178467}, "transactions": [], "price": "\u20ac\u20ac", "location": {"address1": "", "address2": "", "address3": "", "city": "Hamburg", "zip_code": "22767", "country": "DE", "state": "HH", "display_address": ["22767 Hamburg", "Germany"]}, "phone": "+4917632443433", "display_phone": "+49 176 32443433", "distance": 13703.1226714923}]