[{"id": "30Xz3mel8TbRRX3IAlLVcQ", "alias": "klein-und-kaiserlich-hamburg", "name": "Klein und Kaiserlich", "image_url": "https://s3-media2.fl.yelpcdn.com/bphoto/joyF9IQ3Z3PaeXKJnV-sew/o.jpg", "is_closed": false, "url": "https://www.yelp.com/biz/klein-und-kaiserlich-hamburg?adjust_creative=hBJOknVQJ58S5goQyjmwRw&utm_campaign=yelp_api_v3&utm_medium=api_v3_business_search&utm_source=hBJOknVQJ58S5goQyjmwRw", "review_count": 63, "categories": [{"alias": "cafes", "title": "Cafes"}, {"alias": "austrian", "title": "Austrian"}], "rating": 4.5, "coordinates": {"latitude": 53.54162, "longitude": 9.98991}, "transactions": [], "price": "\u20ac\u20ac", "location": {"address1": "Am Kaiserkai 26", "address2": "", "address3": "", "city": "Hamburg", "zip_code": "20457", "country": "DE", "state": "HH", "display_address": ["Am Kaiserkai 26", "20457 Hamburg", "Germany"]}, "phone": "+494036122480", "display_phone": "+49 40 36122480", "distance": 927.3604312925085}, {"id": "ILqK9rW4j1b3Ja6fDxDDnA", "alias": "bootshaus-grill-und-bar-hamburg", "name": "Bootshaus Grill & Bar", "image_url": "https://s3-media4.fl.yelpcdn.com/bphoto/JvcoSf_LmAQaStUlcZ5-9Q/o.jpg", "is_closed": false, "url": "https://www.yelp.com/biz/bootshaus-grill-und-bar-hamburg?adjust_creative=hBJOknVQJ58S5goQyjmwRw&utm_campaign=yelp_api_v3&utm_medium=api_v3_business_search&utm_source=hBJOknVQJ58S5goQyjmwRw", "review_count": 12, "categories": [{"alias": "bars", "title": "Bars"}, {"alias": "steak", "title": "Steakhouses"}], "rating": 5.0, "coordinates": {"latitude": 53.541368, "longitude": 9.990977}, "transactions": [], "price": "\u20ac\u20ac\u20ac", "location": {"address1": "Am Kaiserkai 19", "address2": "", "address3": null, "city": "Hamburg", "zip_code": "20457", "country": "DE", "state": "HH", "display_address": ["Am Kaiserkai 19", "20457 Hamburg", "Germany"]}, "phone": "+494033473744", "display_phone": "+49 40 33473744", "distance": 889.5978658374501}, {"id": "VZCKntP0-sBz93HOjjYieA", "alias": "feinkost-hafencity-hamburg", "name": "Feinkost Hafencity", "image_url": "https://s3-media2.fl.yelpcdn.com/bphoto/8up_4bRdco4f3dzf9tqHXQ/o.jpg", "is_closed": false, "url": "https://www.yelp.com/biz/feinkost-hafencity-hamburg?adjust_creative=hBJOknVQJ58S5goQyjmwRw&utm_campaign=yelp_api_v3&utm_medium=api_v3_business_search&utm_source=hBJOknVQJ58S5goQyjmwRw", "review_count": 33, "categories": [{"alias": "delicatessen", "title": "Delicatessen"}, {"alias": "german", "title": "German"}], "rating": 4.0, "coordinates": {"latitude": 53.5413849462088, "longitude": 9.99018193575137}, "transactions": [], "price": "\u20ac\u20ac", "location": {"address1": "Am Kaiserkai 27", "address2": "", "address3": null, "city": "Hamburg", "zip_code": "20457", "country": "DE", "state": "HH", "display_address": ["Am Kaiserkai 27", "20457 Hamburg", "Germany"]}, "phone": "+494036122587", "display_phone": "+49 40 36122587", "distance": 890.8897223705274}, {"id": "D0QJeA5CeKN13iI5UUvI-g", "alias": "vlet-in-der-speicherstadt-hamburg-6", "name": "VLET in der Speicherstadt", "image_url": "https://s3-media2.fl.yelpcdn.com/bphoto/XDm5jJKrrGMDNfIkN-Z97A/o.jpg", "is_closed": false, "url": "https://www.yelp.com/biz/vlet-in-der-speicherstadt-hamburg-6?adjust_creative=hBJOknVQJ58S5goQyjmwRw&utm_campaign=yelp_api_v3&utm_medium=api_v3_business_search&utm_source=hBJOknVQJ58S5goQyjmwRw", "review_count": 144, "categories": [{"alias": "northerngerman", "title": "Northern German"}], "rating": 4.5, "coordinates": {"latitude": 53.5433995641781, "longitude": 9.99326111170046}, "transactions": [], "price": "\u20ac\u20ac\u20ac", "location": {"address1": "Am Sandtorkai 23/24", "address2": "", "address3": null, "city": "Hamburg", "zip_code": "20457", "country": "DE", "state": "HH", "display_address": ["Am Sandtorkai 23/24", "20457 Hamburg", "Germany"]}, "phone": "+4940334753750", "display_phone": "+49 40 334753750", "distance": 1130.3703346162458}, {"id": "nKLMEm0RFcMCqr-hHCFnRA", "alias": "musica-\u00e9-hamburg-2", "name": "Musica \u00c9", "image_url": "https://s3-media1.fl.yelpcdn.com/bphoto/LiyIj5ikdpfDU2b7zGzbqw/o.jpg", "is_closed": false, "url": "https://www.yelp.com/biz/musica-%C3%A9-hamburg-2?adjust_creative=hBJOknVQJ58S5goQyjmwRw&utm_campaign=yelp_api_v3&utm_medium=api_v3_business_search&utm_source=hBJOknVQJ58S5goQyjmwRw", "review_count": 12, "categories": [{"alias": "italian", "title": "Italian"}], "rating": 4.5, "coordinates": {"latitude": 53.5418124791937, "longitude": 9.99400204852759}, "transactions": [], "price": "\u20ac\u20ac", "location": {"address1": "Grosser Grasbrook 9", "address2": "", "address3": "", "city": "Hamburg", "zip_code": "20457", "country": "DE", "state": "HH", "display_address": ["Grosser Grasbrook 9", "20457 Hamburg", "Germany"]}, "phone": "+494030066222", "display_phone": "+49 40 30066222", "distance": 967.5534515708674}, {"id": "Ky-jJxTL7hzwNMsLq0x77g", "alias": "coast-by-east-hamburg", "name": "COAST by east", "image_url": "https://s3-media1.fl.yelpcdn.com/bphoto/KqUdBK0UDMWrgn_t2u_bGg/o.jpg", "is_closed": false, "url": "https://www.yelp.com/biz/coast-by-east-hamburg?adjust_creative=hBJOknVQJ58S5goQyjmwRw&utm_campaign=yelp_api_v3&utm_medium=api_v3_business_search&utm_source=hBJOknVQJ58S5goQyjmwRw", "review_count": 105, "categories": [{"alias": "lounges", "title": "Lounges"}, {"alias": "seafood", "title": "Seafood"}, {"alias": "panasian", "title": "Pan Asian"}], "rating": 4.0, "coordinates": {"latitude": 53.5399843600016, "longitude": 9.9927248452301}, "transactions": [], "price": "\u20ac\u20ac\u20ac\u20ac", "location": {"address1": "Gro\u00dfer Grasbrook 14", "address2": "", "address3": "", "city": "Hamburg", "zip_code": "20457", "country": "DE", "state": "HH", "display_address": ["Gro\u00dfer Grasbrook 14", "20457 Hamburg", "Germany"]}, "phone": "+494030993230", "display_phone": "+49 40 30993230", "distance": 750.5151971247883}, {"id": "iL6n3MD2huvdcvuWpDlmlg", "alias": "carls-an-der-elbphilharmonie-hamburg-3", "name": "CARLS an der Elbphilharmonie", "image_url": "https://s3-media1.fl.yelpcdn.com/bphoto/e8gzhqvy7fkKSUm_6mnXtQ/o.jpg", "is_closed": false, "url": "https://www.yelp.com/biz/carls-an-der-elbphilharmonie-hamburg-3?adjust_creative=hBJOknVQJ58S5goQyjmwRw&utm_campaign=yelp_api_v3&utm_medium=api_v3_business_search&utm_source=hBJOknVQJ58S5goQyjmwRw", "review_count": 180, "categories": [{"alias": "bistros", "title": "Bistros"}, {"alias": "french", "title": "French"}, {"alias": "cafes", "title": "Cafes"}], "rating": 4.0, "coordinates": {"latitude": 53.5410899, "longitude": 9.98586}, "transactions": [], "price": "\u20ac\u20ac\u20ac", "location": {"address1": "Am Kaiserkai 69", "address2": null, "address3": null, "city": "Hamburg", "zip_code": "20457", "country": "DE", "state": "HH", "display_address": ["Am Kaiserkai 69", "20457 Hamburg", "Germany"]}, "phone": "+4940300322400", "display_phone": "+49 40 300322400", "distance": 900.8284182707071}, {"id": "9lDR8fn7TqjOQKDTg0z7bA", "alias": "flammhus-hamburg", "name": "Flamm'hus", "image_url": "https://s3-media4.fl.yelpcdn.com/bphoto/buB8dDXp98dtKGfEKHIGzQ/o.jpg", "is_closed": false, "url": "https://www.yelp.com/biz/flammhus-hamburg?adjust_creative=hBJOknVQJ58S5goQyjmwRw&utm_campaign=yelp_api_v3&utm_medium=api_v3_business_search&utm_source=hBJOknVQJ58S5goQyjmwRw", "review_count": 2, "categories": [{"alias": "french", "title": "French"}], "rating": 4.5, "coordinates": {"latitude": 53.5434711188396, "longitude": 9.99269017442168}, "transactions": [], "price": "\u20ac", "location": {"address1": "Am Sandtorkai 23", "address2": "", "address3": "", "city": "Hamburg", "zip_code": "20457", "country": "DE", "state": "HH", "display_address": ["Am Sandtorkai 23", "20457 Hamburg", "Germany"]}, "phone": "+4915782278431", "display_phone": "+49 1578 2278431", "distance": 1132.6231704851275}, {"id": "dzh-C65f2F1ACj7kQjTzAw", "alias": "kaiser-perle-hamburg", "name": "Kaiser Perle", "image_url": "https://s3-media2.fl.yelpcdn.com/bphoto/Enyuk6ds6ynu0ff24H-aWg/o.jpg", "is_closed": false, "url": "https://www.yelp.com/biz/kaiser-perle-hamburg?adjust_creative=hBJOknVQJ58S5goQyjmwRw&utm_campaign=yelp_api_v3&utm_medium=api_v3_business_search&utm_source=hBJOknVQJ58S5goQyjmwRw", "review_count": 37, "categories": [{"alias": "bistros", "title": "Bistros"}, {"alias": "cafes", "title": "Cafes"}, {"alias": "seafood", "title": "Seafood"}], "rating": 4.0, "coordinates": {"latitude": 53.54095, "longitude": 9.9879}, "transactions": [], "price": "\u20ac\u20ac", "location": {"address1": "Am Kaiserkai 47", "address2": null, "address3": null, "city": "Hamburg", "zip_code": "20457", "country": "DE", "state": "HH", "display_address": ["Am Kaiserkai 47", "20457 Hamburg", "Germany"]}, "phone": "+494022601572", "display_phone": "+49 40 22601572", "distance": 888.8447916543902}, {"id": "fnsDGlsWpmNG8DOR1qiKsw", "alias": "j-r-tolkien-hamburg", "name": "J.R. Tolkien", "image_url": "https://s3-media3.fl.yelpcdn.com/bphoto/35L3oH0u5U_cKIqLxEz0Ug/o.jpg", "is_closed": false, "url": "https://www.yelp.com/biz/j-r-tolkien-hamburg?adjust_creative=hBJOknVQJ58S5goQyjmwRw&utm_campaign=yelp_api_v3&utm_medium=api_v3_business_search&utm_source=hBJOknVQJ58S5goQyjmwRw", "review_count": 3, "categories": [{"alias": "landmarks", "title": "Landmarks & Historical Buildings"}, {"alias": "cafes", "title": "Cafes"}, {"alias": "tours", "title": "Tours"}], "rating": 4.5, "coordinates": {"latitude": 53.5423, "longitude": 9.9876}, "transactions": [], "price": "\u20ac", "location": {"address1": "Am Sandtorkai 66", "address2": "", "address3": null, "city": "Hamburg", "zip_code": "20457", "country": "DE", "state": "HH", "display_address": ["Am Sandtorkai 66", "20457 Hamburg", "Germany"]}, "phone": "", "display_phone": "", "distance": 1009.9292879315931}, {"id": "DNUCGQzRLQKR1slpNvQydQ", "alias": "india-house-hamburg", "name": "India House", "image_url": "https://s3-media3.fl.yelpcdn.com/bphoto/TUKHR61syb3zYXE58c6D0A/o.jpg", "is_closed": false, "url": "https://www.yelp.com/biz/india-house-hamburg?adjust_creative=hBJOknVQJ58S5goQyjmwRw&utm_campaign=yelp_api_v3&utm_medium=api_v3_business_search&utm_source=hBJOknVQJ58S5goQyjmwRw", "review_count": 22, "categories": [{"alias": "indpak", "title": "Indian"}], "rating": 4.5, "coordinates": {"latitude": 53.5415156, "longitude": 9.9876281}, "transactions": [], "price": "\u20ac\u20ac", "location": {"address1": "Am Kaiserkai 46", "address2": "", "address3": "", "city": "Hamburg", "zip_code": "20457", "country": "DE", "state": "HH", "display_address": ["Am Kaiserkai 46", "20457 Hamburg", "Germany"]}, "phone": "+494030069666", "display_phone": "+49 40 30069666", "distance": 923.9817724093407}, {"id": "5FEovvh1FpVlKsafCYE6Yw", "alias": "louis-hamburg-7", "name": "LOUIS", "image_url": "https://s3-media1.fl.yelpcdn.com/bphoto/cNYKPCHSV9ZiJ24pK8LCxA/o.jpg", "is_closed": false, "url": "https://www.yelp.com/biz/louis-hamburg-7?adjust_creative=hBJOknVQJ58S5goQyjmwRw&utm_campaign=yelp_api_v3&utm_medium=api_v3_business_search&utm_source=hBJOknVQJ58S5goQyjmwRw", "review_count": 1, "categories": [{"alias": "popuprestaurants", "title": "Pop-Up Restaurants"}], "rating": 5.0, "coordinates": {"latitude": 53.5410899, "longitude": 9.98586}, "transactions": [], "location": {"address1": "Am Kaiserkai 69", "address2": "", "address3": null, "city": "Hamburg", "zip_code": "20457", "country": "DE", "state": "HH", "display_address": ["Am Kaiserkai 69", "20457 Hamburg", "Germany"]}, "phone": "+494082255128", "display_phone": "+49 40 82255128", "distance": 900.7479393196911}, {"id": "a9AX85x8HAAA98RM1K4jRA", "alias": "olafs-currywurst-bude-hamburg-2", "name": "Olafs Currywurst Bude", "image_url": "https://s3-media2.fl.yelpcdn.com/bphoto/krUJ7sl1MWoSVxcZE1B0uw/o.jpg", "is_closed": false, "url": "https://www.yelp.com/biz/olafs-currywurst-bude-hamburg-2?adjust_creative=hBJOknVQJ58S5goQyjmwRw&utm_campaign=yelp_api_v3&utm_medium=api_v3_business_search&utm_source=hBJOknVQJ58S5goQyjmwRw", "review_count": 1, "categories": [{"alias": "currysausage", "title": "Curry Sausage"}], "rating": 5.0, "coordinates": {"latitude": 53.53405, "longitude": 9.98225}, "transactions": [], "location": {"address1": "", "address2": "", "address3": "", "city": "Hamburg", "zip_code": "20457", "country": "DE", "state": "HH", "display_address": ["20457 Hamburg", "Germany"]}, "phone": "+491724517705", "display_phone": "+49 172 4517705", "distance": 391.91642925495853}, {"id": "Bf1L9FKNttL_7sYlWzxrfA", "alias": "mama-marta-hamburg", "name": "Mama Marta", "image_url": "https://s3-media1.fl.yelpcdn.com/bphoto/Q862SklLSVYQa4XNcHgneg/o.jpg", "is_closed": false, "url": "https://www.yelp.com/biz/mama-marta-hamburg?adjust_creative=hBJOknVQJ58S5goQyjmwRw&utm_campaign=yelp_api_v3&utm_medium=api_v3_business_search&utm_source=hBJOknVQJ58S5goQyjmwRw", "review_count": 1, "categories": [{"alias": "salad", "title": "Salad"}, {"alias": "cafes", "title": "Cafes"}, {"alias": "icecream", "title": "Ice Cream & Frozen Yogurt"}], "rating": 5.0, "coordinates": {"latitude": 53.5404590130426, "longitude": 9.99640591442585}, "transactions": [], "location": {"address1": "Am Grasbrookpark 1", "address2": "", "address3": null, "city": "Hamburg", "zip_code": "20457", "country": "DE", "state": "HH", "display_address": ["Am Grasbrookpark 1", "20457 Hamburg", "Germany"]}, "phone": "+494088361510", "display_phone": "+49 40 88361510", "distance": 881.2890466630546}, {"id": "zCZISyTZ-_-ntKnzXaUePA", "alias": "der-fisch-hamburg-2", "name": "Der Fisch", "image_url": "https://s3-media3.fl.yelpcdn.com/bphoto/MMSdukzJ9fJNKJC_ocmumw/o.jpg", "is_closed": false, "url": "https://www.yelp.com/biz/der-fisch-hamburg-2?adjust_creative=hBJOknVQJ58S5goQyjmwRw&utm_campaign=yelp_api_v3&utm_medium=api_v3_business_search&utm_source=hBJOknVQJ58S5goQyjmwRw", "review_count": 2, "categories": [{"alias": "fishnchips", "title": "Fish & Chips"}], "rating": 4.0, "coordinates": {"latitude": 53.5415, "longitude": 9.99097}, "transactions": [], "price": "\u20ac\u20ac", "location": {"address1": "Am Kaiserkai 21", "address2": "", "address3": null, "city": "Hamburg", "zip_code": "20457", "country": "DE", "state": "HH", "display_address": ["Am Kaiserkai 21", "20457 Hamburg", "Germany"]}, "phone": "", "display_phone": "", "distance": 904.2451082522339}, {"id": "OGi20UaonbGvjXaPL6rLXw", "alias": "coast-enoteca-hamburg", "name": "coast enoteca", "image_url": "https://s3-media2.fl.yelpcdn.com/bphoto/L0a0YxBxhUsTbFmziyPGoQ/o.jpg", "is_closed": false, "url": "https://www.yelp.com/biz/coast-enoteca-hamburg?adjust_creative=hBJOknVQJ58S5goQyjmwRw&utm_campaign=yelp_api_v3&utm_medium=api_v3_business_search&utm_source=hBJOknVQJ58S5goQyjmwRw", "review_count": 6, "categories": [{"alias": "german", "title": "German"}], "rating": 4.5, "coordinates": {"latitude": 53.5408387, "longitude": 9.993787}, "transactions": [], "price": "\u20ac\u20ac\u20ac", "location": {"address1": "Gro\u00dfer Grasbrook 14", "address2": null, "address3": "", "city": "Hamburg", "zip_code": "20457", "country": "DE", "state": "HH", "display_address": ["Gro\u00dfer Grasbrook 14", "20457 Hamburg", "Germany"]}, "phone": "+494030993230", "display_phone": "+49 40 30993230", "distance": 859.1748411585291}, {"id": "8giRBBJSnmq09hRMN1l38g", "alias": "kaisers-hamburg", "name": "Kaisers", "image_url": "https://s3-media3.fl.yelpcdn.com/bphoto/k_2_ys9C7M_mlJ37GWBKrw/o.jpg", "is_closed": false, "url": "https://www.yelp.com/biz/kaisers-hamburg?adjust_creative=hBJOknVQJ58S5goQyjmwRw&utm_campaign=yelp_api_v3&utm_medium=api_v3_business_search&utm_source=hBJOknVQJ58S5goQyjmwRw", "review_count": 116, "categories": [{"alias": "bars", "title": "Bars"}, {"alias": "german", "title": "German"}], "rating": 3.5, "coordinates": {"latitude": 53.54143, "longitude": 9.9899}, "transactions": [], "price": "\u20ac\u20ac", "location": {"address1": "Am Kaiserkai 23", "address2": null, "address3": null, "city": "Hamburg", "zip_code": "20457", "country": "DE", "state": "HH", "display_address": ["Am Kaiserkai 23", "20457 Hamburg", "Germany"]}, "phone": "+494036091790", "display_phone": "+49 40 36091790", "distance": 865.0366246509709}, {"id": "Gv8eJ6-i_hLVAvVfh-9XaA", "alias": "langnese-caf\u00e9-hamburg-3", "name": "Langnese Caf\u00e9", "image_url": "https://s3-media2.fl.yelpcdn.com/bphoto/SolTXHRoi8aul1yvRUPyEQ/o.jpg", "is_closed": false, "url": "https://www.yelp.com/biz/langnese-caf%C3%A9-hamburg-3?adjust_creative=hBJOknVQJ58S5goQyjmwRw&utm_campaign=yelp_api_v3&utm_medium=api_v3_business_search&utm_source=hBJOknVQJ58S5goQyjmwRw", "review_count": 30, "categories": [{"alias": "cafes", "title": "Cafes"}], "rating": 4.0, "coordinates": {"latitude": 53.5387580301, "longitude": 9.99357276686476}, "transactions": [], "price": "\u20ac\u20ac", "location": {"address1": "Unilever-Haus", "address2": "Am Strandkai 1", "address3": "", "city": "Hamburg", "zip_code": "20457", "country": "DE", "state": "HH", "display_address": ["Unilever-Haus", "Am Strandkai 1", "20457 Hamburg", "Germany"]}, "phone": "+494036090801", "display_phone": "+49 40 36090801", "distance": 633.693848825691}, {"id": "0UgI_mU6LASLeUbTgEm6Yw", "alias": "chilli-club-hamburg", "name": "Chilli Club", "image_url": "https://s3-media2.fl.yelpcdn.com/bphoto/XbdGB_F6EydoagAqnngcAg/o.jpg", "is_closed": false, "url": "https://www.yelp.com/biz/chilli-club-hamburg?adjust_creative=hBJOknVQJ58S5goQyjmwRw&utm_campaign=yelp_api_v3&utm_medium=api_v3_business_search&utm_source=hBJOknVQJ58S5goQyjmwRw", "review_count": 161, "categories": [{"alias": "lounges", "title": "Lounges"}, {"alias": "panasian", "title": "Pan Asian"}], "rating": 3.5, "coordinates": {"latitude": 53.5430443, "longitude": 9.9929694}, "transactions": [], "price": "\u20ac\u20ac\u20ac", "location": {"address1": "Am Sandtorkai 54", "address2": "", "address3": null, "city": "Hamburg", "zip_code": "20457", "country": "DE", "state": "HH", "display_address": ["Am Sandtorkai 54", "20457 Hamburg", "Germany"]}, "phone": "+494035703580", "display_phone": "+49 40 35703580", "distance": 1088.2910853113497}, {"id": "DnxzX3Ukf4Si0sxDFJ-cbQ", "alias": "bianc-hamburg", "name": "Bianc", "image_url": "https://s3-media3.fl.yelpcdn.com/bphoto/aLVoE95KhLTBdelIOj_4OQ/o.jpg", "is_closed": false, "url": "https://www.yelp.com/biz/bianc-hamburg?adjust_creative=hBJOknVQJ58S5goQyjmwRw&utm_campaign=yelp_api_v3&utm_medium=api_v3_business_search&utm_source=hBJOknVQJ58S5goQyjmwRw", "review_count": 3, "categories": [{"alias": "mediterranean", "title": "Mediterranean"}], "rating": 5.0, "coordinates": {"latitude": 53.54317, "longitude": 9.99422}, "transactions": [], "price": "\u20ac\u20ac\u20ac\u20ac", "location": {"address1": "Am Sandtorkai 50", "address2": "", "address3": null, "city": "Hamburg", "zip_code": "20457", "country": "DE", "state": "HH", "display_address": ["Am Sandtorkai 50", "20457 Hamburg", "Germany"]}, "phone": "+494018119797", "display_phone": "+49 40 18119797", "distance": 1104.91881459873}, {"id": "KXnX88Y_aVPlau75q7SLtA", "alias": "kinfelts-kitchen-und-wine-hamburg", "name": "Kinfelts Kitchen & Wine", "image_url": "https://s3-media2.fl.yelpcdn.com/bphoto/6oiuu_L7v0QctHv9-_E9uA/o.jpg", "is_closed": false, "url": "https://www.yelp.com/biz/kinfelts-kitchen-und-wine-hamburg?adjust_creative=hBJOknVQJ58S5goQyjmwRw&utm_campaign=yelp_api_v3&utm_medium=api_v3_business_search&utm_source=hBJOknVQJ58S5goQyjmwRw", "review_count": 3, "categories": [{"alias": "german", "title": "German"}, {"alias": "wine_bars", "title": "Wine Bars"}], "rating": 4.5, "coordinates": {"latitude": 53.54146, "longitude": 9.98681}, "transactions": [], "location": {"address1": "Am Kaiserkai 56", "address2": "", "address3": null, "city": "Hamburg", "zip_code": "20457", "country": "DE", "state": "HH", "display_address": ["Am Kaiserkai 56", "20457 Hamburg", "Germany"]}, "phone": "+494030068369", "display_phone": "+49 40 30068369", "distance": 936.1033992074966}, {"id": "o74sT37WfXS9qlnJK9F4Rg", "alias": "st\u00f6rtebeker-elbphilharmonie-hamburg", "name": "St\u00f6rtebeker Elbphilharmonie", "image_url": "https://s3-media1.fl.yelpcdn.com/bphoto/jNVgwXln7gTeG8nWV_SPeg/o.jpg", "is_closed": false, "url": "https://www.yelp.com/biz/st%C3%B6rtebeker-elbphilharmonie-hamburg?adjust_creative=hBJOknVQJ58S5goQyjmwRw&utm_campaign=yelp_api_v3&utm_medium=api_v3_business_search&utm_source=hBJOknVQJ58S5goQyjmwRw", "review_count": 36, "categories": [{"alias": "northerngerman", "title": "Northern German"}, {"alias": "beerbar", "title": "Beer Bar"}], "rating": 3.5, "coordinates": {"latitude": 53.5412569, "longitude": 9.9850363}, "transactions": [], "price": "\u20ac\u20ac\u20ac", "location": {"address1": "Platz der Deutschen Einheit 3", "address2": "", "address3": null, "city": "Hamburg", "zip_code": "20457", "country": "DE", "state": "HH", "display_address": ["Platz der Deutschen Einheit 3", "20457 Hamburg", "Germany"]}, "phone": "+494060533810", "display_phone": "+49 40 60533810", "distance": 946.1490888171896}, {"id": "LkwAO7QWzdgDfDTSlXdoVg", "alias": "bistro-hanseatic-hamburg", "name": "Bistro Hanseatic", "image_url": "https://s3-media1.fl.yelpcdn.com/bphoto/7Xgz55DODDvPRqZI1xITxQ/o.jpg", "is_closed": false, "url": "https://www.yelp.com/biz/bistro-hanseatic-hamburg?adjust_creative=hBJOknVQJ58S5goQyjmwRw&utm_campaign=yelp_api_v3&utm_medium=api_v3_business_search&utm_source=hBJOknVQJ58S5goQyjmwRw", "review_count": 16, "categories": [{"alias": "bistros", "title": "Bistros"}], "rating": 3.5, "coordinates": {"latitude": 53.54387, "longitude": 9.98578}, "transactions": [], "price": "\u20ac\u20ac", "location": {"address1": "Kehrwieder 9a", "address2": "", "address3": "", "city": "Hamburg", "zip_code": "20457", "country": "DE", "state": "HH", "display_address": ["Kehrwieder 9a", "20457 Hamburg", "Germany"]}, "phone": "+494037503273", "display_phone": "+49 40 37503273", "distance": 1179.1221993058987}, {"id": "eH-z4D_0m1HaN71xKExiaA", "alias": "green-lovers-hamburg-2", "name": "green lovers", "image_url": "https://s3-media4.fl.yelpcdn.com/bphoto/wm9Bh3-uf0Njjw9qOX9KMQ/o.jpg", "is_closed": false, "url": "https://www.yelp.com/biz/green-lovers-hamburg-2?adjust_creative=hBJOknVQJ58S5goQyjmwRw&utm_campaign=yelp_api_v3&utm_medium=api_v3_business_search&utm_source=hBJOknVQJ58S5goQyjmwRw", "review_count": 5, "categories": [{"alias": "salad", "title": "Salad"}, {"alias": "hotdogs", "title": "Fast Food"}, {"alias": "soup", "title": "Soup"}], "rating": 4.0, "coordinates": {"latitude": 53.5412483, "longitude": 9.9865999}, "transactions": [], "price": "\u20ac", "location": {"address1": "Am Kaiserkai 65", "address2": "", "address3": "", "city": "Hamburg", "zip_code": "20457", "country": "DE", "state": "HH", "display_address": ["Am Kaiserkai 65", "20457 Hamburg", "Germany"]}, "phone": "+494069279364", "display_phone": "+49 40 69279364", "distance": 916.1402130734556}, {"id": "WPiIa5Gb52GoC8GkrZ5PIA", "alias": "sala-thai-hamburg", "name": "Sala Thai", "image_url": "https://s3-media2.fl.yelpcdn.com/bphoto/G7IjuyKq9kDALfU5uBYueA/o.jpg", "is_closed": false, "url": "https://www.yelp.com/biz/sala-thai-hamburg?adjust_creative=hBJOknVQJ58S5goQyjmwRw&utm_campaign=yelp_api_v3&utm_medium=api_v3_business_search&utm_source=hBJOknVQJ58S5goQyjmwRw", "review_count": 77, "categories": [{"alias": "thai", "title": "Thai"}], "rating": 3.5, "coordinates": {"latitude": 53.5412255436235, "longitude": 9.99319486827117}, "transactions": [], "price": "\u20ac\u20ac\u20ac", "location": {"address1": "Am Kaiserkai 1", "address2": "", "address3": null, "city": "Hamburg", "zip_code": "20457", "country": "DE", "state": "HH", "display_address": ["Am Kaiserkai 1", "20457 Hamburg", "Germany"]}, "phone": "+4940323909", "display_phone": "+49 40 323909", "distance": 891.9612492762589}, {"id": "L06GAdOtyA5GCrUjDrDlmw", "alias": "lees-sushi-bar-hamburg", "name": "Lee's Sushi Bar", "image_url": "https://s3-media3.fl.yelpcdn.com/bphoto/TSErUnVsR2br71FiK2KJqA/o.jpg", "is_closed": false, "url": "https://www.yelp.com/biz/lees-sushi-bar-hamburg?adjust_creative=hBJOknVQJ58S5goQyjmwRw&utm_campaign=yelp_api_v3&utm_medium=api_v3_business_search&utm_source=hBJOknVQJ58S5goQyjmwRw", "review_count": 13, "categories": [{"alias": "sushi", "title": "Sushi Bars"}], "rating": 4.0, "coordinates": {"latitude": 53.54356, "longitude": 9.99312}, "transactions": [], "price": "\u20ac\u20ac", "location": {"address1": "Am Sandtorkai 23", "address2": "", "address3": "", "city": "Hamburg", "zip_code": "20457", "country": "DE", "state": "HH", "display_address": ["Am Sandtorkai 23", "20457 Hamburg", "Germany"]}, "phone": "+494030068367", "display_phone": "+49 40 30068367", "distance": 1144.9097458031056}, {"id": "kpULn7yxfOWYYwfWU7M5ig", "alias": "tarterie-jolie-hamburg", "name": "Tarterie Jolie", "image_url": "https://s3-media2.fl.yelpcdn.com/bphoto/rEJefRXlhBDLNmxafZlmLw/o.jpg", "is_closed": false, "url": "https://www.yelp.com/biz/tarterie-jolie-hamburg?adjust_creative=hBJOknVQJ58S5goQyjmwRw&utm_campaign=yelp_api_v3&utm_medium=api_v3_business_search&utm_source=hBJOknVQJ58S5goQyjmwRw", "review_count": 7, "categories": [{"alias": "creperies", "title": "Creperies"}, {"alias": "cafes", "title": "Cafes"}, {"alias": "french", "title": "French"}], "rating": 3.5, "coordinates": {"latitude": 53.54143, "longitude": 9.9899}, "transactions": [], "price": "\u20ac\u20ac", "location": {"address1": "Am Kaiserkai 27", "address2": "", "address3": "", "city": "Hamburg", "zip_code": "20457", "country": "DE", "state": "HH", "display_address": ["Am Kaiserkai 27", "20457 Hamburg", "Germany"]}, "phone": "+491624937350", "display_phone": "+49 162 4937350", "distance": 896.3506964496333}, {"id": "6KSU6b22N9H9HKQC8ZuIGQ", "alias": "maigl\u00fcckchen-hamburg", "name": "Maigl\u00fcckchen", "image_url": "https://s3-media3.fl.yelpcdn.com/bphoto/9-zy6yryZ8xKB4M5hoSm2w/o.jpg", "is_closed": false, "url": "https://www.yelp.com/biz/maigl%C3%BCckchen-hamburg?adjust_creative=hBJOknVQJ58S5goQyjmwRw&utm_campaign=yelp_api_v3&utm_medium=api_v3_business_search&utm_source=hBJOknVQJ58S5goQyjmwRw", "review_count": 33, "categories": [{"alias": "chinese", "title": "Chinese"}, {"alias": "sushi", "title": "Sushi Bars"}, {"alias": "panasian", "title": "Pan Asian"}], "rating": 3.5, "coordinates": {"latitude": 53.5421240249254, "longitude": 9.99419778585434}, "transactions": [], "price": "\u20ac\u20ac", "location": {"address1": "Gro\u00dfer Grasbrook 9", "address2": "", "address3": "", "city": "Hamburg", "zip_code": "20457", "country": "DE", "state": "HH", "display_address": ["Gro\u00dfer Grasbrook 9", "20457 Hamburg", "Germany"]}, "phone": "+494050031288", "display_phone": "+49 40 50031288", "distance": 1004.313338135218}, {"id": "Fkjb7JsEHcsGKKQXjUfw-w", "alias": "miss-sofie-hamburg", "name": "Miss Sofie", "image_url": "https://s3-media1.fl.yelpcdn.com/bphoto/SEtL2RpXZpgZWquHH0L75g/o.jpg", "is_closed": false, "url": "https://www.yelp.com/biz/miss-sofie-hamburg?adjust_creative=hBJOknVQJ58S5goQyjmwRw&utm_campaign=yelp_api_v3&utm_medium=api_v3_business_search&utm_source=hBJOknVQJ58S5goQyjmwRw", "review_count": 51, "categories": [{"alias": "hotdog", "title": "Hot Dogs"}, {"alias": "icecream", "title": "Ice Cream & Frozen Yogurt"}], "rating": 3.5, "coordinates": {"latitude": 53.540857708631, "longitude": 9.98674249775547}, "transactions": [], "price": "\u20ac\u20ac\u20ac", "location": {"address1": "Am Kaiserkai 59a", "address2": "", "address3": "", "city": "Hamburg", "zip_code": "20457", "country": "DE", "state": "HH", "display_address": ["Am Kaiserkai 59a", "20457 Hamburg", "Germany"]}, "phone": "+4917621534267", "display_phone": "+49 176 21534267", "distance": 867.0214699973022}, {"id": "BownMhxWBdMjS-dCtx04Pw", "alias": "ciao-mamma-hamburg-2", "name": "Ciao Mamma!", "image_url": "https://s3-media2.fl.yelpcdn.com/bphoto/0fq62k9kQiRUNSTc8gn2dQ/o.jpg", "is_closed": false, "url": "https://www.yelp.com/biz/ciao-mamma-hamburg-2?adjust_creative=hBJOknVQJ58S5goQyjmwRw&utm_campaign=yelp_api_v3&utm_medium=api_v3_business_search&utm_source=hBJOknVQJ58S5goQyjmwRw", "review_count": 31, "categories": [{"alias": "italian", "title": "Italian"}], "rating": 3.5, "coordinates": {"latitude": 53.543201, "longitude": 9.986796}, "transactions": [], "price": "\u20ac\u20ac", "location": {"address1": "Am Sandtorkai 38-40", "address2": "", "address3": "", "city": "Hamburg", "zip_code": "20457", "country": "DE", "state": "HH", "display_address": ["Am Sandtorkai 38-40", "20457 Hamburg", "Germany"]}, "phone": "+494032513764", "display_phone": "+49 40 32513764", "distance": 1115.0734155028902}, {"id": "ddKdcdS5gQ1ctU_K_i2HTA", "alias": "maredo-hamburg-4", "name": "Maredo", "image_url": "https://s3-media4.fl.yelpcdn.com/bphoto/O47iavZYOu141DTLWekiQw/o.jpg", "is_closed": false, "url": "https://www.yelp.com/biz/maredo-hamburg-4?adjust_creative=hBJOknVQJ58S5goQyjmwRw&utm_campaign=yelp_api_v3&utm_medium=api_v3_business_search&utm_source=hBJOknVQJ58S5goQyjmwRw", "review_count": 55, "categories": [{"alias": "steak", "title": "Steakhouses"}], "rating": 3.5, "coordinates": {"latitude": 53.5424584403399, "longitude": 9.99466936137192}, "transactions": [], "price": "\u20ac\u20ac", "location": {"address1": "Am Sandtorpark 4", "address2": "", "address3": "", "city": "Hamburg", "zip_code": "20457", "country": "DE", "state": "HH", "display_address": ["Am Sandtorpark 4", "20457 Hamburg", "Germany"]}, "phone": "+494022601528", "display_phone": "+49 40 22601528", "distance": 1048.2759550043604}, {"id": "Hs68mSrDRVhs0m68e59ePw", "alias": "markthalle-speicherstadt-hamburg", "name": "Markthalle Speicherstadt", "image_url": "https://s3-media3.fl.yelpcdn.com/bphoto/IwhgdGpMoZ7Apca9pe3mtg/o.jpg", "is_closed": false, "url": "https://www.yelp.com/biz/markthalle-speicherstadt-hamburg?adjust_creative=hBJOknVQJ58S5goQyjmwRw&utm_campaign=yelp_api_v3&utm_medium=api_v3_business_search&utm_source=hBJOknVQJ58S5goQyjmwRw", "review_count": 22, "categories": [{"alias": "food_court", "title": "Food Court"}], "rating": 3.5, "coordinates": {"latitude": 53.54356, "longitude": 9.99312}, "transactions": [], "price": "\u20ac", "location": {"address1": "Am Sandtorkai 23", "address2": "", "address3": "", "city": "Hamburg", "zip_code": "20457", "country": "DE", "state": "HH", "display_address": ["Am Sandtorkai 23", "20457 Hamburg", "Germany"]}, "phone": "+4915733924558", "display_phone": "+49 1573 3924558", "distance": 1144.9097458031056}, {"id": "gctmNj9kDBcvTq5MyyyfRw", "alias": "pasta-pasta-hamburg", "name": "Pasta Pasta", "image_url": "https://s3-media4.fl.yelpcdn.com/bphoto/BKvHKpqc1tFf5C78OEwVCg/o.jpg", "is_closed": false, "url": "https://www.yelp.com/biz/pasta-pasta-hamburg?adjust_creative=hBJOknVQJ58S5goQyjmwRw&utm_campaign=yelp_api_v3&utm_medium=api_v3_business_search&utm_source=hBJOknVQJ58S5goQyjmwRw", "review_count": 22, "categories": [{"alias": "italian", "title": "Italian"}, {"alias": "salad", "title": "Salad"}, {"alias": "pizza", "title": "Pizza"}], "rating": 3.0, "coordinates": {"latitude": 53.5410603490672, "longitude": 9.99126967858273}, "transactions": [], "price": "\u20ac\u20ac", "location": {"address1": "Am Kaiserkai 19", "address2": "", "address3": "", "city": "Hamburg", "zip_code": "20457", "country": "DE", "state": "HH", "display_address": ["Am Kaiserkai 19", "20457 Hamburg", "Germany"]}, "phone": "+494018109930", "display_phone": "+49 40 18109930", "distance": 856.4569212555651}, {"id": "mskhIdQ0AtU2zD6HQ3LHhA", "alias": "the-saffron-hamburg", "name": "The Saffron", "image_url": "https://s3-media2.fl.yelpcdn.com/bphoto/UqvUE3TBelXrnM8hMw2RgA/o.jpg", "is_closed": false, "url": "https://www.yelp.com/biz/the-saffron-hamburg?adjust_creative=hBJOknVQJ58S5goQyjmwRw&utm_campaign=yelp_api_v3&utm_medium=api_v3_business_search&utm_source=hBJOknVQJ58S5goQyjmwRw", "review_count": 7, "categories": [{"alias": "german", "title": "German"}], "rating": 3.5, "coordinates": {"latitude": 53.5412828782203, "longitude": 9.98437817116394}, "transactions": [], "price": "\u20ac\u20ac\u20ac\u20ac", "location": {"address1": "Platz der Deutschen Einheit 2", "address2": "", "address3": null, "city": "Hamburg", "zip_code": "20457", "country": "DE", "state": "HH", "display_address": ["Platz der Deutschen Einheit 2", "20457 Hamburg", "Germany"]}, "phone": "+49408000103117", "display_phone": "+49 40 8000103117", "distance": 965.998024173766}, {"id": "ENgSCZar8z14J7s0-oefDA", "alias": "lieger-caesar-hamburg", "name": "Lieger Caesar", "image_url": "https://s3-media2.fl.yelpcdn.com/bphoto/YGgZIMhZwBYORheLhvUL8Q/o.jpg", "is_closed": false, "url": "https://www.yelp.com/biz/lieger-caesar-hamburg?adjust_creative=hBJOknVQJ58S5goQyjmwRw&utm_campaign=yelp_api_v3&utm_medium=api_v3_business_search&utm_source=hBJOknVQJ58S5goQyjmwRw", "review_count": 3, "categories": [{"alias": "german", "title": "German"}], "rating": 4.5, "coordinates": {"latitude": 53.5422918796532, "longitude": 9.99044250950298}, "transactions": [], "price": "\u20ac\u20ac", "location": {"address1": "Sandtorhafen/Traditionsschiffhafen", "address2": "", "address3": null, "city": "Hamburg", "zip_code": "20457", "country": "DE", "state": "HH", "display_address": ["Sandtorhafen/Traditionsschiffhafen", "20457 Hamburg", "Germany"]}, "phone": "+494060533820", "display_phone": "+49 40 60533820", "distance": 991.5883243088001}, {"id": "I8UkoDhWL5iMOVBVcXX-7A", "alias": "le-crobag-hamburg-16", "name": "Le Crobag", "image_url": "https://s3-media4.fl.yelpcdn.com/bphoto/tR_HaWEsd48I3PyMPaC2bA/o.jpg", "is_closed": false, "url": "https://www.yelp.com/biz/le-crobag-hamburg-16?adjust_creative=hBJOknVQJ58S5goQyjmwRw&utm_campaign=yelp_api_v3&utm_medium=api_v3_business_search&utm_source=hBJOknVQJ58S5goQyjmwRw", "review_count": 8, "categories": [{"alias": "cafes", "title": "Cafes"}, {"alias": "backshop", "title": "Backshop"}], "rating": 4.5, "coordinates": {"latitude": 53.5423508, "longitude": 9.9956198}, "transactions": [], "price": "\u20ac\u20ac", "location": {"address1": "Am Sandtorpark 6", "address2": "", "address3": "", "city": "Hamburg", "zip_code": "20457", "country": "DE", "state": "HH", "display_address": ["Am Sandtorpark 6", "20457 Hamburg", "Germany"]}, "phone": "+494030709379", "display_phone": "+49 40 30709379", "distance": 1082.1141803027879}, {"id": "2Tvu5vs9Y9pYG5iTcKdHTg", "alias": "soup-city-hamburg-8", "name": "Soup City", "image_url": "", "is_closed": false, "url": "https://www.yelp.com/biz/soup-city-hamburg-8?adjust_creative=hBJOknVQJ58S5goQyjmwRw&utm_campaign=yelp_api_v3&utm_medium=api_v3_business_search&utm_source=hBJOknVQJ58S5goQyjmwRw", "review_count": 2, "categories": [{"alias": "soup", "title": "Soup"}], "rating": 4.5, "coordinates": {"latitude": 53.543342607881, "longitude": 9.9903232041696}, "transactions": [], "price": "\u20ac\u20ac\u20ac", "location": {"address1": "Sandtorkai 30", "address2": "", "address3": null, "city": "Hamburg", "zip_code": "20457", "country": "DE", "state": "HH", "display_address": ["Sandtorkai 30", "20457 Hamburg", "Germany"]}, "phone": "+494028410490", "display_phone": "+49 40 28410490", "distance": 1108.4449141113184}, {"id": "SDX-cF25zG66QC8IBB3WeQ", "alias": "picnic-hamburg", "name": "picnic", "image_url": "https://s3-media1.fl.yelpcdn.com/bphoto/9bRQH8ZXJ7gryPc9GnFFsQ/o.jpg", "is_closed": false, "url": "https://www.yelp.com/biz/picnic-hamburg?adjust_creative=hBJOknVQJ58S5goQyjmwRw&utm_campaign=yelp_api_v3&utm_medium=api_v3_business_search&utm_source=hBJOknVQJ58S5goQyjmwRw", "review_count": 2, "categories": [{"alias": "mediterranean", "title": "Mediterranean"}, {"alias": "hotdogs", "title": "Fast Food"}, {"alias": "tapasmallplates", "title": "Tapas/Small Plates"}], "rating": 4.0, "coordinates": {"latitude": 53.54317, "longitude": 9.99422}, "transactions": [], "location": {"address1": "Am Sandtorkai 50", "address2": "Sandtorpark", "address3": "", "city": "Hamburg", "zip_code": "20457", "country": "DE", "state": "HH", "display_address": ["Am Sandtorkai 50", "Sandtorpark", "20457 Hamburg", "Germany"]}, "phone": "+494036945873", "display_phone": "+49 40 36945873", "distance": 1105.0950611167455}, {"id": "ZB0nnVR3i7CqvykMxxjxSA", "alias": "schanzenb\u00e4ckerei-hamburg-29", "name": "Schanzenb\u00e4ckerei", "image_url": "https://s3-media1.fl.yelpcdn.com/bphoto/oV-4et8QD79hUf6bhptA3A/o.jpg", "is_closed": false, "url": "https://www.yelp.com/biz/schanzenb%C3%A4ckerei-hamburg-29?adjust_creative=hBJOknVQJ58S5goQyjmwRw&utm_campaign=yelp_api_v3&utm_medium=api_v3_business_search&utm_source=hBJOknVQJ58S5goQyjmwRw", "review_count": 4, "categories": [{"alias": "bakeries", "title": "Bakeries"}, {"alias": "bistros", "title": "Bistros"}], "rating": 3.5, "coordinates": {"latitude": 53.5416245481602, "longitude": 9.99367944896221}, "transactions": [], "price": "\u20ac", "location": {"address1": "Gro\u00dfer Grasbrook 9", "address2": "", "address3": "", "city": "Hamburg", "zip_code": "20457", "country": "DE", "state": "HH", "display_address": ["Gro\u00dfer Grasbrook 9", "20457 Hamburg", "Germany"]}, "phone": "+494036090190", "display_phone": "+49 40 36090190", "distance": 942.2133879025528}, {"id": "iCq9ieHPN5WxcPKPT6Ykdw", "alias": "soup-city-hamburg-4", "name": "Soup City", "image_url": "https://s3-media1.fl.yelpcdn.com/bphoto/rz2XsDrtjFLsYSnVVRpAtw/o.jpg", "is_closed": false, "url": "https://www.yelp.com/biz/soup-city-hamburg-4?adjust_creative=hBJOknVQJ58S5goQyjmwRw&utm_campaign=yelp_api_v3&utm_medium=api_v3_business_search&utm_source=hBJOknVQJ58S5goQyjmwRw", "review_count": 9, "categories": [{"alias": "soup", "title": "Soup"}], "rating": 3.5, "coordinates": {"latitude": 53.5316484, "longitude": 9.9852574}, "transactions": [], "price": "\u20ac\u20ac", "location": {"address1": "Am Sandtorkai 30", "address2": "", "address3": null, "city": "Hamburg", "zip_code": "20457", "country": "DE", "state": "HH", "display_address": ["Am Sandtorkai 30", "20457 Hamburg", "Germany"]}, "phone": "+494028410490", "display_phone": "+49 40 28410490", "distance": 391.91642925495853}, {"id": "lH8Ymod4RdsXjlYX6UpcLQ", "alias": "wandrahm-hamburg", "name": "Wandrahm", "image_url": "https://s3-media3.fl.yelpcdn.com/bphoto/Tic9jaa_TKTTwKcY5ejvyA/o.jpg", "is_closed": false, "url": "https://www.yelp.com/biz/wandrahm-hamburg?adjust_creative=hBJOknVQJ58S5goQyjmwRw&utm_campaign=yelp_api_v3&utm_medium=api_v3_business_search&utm_source=hBJOknVQJ58S5goQyjmwRw", "review_count": 64, "categories": [{"alias": "german", "title": "German"}], "rating": 3.5, "coordinates": {"latitude": 53.54151, "longitude": 9.99151}, "transactions": [], "price": "\u20ac\u20ac\u20ac", "location": {"address1": "Am Kaiserkai 13", "address2": null, "address3": null, "city": "Hamburg", "zip_code": "20457", "country": "DE", "state": "HH", "display_address": ["Am Kaiserkai 13", "20457 Hamburg", "Germany"]}, "phone": "+494031812200", "display_phone": "+49 40 31812200", "distance": 909.621797686943}, {"id": "XQj6TM-4ezagjmJY_qWUHQ", "alias": "infocenter-im-kesselhaus-hamburg", "name": "Infocenter im Kesselhaus", "image_url": "https://s3-media1.fl.yelpcdn.com/bphoto/r82EqZdwpvOACcUPSIR9yQ/o.jpg", "is_closed": false, "url": "https://www.yelp.com/biz/infocenter-im-kesselhaus-hamburg?adjust_creative=hBJOknVQJ58S5goQyjmwRw&utm_campaign=yelp_api_v3&utm_medium=api_v3_business_search&utm_source=hBJOknVQJ58S5goQyjmwRw", "review_count": 19, "categories": [{"alias": "landmarks", "title": "Landmarks & Historical Buildings"}, {"alias": "tours", "title": "Tours"}, {"alias": "cafes", "title": "Cafes"}], "rating": 4.0, "coordinates": {"latitude": 53.54325, "longitude": 9.99038}, "transactions": [], "price": "\u20ac\u20ac", "location": {"address1": "Kesselhaus", "address2": "Am Sandtorkai 30", "address3": null, "city": "Hamburg", "zip_code": "20457", "country": "DE", "state": "HH", "display_address": ["Kesselhaus", "Am Sandtorkai 30", "20457 Hamburg", "Germany"]}, "phone": "+494036901799", "display_phone": "+49 40 36901799", "distance": 1102.0713810122588}, {"id": "zLWXj2mdGALwr_sXD893Qw", "alias": "momo-hamburg", "name": "momo", "image_url": "https://s3-media3.fl.yelpcdn.com/bphoto/BKiTnL8_zBIVweja8GTfQQ/o.jpg", "is_closed": false, "url": "https://www.yelp.com/biz/momo-hamburg?adjust_creative=hBJOknVQJ58S5goQyjmwRw&utm_campaign=yelp_api_v3&utm_medium=api_v3_business_search&utm_source=hBJOknVQJ58S5goQyjmwRw", "review_count": 4, "categories": [{"alias": "panasian", "title": "Pan Asian"}], "rating": 3.0, "coordinates": {"latitude": 53.54356, "longitude": 9.99312}, "transactions": [], "price": "\u20ac", "location": {"address1": "Am Sandtorkai 23", "address2": "", "address3": "", "city": "Hamburg", "zip_code": "20457", "country": "DE", "state": "HH", "display_address": ["Am Sandtorkai 23", "20457 Hamburg", "Germany"]}, "phone": "", "display_phone": "", "distance": 1144.9097458031056}, {"id": "dLvDter6WJPtK_7K1zZsBg", "alias": "andronaco-hamburg-6", "name": "Andronaco", "image_url": "https://s3-media3.fl.yelpcdn.com/bphoto/Htk7gHKCoWbz9Wr1AAlq9Q/o.jpg", "is_closed": false, "url": "https://www.yelp.com/biz/andronaco-hamburg-6?adjust_creative=hBJOknVQJ58S5goQyjmwRw&utm_campaign=yelp_api_v3&utm_medium=api_v3_business_search&utm_source=hBJOknVQJ58S5goQyjmwRw", "review_count": 37, "categories": [{"alias": "italian", "title": "Italian"}, {"alias": "pizza", "title": "Pizza"}, {"alias": "intlgrocery", "title": "International Grocery"}], "rating": 3.0, "coordinates": {"latitude": 53.54366, "longitude": 9.99678}, "transactions": [], "price": "\u20ac\u20ac", "location": {"address1": "Am Sandtorkai 44", "address2": "", "address3": "", "city": "Hamburg", "zip_code": "20457", "country": "DE", "state": "HH", "display_address": ["Am Sandtorkai 44", "20457 Hamburg", "Germany"]}, "phone": "+494076794390", "display_phone": "+49 40 76794390", "distance": 1201.8499920626696}, {"id": "nF5l5qH9sTfgYit8rNIS1g", "alias": "oh-its-fresh-hamburg-4", "name": "Oh it's fresh!", "image_url": "https://s3-media2.fl.yelpcdn.com/bphoto/v9pqR5csUrlciP0TpQ2QfA/o.jpg", "is_closed": false, "url": "https://www.yelp.com/biz/oh-its-fresh-hamburg-4?adjust_creative=hBJOknVQJ58S5goQyjmwRw&utm_campaign=yelp_api_v3&utm_medium=api_v3_business_search&utm_source=hBJOknVQJ58S5goQyjmwRw", "review_count": 23, "categories": [{"alias": "bagels", "title": "Bagels"}, {"alias": "breakfast_brunch", "title": "Breakfast & Brunch"}, {"alias": "cafes", "title": "Cafes"}], "rating": 3.0, "coordinates": {"latitude": 53.542876, "longitude": 9.984919}, "transactions": [], "price": "\u20ac\u20ac", "location": {"address1": "Am Sandtorkai 40", "address2": "", "address3": "Hanseatic Trade Center", "city": "Hamburg", "zip_code": "20457", "country": "DE", "state": "HH", "display_address": ["Am Sandtorkai 40", "Hanseatic Trade Center", "20457 Hamburg", "Germany"]}, "phone": "+494037503025", "display_phone": "+49 40 37503025", "distance": 1117.4940373060301}, {"id": "cSI2UCecXVP1wVbIMYc8yg", "alias": "cucina-italiana-hamburg", "name": "Cucina Italiana", "image_url": "https://s3-media3.fl.yelpcdn.com/bphoto/y8gSQphdpgQGxItiBHm3-A/o.jpg", "is_closed": false, "url": "https://www.yelp.com/biz/cucina-italiana-hamburg?adjust_creative=hBJOknVQJ58S5goQyjmwRw&utm_campaign=yelp_api_v3&utm_medium=api_v3_business_search&utm_source=hBJOknVQJ58S5goQyjmwRw", "review_count": 1, "categories": [{"alias": "italian", "title": "Italian"}], "rating": 4.0, "coordinates": {"latitude": 53.5433779712506, "longitude": 9.99295292299335}, "transactions": [], "price": "\u20ac\u20ac", "location": {"address1": "Am Sandtorkai 23", "address2": "", "address3": "", "city": "Hamburg", "zip_code": "20457", "country": "DE", "state": "HH", "display_address": ["Am Sandtorkai 23", "20457 Hamburg", "Germany"]}, "phone": "", "display_phone": "", "distance": 1124.8015287066053}, {"id": "o-_9ldDtdUnNiH_jF4u29w", "alias": "chutney-hamburg-3", "name": "Chutney", "image_url": "https://s3-media2.fl.yelpcdn.com/bphoto/U2wrydRgY88tZgfvMW_ttQ/o.jpg", "is_closed": false, "url": "https://www.yelp.com/biz/chutney-hamburg-3?adjust_creative=hBJOknVQJ58S5goQyjmwRw&utm_campaign=yelp_api_v3&utm_medium=api_v3_business_search&utm_source=hBJOknVQJ58S5goQyjmwRw", "review_count": 13, "categories": [{"alias": "indpak", "title": "Indian"}, {"alias": "hotdogs", "title": "Fast Food"}], "rating": 3.0, "coordinates": {"latitude": 53.5316484, "longitude": 9.9852574}, "transactions": [], "price": "\u20ac\u20ac", "location": {"address1": "Am Sandtorkai 23", "address2": "", "address3": null, "city": "Hamburg", "zip_code": "20457", "country": "DE", "state": "HH", "display_address": ["Am Sandtorkai 23", "20457 Hamburg", "Germany"]}, "phone": "", "display_phone": "", "distance": 391.91642925495853}, {"id": "KpF7kg2JBIO0KE2tbGYWUg", "alias": "nissis-kunstkantine-hamburg", "name": "Nissis Kunstkantine", "image_url": "https://s3-media2.fl.yelpcdn.com/bphoto/7rNWFYtlBhXW0dbxbfQPNg/o.jpg", "is_closed": false, "url": "https://www.yelp.com/biz/nissis-kunstkantine-hamburg?adjust_creative=hBJOknVQJ58S5goQyjmwRw&utm_campaign=yelp_api_v3&utm_medium=api_v3_business_search&utm_source=hBJOknVQJ58S5goQyjmwRw", "review_count": 3, "categories": [{"alias": "galleries", "title": "Art Galleries"}, {"alias": "cafes", "title": "Cafes"}], "rating": 4.0, "coordinates": {"latitude": 53.54161, "longitude": 9.99551}, "transactions": [], "price": "\u20ac\u20ac", "location": {"address1": "Am Dalmannkai 6", "address2": "", "address3": "", "city": "Hamburg", "zip_code": "20457", "country": "DE", "state": "HH", "display_address": ["Am Dalmannkai 6", "20457 Hamburg", "Germany"]}, "phone": "+4916092312515", "display_phone": "+49 160 92312515", "distance": 978.182855270263}, {"id": "7kgD98n5qer2SUe6FHajLw", "alias": "barrossa-hamburg", "name": "Barrossa", "image_url": "https://s3-media1.fl.yelpcdn.com/bphoto/6fC6Fpay00skX7CxfEgBsw/o.jpg", "is_closed": false, "url": "https://www.yelp.com/biz/barrossa-hamburg?adjust_creative=hBJOknVQJ58S5goQyjmwRw&utm_campaign=yelp_api_v3&utm_medium=api_v3_business_search&utm_source=hBJOknVQJ58S5goQyjmwRw", "review_count": 7, "categories": [{"alias": "cafes", "title": "Cafes"}, {"alias": "coffee", "title": "Coffee & Tea"}], "rating": 2.5, "coordinates": {"latitude": 53.543865, "longitude": 9.990371}, "transactions": [], "price": "\u20ac\u20ac", "location": {"address1": "Brook 9", "address2": "", "address3": "", "city": "Hamburg", "zip_code": "20457", "country": "DE", "state": "HH", "display_address": ["Brook 9", "20457 Hamburg", "Germany"]}, "phone": "", "display_phone": "", "distance": 1172.3258695009229}, {"id": "bysy5bhHCabV-8z7mO2Hqg", "alias": "elis-hamburg", "name": "Eli's", "image_url": "https://s3-media4.fl.yelpcdn.com/bphoto/vrHVD6jsh2gfGwI93J4B0A/o.jpg", "is_closed": false, "url": "https://www.yelp.com/biz/elis-hamburg?adjust_creative=hBJOknVQJ58S5goQyjmwRw&utm_campaign=yelp_api_v3&utm_medium=api_v3_business_search&utm_source=hBJOknVQJ58S5goQyjmwRw", "review_count": 2, "categories": [{"alias": "burgers", "title": "Burgers"}, {"alias": "hotdogs", "title": "Fast Food"}], "rating": 2.5, "coordinates": {"latitude": 53.54356, "longitude": 9.99312}, "transactions": [], "price": "\u20ac\u20ac", "location": {"address1": "Am Sandtorkai 23", "address2": "", "address3": "", "city": "Hamburg", "zip_code": "20457", "country": "DE", "state": "HH", "display_address": ["Am Sandtorkai 23", "20457 Hamburg", "Germany"]}, "phone": "", "display_phone": "", "distance": 1144.9097458031056}, {"id": "0HNhfAJrVtjnUngdyYWk7A", "alias": "kai-bar-baltic-hamburg", "name": "kai bar baltic", "image_url": "https://s3-media4.fl.yelpcdn.com/bphoto/7w62iGMW2hnZC6JP-Jmb1Q/o.jpg", "is_closed": false, "url": "https://www.yelp.com/biz/kai-bar-baltic-hamburg?adjust_creative=hBJOknVQJ58S5goQyjmwRw&utm_campaign=yelp_api_v3&utm_medium=api_v3_business_search&utm_source=hBJOknVQJ58S5goQyjmwRw", "review_count": 1, "categories": [{"alias": "cafes", "title": "Cafes"}, {"alias": "coffee", "title": "Coffee & Tea"}], "rating": 1.0, "coordinates": {"latitude": 53.5414967, "longitude": 9.9892395}, "transactions": [], "price": "\u20ac\u20ac\u20ac", "location": {"address1": "Am Kaiserkai 17", "address2": null, "address3": null, "city": "Hamburg", "zip_code": "20457", "country": "DE", "state": "HH", "display_address": ["Am Kaiserkai 17", "20457 Hamburg", "Germany"]}, "phone": "", "display_phone": "", "distance": 906.575286135094}]