[{"id": "_eIzJGTL6zee0qrUPi2zRQ", "alias": "finkwarder-kl\u00f6nstuv-hamburg", "name": "Finkwarder Kl\u00f6nstuv", "image_url": "https://s3-media3.fl.yelpcdn.com/bphoto/YDvNGLC32_oHukCwGPb6DA/o.jpg", "is_closed": false, "url": "https://www.yelp.com/biz/finkwarder-kl%C3%B6nstuv-hamburg?adjust_creative=hBJOknVQJ58S5goQyjmwRw&utm_campaign=yelp_api_v3&utm_medium=api_v3_business_search&utm_source=hBJOknVQJ58S5goQyjmwRw", "review_count": 1, "categories": [{"alias": "restaurants", "title": "Restaurants"}], "rating": 5.0, "coordinates": {"latitude": 53.53326, "longitude": 9.87762}, "transactions": [], "location": {"address1": "Steendiek 6", "address2": null, "address3": null, "city": "Hamburg", "zip_code": "21129", "country": "DE", "state": "HH", "display_address": ["Steendiek 6", "21129 Hamburg", "Germany"]}, "phone": "+494074201660", "display_phone": "+49 40 74201660", "distance": 616.9657632239376}, {"id": "xqu4wnj2M1XOD1wMi9cBhg", "alias": "hygge-hamburg-2", "name": "HYGGE", "image_url": "https://s3-media2.fl.yelpcdn.com/bphoto/ZZl693akO26U7QbqPAfJ9g/o.jpg", "is_closed": false, "url": "https://www.yelp.com/biz/hygge-hamburg-2?adjust_creative=hBJOknVQJ58S5goQyjmwRw&utm_campaign=yelp_api_v3&utm_medium=api_v3_business_search&utm_source=hBJOknVQJ58S5goQyjmwRw", "review_count": 6, "categories": [{"alias": "brasseries", "title": "Brasseries"}], "rating": 5.0, "coordinates": {"latitude": 53.56524, "longitude": 9.87484}, "transactions": [], "price": "\u20ac\u20ac\u20ac", "location": {"address1": "Baron-Voght-Str. 179", "address2": "", "address3": null, "city": "Hamburg", "zip_code": "22607", "country": "DE", "state": "HH", "display_address": ["Baron-Voght-Str. 179", "22607 Hamburg", "Germany"]}, "phone": "+494082274160", "display_phone": "+49 40 82274160", "distance": 2962.980983455981}, {"id": "sr8GjQ5JOLdzfstXfDnPJA", "alias": "d\u00fcbelsbr\u00fccker-kaj\u00fct-hamburg", "name": "D\u00fcbelsbr\u00fccker Kaj\u00fct", "image_url": "https://s3-media3.fl.yelpcdn.com/bphoto/A5TtKGsdztgW1OAWozPyHw/o.jpg", "is_closed": false, "url": "https://www.yelp.com/biz/d%C3%BCbelsbr%C3%BCcker-kaj%C3%BCt-hamburg?adjust_creative=hBJOknVQJ58S5goQyjmwRw&utm_campaign=yelp_api_v3&utm_medium=api_v3_business_search&utm_source=hBJOknVQJ58S5goQyjmwRw", "review_count": 35, "categories": [{"alias": "seafood", "title": "Seafood"}], "rating": 4.0, "coordinates": {"latitude": 53.5472298473201, "longitude": 9.86483522360216}, "transactions": [], "price": "\u20ac\u20ac", "location": {"address1": "Elbchaussee 303", "address2": "", "address3": null, "city": "Hamburg", "zip_code": "22609", "country": "DE", "state": "HH", "display_address": ["Elbchaussee 303", "22609 Hamburg", "Germany"]}, "phone": "+4940828787", "display_phone": "+49 40 828787", "distance": 1255.2558300427804}, {"id": "h76slnRXB-F1F_7ajRmFaQ", "alias": "brandts-anfang-hamburg", "name": "Brandts Anfang", "image_url": "https://s3-media1.fl.yelpcdn.com/bphoto/WnFDz0bk4tss7U6QLRrf_g/o.jpg", "is_closed": false, "url": "https://www.yelp.com/biz/brandts-anfang-hamburg?adjust_creative=hBJOknVQJ58S5goQyjmwRw&utm_campaign=yelp_api_v3&utm_medium=api_v3_business_search&utm_source=hBJOknVQJ58S5goQyjmwRw", "review_count": 5, "categories": [{"alias": "cocktailbars", "title": "Cocktail Bars"}, {"alias": "steak", "title": "Steakhouses"}], "rating": 4.5, "coordinates": {"latitude": 53.5326295, "longitude": 9.880036}, "transactions": [], "price": "\u20ac\u20ac", "location": {"address1": "Steendiek 37", "address2": null, "address3": null, "city": "Hamburg", "zip_code": "21129", "country": "DE", "state": "HH", "display_address": ["Steendiek 37", "21129 Hamburg", "Germany"]}, "phone": "+494038671673", "display_phone": "+49 40 38671673", "distance": 703.0380253030012}, {"id": "hYZgSIROzW1RbXJHpQhFwA", "alias": "finkenwerder-landungsbr\u00fccke-hamburg", "name": "Finkenwerder Landungsbr\u00fccke", "image_url": "https://s3-media4.fl.yelpcdn.com/bphoto/Sng2FU6bf0nQHEkhSqg-bw/o.jpg", "is_closed": false, "url": "https://www.yelp.com/biz/finkenwerder-landungsbr%C3%BCcke-hamburg?adjust_creative=hBJOknVQJ58S5goQyjmwRw&utm_campaign=yelp_api_v3&utm_medium=api_v3_business_search&utm_source=hBJOknVQJ58S5goQyjmwRw", "review_count": 27, "categories": [{"alias": "seafood", "title": "Seafood"}, {"alias": "northerngerman", "title": "Northern German"}], "rating": 3.5, "coordinates": {"latitude": 53.5354641, "longitude": 9.878811}, "transactions": [], "price": "\u20ac\u20ac", "location": {"address1": "Benittstr. 9", "address2": null, "address3": null, "city": "Hamburg", "zip_code": "21129", "country": "DE", "state": "HH", "display_address": ["Benittstr. 9", "21129 Hamburg", "Germany"]}, "phone": "+49407425151", "display_phone": "+49 40 7425151", "distance": 377.6144942790951}, {"id": "yI3Dc37NudFTaMcqTnTc1Q", "alias": "restaurant-zum-storchennest-hamburg", "name": "Restaurant Zum Storchennest", "image_url": "https://s3-media3.fl.yelpcdn.com/bphoto/p2iS9Ap2W5GOhaXOUPJMNg/o.jpg", "is_closed": false, "url": "https://www.yelp.com/biz/restaurant-zum-storchennest-hamburg?adjust_creative=hBJOknVQJ58S5goQyjmwRw&utm_campaign=yelp_api_v3&utm_medium=api_v3_business_search&utm_source=hBJOknVQJ58S5goQyjmwRw", "review_count": 12, "categories": [{"alias": "seafood", "title": "Seafood"}], "rating": 5.0, "coordinates": {"latitude": 53.5202, "longitude": 9.88556}, "transactions": [], "price": "\u20ac\u20ac\u20ac", "location": {"address1": "Osterfelddeich 2", "address2": null, "address3": null, "city": "Hamburg", "zip_code": "21129", "country": "DE", "state": "HH", "display_address": ["Osterfelddeich 2", "21129 Hamburg", "Germany"]}, "phone": "+49407426850", "display_phone": "+49 40 7426850", "distance": 2132.544870348295}, {"id": "jHG8e5VYEJ0N5bbE2aHHnw", "alias": "balkan-grill-hamburg-2", "name": "Balkan Grill", "image_url": "https://s3-media2.fl.yelpcdn.com/bphoto/Eeh3Qb27bPyKkysjrB840A/o.jpg", "is_closed": false, "url": "https://www.yelp.com/biz/balkan-grill-hamburg-2?adjust_creative=hBJOknVQJ58S5goQyjmwRw&utm_campaign=yelp_api_v3&utm_medium=api_v3_business_search&utm_source=hBJOknVQJ58S5goQyjmwRw", "review_count": 2, "categories": [{"alias": "turkish", "title": "Turkish"}], "rating": 4.5, "coordinates": {"latitude": 53.5348988, "longitude": 9.8593984}, "transactions": [], "price": "\u20ac\u20ac", "location": {"address1": "Butenwarf 1", "address2": null, "address3": null, "city": "Hamburg", "zip_code": "21129", "country": "DE", "state": "HH", "display_address": ["Butenwarf 1", "21129 Hamburg", "Germany"]}, "phone": "+49407425627", "display_phone": "+49 40 7425627", "distance": 1263.0978362172618}, {"id": "CdmyyQgCJPvmH_h3QD4tnQ", "alias": "zur-flottbeker-schmiede-hamburg-2", "name": "Zur Flottbeker Schmiede", "image_url": "https://s3-media1.fl.yelpcdn.com/bphoto/C-xUZJL-hwA-1Bpr4QcXXg/o.jpg", "is_closed": false, "url": "https://www.yelp.com/biz/zur-flottbeker-schmiede-hamburg-2?adjust_creative=hBJOknVQJ58S5goQyjmwRw&utm_campaign=yelp_api_v3&utm_medium=api_v3_business_search&utm_source=hBJOknVQJ58S5goQyjmwRw", "review_count": 39, "categories": [{"alias": "tapasmallplates", "title": "Tapas/Small Plates"}, {"alias": "wine_bars", "title": "Wine Bars"}, {"alias": "bistros", "title": "Bistros"}], "rating": 4.5, "coordinates": {"latitude": 53.55678, "longitude": 9.86495}, "transactions": [], "price": "\u20ac\u20ac\u20ac", "location": {"address1": "Baron Voght Str. 79", "address2": "", "address3": "", "city": "Hamburg", "zip_code": "22609", "country": "DE", "state": "HH", "display_address": ["Baron Voght Str. 79", "22609 Hamburg", "Germany"]}, "phone": "+494020918236", "display_phone": "+49 40 20918236", "distance": 2169.334156625551}, {"id": "VVX9I5Cu1dshGhmKu4s-pg", "alias": "hala-hamburg", "name": "Hala", "image_url": "https://s3-media2.fl.yelpcdn.com/bphoto/XVifszimTiTrFlXh9xrY8A/o.jpg", "is_closed": false, "url": "https://www.yelp.com/biz/hala-hamburg?adjust_creative=hBJOknVQJ58S5goQyjmwRw&utm_campaign=yelp_api_v3&utm_medium=api_v3_business_search&utm_source=hBJOknVQJ58S5goQyjmwRw", "review_count": 37, "categories": [{"alias": "lebanese", "title": "Lebanese"}], "rating": 4.5, "coordinates": {"latitude": 53.55961, "longitude": 9.88792}, "transactions": [], "price": "\u20ac\u20ac\u20ac", "location": {"address1": "Beselerplatz 11", "address2": "", "address3": "", "city": "Hamburg", "zip_code": "22607", "country": "DE", "state": "HH", "display_address": ["Beselerplatz 11", "22607 Hamburg", "Germany"]}, "phone": "+494088167787", "display_phone": "+49 40 88167787", "distance": 2428.1818634970023}, {"id": "GAE-zjzY7_v2JC8_XHXiDg", "alias": "miss-yang-hamburg", "name": "Miss Yang", "image_url": "https://s3-media3.fl.yelpcdn.com/bphoto/-gQKZumdYKHyWjjUPaxqhw/o.jpg", "is_closed": false, "url": "https://www.yelp.com/biz/miss-yang-hamburg?adjust_creative=hBJOknVQJ58S5goQyjmwRw&utm_campaign=yelp_api_v3&utm_medium=api_v3_business_search&utm_source=hBJOknVQJ58S5goQyjmwRw", "review_count": 22, "categories": [{"alias": "chinese", "title": "Chinese"}], "rating": 4.0, "coordinates": {"latitude": 53.565704313804, "longitude": 9.89730135139593}, "transactions": [], "price": "\u20ac\u20ac", "location": {"address1": "Osdorfer Weg 12", "address2": "", "address3": "", "city": "Hamburg", "zip_code": "22607", "country": "DE", "state": "HH", "display_address": ["Osdorfer Weg 12", "22607 Hamburg", "Germany"]}, "phone": "+494038679372", "display_phone": "+49 40 38679372", "distance": 3273.2230347491122}, {"id": "hrFXVGGt9U_pcp_ArsYHfg", "alias": "r\u00f6perhof-hamburg", "name": "R\u00f6perhof", "image_url": "https://s3-media1.fl.yelpcdn.com/bphoto/ot7Ze6HZ0IpQ5_HAV2XC2w/o.jpg", "is_closed": false, "url": "https://www.yelp.com/biz/r%C3%B6perhof-hamburg?adjust_creative=hBJOknVQJ58S5goQyjmwRw&utm_campaign=yelp_api_v3&utm_medium=api_v3_business_search&utm_source=hBJOknVQJ58S5goQyjmwRw", "review_count": 42, "categories": [{"alias": "german", "title": "German"}, {"alias": "mediterranean", "title": "Mediterranean"}], "rating": 4.5, "coordinates": {"latitude": 53.55349, "longitude": 9.89622}, "transactions": [], "price": "\u20ac\u20ac\u20ac", "location": {"address1": "Agathe-Lasch-Weg 2", "address2": null, "address3": null, "city": "Hamburg", "zip_code": "22605", "country": "DE", "state": "HH", "display_address": ["Agathe-Lasch-Weg 2", "22605 Hamburg", "Germany"]}, "phone": "+49408811200", "display_phone": "+49 40 8811200", "distance": 2057.984792849667}, {"id": "ru0RbywqypL0ZjF6H9rLhg", "alias": "restaurant-dionysos-hamburg", "name": "Restaurant Dionysos", "image_url": "https://s3-media2.fl.yelpcdn.com/bphoto/2kJBWXpRY8jefTl7GUIn9g/o.jpg", "is_closed": false, "url": "https://www.yelp.com/biz/restaurant-dionysos-hamburg?adjust_creative=hBJOknVQJ58S5goQyjmwRw&utm_campaign=yelp_api_v3&utm_medium=api_v3_business_search&utm_source=hBJOknVQJ58S5goQyjmwRw", "review_count": 4, "categories": [{"alias": "greek", "title": "Greek"}], "rating": 4.0, "coordinates": {"latitude": 53.5336, "longitude": 9.87189}, "transactions": [], "price": "\u20ac\u20ac", "location": {"address1": "Finkenwerder Norderdch 62", "address2": null, "address3": null, "city": "Hamburg", "zip_code": "21129", "country": "DE", "state": "HH", "display_address": ["Finkenwerder Norderdch 62", "21129 Hamburg", "Germany"]}, "phone": "+494033397939", "display_phone": "+49 40 33397939", "distance": 678.0302991121777}, {"id": "bLAeZH69Zei7fWFILX5ybA", "alias": "finkenwerder-fischbr\u00f6tchen-hamburg", "name": "Finkenwerder Fischbr\u00f6tchen", "image_url": "https://s3-media1.fl.yelpcdn.com/bphoto/1CT13QGzQzI58AWpS4e44Q/o.jpg", "is_closed": false, "url": "https://www.yelp.com/biz/finkenwerder-fischbr%C3%B6tchen-hamburg?adjust_creative=hBJOknVQJ58S5goQyjmwRw&utm_campaign=yelp_api_v3&utm_medium=api_v3_business_search&utm_source=hBJOknVQJ58S5goQyjmwRw", "review_count": 1, "categories": [{"alias": "hotdogs", "title": "Fast Food"}], "rating": 5.0, "coordinates": {"latitude": 53.5355, "longitude": 9.87869}, "transactions": [], "price": "\u20ac\u20ac", "location": {"address1": "Finkenwerder Landungsbr\u00fccke", "address2": "Benittstr. 9", "address3": null, "city": "Hamburg", "zip_code": "21129", "country": "DE", "state": "HH", "display_address": ["Finkenwerder Landungsbr\u00fccke", "Benittstr. 9", "21129 Hamburg", "Germany"]}, "phone": "", "display_phone": "", "distance": 371.80716882515327}, {"id": "JQWYJMCxJZfxjZmnHdf7VQ", "alias": "restaurant-engel-hamburg-4", "name": "Restaurant Engel", "image_url": "https://s3-media2.fl.yelpcdn.com/bphoto/8CP-arbxFvlxaZn1tpyqFQ/o.jpg", "is_closed": false, "url": "https://www.yelp.com/biz/restaurant-engel-hamburg-4?adjust_creative=hBJOknVQJ58S5goQyjmwRw&utm_campaign=yelp_api_v3&utm_medium=api_v3_business_search&utm_source=hBJOknVQJ58S5goQyjmwRw", "review_count": 102, "categories": [{"alias": "modern_european", "title": "Modern European"}], "rating": 4.0, "coordinates": {"latitude": 53.5464727809777, "longitude": 9.86277830252993}, "transactions": [], "price": "\u20ac\u20ac\u20ac", "location": {"address1": "Landeanlage Teufelsbr\u00fcck", "address2": "", "address3": "", "city": "Hamburg", "zip_code": "22609", "country": "DE", "state": "HH", "display_address": ["Landeanlage Teufelsbr\u00fcck", "22609 Hamburg", "Germany"]}, "phone": "+4940824187", "display_phone": "+49 40 824187", "distance": 1291.4364872994645}, {"id": "sASH7OqiioU-GqT-JQzt-A", "alias": "engel-imbiss-hamburg", "name": "Engel Imbiss", "image_url": "https://s3-media3.fl.yelpcdn.com/bphoto/ebGW3tVvAOB7acV6v7NDaA/o.jpg", "is_closed": false, "url": "https://www.yelp.com/biz/engel-imbiss-hamburg?adjust_creative=hBJOknVQJ58S5goQyjmwRw&utm_campaign=yelp_api_v3&utm_medium=api_v3_business_search&utm_source=hBJOknVQJ58S5goQyjmwRw", "review_count": 1, "categories": [{"alias": "foodstands", "title": "Food Stands"}, {"alias": "currysausage", "title": "Curry Sausage"}, {"alias": "fischbroetchen", "title": "Fischbroetchen"}], "rating": 5.0, "coordinates": {"latitude": 53.5464979304452, "longitude": 9.86265689134598}, "transactions": [], "location": {"address1": "Landeanlage Teufelsbr\u00fcck", "address2": "", "address3": "", "city": "Hamburg", "zip_code": "22609", "country": "DE", "state": "HH", "display_address": ["Landeanlage Teufelsbr\u00fcck", "22609 Hamburg", "Germany"]}, "phone": "+4940824187", "display_phone": "+49 40 824187", "distance": 1299.292197849798}, {"id": "oozu61zVmfuI5Vsf6SFdWA", "alias": "bistro-samarkand-hamburg", "name": "Bistro Samarkand", "image_url": "https://s3-media2.fl.yelpcdn.com/bphoto/eYhobGvGzbJDQHyT7x6jrg/o.jpg", "is_closed": false, "url": "https://www.yelp.com/biz/bistro-samarkand-hamburg?adjust_creative=hBJOknVQJ58S5goQyjmwRw&utm_campaign=yelp_api_v3&utm_medium=api_v3_business_search&utm_source=hBJOknVQJ58S5goQyjmwRw", "review_count": 19, "categories": [{"alias": "international", "title": "International"}], "rating": 4.5, "coordinates": {"latitude": 53.5734, "longitude": 9.89109}, "transactions": [], "price": "\u20ac", "location": {"address1": "Notke Str. 2", "address2": null, "address3": null, "city": "Hamburg", "zip_code": "22607", "country": "DE", "state": "HH", "display_address": ["Notke Str. 2", "22607 Hamburg", "Germany"]}, "phone": "+49408903228", "display_phone": "+49 40 8903228", "distance": 3957.728293501259}, {"id": "tAMw_EGUofPzjCw1BshUMQ", "alias": "elv-das-elb-restaurant-hamburg", "name": "Elv - Das Elb Restaurant", "image_url": "https://s3-media1.fl.yelpcdn.com/bphoto/qFpd-LgrkuRYK1Z1Z5IoRw/o.jpg", "is_closed": false, "url": "https://www.yelp.com/biz/elv-das-elb-restaurant-hamburg?adjust_creative=hBJOknVQJ58S5goQyjmwRw&utm_campaign=yelp_api_v3&utm_medium=api_v3_business_search&utm_source=hBJOknVQJ58S5goQyjmwRw", "review_count": 24, "categories": [{"alias": "german", "title": "German"}, {"alias": "italian", "title": "Italian"}], "rating": 2.5, "coordinates": {"latitude": 53.548647, "longitude": 9.8552989}, "transactions": [], "price": "\u20ac\u20ac\u20ac", "location": {"address1": "Elbuferweg 80", "address2": "", "address3": "", "city": "Hamburg", "zip_code": "22609", "country": "DE", "state": "HH", "display_address": ["Elbuferweg 80", "22609 Hamburg", "Germany"]}, "phone": "+4940820042", "display_phone": "+49 40 820042", "distance": 1827.3062210025428}, {"id": "Px4jy432G7pp-zZAfSZRAQ", "alias": "quellental-hamburg", "name": "Quellental", "image_url": "https://s3-media2.fl.yelpcdn.com/bphoto/bFjuPPJTVgi1avupn4ba_A/o.jpg", "is_closed": false, "url": "https://www.yelp.com/biz/quellental-hamburg?adjust_creative=hBJOknVQJ58S5goQyjmwRw&utm_campaign=yelp_api_v3&utm_medium=api_v3_business_search&utm_source=hBJOknVQJ58S5goQyjmwRw", "review_count": 35, "categories": [{"alias": "german", "title": "German"}], "rating": 4.0, "coordinates": {"latitude": 53.55265, "longitude": 9.85848}, "transactions": [], "price": "\u20ac\u20ac\u20ac", "location": {"address1": "Quellental 36", "address2": null, "address3": null, "city": "Hamburg", "zip_code": "22609", "country": "DE", "state": "HH", "display_address": ["Quellental 36", "22609 Hamburg", "Germany"]}, "phone": "+494082242270", "display_phone": "+49 40 82242270", "distance": 1987.0718991750355}, {"id": "pmJrLe4RdSiMhEG-apydtw", "alias": "knips-hamburg", "name": "Knips", "image_url": "https://s3-media3.fl.yelpcdn.com/bphoto/nzm0w1rQMVO8adiP5donYQ/o.jpg", "is_closed": false, "url": "https://www.yelp.com/biz/knips-hamburg?adjust_creative=hBJOknVQJ58S5goQyjmwRw&utm_campaign=yelp_api_v3&utm_medium=api_v3_business_search&utm_source=hBJOknVQJ58S5goQyjmwRw", "review_count": 29, "categories": [{"alias": "bars", "title": "Bars"}, {"alias": "international", "title": "International"}], "rating": 4.0, "coordinates": {"latitude": 53.55775, "longitude": 9.8602}, "transactions": [], "price": "\u20ac\u20ac\u20ac", "location": {"address1": "J\u00fcrgensallee 51", "address2": null, "address3": null, "city": "Hamburg", "zip_code": "22609", "country": "DE", "state": "HH", "display_address": ["J\u00fcrgensallee 51", "22609 Hamburg", "Germany"]}, "phone": "+4940829144", "display_phone": "+49 40 829144", "distance": 2399.7400351637493}, {"id": "IbCuFlSuBKCXjDbIaglUXg", "alias": "kebap-haus-finkenwerder-hamburg", "name": "Kebap Haus Finkenwerder", "image_url": "https://s3-media2.fl.yelpcdn.com/bphoto/L6blQRjh0Rmed29tFsLxkw/o.jpg", "is_closed": false, "url": "https://www.yelp.com/biz/kebap-haus-finkenwerder-hamburg?adjust_creative=hBJOknVQJ58S5goQyjmwRw&utm_campaign=yelp_api_v3&utm_medium=api_v3_business_search&utm_source=hBJOknVQJ58S5goQyjmwRw", "review_count": 1, "categories": [{"alias": "kebab", "title": "Kebab"}], "rating": 4.0, "coordinates": {"latitude": 53.5324395, "longitude": 9.8798759}, "transactions": [], "location": {"address1": "Steendiek 24", "address2": null, "address3": null, "city": "Hamburg", "zip_code": "21129", "country": "DE", "state": "HH", "display_address": ["Steendiek 24", "21129 Hamburg", "Germany"]}, "phone": "+49407424615", "display_phone": "+49 40 7424615", "distance": 721.0200693755023}, {"id": "KMR_rm7jfAIowh9B9bj6Kw", "alias": "il-cortile-hamburg-2", "name": "Il Cortile", "image_url": "https://s3-media4.fl.yelpcdn.com/bphoto/2Zzcm6kmMhhwnJPXwVOSlw/o.jpg", "is_closed": false, "url": "https://www.yelp.com/biz/il-cortile-hamburg-2?adjust_creative=hBJOknVQJ58S5goQyjmwRw&utm_campaign=yelp_api_v3&utm_medium=api_v3_business_search&utm_source=hBJOknVQJ58S5goQyjmwRw", "review_count": 7, "categories": [{"alias": "bistros", "title": "Bistros"}, {"alias": "italian", "title": "Italian"}, {"alias": "wine_bars", "title": "Wine Bars"}], "rating": 4.5, "coordinates": {"latitude": 53.5700549275886, "longitude": 9.89661578427286}, "transactions": [], "price": "\u20ac\u20ac", "location": {"address1": "Theodorstr. 41z", "address2": "", "address3": "", "city": "Hamburg", "zip_code": "22761", "country": "DE", "state": "HH", "display_address": ["Theodorstr. 41z", "22761 Hamburg", "Germany"]}, "phone": "+494088167216", "display_phone": "+49 40 88167216", "distance": 3705.452794158057}, {"id": "TJZF7S5nSKmrLIwxB23XSA", "alias": "moraba-hamburg-2", "name": "Moraba", "image_url": "https://s3-media2.fl.yelpcdn.com/bphoto/NIolCDWym7BFalyVXj2rpg/o.jpg", "is_closed": false, "url": "https://www.yelp.com/biz/moraba-hamburg-2?adjust_creative=hBJOknVQJ58S5goQyjmwRw&utm_campaign=yelp_api_v3&utm_medium=api_v3_business_search&utm_source=hBJOknVQJ58S5goQyjmwRw", "review_count": 2, "categories": [{"alias": "mediterranean", "title": "Mediterranean"}], "rating": 4.0, "coordinates": {"latitude": 53.559634, "longitude": 9.8823307}, "transactions": [], "location": {"address1": "Waitzstr. 25", "address2": "", "address3": null, "city": "Hamburg", "zip_code": "22607", "country": "DE", "state": "HH", "display_address": ["Waitzstr. 25", "22607 Hamburg", "Germany"]}, "phone": "+494085158760", "display_phone": "+49 40 85158760", "distance": 2344.9343751020756}, {"id": "bewkz1hzXlWQ8rCZqblmIw", "alias": "il-quarto-stato-hamburg", "name": "Il Quarto Stato", "image_url": "https://s3-media1.fl.yelpcdn.com/bphoto/a_Jf7xhDda1KWksIO4BPaQ/o.jpg", "is_closed": false, "url": "https://www.yelp.com/biz/il-quarto-stato-hamburg?adjust_creative=hBJOknVQJ58S5goQyjmwRw&utm_campaign=yelp_api_v3&utm_medium=api_v3_business_search&utm_source=hBJOknVQJ58S5goQyjmwRw", "review_count": 13, "categories": [{"alias": "cafes", "title": "Cafes"}], "rating": 4.5, "coordinates": {"latitude": 53.549857, "longitude": 9.898124}, "transactions": [], "price": "\u20ac\u20ac\u20ac", "location": {"address1": "Liebermann Str. 46", "address2": null, "address3": null, "city": "Hamburg", "zip_code": "22605", "country": "DE", "state": "HH", "display_address": ["Liebermann Str. 46", "22605 Hamburg", "Germany"]}, "phone": "+494046654662", "display_phone": "+49 40 46654662", "distance": 1844.8825813472624}, {"id": "ZwQGJt_VapeG3j9UWR_gZw", "alias": "country-kitchen-hamburg", "name": "Country Kitchen", "image_url": "https://s3-media4.fl.yelpcdn.com/bphoto/ItXrA620wA6aKsGgzwL18w/o.jpg", "is_closed": false, "url": "https://www.yelp.com/biz/country-kitchen-hamburg?adjust_creative=hBJOknVQJ58S5goQyjmwRw&utm_campaign=yelp_api_v3&utm_medium=api_v3_business_search&utm_source=hBJOknVQJ58S5goQyjmwRw", "review_count": 52, "categories": [{"alias": "modern_european", "title": "Modern European"}], "rating": 3.5, "coordinates": {"latitude": 53.56529, "longitude": 9.87123}, "transactions": [], "price": "\u20ac\u20ac", "location": {"address1": "Hemmingstedter Weg 2", "address2": null, "address3": null, "city": "Hamburg", "zip_code": "22607", "country": "DE", "state": "HH", "display_address": ["Hemmingstedter Weg 2", "22607 Hamburg", "Germany"]}, "phone": "+494085197778", "display_phone": "+49 40 85197778", "distance": 2971.5643472383786}, {"id": "5ThX_7bjR42RqTRYtb78ZQ", "alias": "l-europeo-hamburg-2", "name": "L'europeo", "image_url": "https://s3-media3.fl.yelpcdn.com/bphoto/yglrq1-SMySs06mZm25LUg/o.jpg", "is_closed": false, "url": "https://www.yelp.com/biz/l-europeo-hamburg-2?adjust_creative=hBJOknVQJ58S5goQyjmwRw&utm_campaign=yelp_api_v3&utm_medium=api_v3_business_search&utm_source=hBJOknVQJ58S5goQyjmwRw", "review_count": 33, "categories": [{"alias": "italian", "title": "Italian"}], "rating": 4.5, "coordinates": {"latitude": 53.56593, "longitude": 9.8947}, "transactions": [], "price": "\u20ac\u20ac\u20ac\u20ac", "location": {"address1": "Osdorfer Weg 27", "address2": null, "address3": null, "city": "Hamburg", "zip_code": "22607", "country": "DE", "state": "HH", "display_address": ["Osdorfer Weg 27", "22607 Hamburg", "Germany"]}, "phone": "+49408992138", "display_phone": "+49 40 8992138", "distance": 3220.8451227182613}, {"id": "BF8MNmtY-tJuPBY8s5f8DQ", "alias": "cafe-elb-wein-hamburg", "name": "Cafe Elb Wein", "image_url": "https://s3-media3.fl.yelpcdn.com/bphoto/qZRks8cnYVxMdHRCk9j8JA/o.jpg", "is_closed": false, "url": "https://www.yelp.com/biz/cafe-elb-wein-hamburg?adjust_creative=hBJOknVQJ58S5goQyjmwRw&utm_campaign=yelp_api_v3&utm_medium=api_v3_business_search&utm_source=hBJOknVQJ58S5goQyjmwRw", "review_count": 33, "categories": [{"alias": "breakfast_brunch", "title": "Breakfast & Brunch"}, {"alias": "cafes", "title": "Cafes"}], "rating": 4.0, "coordinates": {"latitude": 53.56482, "longitude": 9.880286}, "transactions": [], "price": "\u20ac\u20ac", "location": {"address1": "Beselerstr. 27", "address2": "", "address3": "", "city": "Hamburg", "zip_code": "22607", "country": "DE", "state": "HH", "display_address": ["Beselerstr. 27", "22607 Hamburg", "Germany"]}, "phone": "+494088129819", "display_phone": "+49 40 88129819", "distance": 2905.62891932693}, {"id": "fRNCmStKTSCkJBkkSdwEZA", "alias": "museumscafe-hamburg", "name": "Museumscafe", "image_url": "https://s3-media3.fl.yelpcdn.com/bphoto/STB9V57s0QBKFYgC5NqNVw/o.jpg", "is_closed": false, "url": "https://www.yelp.com/biz/museumscafe-hamburg?adjust_creative=hBJOknVQJ58S5goQyjmwRw&utm_campaign=yelp_api_v3&utm_medium=api_v3_business_search&utm_source=hBJOknVQJ58S5goQyjmwRw", "review_count": 7, "categories": [{"alias": "cafes", "title": "Cafes"}], "rating": 4.5, "coordinates": {"latitude": 53.55265, "longitude": 9.86577}, "transactions": [], "price": "\u20ac\u20ac\u20ac", "location": {"address1": "Jenisch Haus", "address2": "Baron-Voght-Str. 50", "address3": "", "city": "Hamburg", "zip_code": "22609", "country": "DE", "state": "HH", "display_address": ["Jenisch Haus", "Baron-Voght-Str. 50", "22609 Hamburg", "Germany"]}, "phone": "+494082290822", "display_phone": "+49 40 82290822", "distance": 1728.728194852336}, {"id": "lc9AIe9Qg6qoGdP5hmx61w", "alias": "restaurant-finkenwerder-elbblick-hamburg", "name": "Restaurant Finkenwerder Elbblick", "image_url": "https://s3-media1.fl.yelpcdn.com/bphoto/y1tdV5YvlrBHiRgylWPyIA/o.jpg", "is_closed": false, "url": "https://www.yelp.com/biz/restaurant-finkenwerder-elbblick-hamburg?adjust_creative=hBJOknVQJ58S5goQyjmwRw&utm_campaign=yelp_api_v3&utm_medium=api_v3_business_search&utm_source=hBJOknVQJ58S5goQyjmwRw", "review_count": 15, "categories": [{"alias": "coffee", "title": "Coffee & Tea"}, {"alias": "seafood", "title": "Seafood"}, {"alias": "gastropubs", "title": "Gastropubs"}], "rating": 3.5, "coordinates": {"latitude": 53.53864, "longitude": 9.8735199}, "transactions": [], "price": "\u20ac\u20ac\u20ac", "location": {"address1": "Focksweg 42", "address2": null, "address3": null, "city": "Hamburg", "zip_code": "21129", "country": "DE", "state": "HH", "display_address": ["Focksweg 42", "21129 Hamburg", "Germany"]}, "phone": "+49407427095", "display_phone": "+49 40 7427095", "distance": 241.30743041414001}, {"id": "japGaLeOGiAP2h7uyOE3rw", "alias": "panetteria-italiana-hamburg", "name": "Panetteria Italiana", "image_url": "https://s3-media1.fl.yelpcdn.com/bphoto/omzu2F7Mllp7iHfyYHgEpA/o.jpg", "is_closed": false, "url": "https://www.yelp.com/biz/panetteria-italiana-hamburg?adjust_creative=hBJOknVQJ58S5goQyjmwRw&utm_campaign=yelp_api_v3&utm_medium=api_v3_business_search&utm_source=hBJOknVQJ58S5goQyjmwRw", "review_count": 9, "categories": [{"alias": "italian", "title": "Italian"}], "rating": 3.0, "coordinates": {"latitude": 53.5692866, "longitude": 9.8792913}, "transactions": [], "price": "\u20ac\u20ac\u20ac", "location": {"address1": "Osdorfer Landstr. 4", "address2": null, "address3": null, "city": "Hamburg", "zip_code": "22607", "country": "DE", "state": "HH", "display_address": ["Osdorfer Landstr. 4", "22607 Hamburg", "Germany"]}, "phone": "+494089064802", "display_phone": "+49 40 89064802", "distance": 3397.6715514790903}, {"id": "vrGm2GYmxOSfuyIlcU7b2w", "alias": "ralphs-kiosk-im-jenischpark-das-parkcaf\u00e9-hamburg", "name": "Ralphs Kiosk im Jenischpark - Das Parkcaf\u00e9", "image_url": "https://s3-media3.fl.yelpcdn.com/bphoto/3n2ddcxHmivqBmpymTWaWg/o.jpg", "is_closed": false, "url": "https://www.yelp.com/biz/ralphs-kiosk-im-jenischpark-das-parkcaf%C3%A9-hamburg?adjust_creative=hBJOknVQJ58S5goQyjmwRw&utm_campaign=yelp_api_v3&utm_medium=api_v3_business_search&utm_source=hBJOknVQJ58S5goQyjmwRw", "review_count": 13, "categories": [{"alias": "cafes", "title": "Cafes"}, {"alias": "kiosk", "title": "Kiosk"}], "rating": 4.0, "coordinates": {"latitude": 53.553618282277, "longitude": 9.86560400972712}, "transactions": [], "price": "\u20ac\u20ac", "location": {"address1": "Jenischpark", "address2": "Baron-Voght-Stra\u00dfe", "address3": null, "city": "Hamburg", "zip_code": "22609", "country": "DE", "state": "HH", "display_address": ["Jenischpark", "Baron-Voght-Stra\u00dfe", "22609 Hamburg", "Germany"]}, "phone": "+491724531743", "display_phone": "+49 172 4531743", "distance": 1826.9968373139516}, {"id": "QtVFQJkzY8laiJ_BKZbVhA", "alias": "l-incontro-hamburg-2", "name": "L'Incontro", "image_url": "https://s3-media2.fl.yelpcdn.com/bphoto/3WH_NqkyvxVdTD_A9EafNw/o.jpg", "is_closed": false, "url": "https://www.yelp.com/biz/l-incontro-hamburg-2?adjust_creative=hBJOknVQJ58S5goQyjmwRw&utm_campaign=yelp_api_v3&utm_medium=api_v3_business_search&utm_source=hBJOknVQJ58S5goQyjmwRw", "review_count": 9, "categories": [{"alias": "italian", "title": "Italian"}], "rating": 4.0, "coordinates": {"latitude": 53.57328, "longitude": 9.89216}, "transactions": [], "price": "\u20ac\u20ac", "location": {"address1": "Ebertallee 232", "address2": "", "address3": "", "city": "Hamburg", "zip_code": "22607", "country": "DE", "state": "HH", "display_address": ["Ebertallee 232", "22607 Hamburg", "Germany"]}, "phone": "+494031992211", "display_phone": "+49 40 31992211", "distance": 3961.5644918387884}, {"id": "tIq1SBRBK9oxrl4cM9W3Kg", "alias": "restaurant-river-view-hamburg", "name": "Restaurant River View", "image_url": "https://s3-media3.fl.yelpcdn.com/bphoto/dJEmWOBFxjSCvx6WTtBnuA/o.jpg", "is_closed": false, "url": "https://www.yelp.com/biz/restaurant-river-view-hamburg?adjust_creative=hBJOknVQJ58S5goQyjmwRw&utm_campaign=yelp_api_v3&utm_medium=api_v3_business_search&utm_source=hBJOknVQJ58S5goQyjmwRw", "review_count": 17, "categories": [{"alias": "international", "title": "International"}], "rating": 3.0, "coordinates": {"latitude": 53.540825, "longitude": 9.862846}, "transactions": [], "price": "\u20ac\u20ac\u20ac", "location": {"address1": "Hein-Sa\u00df-Weg 40", "address2": "", "address3": null, "city": "Hamburg", "zip_code": "21129", "country": "DE", "state": "HH", "display_address": ["Hein-Sa\u00df-Weg 40", "21129 Hamburg", "Germany"]}, "phone": "+4940300849800", "display_phone": "+49 40 300849800", "distance": 987.6088132099451}, {"id": "_GuX6r6zS913HEFfX_jb9g", "alias": "dampferimbiss-hamburg", "name": "Dampferimbiss", "image_url": "https://s3-media2.fl.yelpcdn.com/bphoto/-MDMDDDCqKzLSCT4iB_-tg/o.jpg", "is_closed": false, "url": "https://www.yelp.com/biz/dampferimbiss-hamburg?adjust_creative=hBJOknVQJ58S5goQyjmwRw&utm_campaign=yelp_api_v3&utm_medium=api_v3_business_search&utm_source=hBJOknVQJ58S5goQyjmwRw", "review_count": 11, "categories": [{"alias": "foodstands", "title": "Food Stands"}, {"alias": "fischbroetchen", "title": "Fischbroetchen"}], "rating": 3.5, "coordinates": {"latitude": 53.53587, "longitude": 9.87823}, "transactions": [], "price": "\u20ac", "location": {"address1": "F\u00e4hranleger", "address2": "Benittstr. 7", "address3": null, "city": "Hamburg", "zip_code": "21129", "country": "DE", "state": "HH", "display_address": ["F\u00e4hranleger", "Benittstr. 7", "21129 Hamburg", "Germany"]}, "phone": "+49407429414", "display_phone": "+49 40 7429414", "distance": 325.16206549142726}, {"id": "O9cLlJIpBL_4xzR5cHVBTw", "alias": "caf\u00e9-schmidt-hamburg-3", "name": "Caf\u00e9 Schmidt", "image_url": "https://s3-media1.fl.yelpcdn.com/bphoto/ynKWWjF-5EfCzRuASQtRCg/o.jpg", "is_closed": false, "url": "https://www.yelp.com/biz/caf%C3%A9-schmidt-hamburg-3?adjust_creative=hBJOknVQJ58S5goQyjmwRw&utm_campaign=yelp_api_v3&utm_medium=api_v3_business_search&utm_source=hBJOknVQJ58S5goQyjmwRw", "review_count": 23, "categories": [{"alias": "cafes", "title": "Cafes"}, {"alias": "cakeshop", "title": "Patisserie/Cake Shop"}], "rating": 4.0, "coordinates": {"latitude": 53.559648, "longitude": 9.888449}, "transactions": [], "price": "\u20ac\u20ac", "location": {"address1": "Beselerplatz 10", "address2": null, "address3": null, "city": "Hamburg", "zip_code": "22607", "country": "DE", "state": "HH", "display_address": ["Beselerplatz 10", "22607 Hamburg", "Germany"]}, "phone": "+4940893995", "display_phone": "+49 40 893995", "distance": 2435.9362496302165}, {"id": "qAYKUlLT1nu1zcweQart8g", "alias": "block-house-hamburg-15", "name": "Block House", "image_url": "https://s3-media3.fl.yelpcdn.com/bphoto/9F3mdAuap4afgW6JE7XmUw/o.jpg", "is_closed": false, "url": "https://www.yelp.com/biz/block-house-hamburg-15?adjust_creative=hBJOknVQJ58S5goQyjmwRw&utm_campaign=yelp_api_v3&utm_medium=api_v3_business_search&utm_source=hBJOknVQJ58S5goQyjmwRw", "review_count": 86, "categories": [{"alias": "steak", "title": "Steakhouses"}], "rating": 4.0, "coordinates": {"latitude": 53.55955, "longitude": 9.88659}, "transactions": [], "price": "\u20ac\u20ac\u20ac", "location": {"address1": "Waitzstr. 1", "address2": null, "address3": null, "city": "Hamburg", "zip_code": "22607", "country": "DE", "state": "HH", "display_address": ["Waitzstr. 1", "22607 Hamburg", "Germany"]}, "phone": "+49408907273", "display_phone": "+49 40 8907273", "distance": 2382.561735267207}, {"id": "7-IKoXs-UJw0hoGlVu7tRQ", "alias": "mahlzeit-live-hamburg", "name": "Mahlzeit Live", "image_url": "https://s3-media1.fl.yelpcdn.com/bphoto/9-61pLmaQKtLBN5DAIp87w/o.jpg", "is_closed": false, "url": "https://www.yelp.com/biz/mahlzeit-live-hamburg?adjust_creative=hBJOknVQJ58S5goQyjmwRw&utm_campaign=yelp_api_v3&utm_medium=api_v3_business_search&utm_source=hBJOknVQJ58S5goQyjmwRw", "review_count": 105, "categories": [{"alias": "mongolian", "title": "Mongolian"}, {"alias": "chinese", "title": "Chinese"}, {"alias": "panasian", "title": "Pan Asian"}], "rating": 3.5, "coordinates": {"latitude": 53.575429, "longitude": 9.888661}, "transactions": [], "price": "\u20ac\u20ac", "location": {"address1": "Albert-Einstein-Ring 8", "address2": "", "address3": "", "city": "Hamburg", "zip_code": "22761", "country": "DE", "state": "HH", "display_address": ["Albert-Einstein-Ring 8", "22761 Hamburg", "Germany"]}, "phone": "+494080030308", "display_phone": "+49 40 80030308", "distance": 4150.916340051519}, {"id": "9ie_J-ExumhDRpSA_XMdJA", "alias": "tunicis-restaurant-dubrovnik-hamburg-7", "name": "Tunici's Restaurant Dubrovnik", "image_url": "https://s3-media1.fl.yelpcdn.com/bphoto/VZy1pwItmkX7S00N0p7RqQ/o.jpg", "is_closed": false, "url": "https://www.yelp.com/biz/tunicis-restaurant-dubrovnik-hamburg-7?adjust_creative=hBJOknVQJ58S5goQyjmwRw&utm_campaign=yelp_api_v3&utm_medium=api_v3_business_search&utm_source=hBJOknVQJ58S5goQyjmwRw", "review_count": 11, "categories": [{"alias": "serbocroatian", "title": "Serbo Croatian"}], "rating": 4.5, "coordinates": {"latitude": 53.5708602092456, "longitude": 9.89808987826109}, "transactions": [], "price": "\u20ac\u20ac", "location": {"address1": "Luruper Chaussee 2", "address2": "", "address3": "", "city": "Hamburg", "zip_code": "22761", "country": "DE", "state": "HH", "display_address": ["Luruper Chaussee 2", "22761 Hamburg", "Germany"]}, "phone": "+494089066444", "display_phone": "+49 40 89066444", "distance": 3823.4365426146483}, {"id": "WOqDzqq1Tc8HOuFbNJlbeg", "alias": "das-caf\u00e9-hamburg-5", "name": "Das Caf\u00e9", "image_url": "https://s3-media2.fl.yelpcdn.com/bphoto/N0gPtpYLl4DS5ESvdER3MQ/o.jpg", "is_closed": false, "url": "https://www.yelp.com/biz/das-caf%C3%A9-hamburg-5?adjust_creative=hBJOknVQJ58S5goQyjmwRw&utm_campaign=yelp_api_v3&utm_medium=api_v3_business_search&utm_source=hBJOknVQJ58S5goQyjmwRw", "review_count": 1, "categories": [{"alias": "cafes", "title": "Cafes"}], "rating": 5.0, "coordinates": {"latitude": 53.57038, "longitude": 9.88707}, "transactions": [], "location": {"address1": "Steenkamp 16", "address2": "", "address3": "", "city": "Hamburg", "zip_code": "22607", "country": "DE", "state": "HH", "display_address": ["Steenkamp 16", "22607 Hamburg", "Germany"]}, "phone": "", "display_phone": "", "distance": 3574.2416051089785}, {"id": "LfdL4mkHqrzhcDCL_IAm-w", "alias": "newport-cafe-hamburg", "name": "NewPort Cafe", "image_url": "https://s3-media4.fl.yelpcdn.com/bphoto/rAqv2_DuxXORaEgfuTuaaw/o.jpg", "is_closed": false, "url": "https://www.yelp.com/biz/newport-cafe-hamburg?adjust_creative=hBJOknVQJ58S5goQyjmwRw&utm_campaign=yelp_api_v3&utm_medium=api_v3_business_search&utm_source=hBJOknVQJ58S5goQyjmwRw", "review_count": 15, "categories": [{"alias": "breakfast_brunch", "title": "Breakfast & Brunch"}, {"alias": "cafes", "title": "Cafes"}], "rating": 4.5, "coordinates": {"latitude": 53.55963, "longitude": 9.8836}, "transactions": [], "price": "\u20ac\u20ac", "location": {"address1": "Waitzstr. 18", "address2": "", "address3": "", "city": "Hamburg", "zip_code": "22607", "country": "DE", "state": "HH", "display_address": ["Waitzstr. 18", "22607 Hamburg", "Germany"]}, "phone": "+494022623045", "display_phone": "+49 40 22623045", "distance": 2362.8303257972307}, {"id": "UasR82r2IQmJzk5H8f4pQw", "alias": "ton-peerstall-hamburg", "name": "To'n Peerstall", "image_url": "https://s3-media4.fl.yelpcdn.com/bphoto/6t_0Z2VvS60zi7tRWRk50Q/o.jpg", "is_closed": false, "url": "https://www.yelp.com/biz/ton-peerstall-hamburg?adjust_creative=hBJOknVQJ58S5goQyjmwRw&utm_campaign=yelp_api_v3&utm_medium=api_v3_business_search&utm_source=hBJOknVQJ58S5goQyjmwRw", "review_count": 22, "categories": [{"alias": "international", "title": "International"}], "rating": 3.0, "coordinates": {"latitude": 53.55469, "longitude": 9.86708}, "transactions": [], "price": "\u20ac\u20ac\u20ac", "location": {"address1": "Hochrad 69", "address2": "", "address3": null, "city": "Hamburg", "zip_code": "22605", "country": "DE", "state": "HH", "display_address": ["Hochrad 69", "22605 Hamburg", "Germany"]}, "phone": "+4940821793", "display_phone": "+49 40 821793", "distance": 1892.8131865764456}, {"id": "1uwARH5BoHB448C85pRDEA", "alias": "paulas-wirtshaus-hamburg", "name": "Paula's Wirtshaus", "image_url": "https://s3-media2.fl.yelpcdn.com/bphoto/fRMXIRfGIvnavu31xBdyxg/o.jpg", "is_closed": false, "url": "https://www.yelp.com/biz/paulas-wirtshaus-hamburg?adjust_creative=hBJOknVQJ58S5goQyjmwRw&utm_campaign=yelp_api_v3&utm_medium=api_v3_business_search&utm_source=hBJOknVQJ58S5goQyjmwRw", "review_count": 4, "categories": [{"alias": "swabian", "title": "Swabian"}, {"alias": "bavarian", "title": "Bavarian"}], "rating": 4.0, "coordinates": {"latitude": 53.5506699, "longitude": 9.89782}, "transactions": [], "location": {"address1": "Liebermannstr. 52", "address2": null, "address3": "", "city": "Hamburg", "zip_code": "22605", "country": "DE", "state": "HH", "display_address": ["Liebermannstr. 52", "22605 Hamburg", "Germany"]}, "phone": "+494020911062", "display_phone": "+49 40 20911062", "distance": 1896.453195564121}, {"id": "X5KZcnoHMCEBxPVcUZVOqw", "alias": "jim-block-hamburg-7", "name": "Jim Block", "image_url": "https://s3-media2.fl.yelpcdn.com/bphoto/fBKpO59QJt9zDMV11MQakQ/o.jpg", "is_closed": false, "url": "https://www.yelp.com/biz/jim-block-hamburg-7?adjust_creative=hBJOknVQJ58S5goQyjmwRw&utm_campaign=yelp_api_v3&utm_medium=api_v3_business_search&utm_source=hBJOknVQJ58S5goQyjmwRw", "review_count": 101, "categories": [{"alias": "burgers", "title": "Burgers"}, {"alias": "hotdogs", "title": "Fast Food"}], "rating": 4.0, "coordinates": {"latitude": 53.5586, "longitude": 9.88694}, "transactions": [], "price": "\u20ac\u20ac", "location": {"address1": "Statthalterplatz 5", "address2": null, "address3": null, "city": "Hamburg", "zip_code": "22605", "country": "DE", "state": "HH", "display_address": ["Statthalterplatz 5", "22605 Hamburg", "Germany"]}, "phone": "+4940854511", "display_phone": "+49 40 854511", "distance": 2295.6390659311187}, {"id": "SIYZ3bqLlhOGo4Uyl8i0lQ", "alias": "caf\u00e9-palme-im-botanischen-garten-hamburg", "name": "Caf\u00e9 Palme im Botanischen Garten", "image_url": "https://s3-media2.fl.yelpcdn.com/bphoto/bLSso-wYoSjKZ_Sjv_GQ1A/o.jpg", "is_closed": false, "url": "https://www.yelp.com/biz/caf%C3%A9-palme-im-botanischen-garten-hamburg?adjust_creative=hBJOknVQJ58S5goQyjmwRw&utm_campaign=yelp_api_v3&utm_medium=api_v3_business_search&utm_source=hBJOknVQJ58S5goQyjmwRw", "review_count": 7, "categories": [{"alias": "cafes", "title": "Cafes"}], "rating": 4.0, "coordinates": {"latitude": 53.5612, "longitude": 9.861}, "transactions": [], "price": "\u20ac\u20ac", "location": {"address1": "Ohnhorststr. 18", "address2": null, "address3": null, "city": "Hamburg", "zip_code": "22609", "country": "DE", "state": "HH", "display_address": ["Ohnhorststr. 18", "22609 Hamburg", "Germany"]}, "phone": "+494082290966", "display_phone": "+49 40 82290966", "distance": 2720.571648308397}, {"id": "LBLxVFl-M62Dh6Balg6E0Q", "alias": "louisiana-hamburg-5", "name": "Louisiana", "image_url": "https://s3-media3.fl.yelpcdn.com/bphoto/OdsrfRe4xglkiQX8oa2Iig/o.jpg", "is_closed": false, "url": "https://www.yelp.com/biz/louisiana-hamburg-5?adjust_creative=hBJOknVQJ58S5goQyjmwRw&utm_campaign=yelp_api_v3&utm_medium=api_v3_business_search&utm_source=hBJOknVQJ58S5goQyjmwRw", "review_count": 75, "categories": [{"alias": "tradamerican", "title": "American (Traditional)"}, {"alias": "cocktailbars", "title": "Cocktail Bars"}, {"alias": "sportsbars", "title": "Sports Bars"}], "rating": 3.0, "coordinates": {"latitude": 53.5577366941248, "longitude": 9.90028387539371}, "transactions": [], "price": "\u20ac\u20ac", "location": {"address1": "Baurstr. 2", "address2": null, "address3": null, "city": "Hamburg", "zip_code": "22605", "country": "DE", "state": "HH", "display_address": ["Baurstr. 2", "22605 Hamburg", "Germany"]}, "phone": "+494088098085", "display_phone": "+49 40 88098085", "distance": 2597.3718756064227}, {"id": "h79i_XdIZk_SR7IM7LnrYg", "alias": "l\u00fctt-d\u00f6ns-hamburg", "name": "L\u00fctt D\u00f6ns", "image_url": "https://s3-media1.fl.yelpcdn.com/bphoto/KVNNMPzKaC4wx0vu4F5-3A/o.jpg", "is_closed": false, "url": "https://www.yelp.com/biz/l%C3%BCtt-d%C3%B6ns-hamburg?adjust_creative=hBJOknVQJ58S5goQyjmwRw&utm_campaign=yelp_api_v3&utm_medium=api_v3_business_search&utm_source=hBJOknVQJ58S5goQyjmwRw", "review_count": 10, "categories": [{"alias": "sportsbars", "title": "Sports Bars"}, {"alias": "beergarden", "title": "Beer Garden"}], "rating": 4.5, "coordinates": {"latitude": 53.5591099, "longitude": 9.88734}, "transactions": [], "price": "\u20ac", "location": {"address1": "Reventlowstr. 64 a", "address2": "", "address3": "", "city": "Hamburg", "zip_code": "22605", "country": "DE", "state": "HH", "display_address": ["Reventlowstr. 64 a", "22605 Hamburg", "Germany"]}, "phone": "+49408801762", "display_phone": "+49 40 8801762", "distance": 2355.0137662707602}, {"id": "T5RWIzZm9xoA1Wuy_8G-UQ", "alias": "l-italiano-hamburg", "name": "L'Italiano", "image_url": "https://s3-media2.fl.yelpcdn.com/bphoto/6-B9baT5IuDVptWqppRsQQ/o.jpg", "is_closed": false, "url": "https://www.yelp.com/biz/l-italiano-hamburg?adjust_creative=hBJOknVQJ58S5goQyjmwRw&utm_campaign=yelp_api_v3&utm_medium=api_v3_business_search&utm_source=hBJOknVQJ58S5goQyjmwRw", "review_count": 3, "categories": [{"alias": "italian", "title": "Italian"}], "rating": 3.0, "coordinates": {"latitude": 53.55953, "longitude": 9.88597}, "transactions": [], "location": {"address1": "Waitzstr. 3", "address2": null, "address3": null, "city": "Hamburg", "zip_code": "22607", "country": "DE", "state": "HH", "display_address": ["Waitzstr. 3", "22607 Hamburg", "Germany"]}, "phone": "+494089064802", "display_phone": "+49 40 89064802", "distance": 2375.0276168620453}, {"id": "Fwe39vvgv6zwug_wnC6_rw", "alias": "champus-hamburg", "name": "Champus", "image_url": "https://s3-media1.fl.yelpcdn.com/bphoto/v5M2B6jTD2QX5BYqeS6m5g/o.jpg", "is_closed": false, "url": "https://www.yelp.com/biz/champus-hamburg?adjust_creative=hBJOknVQJ58S5goQyjmwRw&utm_campaign=yelp_api_v3&utm_medium=api_v3_business_search&utm_source=hBJOknVQJ58S5goQyjmwRw", "review_count": 8, "categories": [{"alias": "international", "title": "International"}], "rating": 3.5, "coordinates": {"latitude": 53.56564, "longitude": 9.8795}, "transactions": [], "price": "\u20ac\u20ac\u20ac", "location": {"address1": "Beselerstr. 35", "address2": null, "address3": null, "city": "Hamburg", "zip_code": "22607", "country": "DE", "state": "HH", "display_address": ["Beselerstr. 35", "22607 Hamburg", "Germany"]}, "phone": "+494089065350", "display_phone": "+49 40 89065350", "distance": 2991.0145846814557}, {"id": "8_KCb-X3F6MwPI6ae2tsLQ", "alias": "br\u00fccke-10-im-strandhaus-hamburg", "name": "Br\u00fccke 10 im Strandhaus", "image_url": "https://s3-media1.fl.yelpcdn.com/bphoto/g5C-V5WBMphx0NzzFX3WQg/o.jpg", "is_closed": false, "url": "https://www.yelp.com/biz/br%C3%BCcke-10-im-strandhaus-hamburg?adjust_creative=hBJOknVQJ58S5goQyjmwRw&utm_campaign=yelp_api_v3&utm_medium=api_v3_business_search&utm_source=hBJOknVQJ58S5goQyjmwRw", "review_count": 2, "categories": [{"alias": "bars", "title": "Bars"}, {"alias": "cafes", "title": "Cafes"}], "rating": 4.0, "coordinates": {"latitude": 53.544838, "longitude": 9.892318}, "transactions": [], "location": {"address1": "\u00d6velg\u00f6nner Hohlweg 12", "address2": "", "address3": null, "city": "Hamburg", "zip_code": "22605", "country": "DE", "state": "HH", "display_address": ["\u00d6velg\u00f6nner Hohlweg 12", "22605 Hamburg", "Germany"]}, "phone": "+494085352351", "display_phone": "+49 40 85352351", "distance": 1210.9881616329517}, {"id": "FSqlK4CeFGlxJXowf9YWGw", "alias": "schweinske-hamburg-16", "name": "Schweinske", "image_url": "https://s3-media2.fl.yelpcdn.com/bphoto/oXO9lFma69wZeVAYO7t-0A/o.jpg", "is_closed": false, "url": "https://www.yelp.com/biz/schweinske-hamburg-16?adjust_creative=hBJOknVQJ58S5goQyjmwRw&utm_campaign=yelp_api_v3&utm_medium=api_v3_business_search&utm_source=hBJOknVQJ58S5goQyjmwRw", "review_count": 42, "categories": [{"alias": "german", "title": "German"}], "rating": 3.5, "coordinates": {"latitude": 53.5651, "longitude": 9.90227}, "transactions": [], "price": "\u20ac", "location": {"address1": "Silcherstr. 1", "address2": null, "address3": null, "city": "Hamburg", "zip_code": "22761", "country": "DE", "state": "HH", "display_address": ["Silcherstr. 1", "22761 Hamburg", "Germany"]}, "phone": "+494085500607", "display_phone": "+49 40 85500607", "distance": 3359.6786413127634}, {"id": "q751u517rYS5qAihIRfxSQ", "alias": "arena-imbiss-hamburg-2", "name": "Arena Imbiss", "image_url": "https://s3-media4.fl.yelpcdn.com/bphoto/cN7Tl_Xftf6MFvBuMZbY2w/o.jpg", "is_closed": false, "url": "https://www.yelp.com/biz/arena-imbiss-hamburg-2?adjust_creative=hBJOknVQJ58S5goQyjmwRw&utm_campaign=yelp_api_v3&utm_medium=api_v3_business_search&utm_source=hBJOknVQJ58S5goQyjmwRw", "review_count": 6, "categories": [{"alias": "kebab", "title": "Kebab"}], "rating": 2.5, "coordinates": {"latitude": 53.5735706, "longitude": 9.8925726}, "transactions": [], "location": {"address1": "Luruper Chaussee 141", "address2": null, "address3": null, "city": "Hamburg", "zip_code": "22761", "country": "DE", "state": "HH", "display_address": ["Luruper Chaussee 141", "22761 Hamburg", "Germany"]}, "phone": "+494080601671", "display_phone": "+49 40 80601671", "distance": 3999.6394813265147}, {"id": "f5-sCZNozpI0EApmUdRD2A", "alias": "elbe-kebab-house-hamburg", "name": "Elbe Kebab House", "image_url": "https://s3-media2.fl.yelpcdn.com/bphoto/C5LFso1PcWuOZIhpZQ32RQ/o.jpg", "is_closed": false, "url": "https://www.yelp.com/biz/elbe-kebab-house-hamburg?adjust_creative=hBJOknVQJ58S5goQyjmwRw&utm_campaign=yelp_api_v3&utm_medium=api_v3_business_search&utm_source=hBJOknVQJ58S5goQyjmwRw", "review_count": 10, "categories": [{"alias": "kebab", "title": "Kebab"}], "rating": 4.5, "coordinates": {"latitude": 53.5719195989659, "longitude": 9.86358246893423}, "transactions": [], "price": "\u20ac", "location": {"address1": "Osdorfer Landstr. 112", "address2": "", "address3": "", "city": "Hamburg", "zip_code": "22549", "country": "DE", "state": "HH", "display_address": ["Osdorfer Landstr. 112", "22549 Hamburg", "Germany"]}, "phone": "+494018050317", "display_phone": "+49 40 18050317", "distance": 3799.02350452791}, {"id": "Rk3dfkWX4RhPgxR9XaL6Rw", "alias": "\u00f6nka-grill-hamburg-2", "name": "\u00d6nka Grill", "image_url": "https://s3-media2.fl.yelpcdn.com/bphoto/iTfXEEDQn3bUD8PEtxyHAw/o.jpg", "is_closed": false, "url": "https://www.yelp.com/biz/%C3%B6nka-grill-hamburg-2?adjust_creative=hBJOknVQJ58S5goQyjmwRw&utm_campaign=yelp_api_v3&utm_medium=api_v3_business_search&utm_source=hBJOknVQJ58S5goQyjmwRw", "review_count": 11, "categories": [{"alias": "kebab", "title": "Kebab"}], "rating": 3.5, "coordinates": {"latitude": 53.57241, "longitude": 9.86353}, "transactions": [], "price": "\u20ac\u20ac", "location": {"address1": "Flurkamp 11", "address2": "", "address3": "", "city": "Hamburg", "zip_code": "22549", "country": "DE", "state": "HH", "display_address": ["Flurkamp 11", "22549 Hamburg", "Germany"]}, "phone": "+4940803806", "display_phone": "+49 40 803806", "distance": 3851.5168584844223}, {"id": "F8G8WNeh7tWkHGsHMKzWcA", "alias": "stadion-eck-hamburg", "name": "Stadion Eck", "image_url": "https://s3-media1.fl.yelpcdn.com/bphoto/HtkwzYkXoOzY7mudJ-S2Aw/o.jpg", "is_closed": false, "url": "https://www.yelp.com/biz/stadion-eck-hamburg?adjust_creative=hBJOknVQJ58S5goQyjmwRw&utm_campaign=yelp_api_v3&utm_medium=api_v3_business_search&utm_source=hBJOknVQJ58S5goQyjmwRw", "review_count": 5, "categories": [{"alias": "german", "title": "German"}, {"alias": "beergarden", "title": "Beer Garden"}, {"alias": "cafes", "title": "Cafes"}], "rating": 4.5, "coordinates": {"latitude": 53.5814, "longitude": 9.88443}, "transactions": [], "price": "\u20ac", "location": {"address1": "Stadionstr. 1", "address2": null, "address3": null, "city": "Hamburg", "zip_code": "22525", "country": "DE", "state": "HH", "display_address": ["Stadionstr. 1", "22525 Hamburg", "Germany"]}, "phone": "+4940836011", "display_phone": "+49 40 836011", "distance": 4765.0813835774525}, {"id": "5M9UAgzkeIS4M1gcysM4OA", "alias": "klempaus-biergarten-an-der-milchhalle-hamburg", "name": "Klempau's Biergarten An Der Milchhalle", "image_url": "https://s3-media2.fl.yelpcdn.com/bphoto/n19eNGZCEZVk8kmsXAYWbw/o.jpg", "is_closed": false, "url": "https://www.yelp.com/biz/klempaus-biergarten-an-der-milchhalle-hamburg?adjust_creative=hBJOknVQJ58S5goQyjmwRw&utm_campaign=yelp_api_v3&utm_medium=api_v3_business_search&utm_source=hBJOknVQJ58S5goQyjmwRw", "review_count": 11, "categories": [{"alias": "german", "title": "German"}, {"alias": "beergarden", "title": "Beer Garden"}], "rating": 3.5, "coordinates": {"latitude": 53.577844, "longitude": 9.898028}, "transactions": [], "price": "\u20ac\u20ac", "location": {"address1": "August-Kirch-Str. 55", "address2": "", "address3": "", "city": "Hamburg", "zip_code": "22525", "country": "DE", "state": "HH", "display_address": ["August-Kirch-Str. 55", "22525 Hamburg", "Germany"]}, "phone": "+491737949921", "display_phone": "+49 173 7949921", "distance": 4555.804273427413}, {"id": "MdXVTDBp0qb2fzp-AR6U3A", "alias": "oh-its-fresh-hamburg-15", "name": "Oh It's Fresh", "image_url": "https://s3-media4.fl.yelpcdn.com/bphoto/e7-YVjyWd562Ts1IRPAp0A/o.jpg", "is_closed": false, "url": "https://www.yelp.com/biz/oh-its-fresh-hamburg-15?adjust_creative=hBJOknVQJ58S5goQyjmwRw&utm_campaign=yelp_api_v3&utm_medium=api_v3_business_search&utm_source=hBJOknVQJ58S5goQyjmwRw", "review_count": 1, "categories": [{"alias": "cafes", "title": "Cafes"}], "rating": 4.0, "coordinates": {"latitude": 53.5694696030728, "longitude": 9.8995341346945}, "transactions": [], "location": {"address1": "Theodorstr. 48", "address2": "", "address3": "", "city": "Hamburg", "zip_code": "22761", "country": "DE", "state": "HH", "display_address": ["Theodorstr. 48", "22761 Hamburg", "Germany"]}, "phone": "+494027867390", "display_phone": "+49 40 27867390", "distance": 3715.9982639486116}, {"id": "zyTxQM6Ada_EIeVHDqbifA", "alias": "osaka-hamburg-2", "name": "Osaka", "image_url": "https://s3-media3.fl.yelpcdn.com/bphoto/qwwH7wXvFPAQ8ahm-DpqnQ/o.jpg", "is_closed": false, "url": "https://www.yelp.com/biz/osaka-hamburg-2?adjust_creative=hBJOknVQJ58S5goQyjmwRw&utm_campaign=yelp_api_v3&utm_medium=api_v3_business_search&utm_source=hBJOknVQJ58S5goQyjmwRw", "review_count": 26, "categories": [{"alias": "sushi", "title": "Sushi Bars"}], "rating": 2.5, "coordinates": {"latitude": 53.5594, "longitude": 9.8837}, "transactions": [], "price": "\u20ac\u20ac", "location": {"address1": "Waitzstr. 19", "address2": null, "address3": null, "city": "Hamburg", "zip_code": "22607", "country": "DE", "state": "HH", "display_address": ["Waitzstr. 19", "22607 Hamburg", "Germany"]}, "phone": "+494085506793", "display_phone": "+49 40 85506793", "distance": 2333.6516539142995}, {"id": "tBsYRJpCRMSbcCxggRqa2A", "alias": "don-quichotte-hamburg", "name": "Don Quichotte", "image_url": "https://s3-media3.fl.yelpcdn.com/bphoto/beSTNjvZWTlFQrlNQA-ZFA/o.jpg", "is_closed": false, "url": "https://www.yelp.com/biz/don-quichotte-hamburg?adjust_creative=hBJOknVQJ58S5goQyjmwRw&utm_campaign=yelp_api_v3&utm_medium=api_v3_business_search&utm_source=hBJOknVQJ58S5goQyjmwRw", "review_count": 55, "categories": [{"alias": "italian", "title": "Italian"}, {"alias": "international", "title": "International"}], "rating": 3.0, "coordinates": {"latitude": 53.572607, "longitude": 9.855326}, "transactions": [], "price": "\u20ac\u20ac", "location": {"address1": "Osdorfer Landstr. 162 a", "address2": null, "address3": null, "city": "Hamburg", "zip_code": "22549", "country": "DE", "state": "HH", "display_address": ["Osdorfer Landstr. 162 a", "22549 Hamburg", "Germany"]}, "phone": "+4940801304", "display_phone": "+49 40 801304", "distance": 4036.541141551198}, {"id": "_rUcjaXxVbhxG0H_wRYmCg", "alias": "tre-posi-hamburg", "name": "Tre Posi", "image_url": "https://s3-media3.fl.yelpcdn.com/bphoto/iT3Ud4odpPI7wdBvKMYz9Q/o.jpg", "is_closed": false, "url": "https://www.yelp.com/biz/tre-posi-hamburg?adjust_creative=hBJOknVQJ58S5goQyjmwRw&utm_campaign=yelp_api_v3&utm_medium=api_v3_business_search&utm_source=hBJOknVQJ58S5goQyjmwRw", "review_count": 20, "categories": [{"alias": "italian", "title": "Italian"}], "rating": 3.5, "coordinates": {"latitude": 53.5711, "longitude": 9.8987}, "transactions": [], "price": "\u20ac\u20ac\u20ac", "location": {"address1": "Bahrenfelder Chaussee 178", "address2": null, "address3": null, "city": "Hamburg", "zip_code": "22761", "country": "DE", "state": "HH", "display_address": ["Bahrenfelder Chaussee 178", "22761 Hamburg", "Germany"]}, "phone": "+49408993978", "display_phone": "+49 40 8993978", "distance": 3862.856000591724}, {"id": "oocSI5BFw0pBrR_OCqGj4w", "alias": "bistro-saalbach-hamburg", "name": "Bistro Saalbach", "image_url": "https://s3-media4.fl.yelpcdn.com/bphoto/-gljjE1OXbHhH3jcCUny8w/o.jpg", "is_closed": false, "url": "https://www.yelp.com/biz/bistro-saalbach-hamburg?adjust_creative=hBJOknVQJ58S5goQyjmwRw&utm_campaign=yelp_api_v3&utm_medium=api_v3_business_search&utm_source=hBJOknVQJ58S5goQyjmwRw", "review_count": 2, "categories": [{"alias": "bistros", "title": "Bistros"}], "rating": 3.0, "coordinates": {"latitude": 53.576128, "longitude": 9.886432}, "transactions": [], "location": {"address1": "Bertrand-Russel-Str. 4", "address2": "", "address3": "", "city": "Hamburg", "zip_code": "22761", "country": "DE", "state": "HH", "display_address": ["Bertrand-Russel-Str. 4", "22761 Hamburg", "Germany"]}, "phone": "+494030852943", "display_phone": "+49 40 30852943", "distance": 4146.462076452374}, {"id": "EmGEQs9eV50eFfmhr0BAcQ", "alias": "kings-croque-hamburg", "name": "Kings Croque", "image_url": "https://s3-media4.fl.yelpcdn.com/bphoto/qcZJa7EJf8CytaRpLFu-kw/o.jpg", "is_closed": false, "url": "https://www.yelp.com/biz/kings-croque-hamburg?adjust_creative=hBJOknVQJ58S5goQyjmwRw&utm_campaign=yelp_api_v3&utm_medium=api_v3_business_search&utm_source=hBJOknVQJ58S5goQyjmwRw", "review_count": 6, "categories": [{"alias": "hotdogs", "title": "Fast Food"}, {"alias": "sandwiches", "title": "Sandwiches"}], "rating": 2.5, "coordinates": {"latitude": 53.5733, "longitude": 9.89329}, "transactions": [], "location": {"address1": "Luruper Chaussee 129a", "address2": null, "address3": null, "city": "Hamburg", "zip_code": "22761", "country": "DE", "state": "HH", "display_address": ["Luruper Chaussee 129a", "22761 Hamburg", "Germany"]}, "phone": "+494087601721", "display_phone": "+49 40 87601721", "distance": 3982.7623350516837}, {"id": "TCAyvClotOIrJIN1Tr2tQA", "alias": "schlemmermeyer-hamburg-6", "name": "Schlemmermeyer", "image_url": "https://s3-media3.fl.yelpcdn.com/bphoto/JyUiMjJCosgU_dC1dOvFlQ/o.jpg", "is_closed": false, "url": "https://www.yelp.com/biz/schlemmermeyer-hamburg-6?adjust_creative=hBJOknVQJ58S5goQyjmwRw&utm_campaign=yelp_api_v3&utm_medium=api_v3_business_search&utm_source=hBJOknVQJ58S5goQyjmwRw", "review_count": 3, "categories": [{"alias": "delicatessen", "title": "Delicatessen"}, {"alias": "foodstands", "title": "Food Stands"}, {"alias": "meats", "title": "Meat Shops"}], "rating": 3.5, "coordinates": {"latitude": 53.5702389609834, "longitude": 9.86248648717196}, "transactions": [], "location": {"address1": "Osdorfer Landstr. 131 - 135", "address2": "", "address3": null, "city": "Hamburg", "zip_code": "22609", "country": "DE", "state": "HH", "display_address": ["Osdorfer Landstr. 131 - 135", "22609 Hamburg", "Germany"]}, "phone": "+4940801689", "display_phone": "+49 40 801689", "distance": 3636.7956446047992}, {"id": "WMBRQsQiAdpBzM3RezcJcA", "alias": "burger-king-hamburg-5", "name": "Burger King", "image_url": "https://s3-media2.fl.yelpcdn.com/bphoto/lmiCashdsUkEuXxEQf2xCQ/o.jpg", "is_closed": false, "url": "https://www.yelp.com/biz/burger-king-hamburg-5?adjust_creative=hBJOknVQJ58S5goQyjmwRw&utm_campaign=yelp_api_v3&utm_medium=api_v3_business_search&utm_source=hBJOknVQJ58S5goQyjmwRw", "review_count": 15, "categories": [{"alias": "hotdogs", "title": "Fast Food"}, {"alias": "burgers", "title": "Burgers"}], "rating": 2.0, "coordinates": {"latitude": 53.5707, "longitude": 9.87208}, "transactions": [], "price": "\u20ac\u20ac", "location": {"address1": "osdorfer landstr. 25", "address2": null, "address3": null, "city": "Hamburg", "zip_code": "22607", "country": "DE", "state": "HH", "display_address": ["osdorfer landstr. 25", "22607 Hamburg", "Germany"]}, "phone": "+494081992222", "display_phone": "+49 40 81992222", "distance": 3569.6874825990863}, {"id": "guS8lV3LTO-qRcW9XUNthQ", "alias": "sushi-factory-hamburg-3", "name": "Sushi Factory", "image_url": "https://s3-media3.fl.yelpcdn.com/bphoto/msX7dvWKK0oHQdLyjIorQA/o.jpg", "is_closed": false, "url": "https://www.yelp.com/biz/sushi-factory-hamburg-3?adjust_creative=hBJOknVQJ58S5goQyjmwRw&utm_campaign=yelp_api_v3&utm_medium=api_v3_business_search&utm_source=hBJOknVQJ58S5goQyjmwRw", "review_count": 7, "categories": [{"alias": "sushi", "title": "Sushi Bars"}], "rating": 3.5, "coordinates": {"latitude": 53.56998, "longitude": 9.86136}, "transactions": [], "location": {"address1": "Julius-Brecht-Stra\u00dfe", "address2": "", "address3": "", "city": "Hamburg", "zip_code": "22609", "country": "DE", "state": "HH", "display_address": ["Julius-Brecht-Stra\u00dfe", "22609 Hamburg", "Germany"]}, "phone": "+494076993345", "display_phone": "+49 40 76993345", "distance": 3612.6706191290464}, {"id": "BSa9d3B7WA_5rBFzcQ_oow", "alias": "burger-king-hamburg-11", "name": "Burger King", "image_url": "https://s3-media2.fl.yelpcdn.com/bphoto/HIvNepwJvfUK7UjLuWZ_Og/o.jpg", "is_closed": false, "url": "https://www.yelp.com/biz/burger-king-hamburg-11?adjust_creative=hBJOknVQJ58S5goQyjmwRw&utm_campaign=yelp_api_v3&utm_medium=api_v3_business_search&utm_source=hBJOknVQJ58S5goQyjmwRw", "review_count": 5, "categories": [{"alias": "hotdogs", "title": "Fast Food"}, {"alias": "burgers", "title": "Burgers"}], "rating": 2.0, "coordinates": {"latitude": 53.57, "longitude": 9.8618}, "transactions": [], "price": "\u20ac", "location": {"address1": "Julius-Brecht-Str. 6", "address2": null, "address3": null, "city": "Hamburg", "zip_code": "22609", "country": "DE", "state": "HH", "display_address": ["Julius-Brecht-Str. 6", "22609 Hamburg", "Germany"]}, "phone": "+494086627756", "display_phone": "+49 40 86627756", "distance": 3623.838587193862}, {"id": "5mEC8n__Id_qsF9Vuf_JUA", "alias": "segafredo-hamburg-2", "name": "Segafredo", "image_url": "https://s3-media1.fl.yelpcdn.com/bphoto/7gDVZPKVoqyAkEF9p8W4lg/o.jpg", "is_closed": false, "url": "https://www.yelp.com/biz/segafredo-hamburg-2?adjust_creative=hBJOknVQJ58S5goQyjmwRw&utm_campaign=yelp_api_v3&utm_medium=api_v3_business_search&utm_source=hBJOknVQJ58S5goQyjmwRw", "review_count": 1, "categories": [{"alias": "cafes", "title": "Cafes"}], "rating": 2.0, "coordinates": {"latitude": 53.5717948, "longitude": 9.8586956}, "transactions": [], "location": {"address1": "Osdorfer Landstr. 113", "address2": "", "address3": null, "city": "Hamburg", "zip_code": "22609", "country": "DE", "state": "HH", "display_address": ["Osdorfer Landstr. 113", "22609 Hamburg", "Germany"]}, "phone": "", "display_phone": "", "distance": 3875.947764979552}, {"id": "-NZPbquHmoL-yxAOTRGEwA", "alias": "cafe-engelchen-hamburg-5", "name": "Cafe Engelchen", "image_url": "https://s3-media1.fl.yelpcdn.com/bphoto/ACkpYGK3h-4G6FF3AxyjXQ/o.jpg", "is_closed": false, "url": "https://www.yelp.com/biz/cafe-engelchen-hamburg-5?adjust_creative=hBJOknVQJ58S5goQyjmwRw&utm_campaign=yelp_api_v3&utm_medium=api_v3_business_search&utm_source=hBJOknVQJ58S5goQyjmwRw", "review_count": 6, "categories": [{"alias": "cafes", "title": "Cafes"}], "rating": 2.5, "coordinates": {"latitude": 53.5708614, "longitude": 9.8620963}, "transactions": [], "price": "\u20ac\u20ac\u20ac\u20ac", "location": {"address1": "Osdorfer Landstr.  131", "address2": null, "address3": null, "city": "Hamburg", "zip_code": "22609", "country": "DE", "state": "HH", "display_address": ["Osdorfer Landstr.  131", "22609 Hamburg", "Germany"]}, "phone": "+49408007367", "display_phone": "+49 40 8007367", "distance": 3710.402296188674}, {"id": "zmrzvZgw72pIRKgvldZIdQ", "alias": "nordsee-hamburg-17", "name": "Nordsee", "image_url": "https://s3-media3.fl.yelpcdn.com/bphoto/HmIUhr8CQeH1hSVijfJdEg/o.jpg", "is_closed": false, "url": "https://www.yelp.com/biz/nordsee-hamburg-17?adjust_creative=hBJOknVQJ58S5goQyjmwRw&utm_campaign=yelp_api_v3&utm_medium=api_v3_business_search&utm_source=hBJOknVQJ58S5goQyjmwRw", "review_count": 4, "categories": [{"alias": "fishmonger", "title": "Fishmonger"}, {"alias": "fischbroetchen", "title": "Fischbroetchen"}], "rating": 2.5, "coordinates": {"latitude": 53.571, "longitude": 9.86221}, "transactions": [], "price": "\u20ac\u20ac\u20ac", "location": {"address1": "Elbe Einkaufszentrum", "address2": "Osdorfer Landstr. 131 - 135", "address3": null, "city": "Hamburg", "zip_code": "22609", "country": "DE", "state": "HH", "display_address": ["Elbe Einkaufszentrum", "Osdorfer Landstr. 131 - 135", "22609 Hamburg", "Germany"]}, "phone": "+494080783700", "display_phone": "+49 40 80783700", "distance": 3723.2061633756675}, {"id": "Ao7NE4LZcKnxey59ORIWGg", "alias": "cafeteria-in-der-asklepios-klinik-altona-hamburg", "name": "Cafeteria in der Asklepios-Klinik Altona", "image_url": "https://s3-media4.fl.yelpcdn.com/bphoto/aGcbTeh3oIg7FMCAxzAcKA/o.jpg", "is_closed": false, "url": "https://www.yelp.com/biz/cafeteria-in-der-asklepios-klinik-altona-hamburg?adjust_creative=hBJOknVQJ58S5goQyjmwRw&utm_campaign=yelp_api_v3&utm_medium=api_v3_business_search&utm_source=hBJOknVQJ58S5goQyjmwRw", "review_count": 3, "categories": [{"alias": "cafes", "title": "Cafes"}], "rating": 1.5, "coordinates": {"latitude": 53.5542204502773, "longitude": 9.90173504655734}, "transactions": [], "location": {"address1": "Paul-Ehrlich-Str.1", "address2": null, "address3": null, "city": "Hamburg", "zip_code": "22763", "country": "DE", "state": "HH", "display_address": ["Paul-Ehrlich-Str.1", "22763 Hamburg", "Germany"]}, "phone": "", "display_phone": "", "distance": 2355.418969295531}, {"id": "e4Yjy9ELavadkQm5m5W5rA", "alias": "backeria-bistro-hamburg", "name": "Backeria Bistro", "image_url": "https://s3-media2.fl.yelpcdn.com/bphoto/kY1g_YIaMA0aqaZQJ-hBBQ/o.jpg", "is_closed": false, "url": "https://www.yelp.com/biz/backeria-bistro-hamburg?adjust_creative=hBJOknVQJ58S5goQyjmwRw&utm_campaign=yelp_api_v3&utm_medium=api_v3_business_search&utm_source=hBJOknVQJ58S5goQyjmwRw", "review_count": 3, "categories": [{"alias": "bistros", "title": "Bistros"}], "rating": 2.5, "coordinates": {"latitude": 53.57138, "longitude": 9.86229}, "transactions": [], "price": "\u20ac", "location": {"address1": "Osdorfer Landstr. 131", "address2": "", "address3": "", "city": "Hamburg", "zip_code": "22609", "country": "DE", "state": "HH", "display_address": ["Osdorfer Landstr. 131", "22609 Hamburg", "Germany"]}, "phone": "+494020908436", "display_phone": "+49 40 20908436", "distance": 3694.342790899157}, {"id": "J2kq2Y68b5-PIvSzN_ek6g", "alias": "russano-hamburg", "name": "Russano", "image_url": "https://s3-media4.fl.yelpcdn.com/bphoto/VjxtNIpe1LhWgeKmIY-9og/o.jpg", "is_closed": false, "url": "https://www.yelp.com/biz/russano-hamburg?adjust_creative=hBJOknVQJ58S5goQyjmwRw&utm_campaign=yelp_api_v3&utm_medium=api_v3_business_search&utm_source=hBJOknVQJ58S5goQyjmwRw", "review_count": 11, "categories": [{"alias": "italian", "title": "Italian"}, {"alias": "bars", "title": "Bars"}, {"alias": "pizza", "title": "Pizza"}], "rating": 2.0, "coordinates": {"latitude": 53.57, "longitude": 9.86168}, "transactions": [], "price": "\u20ac\u20ac", "location": {"address1": "Julius-Brecht-Str. 6", "address2": "", "address3": null, "city": "Hamburg", "zip_code": "22609", "country": "DE", "state": "HH", "display_address": ["Julius-Brecht-Str. 6", "22609 Hamburg", "Germany"]}, "phone": "+494020908436", "display_phone": "+49 40 20908436", "distance": 3626.0975728154085}, {"id": "fsPYc9Qk2oRyfdXbT4xxvA", "alias": "long-food-hamburg-3", "name": "Long Food", "image_url": "https://s3-media2.fl.yelpcdn.com/bphoto/FCJS_qCf5eQriqfSOTACGQ/o.jpg", "is_closed": false, "url": "https://www.yelp.com/biz/long-food-hamburg-3?adjust_creative=hBJOknVQJ58S5goQyjmwRw&utm_campaign=yelp_api_v3&utm_medium=api_v3_business_search&utm_source=hBJOknVQJ58S5goQyjmwRw", "review_count": 6, "categories": [{"alias": "indpak", "title": "Indian"}], "rating": 3.0, "coordinates": {"latitude": 53.571097, "longitude": 9.862118}, "transactions": [], "price": "\u20ac", "location": {"address1": "Osdorfer Landstr. 131 - 135", "address2": "", "address3": "EG", "city": "Hamburg", "zip_code": "22609", "country": "DE", "state": "HH", "display_address": ["Osdorfer Landstr. 131 - 135", "EG", "22609 Hamburg", "Germany"]}, "phone": "+494080020291", "display_phone": "+49 40 80020291", "distance": 3735.230459882514}, {"id": "5puKQGuSgJrGgsvIZWx7vw", "alias": "dailys-hamburg", "name": "Daily's", "image_url": "https://s3-media4.fl.yelpcdn.com/bphoto/K-kwdREVjIJOZFSNSjz8qg/o.jpg", "is_closed": false, "url": "https://www.yelp.com/biz/dailys-hamburg?adjust_creative=hBJOknVQJ58S5goQyjmwRw&utm_campaign=yelp_api_v3&utm_medium=api_v3_business_search&utm_source=hBJOknVQJ58S5goQyjmwRw", "review_count": 3, "categories": [{"alias": "salad", "title": "Salad"}, {"alias": "juicebars", "title": "Juice Bars & Smoothies"}], "rating": 3.0, "coordinates": {"latitude": 53.57138, "longitude": 9.86229}, "transactions": [], "price": "\u20ac\u20ac", "location": {"address1": "Osdorfer Landstr. 131", "address2": "", "address3": "", "city": "Hamburg", "zip_code": "22609", "country": "DE", "state": "HH", "display_address": ["Osdorfer Landstr. 131", "22609 Hamburg", "Germany"]}, "phone": "+494086693377", "display_phone": "+49 40 86693377", "distance": 3694.342790899157}]