[{"id": "v38aRGzgtAZtsSsEOhduxg", "alias": "br\u00fccke-10-hamburg", "name": "Br\u00fccke 10", "image_url": "https://s3-media1.fl.yelpcdn.com/bphoto/KsOWQziqZzUG4gykzJWJ8A/o.jpg", "is_closed": false, "url": "https://www.yelp.com/biz/br%C3%BCcke-10-hamburg?adjust_creative=hBJOknVQJ58S5goQyjmwRw&utm_campaign=yelp_api_v3&utm_medium=api_v3_business_search&utm_source=hBJOknVQJ58S5goQyjmwRw", "review_count": 136, "categories": [{"alias": "fischbroetchen", "title": "Fischbroetchen"}], "rating": 4.5, "coordinates": {"latitude": 53.545496, "longitude": 9.963868}, "transactions": [], "price": "\u20ac", "location": {"address1": "Bei den St. Pauli-Landungsbr\u00fccken 10", "address2": "", "address3": "", "city": "Hamburg", "zip_code": "20359", "country": "DE", "state": "HH", "display_address": ["Bei den St. Pauli-Landungsbr\u00fccken 10", "20359 Hamburg", "Germany"]}, "phone": "+494033399339", "display_phone": "+49 40 33399339", "distance": 392.2078323864252}, {"id": "3MvgXsZgm1prvhmmXDJz5A", "alias": "strandpauli-hamburg", "name": "Strandpauli", "image_url": "https://s3-media2.fl.yelpcdn.com/bphoto/6JIsJ-JppkA5Dlv90L4Hwg/o.jpg", "is_closed": false, "url": "https://www.yelp.com/biz/strandpauli-hamburg?adjust_creative=hBJOknVQJ58S5goQyjmwRw&utm_campaign=yelp_api_v3&utm_medium=api_v3_business_search&utm_source=hBJOknVQJ58S5goQyjmwRw", "review_count": 201, "categories": [{"alias": "beachbars", "title": "Beach Bars"}, {"alias": "bistros", "title": "Bistros"}], "rating": 4.0, "coordinates": {"latitude": 53.54608, "longitude": 9.9616399}, "transactions": [], "price": "\u20ac\u20ac", "location": {"address1": "St. Pauli Hafenstr. 89", "address2": "", "address3": "", "city": "Hamburg", "zip_code": "20359", "country": "DE", "state": "HH", "display_address": ["St. Pauli Hafenstr. 89", "20359 Hamburg", "Germany"]}, "phone": "+494022613105", "display_phone": "+49 40 22613105", "distance": 398.18304823059447}, {"id": "h9EKnD9kwDBXp2u_o_PNlA", "alias": "kleine-haie-grosse-fische-hamburg", "name": "Kleine Haie Grosse Fische", "image_url": "https://s3-media1.fl.yelpcdn.com/bphoto/NQM7g49xoZatsKQiuze8ig/o.jpg", "is_closed": false, "url": "https://www.yelp.com/biz/kleine-haie-grosse-fische-hamburg?adjust_creative=hBJOknVQJ58S5goQyjmwRw&utm_campaign=yelp_api_v3&utm_medium=api_v3_business_search&utm_source=hBJOknVQJ58S5goQyjmwRw", "review_count": 13, "categories": [{"alias": "fischbroetchen", "title": "Fischbroetchen"}], "rating": 4.5, "coordinates": {"latitude": 53.5489744, "longitude": 9.959999}, "transactions": [], "price": "\u20ac", "location": {"address1": "Querstr. 4", "address2": "", "address3": "", "city": "Hamburg", "zip_code": "20359", "country": "DE", "state": "HH", "display_address": ["Querstr. 4", "20359 Hamburg", "Germany"]}, "phone": "+4917610337847", "display_phone": "+49 176 10337847", "distance": 708.5949731645759}, {"id": "_Wo1LyMHNg4TqaQD_DKmbQ", "alias": "komb\u00fcse-hamburg", "name": "Komb\u00fcse", "image_url": "https://s3-media1.fl.yelpcdn.com/bphoto/rjBji1K7aTCcFCDI3aZXtg/o.jpg", "is_closed": false, "url": "https://www.yelp.com/biz/komb%C3%BCse-hamburg?adjust_creative=hBJOknVQJ58S5goQyjmwRw&utm_campaign=yelp_api_v3&utm_medium=api_v3_business_search&utm_source=hBJOknVQJ58S5goQyjmwRw", "review_count": 107, "categories": [{"alias": "mexican", "title": "Mexican"}], "rating": 4.0, "coordinates": {"latitude": 53.54693, "longitude": 9.96057}, "transactions": [], "price": "\u20ac", "location": {"address1": "Bernhard-Nocht-Str. 51", "address2": "", "address3": null, "city": "Hamburg", "zip_code": "20359", "country": "DE", "state": "HH", "display_address": ["Bernhard-Nocht-Str. 51", "20359 Hamburg", "Germany"]}, "phone": "+494063947918", "display_phone": "+49 40 63947918", "distance": 486.8231023285723}, {"id": "SzZ8J-M_B-6HfXOjwKDTLQ", "alias": "haco-hamburg", "name": "Haco", "image_url": "https://s3-media1.fl.yelpcdn.com/bphoto/Rc1z2QlhgvCYP4mG724D6Q/o.jpg", "is_closed": false, "url": "https://www.yelp.com/biz/haco-hamburg?adjust_creative=hBJOknVQJ58S5goQyjmwRw&utm_campaign=yelp_api_v3&utm_medium=api_v3_business_search&utm_source=hBJOknVQJ58S5goQyjmwRw", "review_count": 5, "categories": [{"alias": "northerngerman", "title": "Northern German"}], "rating": 4.5, "coordinates": {"latitude": 53.5520813685704, "longitude": 9.96460723333782}, "transactions": [], "location": {"address1": "Clemens-Schultz-Str. 18", "address2": "", "address3": null, "city": "Hamburg", "zip_code": "20359", "country": "DE", "state": "HH", "display_address": ["Clemens-Schultz-Str. 18", "20359 Hamburg", "Germany"]}, "phone": "+494074203939", "display_phone": "+49 40 74203939", "distance": 1088.4566533518484}, {"id": "glRaeRgGJ-ppEWpTJ3lWWw", "alias": "gassenhaur-hamburg", "name": "Gassenhaur", "image_url": "https://s3-media1.fl.yelpcdn.com/bphoto/Am5_Ew2X7LFRuxz5MhNrGA/o.jpg", "is_closed": false, "url": "https://www.yelp.com/biz/gassenhaur-hamburg?adjust_creative=hBJOknVQJ58S5goQyjmwRw&utm_campaign=yelp_api_v3&utm_medium=api_v3_business_search&utm_source=hBJOknVQJ58S5goQyjmwRw", "review_count": 9, "categories": [{"alias": "austrian", "title": "Austrian"}, {"alias": "schnitzel", "title": "Schnitzel"}, {"alias": "german", "title": "German"}], "rating": 4.5, "coordinates": {"latitude": 53.54871, "longitude": 9.96354}, "transactions": [], "price": "\u20ac\u20ac\u20ac", "location": {"address1": "Kastanienallee 32", "address2": "", "address3": null, "city": "Hamburg", "zip_code": "20359", "country": "DE", "state": "HH", "display_address": ["Kastanienallee 32", "20359 Hamburg", "Germany"]}, "phone": "+4940311231", "display_phone": "+49 40 311231", "distance": 705.3092142974791}, {"id": "_KvkLDk2Bjm4ms93zrwJvA", "alias": "alles-elbe-hamburg", "name": "Alles Elbe", "image_url": "https://s3-media2.fl.yelpcdn.com/bphoto/08ndiXQuibgY-rGfpni65A/o.jpg", "is_closed": false, "url": "https://www.yelp.com/biz/alles-elbe-hamburg?adjust_creative=hBJOknVQJ58S5goQyjmwRw&utm_campaign=yelp_api_v3&utm_medium=api_v3_business_search&utm_source=hBJOknVQJ58S5goQyjmwRw", "review_count": 10, "categories": [{"alias": "bars", "title": "Bars"}, {"alias": "german", "title": "German"}], "rating": 5.0, "coordinates": {"latitude": 53.55314, "longitude": 9.96285}, "transactions": [], "price": "\u20ac\u20ac", "location": {"address1": "Hein-Hoyer-Str. 63", "address2": "", "address3": "", "city": "Hamburg", "zip_code": "20359", "country": "DE", "state": "HH", "display_address": ["Hein-Hoyer-Str. 63", "20359 Hamburg", "Germany"]}, "phone": "+494028474009", "display_phone": "+49 40 28474009", "distance": 1180.0653955313767}, {"id": "FiVHTjZFoNIB3Ndh4Cw7Bg", "alias": "teigtasche-restaurant-hamburg-2", "name": "Teigtasche Restaurant", "image_url": "https://s3-media2.fl.yelpcdn.com/bphoto/jHAUe9dk4Qwf5E4JkH51zQ/o.jpg", "is_closed": false, "url": "https://www.yelp.com/biz/teigtasche-restaurant-hamburg-2?adjust_creative=hBJOknVQJ58S5goQyjmwRw&utm_campaign=yelp_api_v3&utm_medium=api_v3_business_search&utm_source=hBJOknVQJ58S5goQyjmwRw", "review_count": 66, "categories": [{"alias": "russian", "title": "Russian"}, {"alias": "austrian", "title": "Austrian"}], "rating": 4.5, "coordinates": {"latitude": 53.549985994214, "longitude": 9.96233003437434}, "transactions": [], "price": "\u20ac\u20ac", "location": {"address1": "Hein-Hoyer-Str. 10", "address2": "", "address3": "", "city": "Hamburg", "zip_code": "20359", "country": "DE", "state": "HH", "display_address": ["Hein-Hoyer-Str. 10", "20359 Hamburg", "Germany"]}, "phone": "+4915253192733", "display_phone": "+49 1525 3192733", "distance": 829.6667524092408}, {"id": "HUT9X-PKrgvv771kVbaStw", "alias": "man-wah-hamburg", "name": "MAN WAH", "image_url": "https://s3-media2.fl.yelpcdn.com/bphoto/hUFTX7IGozVMLRAfktIMrg/o.jpg", "is_closed": false, "url": "https://www.yelp.com/biz/man-wah-hamburg?adjust_creative=hBJOknVQJ58S5goQyjmwRw&utm_campaign=yelp_api_v3&utm_medium=api_v3_business_search&utm_source=hBJOknVQJ58S5goQyjmwRw", "review_count": 193, "categories": [{"alias": "chinese", "title": "Chinese"}], "rating": 4.0, "coordinates": {"latitude": 53.5493, "longitude": 9.96475}, "transactions": [], "price": "\u20ac\u20ac", "location": {"address1": "Spielbudenplatz 18", "address2": null, "address3": null, "city": "Hamburg", "zip_code": "20359", "country": "DE", "state": "HH", "display_address": ["Spielbudenplatz 18", "20359 Hamburg", "Germany"]}, "phone": "+49403192511", "display_phone": "+49 40 3192511", "distance": 793.3200351310423}, {"id": "NSenOnHMaMQbzyk8nu5zxg", "alias": "grilly-idol-hamburg-2", "name": "Grilly Idol", "image_url": "https://s3-media3.fl.yelpcdn.com/bphoto/XBJY0IE7g-aucDphLhlvyA/o.jpg", "is_closed": false, "url": "https://www.yelp.com/biz/grilly-idol-hamburg-2?adjust_creative=hBJOknVQJ58S5goQyjmwRw&utm_campaign=yelp_api_v3&utm_medium=api_v3_business_search&utm_source=hBJOknVQJ58S5goQyjmwRw", "review_count": 76, "categories": [{"alias": "burgers", "title": "Burgers"}], "rating": 4.5, "coordinates": {"latitude": 53.552377, "longitude": 9.962132}, "transactions": [], "price": "\u20ac\u20ac", "location": {"address1": "Clemens-Schultz-Str. 40", "address2": null, "address3": "", "city": "Hamburg", "zip_code": "20359", "country": "DE", "state": "HH", "display_address": ["Clemens-Schultz-Str. 40", "20359 Hamburg", "Germany"]}, "phone": "+494033452906", "display_phone": "+49 40 33452906", "distance": 1089.459982785629}, {"id": "STwo25wLIiZcrYFVmhBLSg", "alias": "gil-hamburg", "name": "Gil", "image_url": "https://s3-media4.fl.yelpcdn.com/bphoto/a7gp7698m8f5SAZLXXd5KA/o.jpg", "is_closed": false, "url": "https://www.yelp.com/biz/gil-hamburg?adjust_creative=hBJOknVQJ58S5goQyjmwRw&utm_campaign=yelp_api_v3&utm_medium=api_v3_business_search&utm_source=hBJOknVQJ58S5goQyjmwRw", "review_count": 16, "categories": [{"alias": "mediterranean", "title": "Mediterranean"}, {"alias": "spanish", "title": "Spanish"}, {"alias": "tapas", "title": "Tapas Bars"}], "rating": 4.0, "coordinates": {"latitude": 53.5480886853289, "longitude": 9.95812419646584}, "transactions": [], "price": "\u20ac\u20ac", "location": {"address1": "Silbersacktwiete 6", "address2": "", "address3": "", "city": "Hamburg", "zip_code": "20359", "country": "DE", "state": "HH", "display_address": ["Silbersacktwiete 6", "20359 Hamburg", "Germany"]}, "phone": "+4940313375", "display_phone": "+49 40 313375", "distance": 628.6980310625528}, {"id": "oEM6fxWbTDleKJyNL-9imA", "alias": "taverna-hellas-hamburg", "name": "Taverna Hellas", "image_url": "https://s3-media4.fl.yelpcdn.com/bphoto/6jb6jS3eXpik8_GbWb8xIg/o.jpg", "is_closed": false, "url": "https://www.yelp.com/biz/taverna-hellas-hamburg?adjust_creative=hBJOknVQJ58S5goQyjmwRw&utm_campaign=yelp_api_v3&utm_medium=api_v3_business_search&utm_source=hBJOknVQJ58S5goQyjmwRw", "review_count": 29, "categories": [{"alias": "greek", "title": "Greek"}], "rating": 4.0, "coordinates": {"latitude": 53.548439, "longitude": 9.9627895}, "transactions": [], "price": "\u20ac", "location": {"address1": "Davidstr. 29", "address2": "", "address3": "", "city": "Hamburg", "zip_code": "20359", "country": "DE", "state": "HH", "display_address": ["Davidstr. 29", "20359 Hamburg", "Germany"]}, "phone": "+49403193474", "display_phone": "+49 40 3193474", "distance": 665.2856040781074}, {"id": "tcQ9gmYcyHei5HqfsCINrw", "alias": "watergate-hamburg-3", "name": "Watergate", "image_url": "https://s3-media4.fl.yelpcdn.com/bphoto/qiIWDdCsu1DU9XB4q4F8Lw/o.jpg", "is_closed": false, "url": "https://www.yelp.com/biz/watergate-hamburg-3?adjust_creative=hBJOknVQJ58S5goQyjmwRw&utm_campaign=yelp_api_v3&utm_medium=api_v3_business_search&utm_source=hBJOknVQJ58S5goQyjmwRw", "review_count": 41, "categories": [{"alias": "bars", "title": "Bars"}, {"alias": "international", "title": "International"}], "rating": 4.0, "coordinates": {"latitude": 53.545451, "longitude": 9.965345}, "transactions": [], "price": "\u20ac\u20ac", "location": {"address1": "Bei den Landungsbr\u00fccken 8", "address2": "", "address3": "", "city": "Hamburg", "zip_code": "20359", "country": "DE", "state": "HH", "display_address": ["Bei den Landungsbr\u00fccken 8", "20359 Hamburg", "Germany"]}, "phone": "+494031761003", "display_phone": "+49 40 31761003", "distance": 451.7771124970339}, {"id": "MRVKOhNlv42ybj1rJxQN0Q", "alias": "h\u00e6bel-hamburg", "name": "H\u00e6bel", "image_url": "https://s3-media4.fl.yelpcdn.com/bphoto/hGSfPFic0bnsdNoqeGyBKw/o.jpg", "is_closed": false, "url": "https://www.yelp.com/biz/h%C3%A6bel-hamburg?adjust_creative=hBJOknVQJ58S5goQyjmwRw&utm_campaign=yelp_api_v3&utm_medium=api_v3_business_search&utm_source=hBJOknVQJ58S5goQyjmwRw", "review_count": 63, "categories": [{"alias": "french", "title": "French"}, {"alias": "wine_bars", "title": "Wine Bars"}], "rating": 4.5, "coordinates": {"latitude": 53.55316, "longitude": 9.95771}, "transactions": [], "price": "\u20ac\u20ac", "location": {"address1": "Paul-Roosen-Str. 31", "address2": "", "address3": "", "city": "Hamburg", "zip_code": "22767", "country": "DE", "state": "HH", "display_address": ["Paul-Roosen-Str. 31", "22767 Hamburg", "Germany"]}, "phone": "+4915172423046", "display_phone": "+49 1517 2423046", "distance": 1185.8959837191112}, {"id": "XsIzqKLl-pGgJm425VOWEA", "alias": "brachmanns-galeron-hamburg-2", "name": "Brachmanns Galeron", "image_url": "https://s3-media3.fl.yelpcdn.com/bphoto/z43nHU-Qh18D8GQMRWcp_A/o.jpg", "is_closed": false, "url": "https://www.yelp.com/biz/brachmanns-galeron-hamburg-2?adjust_creative=hBJOknVQJ58S5goQyjmwRw&utm_campaign=yelp_api_v3&utm_medium=api_v3_business_search&utm_source=hBJOknVQJ58S5goQyjmwRw", "review_count": 69, "categories": [{"alias": "swabian", "title": "Swabian"}], "rating": 4.5, "coordinates": {"latitude": 53.55284, "longitude": 9.96307}, "transactions": [], "price": "\u20ac\u20ac", "location": {"address1": "Hein-Hoyer-Str. 60", "address2": "", "address3": "", "city": "Hamburg", "zip_code": "20359", "country": "DE", "state": "HH", "display_address": ["Hein-Hoyer-Str. 60", "20359 Hamburg", "Germany"]}, "phone": "+494067305123", "display_phone": "+49 40 67305123", "distance": 1149.6254052752845}, {"id": "vOZ2iTzZ-iHv3c505xdPWQ", "alias": "ashoka-hamburg", "name": "Ashoka", "image_url": "https://s3-media2.fl.yelpcdn.com/bphoto/I-ta8XypglQYsYodrL7Arw/o.jpg", "is_closed": false, "url": "https://www.yelp.com/biz/ashoka-hamburg?adjust_creative=hBJOknVQJ58S5goQyjmwRw&utm_campaign=yelp_api_v3&utm_medium=api_v3_business_search&utm_source=hBJOknVQJ58S5goQyjmwRw", "review_count": 213, "categories": [{"alias": "indpak", "title": "Indian"}], "rating": 4.5, "coordinates": {"latitude": 53.55328, "longitude": 9.96525}, "transactions": [], "price": "\u20ac\u20ac", "location": {"address1": "Budapester Str. 25", "address2": null, "address3": null, "city": "Hamburg", "zip_code": "20359", "country": "DE", "state": "HH", "display_address": ["Budapester Str. 25", "20359 Hamburg", "Germany"]}, "phone": "+4940312834", "display_phone": "+49 40 312834", "distance": 1223.519912523675}, {"id": "utSIVcvsjwUJVJhdizrphA", "alias": "kampai-hamburg", "name": "Kampai", "image_url": "https://s3-media3.fl.yelpcdn.com/bphoto/biUEy1FKLg80kbZUzawPHg/o.jpg", "is_closed": false, "url": "https://www.yelp.com/biz/kampai-hamburg?adjust_creative=hBJOknVQJ58S5goQyjmwRw&utm_campaign=yelp_api_v3&utm_medium=api_v3_business_search&utm_source=hBJOknVQJ58S5goQyjmwRw", "review_count": 67, "categories": [{"alias": "sushi", "title": "Sushi Bars"}], "rating": 4.5, "coordinates": {"latitude": 53.550785, "longitude": 9.961581}, "transactions": [], "price": "\u20ac\u20ac", "location": {"address1": "Hamburger Berg 25", "address2": "", "address3": "", "city": "Hamburg", "zip_code": "20359", "country": "DE", "state": "HH", "display_address": ["Hamburger Berg 25", "20359 Hamburg", "Germany"]}, "phone": "+494032318484", "display_phone": "+49 40 32318484", "distance": 912.2753600521843}, {"id": "VzBLYwcWdzmGvf3s4bn-TA", "alias": "cafe-miller-hamburg", "name": "Cafe Miller", "image_url": "https://s3-media2.fl.yelpcdn.com/bphoto/px2j6GhCDabBDKvD-2YJBg/o.jpg", "is_closed": false, "url": "https://www.yelp.com/biz/cafe-miller-hamburg?adjust_creative=hBJOknVQJ58S5goQyjmwRw&utm_campaign=yelp_api_v3&utm_medium=api_v3_business_search&utm_source=hBJOknVQJ58S5goQyjmwRw", "review_count": 80, "categories": [{"alias": "sportsbars", "title": "Sports Bars"}, {"alias": "breakfast_brunch", "title": "Breakfast & Brunch"}], "rating": 4.5, "coordinates": {"latitude": 53.55201, "longitude": 9.96518}, "transactions": [], "price": "\u20ac\u20ac", "location": {"address1": "Detlev-Bremer-Str. 16", "address2": "", "address3": null, "city": "Hamburg", "zip_code": "20359", "country": "DE", "state": "HH", "display_address": ["Detlev-Bremer-Str. 16", "20359 Hamburg", "Germany"]}, "phone": "+4940315719", "display_phone": "+49 40 315719", "distance": 1087.227532722763}, {"id": "lz5HahVUKnA9frq9sfPL2A", "alias": "the-bird-hamburg", "name": "The Bird", "image_url": "https://s3-media2.fl.yelpcdn.com/bphoto/zzRBmVdBN3sHWrGggfDmDg/o.jpg", "is_closed": false, "url": "https://www.yelp.com/biz/the-bird-hamburg?adjust_creative=hBJOknVQJ58S5goQyjmwRw&utm_campaign=yelp_api_v3&utm_medium=api_v3_business_search&utm_source=hBJOknVQJ58S5goQyjmwRw", "review_count": 277, "categories": [{"alias": "burgers", "title": "Burgers"}, {"alias": "tradamerican", "title": "American (Traditional)"}], "rating": 3.5, "coordinates": {"latitude": 53.54801, "longitude": 9.95678}, "transactions": [], "price": "\u20ac\u20ac", "location": {"address1": "Trommelstr. 4", "address2": "", "address3": "", "city": "Hamburg", "zip_code": "20359", "country": "DE", "state": "HH", "display_address": ["Trommelstr. 4", "20359 Hamburg", "Germany"]}, "phone": "+494075662333", "display_phone": "+49 40 75662333", "distance": 653.107142254104}, {"id": "pRlge0jq4WncvSugj-l-Dg", "alias": "doppelschicht-hamburg", "name": "Doppelschicht", "image_url": "https://s3-media2.fl.yelpcdn.com/bphoto/m7_WXWSjf4DjbXbBrLyyRw/o.jpg", "is_closed": false, "url": "https://www.yelp.com/biz/doppelschicht-hamburg?adjust_creative=hBJOknVQJ58S5goQyjmwRw&utm_campaign=yelp_api_v3&utm_medium=api_v3_business_search&utm_source=hBJOknVQJ58S5goQyjmwRw", "review_count": 4, "categories": [{"alias": "pubs", "title": "Pubs"}, {"alias": "german", "title": "German"}], "rating": 4.5, "coordinates": {"latitude": 53.5473214, "longitude": 9.9566121}, "transactions": [], "price": "\u20ac", "location": {"address1": "Lange Str. 6", "address2": null, "address3": null, "city": "Hamburg", "zip_code": "20359", "country": "DE", "state": "HH", "display_address": ["Lange Str. 6", "20359 Hamburg", "Germany"]}, "phone": "+494087882860", "display_phone": "+49 40 87882860", "distance": 582.557110312251}, {"id": "t221YqWUG3fdrMM_kLcFYg", "alias": "herzblut-st-pauli-hamburg-2", "name": "Herzblut St. Pauli", "image_url": "https://s3-media3.fl.yelpcdn.com/bphoto/woTa82tenmvp9SdnmLKePg/o.jpg", "is_closed": false, "url": "https://www.yelp.com/biz/herzblut-st-pauli-hamburg-2?adjust_creative=hBJOknVQJ58S5goQyjmwRw&utm_campaign=yelp_api_v3&utm_medium=api_v3_business_search&utm_source=hBJOknVQJ58S5goQyjmwRw", "review_count": 176, "categories": [{"alias": "bars", "title": "Bars"}, {"alias": "danceclubs", "title": "Dance Clubs"}, {"alias": "german", "title": "German"}], "rating": 4.0, "coordinates": {"latitude": 53.5498837, "longitude": 9.9642414}, "transactions": [], "price": "\u20ac\u20ac", "location": {"address1": "Reeperbahn 50", "address2": null, "address3": null, "city": "Hamburg", "zip_code": "20359", "country": "DE", "state": "HH", "display_address": ["Reeperbahn 50", "20359 Hamburg", "Germany"]}, "phone": "+494033396933", "display_phone": "+49 40 33396933", "distance": 843.5052524066431}, {"id": "QyoE-_sZkdSYPBrXaFOkpg", "alias": "hamborger-veermaster-hamburg-2", "name": "Hamborger Veermaster", "image_url": "https://s3-media2.fl.yelpcdn.com/bphoto/6Hy1-61FzuxjgqiafqqfVw/o.jpg", "is_closed": false, "url": "https://www.yelp.com/biz/hamborger-veermaster-hamburg-2?adjust_creative=hBJOknVQJ58S5goQyjmwRw&utm_campaign=yelp_api_v3&utm_medium=api_v3_business_search&utm_source=hBJOknVQJ58S5goQyjmwRw", "review_count": 22, "categories": [{"alias": "german", "title": "German"}, {"alias": "gastropubs", "title": "Gastropubs"}], "rating": 4.0, "coordinates": {"latitude": 53.5498983, "longitude": 9.9580763}, "transactions": [], "price": "\u20ac\u20ac", "location": {"address1": "Reeperbahn 162", "address2": "", "address3": "", "city": "Hamburg", "zip_code": "20359", "country": "DE", "state": "HH", "display_address": ["Reeperbahn 162", "20359 Hamburg", "Germany"]}, "phone": "+4940316544", "display_phone": "+49 40 316544", "distance": 825.3036435886318}, {"id": "a31LS-2RuhkrA3b6GCFKZg", "alias": "zuckermonarchie-hamburg", "name": "Zuckermonarchie", "image_url": "https://s3-media3.fl.yelpcdn.com/bphoto/vSsndEQXysKCrvY3MfDBOg/o.jpg", "is_closed": false, "url": "https://www.yelp.com/biz/zuckermonarchie-hamburg?adjust_creative=hBJOknVQJ58S5goQyjmwRw&utm_campaign=yelp_api_v3&utm_medium=api_v3_business_search&utm_source=hBJOknVQJ58S5goQyjmwRw", "review_count": 73, "categories": [{"alias": "cafes", "title": "Cafes"}, {"alias": "cakeshop", "title": "Patisserie/Cake Shop"}], "rating": 4.5, "coordinates": {"latitude": 53.54847, "longitude": 9.965}, "transactions": [], "price": "\u20ac\u20ac", "location": {"address1": "Taubenstr. 15", "address2": "", "address3": "", "city": "Hamburg", "zip_code": "20359", "country": "DE", "state": "HH", "display_address": ["Taubenstr. 15", "20359 Hamburg", "Germany"]}, "phone": "+494038630682", "display_phone": "+49 40 38630682", "distance": 709.1819681848275}, {"id": "cqxlZkilUZIgeb8Jl2pM1g", "alias": "kebap-haus-antep-g\u00fclbaba-hamburg", "name": "Kebap Haus - Antep G\u00fclbaba", "image_url": "https://s3-media2.fl.yelpcdn.com/bphoto/-wwxkLjbCz_q6glTU721zA/o.jpg", "is_closed": false, "url": "https://www.yelp.com/biz/kebap-haus-antep-g%C3%BClbaba-hamburg?adjust_creative=hBJOknVQJ58S5goQyjmwRw&utm_campaign=yelp_api_v3&utm_medium=api_v3_business_search&utm_source=hBJOknVQJ58S5goQyjmwRw", "review_count": 8, "categories": [{"alias": "kebab", "title": "Kebab"}, {"alias": "mideastern", "title": "Middle Eastern"}], "rating": 4.5, "coordinates": {"latitude": 53.5493323, "longitude": 9.9589977}, "transactions": [], "price": "\u20ac", "location": {"address1": "Reeperbahn 143", "address2": null, "address3": null, "city": "Hamburg", "zip_code": "20359", "country": "DE", "state": "HH", "display_address": ["Reeperbahn 143", "20359 Hamburg", "Germany"]}, "phone": "", "display_phone": "", "distance": 753.9561257607943}, {"id": "ZIhS_3awrhFT-j_4EZHaUg", "alias": "pizza-bande-hamburg-2", "name": "Pizza Bande", "image_url": "https://s3-media3.fl.yelpcdn.com/bphoto/RTQBBBw_GlSUofoJ-uCoVg/o.jpg", "is_closed": false, "url": "https://www.yelp.com/biz/pizza-bande-hamburg-2?adjust_creative=hBJOknVQJ58S5goQyjmwRw&utm_campaign=yelp_api_v3&utm_medium=api_v3_business_search&utm_source=hBJOknVQJ58S5goQyjmwRw", "review_count": 48, "categories": [{"alias": "pizza", "title": "Pizza"}], "rating": 4.5, "coordinates": {"latitude": 53.548999, "longitude": 9.957662}, "transactions": [], "price": "\u20ac\u20ac", "location": {"address1": "Lincolnstr. 10", "address2": "", "address3": "", "city": "Hamburg", "zip_code": "20359", "country": "DE", "state": "HH", "display_address": ["Lincolnstr. 10", "20359 Hamburg", "Germany"]}, "phone": "", "display_phone": "", "distance": 734.3345561955932}, {"id": "00oxc5eUW5yc5VJcI15W0Q", "alias": "freudenhaus-st-pauli-hamburg", "name": "Freudenhaus St. Pauli", "image_url": "https://s3-media1.fl.yelpcdn.com/bphoto/AkT_5SxcPH2nhVh8-Ekojg/o.jpg", "is_closed": false, "url": "https://www.yelp.com/biz/freudenhaus-st-pauli-hamburg?adjust_creative=hBJOknVQJ58S5goQyjmwRw&utm_campaign=yelp_api_v3&utm_medium=api_v3_business_search&utm_source=hBJOknVQJ58S5goQyjmwRw", "review_count": 133, "categories": [{"alias": "german", "title": "German"}, {"alias": "cocktailbars", "title": "Cocktail Bars"}], "rating": 4.0, "coordinates": {"latitude": 53.55023, "longitude": 9.9620599}, "transactions": [], "price": "\u20ac\u20ac\u20ac", "location": {"address1": "Hein-Hoyer-Str. 7 - 9", "address2": "", "address3": null, "city": "Hamburg", "zip_code": "20359", "country": "DE", "state": "HH", "display_address": ["Hein-Hoyer-Str. 7 - 9", "20359 Hamburg", "Germany"]}, "phone": "+4940314642", "display_phone": "+49 40 314642", "distance": 847.690177297372}, {"id": "sW6UhKa7qL4ousqEiVLVTg", "alias": "freddys-hamburg", "name": "Freddy's", "image_url": "https://s3-media1.fl.yelpcdn.com/bphoto/z-a50Hio2jE4SOSoW3qXCA/o.jpg", "is_closed": false, "url": "https://www.yelp.com/biz/freddys-hamburg?adjust_creative=hBJOknVQJ58S5goQyjmwRw&utm_campaign=yelp_api_v3&utm_medium=api_v3_business_search&utm_source=hBJOknVQJ58S5goQyjmwRw", "review_count": 16, "categories": [{"alias": "foodstands", "title": "Food Stands"}, {"alias": "chickenshop", "title": "Chicken Shop"}], "rating": 4.5, "coordinates": {"latitude": 53.5507584, "longitude": 9.96241}, "transactions": [], "price": "\u20ac", "location": {"address1": "Hein-Hoyer-Str. 18", "address2": "", "address3": "", "city": "Hamburg", "zip_code": "20359", "country": "DE", "state": "HH", "display_address": ["Hein-Hoyer-Str. 18", "20359 Hamburg", "Germany"]}, "phone": "+4940310467", "display_phone": "+49 40 310467", "distance": 916.81813400238}, {"id": "VDAnci9BpQJc29L_cFP03Q", "alias": "k\u00f6z-antep-hamburg", "name": "K\u00f6z Antep", "image_url": "https://s3-media2.fl.yelpcdn.com/bphoto/Lyyc-LHcWw2090IJ-YnXBg/o.jpg", "is_closed": false, "url": "https://www.yelp.com/biz/k%C3%B6z-antep-hamburg?adjust_creative=hBJOknVQJ58S5goQyjmwRw&utm_campaign=yelp_api_v3&utm_medium=api_v3_business_search&utm_source=hBJOknVQJ58S5goQyjmwRw", "review_count": 40, "categories": [{"alias": "kebab", "title": "Kebab"}, {"alias": "turkish", "title": "Turkish"}], "rating": 4.0, "coordinates": {"latitude": 53.5521472, "longitude": 9.963983}, "transactions": [], "price": "\u20ac\u20ac", "location": {"address1": "Clemens-Schultz-Str. 26", "address2": "", "address3": "", "city": "Hamburg", "zip_code": "20359", "country": "DE", "state": "HH", "display_address": ["Clemens-Schultz-Str. 26", "20359 Hamburg", "Germany"]}, "phone": "+4940316880", "display_phone": "+49 40 316880", "distance": 1085.9641024519487}, {"id": "p5MuJhZetiNUyVgt9qygqQ", "alias": "kiez-curry-hamburg", "name": "Kiez Curry", "image_url": "https://s3-media1.fl.yelpcdn.com/bphoto/FhhMSn82xqq8MCtgrgbwyQ/o.jpg", "is_closed": false, "url": "https://www.yelp.com/biz/kiez-curry-hamburg?adjust_creative=hBJOknVQJ58S5goQyjmwRw&utm_campaign=yelp_api_v3&utm_medium=api_v3_business_search&utm_source=hBJOknVQJ58S5goQyjmwRw", "review_count": 56, "categories": [{"alias": "currysausage", "title": "Curry Sausage"}], "rating": 4.0, "coordinates": {"latitude": 53.5488383, "longitude": 9.960405}, "transactions": [], "price": "\u20ac", "location": {"address1": "Querstr. 2", "address2": "", "address3": "", "city": "Hamburg", "zip_code": "20359", "country": "DE", "state": "HH", "display_address": ["Querstr. 2", "20359 Hamburg", "Germany"]}, "phone": "+4915237820805", "display_phone": "+49 1523 7820805", "distance": 692.8143583768182}, {"id": "9Y1I7qtweqyU9af-7AbOrA", "alias": "caf\u00e9-may-hamburg-9", "name": "Caf\u00e9 May", "image_url": "https://s3-media3.fl.yelpcdn.com/bphoto/4EGPGhJBMozkQg4SU-Eczw/o.jpg", "is_closed": false, "url": "https://www.yelp.com/biz/caf%C3%A9-may-hamburg-9?adjust_creative=hBJOknVQJ58S5goQyjmwRw&utm_campaign=yelp_api_v3&utm_medium=api_v3_business_search&utm_source=hBJOknVQJ58S5goQyjmwRw", "review_count": 136, "categories": [{"alias": "breakfast_brunch", "title": "Breakfast & Brunch"}, {"alias": "cafes", "title": "Cafes"}], "rating": 4.0, "coordinates": {"latitude": 53.5505008880399, "longitude": 9.96233582496643}, "transactions": [], "price": "\u20ac", "location": {"address1": "Hein-Hoyer-Str. 14", "address2": "", "address3": "", "city": "Hamburg", "zip_code": "20359", "country": "DE", "state": "HH", "display_address": ["Hein-Hoyer-Str. 14", "20359 Hamburg", "Germany"]}, "phone": "+494033398838", "display_phone": "+49 40 33398838", "distance": 886.3765937199165}, {"id": "QrH_rUT4S1qVCedCwGgyIQ", "alias": "jolie-hamburg", "name": "Jolie", "image_url": "https://s3-media3.fl.yelpcdn.com/bphoto/-3yNotqc7L0Y4IWLLKaqGQ/o.jpg", "is_closed": false, "url": "https://www.yelp.com/biz/jolie-hamburg?adjust_creative=hBJOknVQJ58S5goQyjmwRw&utm_campaign=yelp_api_v3&utm_medium=api_v3_business_search&utm_source=hBJOknVQJ58S5goQyjmwRw", "review_count": 74, "categories": [{"alias": "german", "title": "German"}, {"alias": "international", "title": "International"}], "rating": 4.0, "coordinates": {"latitude": 53.55243, "longitude": 9.96197}, "transactions": [], "price": "\u20ac\u20ac", "location": {"address1": "Clemens-Schultz-Str. 42", "address2": null, "address3": null, "city": "Hamburg", "zip_code": "20359", "country": "DE", "state": "HH", "display_address": ["Clemens-Schultz-Str. 42", "20359 Hamburg", "Germany"]}, "phone": "+494033396862", "display_phone": "+49 40 33396862", "distance": 1094.8528801413988}, {"id": "bBfWvL-5lBLIQGf6WYRRXg", "alias": "fischerhaus-hamburg", "name": "Fischerhaus", "image_url": "https://s3-media4.fl.yelpcdn.com/bphoto/0Dg2mUynK4c2zCVJDj_-ng/o.jpg", "is_closed": false, "url": "https://www.yelp.com/biz/fischerhaus-hamburg?adjust_creative=hBJOknVQJ58S5goQyjmwRw&utm_campaign=yelp_api_v3&utm_medium=api_v3_business_search&utm_source=hBJOknVQJ58S5goQyjmwRw", "review_count": 116, "categories": [{"alias": "seafood", "title": "Seafood"}, {"alias": "german", "title": "German"}], "rating": 3.0, "coordinates": {"latitude": 53.5458457807266, "longitude": 9.9555605319855}, "transactions": [], "price": "\u20ac\u20ac", "location": {"address1": "St. Pauli Fischmarkt 14", "address2": null, "address3": null, "city": "Hamburg", "zip_code": "20359", "country": "DE", "state": "HH", "display_address": ["St. Pauli Fischmarkt 14", "20359 Hamburg", "Germany"]}, "phone": "+4940314053", "display_phone": "+49 40 314053", "distance": 484.20967203648723}, {"id": "aWDZNlIQ_4sJXu6YyPiZ_A", "alias": "hooters-hamburg-5", "name": "Hooters", "image_url": "https://s3-media2.fl.yelpcdn.com/bphoto/k4Why9-sb0eSSqP54eKvPw/o.jpg", "is_closed": false, "url": "https://www.yelp.com/biz/hooters-hamburg-5?adjust_creative=hBJOknVQJ58S5goQyjmwRw&utm_campaign=yelp_api_v3&utm_medium=api_v3_business_search&utm_source=hBJOknVQJ58S5goQyjmwRw", "review_count": 13, "categories": [{"alias": "tradamerican", "title": "American (Traditional)"}], "rating": 3.0, "coordinates": {"latitude": 53.5496872, "longitude": 9.9568658}, "transactions": [], "location": {"address1": "Reeperbahn 157", "address2": "", "address3": null, "city": "Hamburg", "zip_code": "20359", "country": "DE", "state": "HH", "display_address": ["Reeperbahn 157", "20359 Hamburg", "Germany"]}, "phone": "", "display_phone": "", "distance": 822.2475031538081}, {"id": "Omym6_gNPDMIRez2muAZ0w", "alias": "burger-heroes-hamburg", "name": "Burger Heroes", "image_url": "https://s3-media2.fl.yelpcdn.com/bphoto/SgDZANAePoJthFgMC8SfRg/o.jpg", "is_closed": false, "url": "https://www.yelp.com/biz/burger-heroes-hamburg?adjust_creative=hBJOknVQJ58S5goQyjmwRw&utm_campaign=yelp_api_v3&utm_medium=api_v3_business_search&utm_source=hBJOknVQJ58S5goQyjmwRw", "review_count": 11, "categories": [{"alias": "burgers", "title": "Burgers"}], "rating": 4.0, "coordinates": {"latitude": 53.54921, "longitude": 9.96129}, "transactions": [], "price": "\u20ac", "location": {"address1": "Reeperbahn 99", "address2": "", "address3": "", "city": "Hamburg", "zip_code": "20359", "country": "DE", "state": "HH", "display_address": ["Reeperbahn 99", "20359 Hamburg", "Germany"]}, "phone": "+494031767600", "display_phone": "+49 40 31767600", "distance": 734.7840372984928}, {"id": "Uhh991AaYzopEXIeZEYnqw", "alias": "gaumenvielfalt-hamburg", "name": "Gaumenvielfalt", "image_url": "https://s3-media1.fl.yelpcdn.com/bphoto/yUf3_v4FCxzPKarQqDMzUA/o.jpg", "is_closed": false, "url": "https://www.yelp.com/biz/gaumenvielfalt-hamburg?adjust_creative=hBJOknVQJ58S5goQyjmwRw&utm_campaign=yelp_api_v3&utm_medium=api_v3_business_search&utm_source=hBJOknVQJ58S5goQyjmwRw", "review_count": 1, "categories": [{"alias": "cupcakes", "title": "Cupcakes"}, {"alias": "soup", "title": "Soup"}], "rating": 4.0, "coordinates": {"latitude": 53.54759, "longitude": 9.96406}, "transactions": [], "location": {"address1": "Bernhard-Nocht-Str. 109", "address2": null, "address3": "", "city": "Hamburg", "zip_code": "20359", "country": "DE", "state": "HH", "display_address": ["Bernhard-Nocht-Str. 109", "20359 Hamburg", "Germany"]}, "phone": "+494018114067", "display_phone": "+49 40 18114067", "distance": 640.6992044183414}, {"id": "nRw06J0GPMrBpxHhfjEJQg", "alias": "hanoi-hamburg-2", "name": "Hanoi", "image_url": "https://s3-media2.fl.yelpcdn.com/bphoto/9xvAJ5qlu3y4v-hIsnS9IQ/o.jpg", "is_closed": false, "url": "https://www.yelp.com/biz/hanoi-hamburg-2?adjust_creative=hBJOknVQJ58S5goQyjmwRw&utm_campaign=yelp_api_v3&utm_medium=api_v3_business_search&utm_source=hBJOknVQJ58S5goQyjmwRw", "review_count": 65, "categories": [{"alias": "panasian", "title": "Pan Asian"}], "rating": 4.0, "coordinates": {"latitude": 53.5487608, "longitude": 9.9624663}, "transactions": [], "price": "\u20ac\u20ac", "location": {"address1": "Davidstr. 21", "address2": "", "address3": null, "city": "Hamburg", "zip_code": "20359", "country": "DE", "state": "HH", "display_address": ["Davidstr. 21", "20359 Hamburg", "Germany"]}, "phone": "+494031182266", "display_phone": "+49 40 31182266", "distance": 696.9014040137598}, {"id": "xCerCktWmurLZgE84pI9mA", "alias": "mexiko-strasse-hamburg", "name": "Mexiko Strasse", "image_url": "https://s3-media1.fl.yelpcdn.com/bphoto/CbDOjHj2Ktlug1wCOXoNMw/o.jpg", "is_closed": false, "url": "https://www.yelp.com/biz/mexiko-strasse-hamburg?adjust_creative=hBJOknVQJ58S5goQyjmwRw&utm_campaign=yelp_api_v3&utm_medium=api_v3_business_search&utm_source=hBJOknVQJ58S5goQyjmwRw", "review_count": 22, "categories": [{"alias": "mexican", "title": "Mexican"}], "rating": 4.0, "coordinates": {"latitude": 53.550555, "longitude": 9.964902}, "transactions": [], "price": "\u20ac\u20ac\u20ac", "location": {"address1": "Detlev-Bremer-Str. 43", "address2": "", "address3": null, "city": "Hamburg", "zip_code": "20359", "country": "DE", "state": "HH", "display_address": ["Detlev-Bremer-Str. 43", "20359 Hamburg", "Germany"]}, "phone": "", "display_phone": "", "distance": 931.1369056361386}, {"id": "XSZVYonHb44geye0bW64mQ", "alias": "vu-hamburg", "name": "Vu", "image_url": "https://s3-media3.fl.yelpcdn.com/bphoto/sED304rlT1uRy6Oi3BS7CA/o.jpg", "is_closed": false, "url": "https://www.yelp.com/biz/vu-hamburg?adjust_creative=hBJOknVQJ58S5goQyjmwRw&utm_campaign=yelp_api_v3&utm_medium=api_v3_business_search&utm_source=hBJOknVQJ58S5goQyjmwRw", "review_count": 8, "categories": [{"alias": "vietnamese", "title": "Vietnamese"}], "rating": 4.0, "coordinates": {"latitude": 53.5527299, "longitude": 9.95728}, "transactions": [], "price": "\u20ac\u20ac", "location": {"address1": "Kleine Freiheit 68", "address2": "", "address3": null, "city": "Hamburg", "zip_code": "22767", "country": "DE", "state": "HH", "display_address": ["Kleine Freiheit 68", "22767 Hamburg", "Germany"]}, "phone": "", "display_phone": "", "distance": 1135.5482536197587}, {"id": "UDMDwu_VbiM1O4VhvpKLyA", "alias": "lieblings-hamburg-2", "name": "Lieblings", "image_url": "https://s3-media1.fl.yelpcdn.com/bphoto/YJ6S1_mxfhAYad8d7gMwxQ/o.jpg", "is_closed": false, "url": "https://www.yelp.com/biz/lieblings-hamburg-2?adjust_creative=hBJOknVQJ58S5goQyjmwRw&utm_campaign=yelp_api_v3&utm_medium=api_v3_business_search&utm_source=hBJOknVQJ58S5goQyjmwRw", "review_count": 90, "categories": [{"alias": "icecream", "title": "Ice Cream & Frozen Yogurt"}, {"alias": "cafes", "title": "Cafes"}], "rating": 4.0, "coordinates": {"latitude": 53.55035, "longitude": 9.96458}, "transactions": [], "price": "\u20ac\u20ac", "location": {"address1": "Detlev-Bremer-Str. 50", "address2": "", "address3": "", "city": "Hamburg", "zip_code": "20359", "country": "DE", "state": "HH", "display_address": ["Detlev-Bremer-Str. 50", "20359 Hamburg", "Germany"]}, "phone": "+494080007011", "display_phone": "+49 40 80007011", "distance": 893.4320731179329}, {"id": "9xQnSfDtXBQ1kNTp8K6tsA", "alias": "deniz-hamburg", "name": "Deniz", "image_url": "https://s3-media2.fl.yelpcdn.com/bphoto/TD7t53XA8f4UgbUgExViDA/o.jpg", "is_closed": false, "url": "https://www.yelp.com/biz/deniz-hamburg?adjust_creative=hBJOknVQJ58S5goQyjmwRw&utm_campaign=yelp_api_v3&utm_medium=api_v3_business_search&utm_source=hBJOknVQJ58S5goQyjmwRw", "review_count": 34, "categories": [{"alias": "turkish", "title": "Turkish"}, {"alias": "foodstands", "title": "Food Stands"}], "rating": 4.5, "coordinates": {"latitude": 53.5506925401447, "longitude": 9.96006461505861}, "transactions": [], "price": "\u20ac", "location": {"address1": "Talstr. 27", "address2": "", "address3": "", "city": "Hamburg", "zip_code": "20359", "country": "DE", "state": "HH", "display_address": ["Talstr. 27", "20359 Hamburg", "Germany"]}, "phone": "+49403174950", "display_phone": "+49 40 3174950", "distance": 899.367168634533}, {"id": "g4MYwDtX5gftn_xcKv1VCg", "alias": "saigon-hamburg", "name": "Saigon", "image_url": "https://s3-media2.fl.yelpcdn.com/bphoto/tIYe2IV6HZGX984LBEQKDA/o.jpg", "is_closed": false, "url": "https://www.yelp.com/biz/saigon-hamburg?adjust_creative=hBJOknVQJ58S5goQyjmwRw&utm_campaign=yelp_api_v3&utm_medium=api_v3_business_search&utm_source=hBJOknVQJ58S5goQyjmwRw", "review_count": 4, "categories": [{"alias": "chinese", "title": "Chinese"}, {"alias": "foodstands", "title": "Food Stands"}], "rating": 4.0, "coordinates": {"latitude": 53.5485, "longitude": 9.95953}, "transactions": [], "price": "\u20ac", "location": {"address1": "Silbersackstr. 23", "address2": null, "address3": null, "city": "Hamburg", "zip_code": "20359", "country": "DE", "state": "HH", "display_address": ["Silbersackstr. 23", "20359 Hamburg", "Germany"]}, "phone": "+494031796950", "display_phone": "+49 40 31796950", "distance": 658.0663561566214}, {"id": "AroAbMI_8aZmYeA84DZg1Q", "alias": "cr\u00eapes-hamburg", "name": "Cr\u00eapes", "image_url": "https://s3-media2.fl.yelpcdn.com/bphoto/pPlz4cdXg5fKF5ksYRSfjw/o.jpg", "is_closed": false, "url": "https://www.yelp.com/biz/cr%C3%AApes-hamburg?adjust_creative=hBJOknVQJ58S5goQyjmwRw&utm_campaign=yelp_api_v3&utm_medium=api_v3_business_search&utm_source=hBJOknVQJ58S5goQyjmwRw", "review_count": 1, "categories": [{"alias": "creperies", "title": "Creperies"}, {"alias": "foodtrucks", "title": "Food Trucks"}], "rating": 5.0, "coordinates": {"latitude": 53.545917026913, "longitude": 9.9634650349617}, "transactions": [], "location": {"address1": "Bei den St. Pauli-Landungsbr\u00fccken 10", "address2": "", "address3": "", "city": "Hamburg", "zip_code": "20359", "country": "DE", "state": "HH", "display_address": ["Bei den St. Pauli-Landungsbr\u00fccken 10", "20359 Hamburg", "Germany"]}, "phone": "", "display_phone": "", "distance": 418.1024719762623}, {"id": "sJBuF8_2LETg7AZMlzQDrg", "alias": "nakorn-luang-hamburg", "name": "Nakorn Luang", "image_url": "https://s3-media4.fl.yelpcdn.com/bphoto/a_tHXRUPyBRAWz_pilQCFg/o.jpg", "is_closed": false, "url": "https://www.yelp.com/biz/nakorn-luang-hamburg?adjust_creative=hBJOknVQJ58S5goQyjmwRw&utm_campaign=yelp_api_v3&utm_medium=api_v3_business_search&utm_source=hBJOknVQJ58S5goQyjmwRw", "review_count": 1, "categories": [{"alias": "thai", "title": "Thai"}], "rating": 4.0, "coordinates": {"latitude": 53.55111, "longitude": 9.95763}, "transactions": [], "price": "\u20ac\u20ac", "location": {"address1": "Gro\u00dfe Freiheit 39 b", "address2": "Hinterhof", "address3": "", "city": "Hamburg", "zip_code": "22767", "country": "DE", "state": "HH", "display_address": ["Gro\u00dfe Freiheit 39 b", "Hinterhof", "22767 Hamburg", "Germany"]}, "phone": "+494033396674", "display_phone": "+49 40 33396674", "distance": 965.5753196394697}, {"id": "wjv_9xxOODaqN8e2t4T39g", "alias": "schlemmer-eck-hamburg-2", "name": "Schlemmer-Eck", "image_url": "https://s3-media2.fl.yelpcdn.com/bphoto/u88WM-JCNmLfj2Tjv3U6-A/o.jpg", "is_closed": false, "url": "https://www.yelp.com/biz/schlemmer-eck-hamburg-2?adjust_creative=hBJOknVQJ58S5goQyjmwRw&utm_campaign=yelp_api_v3&utm_medium=api_v3_business_search&utm_source=hBJOknVQJ58S5goQyjmwRw", "review_count": 6, "categories": [{"alias": "pubs", "title": "Pubs"}, {"alias": "german", "title": "German"}], "rating": 4.5, "coordinates": {"latitude": 53.55054, "longitude": 9.961535}, "transactions": [], "price": "\u20ac\u20ac", "location": {"address1": "Hamburger Berg 27", "address2": null, "address3": null, "city": "Hamburg", "zip_code": "20359", "country": "DE", "state": "HH", "display_address": ["Hamburger Berg 27", "20359 Hamburg", "Germany"]}, "phone": "+494033428008", "display_phone": "+49 40 33428008", "distance": 884.8762616384892}, {"id": "nDAFSwYuXWEXt519Fc0luQ", "alias": "kokomo-noodle-club-hamburg", "name": "Kokomo Noodle Club", "image_url": "https://s3-media3.fl.yelpcdn.com/bphoto/OlqTlgzloNx9xvK5TbInZg/o.jpg", "is_closed": false, "url": "https://www.yelp.com/biz/kokomo-noodle-club-hamburg?adjust_creative=hBJOknVQJ58S5goQyjmwRw&utm_campaign=yelp_api_v3&utm_medium=api_v3_business_search&utm_source=hBJOknVQJ58S5goQyjmwRw", "review_count": 30, "categories": [{"alias": "ramen", "title": "Ramen"}], "rating": 3.0, "coordinates": {"latitude": 53.552397, "longitude": 9.96209}, "transactions": [], "price": "\u20ac\u20ac\u20ac", "location": {"address1": "Clemens-Schultz-Str. 41", "address2": "", "address3": null, "city": "Hamburg", "zip_code": "20359", "country": "DE", "state": "HH", "display_address": ["Clemens-Schultz-Str. 41", "20359 Hamburg", "Germany"]}, "phone": "+494052155970", "display_phone": "+49 40 52155970", "distance": 1093.8233291994518}, {"id": "W_HnXmXbhPY6XUUJAgbV-w", "alias": "caf\u00e9-mimosa-hamburg-2", "name": "Caf\u00e9 Mimosa", "image_url": "https://s3-media1.fl.yelpcdn.com/bphoto/y2NacTf6mEqbKBI8txL5SA/o.jpg", "is_closed": false, "url": "https://www.yelp.com/biz/caf%C3%A9-mimosa-hamburg-2?adjust_creative=hBJOknVQJ58S5goQyjmwRw&utm_campaign=yelp_api_v3&utm_medium=api_v3_business_search&utm_source=hBJOknVQJ58S5goQyjmwRw", "review_count": 71, "categories": [{"alias": "cafes", "title": "Cafes"}, {"alias": "italian", "title": "Italian"}], "rating": 4.5, "coordinates": {"latitude": 53.55245, "longitude": 9.9636}, "transactions": [], "price": "\u20ac", "location": {"address1": "Clemens-Schultz-Str. 87", "address2": "", "address3": "", "city": "Hamburg", "zip_code": "20359", "country": "DE", "state": "HH", "display_address": ["Clemens-Schultz-Str. 87", "20359 Hamburg", "Germany"]}, "phone": "+494032037989", "display_phone": "+49 40 32037989", "distance": 1115.3051361463824}, {"id": "YxOkXIdptkDfZF-GT7Ohtg", "alias": "st\u00f6rtebeker-hamburg-3", "name": "St\u00f6rtebeker", "image_url": "https://s3-media1.fl.yelpcdn.com/bphoto/ukimUQWNR0-CtakkDx2zug/o.jpg", "is_closed": false, "url": "https://www.yelp.com/biz/st%C3%B6rtebeker-hamburg-3?adjust_creative=hBJOknVQJ58S5goQyjmwRw&utm_campaign=yelp_api_v3&utm_medium=api_v3_business_search&utm_source=hBJOknVQJ58S5goQyjmwRw", "review_count": 15, "categories": [{"alias": "seafood", "title": "Seafood"}], "rating": 3.5, "coordinates": {"latitude": 53.5466919096817, "longitude": 9.96284017427445}, "transactions": [], "price": "\u20ac\u20ac", "location": {"address1": "Bernhard-Nocht-Str. 68", "address2": null, "address3": null, "city": "Hamburg", "zip_code": "20359", "country": "DE", "state": "HH", "display_address": ["Bernhard-Nocht-Str. 68", "20359 Hamburg", "Germany"]}, "phone": "+4940315440", "display_phone": "+49 40 315440", "distance": 480.5811949616982}, {"id": "PDmTms61rX5n76QqbI17Lw", "alias": "pauli-pizza-hamburg-2", "name": "Pauli Pizza", "image_url": "https://s3-media2.fl.yelpcdn.com/bphoto/xK3hjNIBXSifBNO7QL4iUQ/o.jpg", "is_closed": false, "url": "https://www.yelp.com/biz/pauli-pizza-hamburg-2?adjust_creative=hBJOknVQJ58S5goQyjmwRw&utm_campaign=yelp_api_v3&utm_medium=api_v3_business_search&utm_source=hBJOknVQJ58S5goQyjmwRw", "review_count": 104, "categories": [{"alias": "pizza", "title": "Pizza"}], "rating": 4.5, "coordinates": {"latitude": 53.55064, "longitude": 9.96029}, "transactions": [], "price": "\u20ac", "location": {"address1": "Talstr. 22", "address2": "", "address3": "", "city": "Hamburg", "zip_code": "20359", "country": "DE", "state": "HH", "display_address": ["Talstr. 22", "20359 Hamburg", "Germany"]}, "phone": "+494067303046", "display_phone": "+49 40 67303046", "distance": 888.7940155117584}, {"id": "HAD2cMDuPb0AikSa6PNwsQ", "alias": "shikara-quick-hamburg-3", "name": "Shikara Quick", "image_url": "https://s3-media2.fl.yelpcdn.com/bphoto/IXNfZkdbLHPn49HlZKIJJg/o.jpg", "is_closed": false, "url": "https://www.yelp.com/biz/shikara-quick-hamburg-3?adjust_creative=hBJOknVQJ58S5goQyjmwRw&utm_campaign=yelp_api_v3&utm_medium=api_v3_business_search&utm_source=hBJOknVQJ58S5goQyjmwRw", "review_count": 18, "categories": [{"alias": "indpak", "title": "Indian"}], "rating": 4.0, "coordinates": {"latitude": 53.548811, "longitude": 9.964915}, "transactions": [], "price": "\u20ac", "location": {"address1": "Taubenstr. 21", "address2": "", "address3": "", "city": "Hamburg", "zip_code": "20359", "country": "DE", "state": "HH", "display_address": ["Taubenstr. 21", "20359 Hamburg", "Germany"]}, "phone": "+494031171898", "display_phone": "+49 40 31171898", "distance": 749.9284795591601}, {"id": "pIdWfahgnQjletg8bHg7nA", "alias": "transmontana-hamburg-2", "name": "Transmontana", "image_url": "https://s3-media1.fl.yelpcdn.com/bphoto/KX_izF7KxqR_gBz2H3f-2A/o.jpg", "is_closed": false, "url": "https://www.yelp.com/biz/transmontana-hamburg-2?adjust_creative=hBJOknVQJ58S5goQyjmwRw&utm_campaign=yelp_api_v3&utm_medium=api_v3_business_search&utm_source=hBJOknVQJ58S5goQyjmwRw", "review_count": 13, "categories": [{"alias": "cafes", "title": "Cafes"}, {"alias": "portuguese", "title": "Portuguese"}], "rating": 4.0, "coordinates": {"latitude": 53.5474, "longitude": 9.96268}, "transactions": [], "price": "\u20ac\u20ac", "location": {"address1": "Davidstr. 4", "address2": "", "address3": "", "city": "Hamburg", "zip_code": "20359", "country": "DE", "state": "HH", "display_address": ["Davidstr. 4", "20359 Hamburg", "Germany"]}, "phone": "+494074214583", "display_phone": "+49 40 74214583", "distance": 549.1638503313515}, {"id": "Iiq2vPljVkXoSfk2tCPeBg", "alias": "kuchnia-hamburg", "name": "Kuchnia", "image_url": "https://s3-media2.fl.yelpcdn.com/bphoto/oE0viY56rDF3yeE9CI_Htw/o.jpg", "is_closed": false, "url": "https://www.yelp.com/biz/kuchnia-hamburg?adjust_creative=hBJOknVQJ58S5goQyjmwRw&utm_campaign=yelp_api_v3&utm_medium=api_v3_business_search&utm_source=hBJOknVQJ58S5goQyjmwRw", "review_count": 53, "categories": [{"alias": "russian", "title": "Russian"}, {"alias": "polish", "title": "Polish"}], "rating": 4.0, "coordinates": {"latitude": 53.55241, "longitude": 9.96012}, "transactions": [], "price": "\u20ac\u20ac", "location": {"address1": "Talstr. 87", "address2": "", "address3": "", "city": "Hamburg", "zip_code": "20359", "country": "DE", "state": "HH", "display_address": ["Talstr. 87", "20359 Hamburg", "Germany"]}, "phone": "+49408226125", "display_phone": "+49 40 8226125", "distance": 1093.624812978012}, {"id": "i_SgKyXHs8YIXUYWpmKXDQ", "alias": "salvia-hamburg", "name": "Salvia", "image_url": "https://s3-media2.fl.yelpcdn.com/bphoto/pXQSnjRSXcdt7DuxpzT9iQ/o.jpg", "is_closed": false, "url": "https://www.yelp.com/biz/salvia-hamburg?adjust_creative=hBJOknVQJ58S5goQyjmwRw&utm_campaign=yelp_api_v3&utm_medium=api_v3_business_search&utm_source=hBJOknVQJ58S5goQyjmwRw", "review_count": 2, "categories": [{"alias": "pizza", "title": "Pizza"}], "rating": 4.0, "coordinates": {"latitude": 53.546932, "longitude": 9.95755}, "transactions": [], "location": {"address1": "Bernhard-Nocht-Str. 1", "address2": "", "address3": null, "city": "Hamburg", "zip_code": "20359", "country": "DE", "state": "HH", "display_address": ["Bernhard-Nocht-Str. 1", "20359 Hamburg", "Germany"]}, "phone": "+494033397222", "display_phone": "+49 40 33397222", "distance": 517.8654787841318}, {"id": "lcY1O-yCKfk000ygslUZ5Q", "alias": "mimos-trattoria-italia-hamburg", "name": "Mimo's Trattoria Italia", "image_url": "https://s3-media2.fl.yelpcdn.com/bphoto/FFRgRcJtNgp12hxAC9pFTQ/o.jpg", "is_closed": false, "url": "https://www.yelp.com/biz/mimos-trattoria-italia-hamburg?adjust_creative=hBJOknVQJ58S5goQyjmwRw&utm_campaign=yelp_api_v3&utm_medium=api_v3_business_search&utm_source=hBJOknVQJ58S5goQyjmwRw", "review_count": 63, "categories": [{"alias": "pizza", "title": "Pizza"}, {"alias": "italian", "title": "Italian"}], "rating": 4.0, "coordinates": {"latitude": 53.5503134967274, "longitude": 9.96166024507136}, "transactions": [], "price": "\u20ac\u20ac", "location": {"address1": "Seilerstr. 59", "address2": "", "address3": "", "city": "Hamburg", "zip_code": "20359", "country": "DE", "state": "HH", "display_address": ["Seilerstr. 59", "20359 Hamburg", "Germany"]}, "phone": "+4940312988", "display_phone": "+49 40 312988", "distance": 860.496486310175}, {"id": "mn3xlkpg6AGMJ6R6dU14fg", "alias": "steinbock-hamburg", "name": "Steinbock", "image_url": "https://s3-media4.fl.yelpcdn.com/bphoto/KLmKh4TfNT6lI1Ch_0iVnQ/o.jpg", "is_closed": false, "url": "https://www.yelp.com/biz/steinbock-hamburg?adjust_creative=hBJOknVQJ58S5goQyjmwRw&utm_campaign=yelp_api_v3&utm_medium=api_v3_business_search&utm_source=hBJOknVQJ58S5goQyjmwRw", "review_count": 4, "categories": [{"alias": "turkish", "title": "Turkish"}, {"alias": "kebab", "title": "Kebab"}, {"alias": "hotdogs", "title": "Fast Food"}], "rating": 4.5, "coordinates": {"latitude": 53.5491, "longitude": 9.95881}, "transactions": [], "price": "\u20ac\u20ac", "location": {"address1": "Reeperbahn 145", "address2": null, "address3": null, "city": "Hamburg", "zip_code": "20359", "country": "DE", "state": "HH", "display_address": ["Reeperbahn 145", "20359 Hamburg", "Germany"]}, "phone": "+4940313403", "display_phone": "+49 40 313403", "distance": 730.0954886859679}, {"id": "p4W87FFwg7bHQZU5mhCrdw", "alias": "copper-house-hamburg-2", "name": "Copper House", "image_url": "https://s3-media3.fl.yelpcdn.com/bphoto/tXPt-NWldPoTewG6YapF9g/o.jpg", "is_closed": false, "url": "https://www.yelp.com/biz/copper-house-hamburg-2?adjust_creative=hBJOknVQJ58S5goQyjmwRw&utm_campaign=yelp_api_v3&utm_medium=api_v3_business_search&utm_source=hBJOknVQJ58S5goQyjmwRw", "review_count": 227, "categories": [{"alias": "panasian", "title": "Pan Asian"}], "rating": 3.5, "coordinates": {"latitude": 53.5477, "longitude": 9.96278}, "transactions": [], "price": "\u20ac\u20ac\u20ac", "location": {"address1": "Davidstr. 37", "address2": "", "address3": null, "city": "Hamburg", "zip_code": "20359", "country": "DE", "state": "HH", "display_address": ["Davidstr. 37", "20359 Hamburg", "Germany"]}, "phone": "+494075662011", "display_phone": "+49 40 75662011", "distance": 586.6012386675209}, {"id": "bLCm4eYaSbuNmdIFTu_0Pg", "alias": "davids-hamburg-2", "name": "David's", "image_url": "https://s3-media1.fl.yelpcdn.com/bphoto/-L05B8w3Or8-O32xollz3g/o.jpg", "is_closed": false, "url": "https://www.yelp.com/biz/davids-hamburg-2?adjust_creative=hBJOknVQJ58S5goQyjmwRw&utm_campaign=yelp_api_v3&utm_medium=api_v3_business_search&utm_source=hBJOknVQJ58S5goQyjmwRw", "review_count": 18, "categories": [{"alias": "lounges", "title": "Lounges"}, {"alias": "cocktailbars", "title": "Cocktail Bars"}, {"alias": "sushi", "title": "Sushi Bars"}], "rating": 4.0, "coordinates": {"latitude": 53.547282, "longitude": 9.963355}, "transactions": [], "price": "\u20ac\u20ac\u20ac", "location": {"address1": "Empire Riverside Hotel", "address2": "Bernhard-Nocht-Str. 97", "address3": "", "city": "Hamburg", "zip_code": "20359", "country": "DE", "state": "HH", "display_address": ["Empire Riverside Hotel", "Bernhard-Nocht-Str. 97", "20359 Hamburg", "Germany"]}, "phone": "+4940311190", "display_phone": "+49 40 311190", "distance": 553.8160631157249}, {"id": "QWxztkEVXkxpEczFQ1dq-Q", "alias": "pizzeria-alt-hamburg-hamburg-3", "name": "Pizzeria \"Alt Hamburg\"", "image_url": "https://s3-media4.fl.yelpcdn.com/bphoto/moPBHl9nNttzAbHfB5m0Dg/o.jpg", "is_closed": false, "url": "https://www.yelp.com/biz/pizzeria-alt-hamburg-hamburg-3?adjust_creative=hBJOknVQJ58S5goQyjmwRw&utm_campaign=yelp_api_v3&utm_medium=api_v3_business_search&utm_source=hBJOknVQJ58S5goQyjmwRw", "review_count": 10, "categories": [{"alias": "pizza", "title": "Pizza"}], "rating": 4.5, "coordinates": {"latitude": 53.54872, "longitude": 9.96057}, "transactions": [], "price": "\u20ac", "location": {"address1": "Hans-Albers-Platz 5", "address2": "", "address3": "", "city": "Hamburg", "zip_code": "20359", "country": "DE", "state": "HH", "display_address": ["Hans-Albers-Platz 5", "20359 Hamburg", "Germany"]}, "phone": "+494031796470", "display_phone": "+49 40 31796470", "distance": 665.9766287346969}, {"id": "6IxGE1wQ-hQKwQFY_ac0cQ", "alias": "schweinske-hamburg-6", "name": "Schweinske", "image_url": "https://s3-media2.fl.yelpcdn.com/bphoto/BwCYOMcI0AZJiy1hMpSjNA/o.jpg", "is_closed": false, "url": "https://www.yelp.com/biz/schweinske-hamburg-6?adjust_creative=hBJOknVQJ58S5goQyjmwRw&utm_campaign=yelp_api_v3&utm_medium=api_v3_business_search&utm_source=hBJOknVQJ58S5goQyjmwRw", "review_count": 123, "categories": [{"alias": "german", "title": "German"}], "rating": 3.5, "coordinates": {"latitude": 53.54946, "longitude": 9.95654}, "transactions": [], "price": "\u20ac\u20ac", "location": {"address1": "Reeperbahn 157", "address2": null, "address3": null, "city": "Hamburg", "zip_code": "20359", "country": "DE", "state": "HH", "display_address": ["Reeperbahn 157", "20359 Hamburg", "Germany"]}, "phone": "+494033396770", "display_phone": "+49 40 33396770", "distance": 787.655942589397}, {"id": "Piy2j7scJI0DuXQuJdxbyw", "alias": "danmark-snack-hamburg-2", "name": "Danmark-Snack", "image_url": "https://s3-media2.fl.yelpcdn.com/bphoto/rjmo-A0hh3ZOJEZMoYptFA/o.jpg", "is_closed": false, "url": "https://www.yelp.com/biz/danmark-snack-hamburg-2?adjust_creative=hBJOknVQJ58S5goQyjmwRw&utm_campaign=yelp_api_v3&utm_medium=api_v3_business_search&utm_source=hBJOknVQJ58S5goQyjmwRw", "review_count": 27, "categories": [{"alias": "hotdogs", "title": "Fast Food"}], "rating": 4.5, "coordinates": {"latitude": 53.5497, "longitude": 9.95987}, "transactions": [], "price": "\u20ac", "location": {"address1": "Reeperbahn 122", "address2": null, "address3": null, "city": "Hamburg", "zip_code": "20359", "country": "DE", "state": "HH", "display_address": ["Reeperbahn 122", "20359 Hamburg", "Germany"]}, "phone": "+4940313989", "display_phone": "+49 40 313989", "distance": 797.5288088351805}, {"id": "KYSI_arASXi4nk0GlupRbw", "alias": "anchors-und-hearts-hamburg", "name": "Anchors & Hearts", "image_url": "https://s3-media2.fl.yelpcdn.com/bphoto/UCMHjLKBxsxyG1oW9vKQPQ/o.jpg", "is_closed": false, "url": "https://www.yelp.com/biz/anchors-und-hearts-hamburg?adjust_creative=hBJOknVQJ58S5goQyjmwRw&utm_campaign=yelp_api_v3&utm_medium=api_v3_business_search&utm_source=hBJOknVQJ58S5goQyjmwRw", "review_count": 2, "categories": [{"alias": "burgers", "title": "Burgers"}], "rating": 4.0, "coordinates": {"latitude": 53.5507743, "longitude": 9.9598825}, "transactions": [], "price": "\u20ac\u20ac", "location": {"address1": "Talstr. 29", "address2": "", "address3": null, "city": "Hamburg", "zip_code": "20359", "country": "DE", "state": "HH", "display_address": ["Talstr. 29", "20359 Hamburg", "Germany"]}, "phone": "+4917625286770", "display_phone": "+49 176 25286770", "distance": 908.8807568782571}, {"id": "igCjLoSoBTzyLtydS8eecQ", "alias": "kiezfutter-hamburg-2", "name": "Kiezfutter", "image_url": "https://s3-media2.fl.yelpcdn.com/bphoto/sGu8ZIj6rq0jFybwSLhDHA/o.jpg", "is_closed": false, "url": "https://www.yelp.com/biz/kiezfutter-hamburg-2?adjust_creative=hBJOknVQJ58S5goQyjmwRw&utm_campaign=yelp_api_v3&utm_medium=api_v3_business_search&utm_source=hBJOknVQJ58S5goQyjmwRw", "review_count": 2, "categories": [{"alias": "bistros", "title": "Bistros"}], "rating": 4.5, "coordinates": {"latitude": 53.54845, "longitude": 9.96209}, "transactions": [], "location": {"address1": "Friedrichstr. 5", "address2": "", "address3": null, "city": "Hamburg", "zip_code": "20359", "country": "DE", "state": "HH", "display_address": ["Friedrichstr. 5", "20359 Hamburg", "Germany"]}, "phone": "+494028493433", "display_phone": "+49 40 28493433", "distance": 658.047159026927}, {"id": "TuVlb2BbRKWQMLacnfC-AQ", "alias": "vabious-hamburg", "name": "Vabiou's", "image_url": "https://s3-media1.fl.yelpcdn.com/bphoto/26o9HbWs584emH6OmzsqCw/o.jpg", "is_closed": false, "url": "https://www.yelp.com/biz/vabious-hamburg?adjust_creative=hBJOknVQJ58S5goQyjmwRw&utm_campaign=yelp_api_v3&utm_medium=api_v3_business_search&utm_source=hBJOknVQJ58S5goQyjmwRw", "review_count": 1, "categories": [{"alias": "cafes", "title": "Cafes"}, {"alias": "juicebars", "title": "Juice Bars & Smoothies"}, {"alias": "organic_stores", "title": "Organic Stores"}], "rating": 5.0, "coordinates": {"latitude": 53.552762, "longitude": 9.956763}, "transactions": [], "location": {"address1": "Kleine Freiheit 70", "address2": null, "address3": null, "city": "Hamburg", "zip_code": "22767", "country": "DE", "state": "HH", "display_address": ["Kleine Freiheit 70", "22767 Hamburg", "Germany"]}, "phone": "+494030237496", "display_phone": "+49 40 30237496", "distance": 1155.224898178417}, {"id": "t3AgEiuW_p8U9nrpLj4n2Q", "alias": "kaffee-stark-hamburg", "name": "Kaffee Stark", "image_url": "https://s3-media3.fl.yelpcdn.com/bphoto/-2m1nmtXP_q79uYEnxFNLQ/o.jpg", "is_closed": false, "url": "https://www.yelp.com/biz/kaffee-stark-hamburg?adjust_creative=hBJOknVQJ58S5goQyjmwRw&utm_campaign=yelp_api_v3&utm_medium=api_v3_business_search&utm_source=hBJOknVQJ58S5goQyjmwRw", "review_count": 91, "categories": [{"alias": "cafes", "title": "Cafes"}, {"alias": "tapasmallplates", "title": "Tapas/Small Plates"}], "rating": 4.0, "coordinates": {"latitude": 53.5533, "longitude": 9.96157}, "transactions": [], "price": "\u20ac\u20ac", "location": {"address1": "Wohlwillstr. 18", "address2": "", "address3": "", "city": "Hamburg", "zip_code": "20359", "country": "DE", "state": "HH", "display_address": ["Wohlwillstr. 18", "20359 Hamburg", "Germany"]}, "phone": "+494067382060", "display_phone": "+49 40 67382060", "distance": 1174.334594609035}, {"id": "Nn3YvZjarJ9Y9NX7-wN3Xw", "alias": "piceno-hamburg-2", "name": "Piceno", "image_url": "https://s3-media3.fl.yelpcdn.com/bphoto/eZa6blxss8f7B7299tS15w/o.jpg", "is_closed": false, "url": "https://www.yelp.com/biz/piceno-hamburg-2?adjust_creative=hBJOknVQJ58S5goQyjmwRw&utm_campaign=yelp_api_v3&utm_medium=api_v3_business_search&utm_source=hBJOknVQJ58S5goQyjmwRw", "review_count": 34, "categories": [{"alias": "italian", "title": "Italian"}], "rating": 4.0, "coordinates": {"latitude": 53.55, "longitude": 9.96231}, "transactions": [], "price": "\u20ac\u20ac", "location": {"address1": "Hein-Hoyer-Str. 8", "address2": null, "address3": null, "city": "Hamburg", "zip_code": "20359", "country": "DE", "state": "HH", "display_address": ["Hein-Hoyer-Str. 8", "20359 Hamburg", "Germany"]}, "phone": "+4940310477", "display_phone": "+49 40 310477", "distance": 831.0111504674444}, {"id": "7gs4rPu1rmeppxBNtG6Heg", "alias": "maharaja-hamburg-3", "name": "Maharaja", "image_url": "https://s3-media4.fl.yelpcdn.com/bphoto/Za7HAv9WF5Kau0Y6KlNn5A/o.jpg", "is_closed": false, "url": "https://www.yelp.com/biz/maharaja-hamburg-3?adjust_creative=hBJOknVQJ58S5goQyjmwRw&utm_campaign=yelp_api_v3&utm_medium=api_v3_business_search&utm_source=hBJOknVQJ58S5goQyjmwRw", "review_count": 3, "categories": [{"alias": "indpak", "title": "Indian"}], "rating": 3.5, "coordinates": {"latitude": 53.5506699, "longitude": 9.96503}, "transactions": [], "location": {"address1": "Detlev-Bremer-Str. 41", "address2": "", "address3": null, "city": "Hamburg", "zip_code": "20359", "country": "DE", "state": "HH", "display_address": ["Detlev-Bremer-Str. 41", "20359 Hamburg", "Germany"]}, "phone": "+494030093466", "display_phone": "+49 40 30093466", "distance": 944.3273260138099}, {"id": "3A4lHmjjZCWjBa0-UzF3ww", "alias": "\u00fcberquell-hamburg", "name": "\u00dcberQuell", "image_url": "https://s3-media4.fl.yelpcdn.com/bphoto/BlireyufV94ivjacZ4oy6Q/o.jpg", "is_closed": false, "url": "https://www.yelp.com/biz/%C3%BCberquell-hamburg?adjust_creative=hBJOknVQJ58S5goQyjmwRw&utm_campaign=yelp_api_v3&utm_medium=api_v3_business_search&utm_source=hBJOknVQJ58S5goQyjmwRw", "review_count": 24, "categories": [{"alias": "pizza", "title": "Pizza"}, {"alias": "breweries", "title": "Breweries"}], "rating": 3.5, "coordinates": {"latitude": 53.5462169786099, "longitude": 9.95834795372002}, "transactions": [], "price": "\u20ac\u20ac", "location": {"address1": "St. Pauli Fischmarkt 28 - 32", "address2": null, "address3": "", "city": "Hamburg", "zip_code": "20359", "country": "DE", "state": "HH", "display_address": ["St. Pauli Fischmarkt 28 - 32", "20359 Hamburg", "Germany"]}, "phone": "+4940334421261", "display_phone": "+49 40 334421261", "distance": 424.9105006608738}, {"id": "AbEaCjtc1_ihDooaYWH4gg", "alias": "lucullus-hamburg", "name": "Lucullus", "image_url": "https://s3-media3.fl.yelpcdn.com/bphoto/h0e1XViSoTsRj1i3zKJUcw/o.jpg", "is_closed": false, "url": "https://www.yelp.com/biz/lucullus-hamburg?adjust_creative=hBJOknVQJ58S5goQyjmwRw&utm_campaign=yelp_api_v3&utm_medium=api_v3_business_search&utm_source=hBJOknVQJ58S5goQyjmwRw", "review_count": 43, "categories": [{"alias": "foodstands", "title": "Food Stands"}, {"alias": "hotdogs", "title": "Fast Food"}, {"alias": "currysausage", "title": "Curry Sausage"}], "rating": 3.5, "coordinates": {"latitude": 53.5493790224111, "longitude": 9.96224999427795}, "transactions": [], "price": "\u20ac", "location": {"address1": "Reeperbahn 73", "address2": "", "address3": "", "city": "Hamburg", "zip_code": "20359", "country": "DE", "state": "HH", "display_address": ["Reeperbahn 73", "20359 Hamburg", "Germany"]}, "phone": "+494080799448", "display_phone": "+49 40 80799448", "distance": 762.1548075644228}, {"id": "44NWdMchFBfqm8vshr6zTg", "alias": "east-restaurant-hamburg", "name": "East Restaurant", "image_url": "https://s3-media1.fl.yelpcdn.com/bphoto/reOQXIfm8N1C2qrMb7cNNA/o.jpg", "is_closed": false, "url": "https://www.yelp.com/biz/east-restaurant-hamburg?adjust_creative=hBJOknVQJ58S5goQyjmwRw&utm_campaign=yelp_api_v3&utm_medium=api_v3_business_search&utm_source=hBJOknVQJ58S5goQyjmwRw", "review_count": 192, "categories": [{"alias": "sushi", "title": "Sushi Bars"}, {"alias": "international", "title": "International"}], "rating": 4.0, "coordinates": {"latitude": 53.5511749, "longitude": 9.9654522}, "transactions": [], "price": "\u20ac\u20ac\u20ac", "location": {"address1": "Simon-von-Utrecht-Str. 31", "address2": "", "address3": "", "city": "Hamburg", "zip_code": "20359", "country": "DE", "state": "HH", "display_address": ["Simon-von-Utrecht-Str. 31", "20359 Hamburg", "Germany"]}, "phone": "+4940309933", "display_phone": "+49 40 309933", "distance": 1028.8410267522697}, {"id": "YaNZ3icPFhFW0azyxM-vjg", "alias": "cuneo-1905-hamburg", "name": "Cuneo 1905", "image_url": "https://s3-media3.fl.yelpcdn.com/bphoto/hfTmgDAG1P8MEbi4cz6gIw/o.jpg", "is_closed": false, "url": "https://www.yelp.com/biz/cuneo-1905-hamburg?adjust_creative=hBJOknVQJ58S5goQyjmwRw&utm_campaign=yelp_api_v3&utm_medium=api_v3_business_search&utm_source=hBJOknVQJ58S5goQyjmwRw", "review_count": 144, "categories": [{"alias": "italian", "title": "Italian"}], "rating": 3.5, "coordinates": {"latitude": 53.54799, "longitude": 9.96256}, "transactions": [], "price": "\u20ac\u20ac\u20ac", "location": {"address1": "Davidstr. 11", "address2": null, "address3": null, "city": "Hamburg", "zip_code": "20359", "country": "DE", "state": "HH", "display_address": ["Davidstr. 11", "20359 Hamburg", "Germany"]}, "phone": "+4940312580", "display_phone": "+49 40 312580", "distance": 613.1299350355532}, {"id": "QObiS-Ssukbuej2nb0b8IA", "alias": "david-quelle-hamburg", "name": "David Quelle", "image_url": "https://s3-media4.fl.yelpcdn.com/bphoto/Ao1zaFEO-GiwT7ql-GGvIA/o.jpg", "is_closed": false, "url": "https://www.yelp.com/biz/david-quelle-hamburg?adjust_creative=hBJOknVQJ58S5goQyjmwRw&utm_campaign=yelp_api_v3&utm_medium=api_v3_business_search&utm_source=hBJOknVQJ58S5goQyjmwRw", "review_count": 5, "categories": [{"alias": "gastropubs", "title": "Gastropubs"}, {"alias": "divebars", "title": "Dive Bars"}], "rating": 4.0, "coordinates": {"latitude": 53.5492, "longitude": 9.96247}, "transactions": [], "price": "\u20ac\u20ac", "location": {"address1": "Davidstr. 23", "address2": null, "address3": null, "city": "Hamburg", "zip_code": "20359", "country": "DE", "state": "HH", "display_address": ["Davidstr. 23", "20359 Hamburg", "Germany"]}, "phone": "+494031794071", "display_phone": "+49 40 31794071", "distance": 744.9484615680537}, {"id": "jxXtj1teE4SS8VCItcwnBg", "alias": "babanin-yeri-hamburg", "name": "Babanin Yeri", "image_url": "https://s3-media2.fl.yelpcdn.com/bphoto/GnDJC3TT2OV-LzTUP2zlNg/o.jpg", "is_closed": false, "url": "https://www.yelp.com/biz/babanin-yeri-hamburg?adjust_creative=hBJOknVQJ58S5goQyjmwRw&utm_campaign=yelp_api_v3&utm_medium=api_v3_business_search&utm_source=hBJOknVQJ58S5goQyjmwRw", "review_count": 15, "categories": [{"alias": "kebab", "title": "Kebab"}], "rating": 4.0, "coordinates": {"latitude": 53.55304, "longitude": 9.95822}, "transactions": [], "price": "\u20ac", "location": {"address1": "Paul-Roosen-Str. 21", "address2": "", "address3": "", "city": "Hamburg", "zip_code": "22767", "country": "DE", "state": "HH", "display_address": ["Paul-Roosen-Str. 21", "22767 Hamburg", "Germany"]}, "phone": "+49403195156", "display_phone": "+49 40 3195156", "distance": 1165.6448998500075}, {"id": "f4Hmi_zF_Ns7V-Oqp2Ad4g", "alias": "mini-grill-hamburg", "name": "Mini-Grill", "image_url": "https://s3-media3.fl.yelpcdn.com/bphoto/oVtbBhHuidI38tf0kM0NWQ/o.jpg", "is_closed": false, "url": "https://www.yelp.com/biz/mini-grill-hamburg?adjust_creative=hBJOknVQJ58S5goQyjmwRw&utm_campaign=yelp_api_v3&utm_medium=api_v3_business_search&utm_source=hBJOknVQJ58S5goQyjmwRw", "review_count": 40, "categories": [{"alias": "foodstands", "title": "Food Stands"}], "rating": 4.5, "coordinates": {"latitude": 53.5524853939056, "longitude": 9.96241830289364}, "transactions": [], "price": "\u20ac\u20ac", "location": {"address1": "Clemens-Schultz-Str. 79", "address2": "", "address3": "", "city": "Hamburg", "zip_code": "20359", "country": "DE", "state": "HH", "display_address": ["Clemens-Schultz-Str. 79", "20359 Hamburg", "Germany"]}, "phone": "+49403171718", "display_phone": "+49 40 3171718", "distance": 1105.9313180951679}, {"id": "x2GOUAvseghJ6-c_n5UBmQ", "alias": "dips-n-stix-hamburg-2", "name": "Dips 'n Stix", "image_url": "https://s3-media4.fl.yelpcdn.com/bphoto/x9NmDybmCzmwkBqNbpcXtg/o.jpg", "is_closed": false, "url": "https://www.yelp.com/biz/dips-n-stix-hamburg-2?adjust_creative=hBJOknVQJ58S5goQyjmwRw&utm_campaign=yelp_api_v3&utm_medium=api_v3_business_search&utm_source=hBJOknVQJ58S5goQyjmwRw", "review_count": 28, "categories": [{"alias": "international", "title": "International"}], "rating": 3.5, "coordinates": {"latitude": 53.54921, "longitude": 9.9639399}, "transactions": [], "price": "\u20ac\u20ac", "location": {"address1": "Spielbudenplatz 24 - 25", "address2": "", "address3": "Schmidts Tivoli, 1. OG", "city": "Hamburg", "zip_code": "20359", "country": "DE", "state": "HH", "display_address": ["Spielbudenplatz 24 - 25", "Schmidts Tivoli, 1. OG", "20359 Hamburg", "Germany"]}, "phone": "+494031778884", "display_phone": "+49 40 31778884", "distance": 760.2170453195598}, {"id": "Dk0LzCsm_WMx4_n31FMtwg", "alias": "ahoi-sankt-pauli-hamburg", "name": "AHOI Sankt Pauli", "image_url": "https://s3-media2.fl.yelpcdn.com/bphoto/EKYpIf7KypNqPqM6e57MLQ/o.jpg", "is_closed": false, "url": "https://www.yelp.com/biz/ahoi-sankt-pauli-hamburg?adjust_creative=hBJOknVQJ58S5goQyjmwRw&utm_campaign=yelp_api_v3&utm_medium=api_v3_business_search&utm_source=hBJOknVQJ58S5goQyjmwRw", "review_count": 1, "categories": [{"alias": "northerngerman", "title": "Northern German"}], "rating": 5.0, "coordinates": {"latitude": 53.54946, "longitude": 9.95654}, "transactions": [], "location": {"address1": "Reeperbahn 157", "address2": "", "address3": null, "city": "Hamburg", "zip_code": "20359", "country": "DE", "state": "HH", "display_address": ["Reeperbahn 157", "20359 Hamburg", "Germany"]}, "phone": "+4915158583232", "display_phone": "+49 1515 8583232", "distance": 787.655942589397}, {"id": "SYwC7-VRINSgziw75yE4Ow", "alias": "chavis-kulturcaf\u00e9-hamburg-2", "name": "Chavis Kulturcaf\u00e9", "image_url": "https://s3-media2.fl.yelpcdn.com/bphoto/j4_gOn23JjAzoWEv3uAoiA/o.jpg", "is_closed": false, "url": "https://www.yelp.com/biz/chavis-kulturcaf%C3%A9-hamburg-2?adjust_creative=hBJOknVQJ58S5goQyjmwRw&utm_campaign=yelp_api_v3&utm_medium=api_v3_business_search&utm_source=hBJOknVQJ58S5goQyjmwRw", "review_count": 22, "categories": [{"alias": "arts", "title": "Arts & Entertainment"}, {"alias": "cafes", "title": "Cafes"}], "rating": 4.5, "coordinates": {"latitude": 53.5506699, "longitude": 9.96503}, "transactions": [], "price": "\u20ac", "location": {"address1": "Detlev-Bremer-Str. 41", "address2": "", "address3": "", "city": "Hamburg", "zip_code": "20359", "country": "DE", "state": "HH", "display_address": ["Detlev-Bremer-Str. 41", "20359 Hamburg", "Germany"]}, "phone": "+494023936173", "display_phone": "+49 40 23936173", "distance": 944.3273260138099}, {"id": "z2bMq-OFpuLyrIf7qYQkHQ", "alias": "fritzis-hamburg", "name": "Fritzis", "image_url": "https://s3-media2.fl.yelpcdn.com/bphoto/0k6UxkS6_p_dTJRtnycwKQ/o.jpg", "is_closed": false, "url": "https://www.yelp.com/biz/fritzis-hamburg?adjust_creative=hBJOknVQJ58S5goQyjmwRw&utm_campaign=yelp_api_v3&utm_medium=api_v3_business_search&utm_source=hBJOknVQJ58S5goQyjmwRw", "review_count": 1, "categories": [{"alias": "german", "title": "German"}, {"alias": "mediterranean", "title": "Mediterranean"}], "rating": 4.0, "coordinates": {"latitude": 53.5527999025518, "longitude": 9.95646044611931}, "transactions": [], "price": "\u20ac", "location": {"address1": "Kleine Freiheit 1", "address2": "", "address3": "", "city": "Hamburg", "zip_code": "22767", "country": "DE", "state": "HH", "display_address": ["Kleine Freiheit 1", "22767 Hamburg", "Germany"]}, "phone": "+494030763604", "display_phone": "+49 40 30763604", "distance": 1163.7204709569614}, {"id": "q11Tnwss2nsgNfkmssNYaA", "alias": "gl\u00fchweinstand-steinwerder-aussichtsplatform-hamburg", "name": "Gl\u00fchweinstand Steinwerder Aussichtsplatform", "image_url": "https://s3-media4.fl.yelpcdn.com/bphoto/K3dub-8iYma2wqBCBvT3jw/o.jpg", "is_closed": false, "url": "https://www.yelp.com/biz/gl%C3%BChweinstand-steinwerder-aussichtsplatform-hamburg?adjust_creative=hBJOknVQJ58S5goQyjmwRw&utm_campaign=yelp_api_v3&utm_medium=api_v3_business_search&utm_source=hBJOknVQJ58S5goQyjmwRw", "review_count": 3, "categories": [{"alias": "hotdogs", "title": "Fast Food"}], "rating": 3.5, "coordinates": {"latitude": 53.5422, "longitude": 9.96669}, "transactions": [], "location": {"address1": "Am Elbtunnel", "address2": "", "address3": null, "city": "Hamburg", "zip_code": "20457", "country": "DE", "state": "HH", "display_address": ["Am Elbtunnel", "20457 Hamburg", "Germany"]}, "phone": "", "display_phone": "", "distance": 414.09409310190586}, {"id": "kw8F4xpK1TfA-_dmxwE5-g", "alias": "\u00f6z-antep-hamburg-4", "name": "\u00d6z Antep", "image_url": "https://s3-media2.fl.yelpcdn.com/bphoto/AMC9cbFfrvq7pozV0MSXdg/o.jpg", "is_closed": false, "url": "https://www.yelp.com/biz/%C3%B6z-antep-hamburg-4?adjust_creative=hBJOknVQJ58S5goQyjmwRw&utm_campaign=yelp_api_v3&utm_medium=api_v3_business_search&utm_source=hBJOknVQJ58S5goQyjmwRw", "review_count": 12, "categories": [{"alias": "turkish", "title": "Turkish"}, {"alias": "kebab", "title": "Kebab"}], "rating": 4.0, "coordinates": {"latitude": 53.552272, "longitude": 9.9632}, "transactions": [], "price": "\u20ac\u20ac", "location": {"address1": "Clemens-Schultz-Str. 35", "address2": "", "address3": "", "city": "Hamburg", "zip_code": "20359", "country": "DE", "state": "HH", "display_address": ["Clemens-Schultz-Str. 35", "20359 Hamburg", "Germany"]}, "phone": "+49403175233", "display_phone": "+49 40 3175233", "distance": 1089.7475907686912}, {"id": "rfRe_ivhmsbxWN5UmiOMsg", "alias": "thai-town-hamburg", "name": "Thai Town", "image_url": "https://s3-media1.fl.yelpcdn.com/bphoto/UTWWDSq_qKiurtPGp57-TQ/o.jpg", "is_closed": false, "url": "https://www.yelp.com/biz/thai-town-hamburg?adjust_creative=hBJOknVQJ58S5goQyjmwRw&utm_campaign=yelp_api_v3&utm_medium=api_v3_business_search&utm_source=hBJOknVQJ58S5goQyjmwRw", "review_count": 25, "categories": [{"alias": "thai", "title": "Thai"}], "rating": 3.5, "coordinates": {"latitude": 53.5489880799467, "longitude": 9.96529265373158}, "transactions": [], "price": "\u20ac\u20ac\u20ac", "location": {"address1": "Taubenstr. 23", "address2": "", "address3": "", "city": "Hamburg", "zip_code": "20359", "country": "DE", "state": "HH", "display_address": ["Taubenstr. 23", "20359 Hamburg", "Germany"]}, "phone": "+494064886749", "display_phone": "+49 40 64886749", "distance": 777.9798115288282}, {"id": "naT5l8grMOvozCHL47-teg", "alias": "mi-barrio-hamburg-3", "name": "Mi Barrio", "image_url": "https://s3-media3.fl.yelpcdn.com/bphoto/c0lEG6hOel7a00UVVovV_w/o.jpg", "is_closed": false, "url": "https://www.yelp.com/biz/mi-barrio-hamburg-3?adjust_creative=hBJOknVQJ58S5goQyjmwRw&utm_campaign=yelp_api_v3&utm_medium=api_v3_business_search&utm_source=hBJOknVQJ58S5goQyjmwRw", "review_count": 2, "categories": [{"alias": "latin", "title": "Latin American"}, {"alias": "cocktailbars", "title": "Cocktail Bars"}], "rating": 3.5, "coordinates": {"latitude": 53.5495925616265, "longitude": 9.95776366442442}, "transactions": [], "location": {"address1": "Reeperbahn 153", "address2": "", "address3": null, "city": "Hamburg", "zip_code": "20359", "country": "DE", "state": "HH", "display_address": ["Reeperbahn 153", "20359 Hamburg", "Germany"]}, "phone": "+494052590670", "display_phone": "+49 40 52590670", "distance": 796.852763070113}, {"id": "xvOjD_cdVLmMPaoqqh6wfw", "alias": "kraweel-hamburg", "name": "kraweel", "image_url": "https://s3-media2.fl.yelpcdn.com/bphoto/-OORKHrIYmOD6WelkzqgvA/o.jpg", "is_closed": false, "url": "https://www.yelp.com/biz/kraweel-hamburg?adjust_creative=hBJOknVQJ58S5goQyjmwRw&utm_campaign=yelp_api_v3&utm_medium=api_v3_business_search&utm_source=hBJOknVQJ58S5goQyjmwRw", "review_count": 22, "categories": [{"alias": "cafes", "title": "Cafes"}], "rating": 3.5, "coordinates": {"latitude": 53.5529, "longitude": 9.96017}, "transactions": [], "price": "\u20ac\u20ac", "location": {"address1": "Paul-Roosen-Str. 6", "address2": "", "address3": "", "city": "Hamburg", "zip_code": "22767", "country": "DE", "state": "HH", "display_address": ["Paul-Roosen-Str. 6", "22767 Hamburg", "Germany"]}, "phone": "+494028468062", "display_phone": "+49 40 28468062", "distance": 1153.5227129790153}, {"id": "bwp_MblDuyvpGDxMztwn1Q", "alias": "steakhaus-alt-hamburg-hamburg", "name": "Steakhaus \"Alt Hamburg\"", "image_url": "https://s3-media3.fl.yelpcdn.com/bphoto/wUV5zQe5WACmuhu3HL5PSQ/o.jpg", "is_closed": false, "url": "https://www.yelp.com/biz/steakhaus-alt-hamburg-hamburg?adjust_creative=hBJOknVQJ58S5goQyjmwRw&utm_campaign=yelp_api_v3&utm_medium=api_v3_business_search&utm_source=hBJOknVQJ58S5goQyjmwRw", "review_count": 37, "categories": [{"alias": "steak", "title": "Steakhouses"}], "rating": 3.5, "coordinates": {"latitude": 53.54872, "longitude": 9.96057}, "transactions": [], "price": "\u20ac\u20ac", "location": {"address1": "Hans-Albers-Platz 5 - 6", "address2": "", "address3": "", "city": "Hamburg", "zip_code": "20359", "country": "DE", "state": "HH", "display_address": ["Hans-Albers-Platz 5 - 6", "20359 Hamburg", "Germany"]}, "phone": "+494031796470", "display_phone": "+49 40 31796470", "distance": 665.9766287346969}, {"id": "YQ6SnDTL8IkEeNGHIwOphA", "alias": "restaurant-waterkant-hamburg-2", "name": "Restaurant Waterkant", "image_url": "", "is_closed": false, "url": "https://www.yelp.com/biz/restaurant-waterkant-hamburg-2?adjust_creative=hBJOknVQJ58S5goQyjmwRw&utm_campaign=yelp_api_v3&utm_medium=api_v3_business_search&utm_source=hBJOknVQJ58S5goQyjmwRw", "review_count": 2, "categories": [{"alias": "seafood", "title": "Seafood"}], "rating": 4.5, "coordinates": {"latitude": 53.54719, "longitude": 9.96344}, "transactions": [], "location": {"address1": "Bernhard-Nocht-Str. 97", "address2": "", "address3": null, "city": "Hamburg", "zip_code": "20359", "country": "DE", "state": "HH", "display_address": ["Bernhard-Nocht-Str. 97", "20359 Hamburg", "Germany"]}, "phone": "+49403111970480", "display_phone": "+49 40 3111970480", "distance": 548.2584784479996}, {"id": "SycZ74y8YYNym1BtPd80yg", "alias": "dat-backhus-hamburg-35", "name": "Dat Backhus", "image_url": "https://s3-media4.fl.yelpcdn.com/bphoto/h_75lqIPnqpJUYlF6mPoug/o.jpg", "is_closed": false, "url": "https://www.yelp.com/biz/dat-backhus-hamburg-35?adjust_creative=hBJOknVQJ58S5goQyjmwRw&utm_campaign=yelp_api_v3&utm_medium=api_v3_business_search&utm_source=hBJOknVQJ58S5goQyjmwRw", "review_count": 8, "categories": [{"alias": "bakeries", "title": "Bakeries"}, {"alias": "cafes", "title": "Cafes"}], "rating": 3.5, "coordinates": {"latitude": 53.5480804, "longitude": 9.96628}, "transactions": [], "price": "\u20ac\u20ac\u20ac", "location": {"address1": "Hopfenstr. 5", "address2": "", "address3": "", "city": "Hamburg", "zip_code": "20359", "country": "DE", "state": "HH", "display_address": ["Hopfenstr. 5", "20359 Hamburg", "Germany"]}, "phone": "+494031765770", "display_phone": "+49 40 31765770", "distance": 665.0474596888087}, {"id": "nU3p_FCd603DxK93FwXXaw", "alias": "steak-fish-und-schnitzel-house-hamburg-2", "name": "Steak, Fish & Schnitzel House", "image_url": "https://s3-media1.fl.yelpcdn.com/bphoto/IsnfXEI7s0413CEAj1lTRg/o.jpg", "is_closed": false, "url": "https://www.yelp.com/biz/steak-fish-und-schnitzel-house-hamburg-2?adjust_creative=hBJOknVQJ58S5goQyjmwRw&utm_campaign=yelp_api_v3&utm_medium=api_v3_business_search&utm_source=hBJOknVQJ58S5goQyjmwRw", "review_count": 40, "categories": [{"alias": "seafood", "title": "Seafood"}, {"alias": "steak", "title": "Steakhouses"}], "rating": 2.0, "coordinates": {"latitude": 53.5453, "longitude": 9.96567}, "transactions": [], "price": "\u20ac\u20ac", "location": {"address1": "Br\u00fccke 7", "address2": "", "address3": null, "city": "Hamburg", "zip_code": "20359", "country": "DE", "state": "HH", "display_address": ["Br\u00fccke 7", "20359 Hamburg", "Germany"]}, "phone": "+494031182283", "display_phone": "+49 40 31182283", "distance": 456.16798286704324}, {"id": "fOOZj3ssdTmq0_POXwszQw", "alias": "d\u00f6ner-welt-hamburg", "name": "D\u00f6ner Welt", "image_url": "https://s3-media1.fl.yelpcdn.com/bphoto/alTUV2BqaBZyIPO94-TtFw/o.jpg", "is_closed": false, "url": "https://www.yelp.com/biz/d%C3%B6ner-welt-hamburg?adjust_creative=hBJOknVQJ58S5goQyjmwRw&utm_campaign=yelp_api_v3&utm_medium=api_v3_business_search&utm_source=hBJOknVQJ58S5goQyjmwRw", "review_count": 2, "categories": [{"alias": "kebab", "title": "Kebab"}], "rating": 2.5, "coordinates": {"latitude": 53.54921, "longitude": 9.96106}, "transactions": [], "location": {"address1": "Reeperbahn 103", "address2": "", "address3": null, "city": "Hamburg", "zip_code": "20359", "country": "DE", "state": "HH", "display_address": ["Reeperbahn 103", "20359 Hamburg", "Germany"]}, "phone": "", "display_phone": "", "distance": 735.2028971786464}, {"id": "0FqajTwIzQVHltOdemdXSw", "alias": "st-pauli-nixe-hamburg", "name": "St.Pauli Nixe", "image_url": "https://s3-media2.fl.yelpcdn.com/bphoto/h_onEV-C6_drvJXm_z3aoA/o.jpg", "is_closed": false, "url": "https://www.yelp.com/biz/st-pauli-nixe-hamburg?adjust_creative=hBJOknVQJ58S5goQyjmwRw&utm_campaign=yelp_api_v3&utm_medium=api_v3_business_search&utm_source=hBJOknVQJ58S5goQyjmwRw", "review_count": 1, "categories": [{"alias": "cafes", "title": "Cafes"}, {"alias": "bistros", "title": "Bistros"}], "rating": 5.0, "coordinates": {"latitude": 53.54704, "longitude": 9.95753}, "transactions": [], "location": {"address1": "Antonistr. 4", "address2": null, "address3": "", "city": "Hamburg", "zip_code": "20359", "country": "DE", "state": "HH", "display_address": ["Antonistr. 4", "20359 Hamburg", "Germany"]}, "phone": "+4917695763600", "display_phone": "+49 176 95763600", "distance": 521.7902589056342}, {"id": "0g-jILvJuvz6RsI03eW8-g", "alias": "trattoria500-hamburg", "name": "Trattoria500", "image_url": "https://s3-media2.fl.yelpcdn.com/bphoto/ZY2C4K_ItSrCl-9OzkIRRw/o.jpg", "is_closed": false, "url": "https://www.yelp.com/biz/trattoria500-hamburg?adjust_creative=hBJOknVQJ58S5goQyjmwRw&utm_campaign=yelp_api_v3&utm_medium=api_v3_business_search&utm_source=hBJOknVQJ58S5goQyjmwRw", "review_count": 11, "categories": [{"alias": "italian", "title": "Italian"}], "rating": 3.5, "coordinates": {"latitude": 53.55297, "longitude": 9.95854}, "transactions": [], "price": "\u20ac\u20ac", "location": {"address1": "Paul-Roosen-Str. 19", "address2": "", "address3": "", "city": "Hamburg", "zip_code": "22767", "country": "DE", "state": "HH", "display_address": ["Paul-Roosen-Str. 19", "22767 Hamburg", "Germany"]}, "phone": "", "display_phone": "", "distance": 1156.32134850436}, {"id": "qTnVZ8PdLexwDKY9c97J-g", "alias": "fischkaj\u00fcte-hamburg", "name": "Fischkaj\u00fcte", "image_url": "https://s3-media3.fl.yelpcdn.com/bphoto/-FDAl023FFqG7XJMkYumIA/o.jpg", "is_closed": false, "url": "https://www.yelp.com/biz/fischkaj%C3%BCte-hamburg?adjust_creative=hBJOknVQJ58S5goQyjmwRw&utm_campaign=yelp_api_v3&utm_medium=api_v3_business_search&utm_source=hBJOknVQJ58S5goQyjmwRw", "review_count": 16, "categories": [{"alias": "seafood", "title": "Seafood"}], "rating": 3.0, "coordinates": {"latitude": 53.5458, "longitude": 9.96552}, "transactions": [], "price": "\u20ac\u20ac", "location": {"address1": "Bei den St. Pauli Landungsbr\u00fccken 5", "address2": null, "address3": null, "city": "Hamburg", "zip_code": "20359", "country": "DE", "state": "HH", "display_address": ["Bei den St. Pauli Landungsbr\u00fccken 5", "20359 Hamburg", "Germany"]}, "phone": "+4940314162", "display_phone": "+49 40 314162", "distance": 487.5883149205491}, {"id": "gQPwplZ9_IO43_qGJ5ePaQ", "alias": "trattoria-palermo-hamburg", "name": "Trattoria Palermo", "image_url": "https://s3-media2.fl.yelpcdn.com/bphoto/bWICmjdwyjRXu1BhpfSF3w/o.jpg", "is_closed": false, "url": "https://www.yelp.com/biz/trattoria-palermo-hamburg?adjust_creative=hBJOknVQJ58S5goQyjmwRw&utm_campaign=yelp_api_v3&utm_medium=api_v3_business_search&utm_source=hBJOknVQJ58S5goQyjmwRw", "review_count": 15, "categories": [{"alias": "italian", "title": "Italian"}], "rating": 3.0, "coordinates": {"latitude": 53.5506, "longitude": 9.96205}, "transactions": [], "price": "\u20ac\u20ac", "location": {"address1": "Hein-Hoyer-Str. 11", "address2": null, "address3": null, "city": "Hamburg", "zip_code": "20359", "country": "DE", "state": "HH", "display_address": ["Hein-Hoyer-Str. 11", "20359 Hamburg", "Germany"]}, "phone": "+494075664578", "display_phone": "+49 40 75664578", "distance": 894.8785828509599}, {"id": "PSmohPsBb_nOv0i4onAqVA", "alias": "quentins-hamburg", "name": "Quentin's", "image_url": "https://s3-media3.fl.yelpcdn.com/bphoto/XmYlfiLcUd-j0uvbGn0IKg/o.jpg", "is_closed": false, "url": "https://www.yelp.com/biz/quentins-hamburg?adjust_creative=hBJOknVQJ58S5goQyjmwRw&utm_campaign=yelp_api_v3&utm_medium=api_v3_business_search&utm_source=hBJOknVQJ58S5goQyjmwRw", "review_count": 24, "categories": [{"alias": "burgers", "title": "Burgers"}], "rating": 3.5, "coordinates": {"latitude": 53.5501916, "longitude": 9.9624543}, "transactions": [], "price": "\u20ac\u20ac", "location": {"address1": "Hein-Hoyer-Str. 10", "address2": "", "address3": "", "city": "Hamburg", "zip_code": "20359", "country": "DE", "state": "HH", "display_address": ["Hein-Hoyer-Str. 10", "20359 Hamburg", "Germany"]}, "phone": "+494033397320", "display_phone": "+49 40 33397320", "distance": 853.5094760663659}, {"id": "ec3C09p9N7NwOr8D8Bew7w", "alias": "hamburg-del-mar-hamburg", "name": "Hamburg del mar", "image_url": "https://s3-media1.fl.yelpcdn.com/bphoto/xZ5knZkWLyRV2wH6DV1P6A/o.jpg", "is_closed": false, "url": "https://www.yelp.com/biz/hamburg-del-mar-hamburg?adjust_creative=hBJOknVQJ58S5goQyjmwRw&utm_campaign=yelp_api_v3&utm_medium=api_v3_business_search&utm_source=hBJOknVQJ58S5goQyjmwRw", "review_count": 59, "categories": [{"alias": "beachbars", "title": "Beach Bars"}, {"alias": "musicvenues", "title": "Music Venues"}, {"alias": "german", "title": "German"}], "rating": 3.5, "coordinates": {"latitude": 53.5459548775232, "longitude": 9.964261315763}, "transactions": [], "price": "\u20ac\u20ac\u20ac", "location": {"address1": "Parkdeck", "address2": "", "address3": "", "city": "Hamburg", "zip_code": "20359", "country": "DE", "state": "HH", "display_address": ["Parkdeck", "20359 Hamburg", "Germany"]}, "phone": "", "display_phone": "", "distance": 448.9770553620176}, {"id": "fNQUaVfSraVTp0d7WQbazg", "alias": "sausalitos-hamburg-3", "name": "Sausalitos", "image_url": "https://s3-media1.fl.yelpcdn.com/bphoto/6fnNFMWYc-7ErQJXH2U4XQ/o.jpg", "is_closed": false, "url": "https://www.yelp.com/biz/sausalitos-hamburg-3?adjust_creative=hBJOknVQJ58S5goQyjmwRw&utm_campaign=yelp_api_v3&utm_medium=api_v3_business_search&utm_source=hBJOknVQJ58S5goQyjmwRw", "review_count": 14, "categories": [{"alias": "cocktailbars", "title": "Cocktail Bars"}, {"alias": "tex-mex", "title": "Tex-Mex"}, {"alias": "international", "title": "International"}], "rating": 3.0, "coordinates": {"latitude": 53.5501, "longitude": 9.96643}, "transactions": [], "price": "\u20ac\u20ac", "location": {"address1": "Reeperbahn 19 - 21", "address2": "", "address3": "", "city": "Hamburg", "zip_code": "20359", "country": "DE", "state": "HH", "display_address": ["Reeperbahn 19 - 21", "20359 Hamburg", "Germany"]}, "phone": "+494038019639", "display_phone": "+49 40 38019639", "distance": 924.6345552298966}, {"id": "xb_G5ujlEjt8vcIGAWEeUA", "alias": "st-pauli-nachtmarkt-hamburg", "name": "St. Pauli Nachtmarkt", "image_url": "https://s3-media1.fl.yelpcdn.com/bphoto/YpxmGeNhhR4qpe97zE-G0w/o.jpg", "is_closed": false, "url": "https://www.yelp.com/biz/st-pauli-nachtmarkt-hamburg?adjust_creative=hBJOknVQJ58S5goQyjmwRw&utm_campaign=yelp_api_v3&utm_medium=api_v3_business_search&utm_source=hBJOknVQJ58S5goQyjmwRw", "review_count": 21, "categories": [{"alias": "hotdogs", "title": "Fast Food"}], "rating": 4.0, "coordinates": {"latitude": 53.549565, "longitude": 9.965128}, "transactions": [], "price": "\u20ac\u20ac", "location": {"address1": "Spielbudenplatz 11", "address2": "", "address3": "", "city": "Hamburg", "zip_code": "20359", "country": "DE", "state": "HH", "display_address": ["Spielbudenplatz 11", "20359 Hamburg", "Germany"]}, "phone": "", "display_phone": "", "distance": 832.8044785472681}, {"id": "in1Xn96pluKXMkIsKT8EIA", "alias": "caf\u00e9-geyer-hamburg-2", "name": "Caf\u00e9 Geyer", "image_url": "https://s3-media4.fl.yelpcdn.com/bphoto/SRHSurcpAqpe944H1zdM6w/o.jpg", "is_closed": false, "url": "https://www.yelp.com/biz/caf%C3%A9-geyer-hamburg-2?adjust_creative=hBJOknVQJ58S5goQyjmwRw&utm_campaign=yelp_api_v3&utm_medium=api_v3_business_search&utm_source=hBJOknVQJ58S5goQyjmwRw", "review_count": 65, "categories": [{"alias": "cafes", "title": "Cafes"}], "rating": 3.5, "coordinates": {"latitude": 53.5475311859117, "longitude": 9.95730512938564}, "transactions": [], "price": "\u20ac\u20ac", "location": {"address1": "Hein-K\u00f6llisch-Platz 4", "address2": "", "address3": "", "city": "Hamburg", "zip_code": "20359", "country": "DE", "state": "HH", "display_address": ["Hein-K\u00f6llisch-Platz 4", "20359 Hamburg", "Germany"]}, "phone": "+494049204051", "display_phone": "+49 40 49204051", "distance": 585.8157207829662}, {"id": "Rw9A_fQgqgG1W6EUMxXlpQ", "alias": "hesburger-hamburg-3", "name": "Hesburger", "image_url": "https://s3-media4.fl.yelpcdn.com/bphoto/CoC4nsmzuW5imiFYU_lw9Q/o.jpg", "is_closed": false, "url": "https://www.yelp.com/biz/hesburger-hamburg-3?adjust_creative=hBJOknVQJ58S5goQyjmwRw&utm_campaign=yelp_api_v3&utm_medium=api_v3_business_search&utm_source=hBJOknVQJ58S5goQyjmwRw", "review_count": 58, "categories": [{"alias": "burgers", "title": "Burgers"}], "rating": 3.5, "coordinates": {"latitude": 53.5499269251956, "longitude": 9.96587298406143}, "transactions": [], "price": "\u20ac", "location": {"address1": "Reeperbahn 29", "address2": "", "address3": "", "city": "Hamburg", "zip_code": "20359", "country": "DE", "state": "HH", "display_address": ["Reeperbahn 29", "20359 Hamburg", "Germany"]}, "phone": "+494032862682", "display_phone": "+49 40 32862682", "distance": 888.947254284763}, {"id": "_kU7yUnC0evo9_lxPBq7Rg", "alias": "fahrrad-caf\u00e9-st-pauli-hamburg", "name": "Fahrrad-Caf\u00e9 St.Pauli", "image_url": "https://s3-media2.fl.yelpcdn.com/bphoto/KGJ81vVbFWBw7AaIhw0FCA/o.jpg", "is_closed": false, "url": "https://www.yelp.com/biz/fahrrad-caf%C3%A9-st-pauli-hamburg?adjust_creative=hBJOknVQJ58S5goQyjmwRw&utm_campaign=yelp_api_v3&utm_medium=api_v3_business_search&utm_source=hBJOknVQJ58S5goQyjmwRw", "review_count": 2, "categories": [{"alias": "bike_repair_maintenance", "title": "Bike Repair/Maintenance"}, {"alias": "cafes", "title": "Cafes"}], "rating": 3.0, "coordinates": {"latitude": 53.550886920862, "longitude": 9.96506664901972}, "transactions": [], "location": {"address1": "Detlev-Bremer-Str. 37", "address2": "", "address3": null, "city": "Hamburg", "zip_code": "20359", "country": "DE", "state": "HH", "display_address": ["Detlev-Bremer-Str. 37", "20359 Hamburg", "Germany"]}, "phone": "+494060783805", "display_phone": "+49 40 60783805", "distance": 969.5927904716502}, {"id": "xcSuEyYB-4QhMI86sGZa0A", "alias": "osteria-del-prete-hamburg", "name": "Osteria del Prete", "image_url": "https://s3-media4.fl.yelpcdn.com/bphoto/YhmPdHznTdxVdI2PgTSHqQ/o.jpg", "is_closed": false, "url": "https://www.yelp.com/biz/osteria-del-prete-hamburg?adjust_creative=hBJOknVQJ58S5goQyjmwRw&utm_campaign=yelp_api_v3&utm_medium=api_v3_business_search&utm_source=hBJOknVQJ58S5goQyjmwRw", "review_count": 2, "categories": [{"alias": "italian", "title": "Italian"}], "rating": 4.0, "coordinates": {"latitude": 53.54761, "longitude": 9.95671}, "transactions": [], "price": "\u20ac\u20ac", "location": {"address1": "Hein-K\u00f6llisch-Platz 6", "address2": "", "address3": null, "city": "Hamburg", "zip_code": "20359", "country": "DE", "state": "HH", "display_address": ["Hein-K\u00f6llisch-Platz 6", "20359 Hamburg", "Germany"]}, "phone": "+4940312758", "display_phone": "+49 40 312758", "distance": 597.2932734491046}, {"id": "DuBAVOYQqdDd-471dK8ESQ", "alias": "burger-lounge-hamburg", "name": "Burger Lounge", "image_url": "https://s3-media3.fl.yelpcdn.com/bphoto/29bI5FN8BPslXfJ9JRl99Q/o.jpg", "is_closed": false, "url": "https://www.yelp.com/biz/burger-lounge-hamburg?adjust_creative=hBJOknVQJ58S5goQyjmwRw&utm_campaign=yelp_api_v3&utm_medium=api_v3_business_search&utm_source=hBJOknVQJ58S5goQyjmwRw", "review_count": 34, "categories": [{"alias": "tradamerican", "title": "American (Traditional)"}, {"alias": "hotdogs", "title": "Fast Food"}, {"alias": "burgers", "title": "Burgers"}], "rating": 3.5, "coordinates": {"latitude": 53.5531082, "longitude": 9.9542398}, "transactions": [], "price": "\u20ac\u20ac", "location": {"address1": "Holstenstr. 22", "address2": "", "address3": "", "city": "Hamburg", "zip_code": "22767", "country": "DE", "state": "HH", "display_address": ["Holstenstr. 22", "22767 Hamburg", "Germany"]}, "phone": "+4940858888", "display_phone": "+49 40 858888", "distance": 1237.369425655466}, {"id": "t6hWFIaFwuHb9B_E9-TqiA", "alias": "caf\u00e9-du-port-hamburg", "name": "Caf\u00e9 Du Port", "image_url": "https://s3-media4.fl.yelpcdn.com/bphoto/7RL5iQpZN_6yu-YVRhXE2A/o.jpg", "is_closed": false, "url": "https://www.yelp.com/biz/caf%C3%A9-du-port-hamburg?adjust_creative=hBJOknVQJ58S5goQyjmwRw&utm_campaign=yelp_api_v3&utm_medium=api_v3_business_search&utm_source=hBJOknVQJ58S5goQyjmwRw", "review_count": 3, "categories": [{"alias": "cafes", "title": "Cafes"}], "rating": 4.5, "coordinates": {"latitude": 53.55272, "longitude": 9.96303}, "transactions": [], "location": {"address1": "Hein-Hoyer-Str. 56", "address2": null, "address3": "", "city": "Hamburg", "zip_code": "20359", "country": "DE", "state": "HH", "display_address": ["Hein-Hoyer-Str. 56", "20359 Hamburg", "Germany"]}, "phone": "+4915773327375", "display_phone": "+49 1577 3327375", "distance": 1133.1799784278355}, {"id": "NE426WjRsgxLqyBXdzaKFA", "alias": "salt-und-silver-zentrale-hamburg-2", "name": "Salt & Silver Zentrale", "image_url": "https://s3-media1.fl.yelpcdn.com/bphoto/CWmysmPw6SxOFwXxZvSbYA/o.jpg", "is_closed": false, "url": "https://www.yelp.com/biz/salt-und-silver-zentrale-hamburg-2?adjust_creative=hBJOknVQJ58S5goQyjmwRw&utm_campaign=yelp_api_v3&utm_medium=api_v3_business_search&utm_source=hBJOknVQJ58S5goQyjmwRw", "review_count": 9, "categories": [{"alias": "latin", "title": "Latin American"}, {"alias": "bars", "title": "Bars"}], "rating": 3.0, "coordinates": {"latitude": 53.5464975, "longitude": 9.9580789}, "transactions": [], "price": "\u20ac\u20ac\u20ac\u20ac", "location": {"address1": "St. Pauli Hafenstr. 136-140", "address2": "", "address3": null, "city": "Hamburg", "zip_code": "20359", "country": "DE", "state": "HH", "display_address": ["St. Pauli Hafenstr. 136-140", "20359 Hamburg", "Germany"]}, "phone": "+491734274366", "display_phone": "+49 173 4274366", "distance": 460.2581112176152}, {"id": "npDP8MyV5xwt4QQ-AhiqQg", "alias": "roosen-hamburg-3", "name": "Roosen", "image_url": "https://s3-media1.fl.yelpcdn.com/bphoto/VaD0jkERQNcJyRWDyVjcnA/o.jpg", "is_closed": false, "url": "https://www.yelp.com/biz/roosen-hamburg-3?adjust_creative=hBJOknVQJ58S5goQyjmwRw&utm_campaign=yelp_api_v3&utm_medium=api_v3_business_search&utm_source=hBJOknVQJ58S5goQyjmwRw", "review_count": 44, "categories": [{"alias": "bars", "title": "Bars"}, {"alias": "cafes", "title": "Cafes"}], "rating": 4.0, "coordinates": {"latitude": 53.5533, "longitude": 9.95769}, "transactions": [], "price": "\u20ac\u20ac", "location": {"address1": "Paul-Roosen-Str. 28", "address2": "", "address3": "", "city": "Hamburg", "zip_code": "22767", "country": "DE", "state": "HH", "display_address": ["Paul-Roosen-Str. 28", "22767 Hamburg", "Germany"]}, "phone": "+494076975926", "display_phone": "+49 40 76975926", "distance": 1206.498959826682}, {"id": "1kp3NQ7ZB4oXQWmp3LcmEA", "alias": "susis-laubfrosch-hamburg", "name": "Susi's Laubfrosch", "image_url": "https://s3-media1.fl.yelpcdn.com/bphoto/Zs4PtEsedqMahixa3SgPEQ/o.jpg", "is_closed": false, "url": "https://www.yelp.com/biz/susis-laubfrosch-hamburg?adjust_creative=hBJOknVQJ58S5goQyjmwRw&utm_campaign=yelp_api_v3&utm_medium=api_v3_business_search&utm_source=hBJOknVQJ58S5goQyjmwRw", "review_count": 1, "categories": [{"alias": "restaurants", "title": "Restaurants"}], "rating": 4.0, "coordinates": {"latitude": 53.5485, "longitude": 9.9644}, "transactions": [], "location": {"address1": "Kastanienallee 23", "address2": null, "address3": null, "city": "Hamburg", "zip_code": "20359", "country": "DE", "state": "HH", "display_address": ["Kastanienallee 23", "20359 Hamburg", "Germany"]}, "phone": "+494031796874", "display_phone": "+49 40 31796874", "distance": 704.9912702314447}, {"id": "Eqq4qG5iCcVsBM3DEaEtUQ", "alias": "bei-teresa-hamburg", "name": "Bei Teresa", "image_url": "https://s3-media2.fl.yelpcdn.com/bphoto/AIKQJwz20gUyIXKjUyO2Ig/o.jpg", "is_closed": false, "url": "https://www.yelp.com/biz/bei-teresa-hamburg?adjust_creative=hBJOknVQJ58S5goQyjmwRw&utm_campaign=yelp_api_v3&utm_medium=api_v3_business_search&utm_source=hBJOknVQJ58S5goQyjmwRw", "review_count": 14, "categories": [{"alias": "german", "title": "German"}, {"alias": "polish", "title": "Polish"}, {"alias": "cocktailbars", "title": "Cocktail Bars"}], "rating": 3.5, "coordinates": {"latitude": 53.5494385, "longitude": 9.9579601}, "transactions": [], "price": "\u20ac\u20ac", "location": {"address1": "Reeperbahn 151", "address2": "", "address3": "", "city": "Hamburg", "zip_code": "20359", "country": "DE", "state": "HH", "display_address": ["Reeperbahn 151", "20359 Hamburg", "Germany"]}, "phone": "+49403193121", "display_phone": "+49 40 3193121", "distance": 780.2982063870955}, {"id": "Gx-3_5sSj8JfeIjVahJE4Q", "alias": "do-mundo-hamburg", "name": "Do Mundo", "image_url": "https://s3-media2.fl.yelpcdn.com/bphoto/lHUcBNjSjMN5joqYH_fC_g/o.jpg", "is_closed": false, "url": "https://www.yelp.com/biz/do-mundo-hamburg?adjust_creative=hBJOknVQJ58S5goQyjmwRw&utm_campaign=yelp_api_v3&utm_medium=api_v3_business_search&utm_source=hBJOknVQJ58S5goQyjmwRw", "review_count": 11, "categories": [{"alias": "cafes", "title": "Cafes"}, {"alias": "bars", "title": "Bars"}, {"alias": "international", "title": "International"}], "rating": 3.0, "coordinates": {"latitude": 53.5493, "longitude": 9.9601}, "transactions": [], "price": "\u20ac\u20ac", "location": {"address1": "Silbersackstr. 1 - 3", "address2": "", "address3": "", "city": "Hamburg", "zip_code": "20359", "country": "DE", "state": "HH", "display_address": ["Silbersackstr. 1 - 3", "20359 Hamburg", "Germany"]}, "phone": "+494031792235", "display_phone": "+49 40 31792235", "distance": 744.5246400954845}, {"id": "QC82Ptx_iXJI1sK3V3qbrA", "alias": "mini-monkeys-hamburg", "name": "Mini Monkeys", "image_url": "https://s3-media4.fl.yelpcdn.com/bphoto/B3WMdy-9BS8v6zAMXX0EJA/o.jpg", "is_closed": false, "url": "https://www.yelp.com/biz/mini-monkeys-hamburg?adjust_creative=hBJOknVQJ58S5goQyjmwRw&utm_campaign=yelp_api_v3&utm_medium=api_v3_business_search&utm_source=hBJOknVQJ58S5goQyjmwRw", "review_count": 1, "categories": [{"alias": "pizza", "title": "Pizza"}, {"alias": "foodstands", "title": "Food Stands"}], "rating": 5.0, "coordinates": {"latitude": 53.5475732, "longitude": 9.9612639}, "transactions": [], "location": {"address1": "Erichstr. 10", "address2": null, "address3": null, "city": "Hamburg", "zip_code": "20359", "country": "DE", "state": "HH", "display_address": ["Erichstr. 10", "20359 Hamburg", "Germany"]}, "phone": "+4915236347856", "display_phone": "+49 1523 6347856", "distance": 554.6768195857646}, {"id": "nOB1CvdmDcLSjy8Ii0fWnA", "alias": "phuket-hamburg-2", "name": "Phuket", "image_url": "https://s3-media4.fl.yelpcdn.com/bphoto/wtGZfvix9kPMPIoJERNqRw/o.jpg", "is_closed": false, "url": "https://www.yelp.com/biz/phuket-hamburg-2?adjust_creative=hBJOknVQJ58S5goQyjmwRw&utm_campaign=yelp_api_v3&utm_medium=api_v3_business_search&utm_source=hBJOknVQJ58S5goQyjmwRw", "review_count": 1, "categories": [{"alias": "thai", "title": "Thai"}], "rating": 2.0, "coordinates": {"latitude": 53.5495, "longitude": 9.96492}, "transactions": [], "location": {"address1": "Taubenstr. 23", "address2": null, "address3": null, "city": "Hamburg", "zip_code": "20359", "country": "DE", "state": "HH", "display_address": ["Taubenstr. 23", "20359 Hamburg", "Germany"]}, "phone": "+4940315854", "display_phone": "+49 40 315854", "distance": 821.0641225458714}, {"id": "28ie3uZIoWBVHTD0JG-LyQ", "alias": "kinder-eltern-treff-hamburg", "name": "Kinder-Eltern-Treff", "image_url": "https://s3-media2.fl.yelpcdn.com/bphoto/UT0h9MJBOWTcHb95l6hr_Q/o.jpg", "is_closed": false, "url": "https://www.yelp.com/biz/kinder-eltern-treff-hamburg?adjust_creative=hBJOknVQJ58S5goQyjmwRw&utm_campaign=yelp_api_v3&utm_medium=api_v3_business_search&utm_source=hBJOknVQJ58S5goQyjmwRw", "review_count": 1, "categories": [{"alias": "childcare", "title": "Child Care & Day Care"}, {"alias": "eltern_cafes", "title": "Parent Cafes"}], "rating": 4.0, "coordinates": {"latitude": 53.55196, "longitude": 9.96548}, "transactions": [], "location": {"address1": "Detlev-Bremer-Str. 13", "address2": "", "address3": "", "city": "Hamburg", "zip_code": "20359", "country": "DE", "state": "HH", "display_address": ["Detlev-Bremer-Str. 13", "20359 Hamburg", "Germany"]}, "phone": "+494054759066", "display_phone": "+49 40 54759066", "distance": 1093.186703801413}, {"id": "q5RSuoJqRVe5hYRJLErdpQ", "alias": "safari-bierdorf-hamburg", "name": "Safari Bierdorf", "image_url": "https://s3-media4.fl.yelpcdn.com/bphoto/EHlrjeBM5tc9_RVD-uF3cA/o.jpg", "is_closed": false, "url": "https://www.yelp.com/biz/safari-bierdorf-hamburg?adjust_creative=hBJOknVQJ58S5goQyjmwRw&utm_campaign=yelp_api_v3&utm_medium=api_v3_business_search&utm_source=hBJOknVQJ58S5goQyjmwRw", "review_count": 5, "categories": [{"alias": "beerhall", "title": "Beer Hall"}, {"alias": "bars", "title": "Bars"}, {"alias": "danceclubs", "title": "Dance Clubs"}], "rating": 3.5, "coordinates": {"latitude": 53.55079, "longitude": 9.95778}, "transactions": [], "price": "\u20ac\u20ac\u20ac", "location": {"address1": "Gro\u00dfe Freiheit 24 - 28", "address2": "", "address3": "", "city": "Hamburg", "zip_code": "22767", "country": "DE", "state": "HH", "display_address": ["Gro\u00dfe Freiheit 24 - 28", "22767 Hamburg", "Germany"]}, "phone": "+494031796988", "display_phone": "+49 40 31796988", "distance": 929.3540258014341}, {"id": "rxRg_-fwy2sYjC_yGUnCsQ", "alias": "joker-hamburg", "name": "Joker", "image_url": "https://s3-media2.fl.yelpcdn.com/bphoto/AlRmZViJUBrolx4YzNmkwQ/o.jpg", "is_closed": false, "url": "https://www.yelp.com/biz/joker-hamburg?adjust_creative=hBJOknVQJ58S5goQyjmwRw&utm_campaign=yelp_api_v3&utm_medium=api_v3_business_search&utm_source=hBJOknVQJ58S5goQyjmwRw", "review_count": 31, "categories": [{"alias": "german", "title": "German"}], "rating": 3.5, "coordinates": {"latitude": 53.54945, "longitude": 9.9577}, "transactions": [], "price": "\u20ac\u20ac", "location": {"address1": "Reeperbahn 153", "address2": null, "address3": null, "city": "Hamburg", "zip_code": "20359", "country": "DE", "state": "HH", "display_address": ["Reeperbahn 153", "20359 Hamburg", "Germany"]}, "phone": "+49403174807", "display_phone": "+49 40 3174807", "distance": 782.4640959059309}, {"id": "Pwo7Wq4hXSFhjewKWhOIow", "alias": "back-factory-hamburg-3", "name": "Back-Factory", "image_url": "https://s3-media3.fl.yelpcdn.com/bphoto/PYZVgnhvulkX0yVeZoXZPQ/o.jpg", "is_closed": false, "url": "https://www.yelp.com/biz/back-factory-hamburg-3?adjust_creative=hBJOknVQJ58S5goQyjmwRw&utm_campaign=yelp_api_v3&utm_medium=api_v3_business_search&utm_source=hBJOknVQJ58S5goQyjmwRw", "review_count": 1, "categories": [{"alias": "bakeries", "title": "Bakeries"}, {"alias": "hotdogs", "title": "Fast Food"}], "rating": 4.0, "coordinates": {"latitude": 53.5497299, "longitude": 9.95852}, "transactions": [], "location": {"address1": "Reeperbahn 156", "address2": null, "address3": null, "city": "Hamburg", "zip_code": "20359", "country": "DE", "state": "HH", "display_address": ["Reeperbahn 156", "20359 Hamburg", "Germany"]}, "phone": "", "display_phone": "", "distance": 809.5677953924298}, {"id": "_EouZUtNINqDOppswn7o0w", "alias": "da-benito-hamburg", "name": "Da Benito", "image_url": "https://s3-media2.fl.yelpcdn.com/bphoto/gCAG0cTcyzRKWnwKRuTCew/o.jpg", "is_closed": false, "url": "https://www.yelp.com/biz/da-benito-hamburg?adjust_creative=hBJOknVQJ58S5goQyjmwRw&utm_campaign=yelp_api_v3&utm_medium=api_v3_business_search&utm_source=hBJOknVQJ58S5goQyjmwRw", "review_count": 30, "categories": [{"alias": "italian", "title": "Italian"}], "rating": 3.0, "coordinates": {"latitude": 53.55018, "longitude": 9.96491}, "transactions": [], "price": "\u20ac\u20ac", "location": {"address1": "Detlev-Bremer-Str. 49", "address2": null, "address3": null, "city": "Hamburg", "zip_code": "20359", "country": "DE", "state": "HH", "display_address": ["Detlev-Bremer-Str. 49", "20359 Hamburg", "Germany"]}, "phone": "+494031790650", "display_phone": "+49 40 31790650", "distance": 895.2199256726185}, {"id": "HrNCHIL1AJrpMBodEmkKEQ", "alias": "tazzi-pizza-hamburg", "name": "Tazzi Pizza", "image_url": "https://s3-media4.fl.yelpcdn.com/bphoto/M0jJ6a33_NNJ8qUdgFPhYw/o.jpg", "is_closed": false, "url": "https://www.yelp.com/biz/tazzi-pizza-hamburg?adjust_creative=hBJOknVQJ58S5goQyjmwRw&utm_campaign=yelp_api_v3&utm_medium=api_v3_business_search&utm_source=hBJOknVQJ58S5goQyjmwRw", "review_count": 1, "categories": [{"alias": "pizza", "title": "Pizza"}], "rating": 1.0, "coordinates": {"latitude": 53.5519637306486, "longitude": 9.96455535292625}, "transactions": [], "location": {"address1": "Rendsburger Str. 14", "address2": "", "address3": null, "city": "Hamburg", "zip_code": "20359", "country": "DE", "state": "HH", "display_address": ["Rendsburger Str. 14", "20359 Hamburg", "Germany"]}, "phone": "+494051906370", "display_phone": "+49 40 51906370", "distance": 1074.934426062851}, {"id": "eW8RkWna3-RdQCatHh3Y0A", "alias": "city-hotel-monopol-hamburg", "name": "City Hotel Monopol", "image_url": "https://s3-media2.fl.yelpcdn.com/bphoto/4sDxdrzlslau07li634DkQ/o.jpg", "is_closed": false, "url": "https://www.yelp.com/biz/city-hotel-monopol-hamburg?adjust_creative=hBJOknVQJ58S5goQyjmwRw&utm_campaign=yelp_api_v3&utm_medium=api_v3_business_search&utm_source=hBJOknVQJ58S5goQyjmwRw", "review_count": 18, "categories": [{"alias": "wine_bars", "title": "Wine Bars"}, {"alias": "german", "title": "German"}], "rating": 4.0, "coordinates": {"latitude": 53.54989, "longitude": 9.96429}, "transactions": [], "price": "\u20ac\u20ac", "location": {"address1": "Reeperbahn 48 - 52", "address2": null, "address3": null, "city": "Hamburg", "zip_code": "20359", "country": "DE", "state": "HH", "display_address": ["Reeperbahn 48 - 52", "20359 Hamburg", "Germany"]}, "phone": "+4940311770", "display_phone": "+49 40 311770", "distance": 847.6385982915692}, {"id": "rfOo0FS8ALHgPhXsQi1ovQ", "alias": "pantry-hamburg-2", "name": "Pantry", "image_url": "https://s3-media1.fl.yelpcdn.com/bphoto/TjJZ-4Mo0BpOLLWBUXpK1A/o.jpg", "is_closed": false, "url": "https://www.yelp.com/biz/pantry-hamburg-2?adjust_creative=hBJOknVQJ58S5goQyjmwRw&utm_campaign=yelp_api_v3&utm_medium=api_v3_business_search&utm_source=hBJOknVQJ58S5goQyjmwRw", "review_count": 8, "categories": [{"alias": "german", "title": "German"}, {"alias": "seafood", "title": "Seafood"}], "rating": 3.0, "coordinates": {"latitude": 53.546015, "longitude": 9.963447}, "transactions": [], "price": "\u20ac\u20ac", "location": {"address1": "Bei den St. Pauli-Landungbr\u00fccken 9", "address2": null, "address3": null, "city": "Hamburg", "zip_code": "20359", "country": "DE", "state": "HH", "display_address": ["Bei den St. Pauli-Landungbr\u00fccken 9", "20359 Hamburg", "Germany"]}, "phone": "+4940313227", "display_phone": "+49 40 313227", "distance": 427.1698722253455}, {"id": "MEket8mffqHK0xP4eDQigQ", "alias": "asia-quick-hamburg-2", "name": "Asia-Quick", "image_url": "https://s3-media2.fl.yelpcdn.com/bphoto/Kz0T-VpAsDt1zSa3w7q54A/o.jpg", "is_closed": false, "url": "https://www.yelp.com/biz/asia-quick-hamburg-2?adjust_creative=hBJOknVQJ58S5goQyjmwRw&utm_campaign=yelp_api_v3&utm_medium=api_v3_business_search&utm_source=hBJOknVQJ58S5goQyjmwRw", "review_count": 28, "categories": [{"alias": "panasian", "title": "Pan Asian"}], "rating": 3.0, "coordinates": {"latitude": 53.54984, "longitude": 9.96026}, "transactions": [], "price": "\u20ac\u20ac", "location": {"address1": "Talstr. 2", "address2": "", "address3": "", "city": "Hamburg", "zip_code": "20359", "country": "DE", "state": "HH", "display_address": ["Talstr. 2", "20359 Hamburg", "Germany"]}, "phone": "+494025413770", "display_phone": "+49 40 25413770", "distance": 802.0434595155749}, {"id": "VVxohyVQaP3geSIkKZ4nQQ", "alias": "mcdonalds-hamburg-6", "name": "McDonald's", "image_url": "https://s3-media1.fl.yelpcdn.com/bphoto/IFPBaPyAhHPvMeqmF5hNtA/o.jpg", "is_closed": false, "url": "https://www.yelp.com/biz/mcdonalds-hamburg-6?adjust_creative=hBJOknVQJ58S5goQyjmwRw&utm_campaign=yelp_api_v3&utm_medium=api_v3_business_search&utm_source=hBJOknVQJ58S5goQyjmwRw", "review_count": 30, "categories": [{"alias": "hotdogs", "title": "Fast Food"}, {"alias": "burgers", "title": "Burgers"}], "rating": 2.5, "coordinates": {"latitude": 53.5497943740519, "longitude": 9.96354411844445}, "transactions": [], "price": "\u20ac\u20ac", "location": {"address1": "Reeperbahn 59", "address2": null, "address3": null, "city": "Hamburg", "zip_code": "20359", "country": "DE", "state": "HH", "display_address": ["Reeperbahn 59", "20359 Hamburg", "Germany"]}, "phone": "+494030093735", "display_phone": "+49 40 30093735", "distance": 824.6741898233745}, {"id": "rohJIKjvlomtQD43opGl9A", "alias": "kfc-hamburg-11", "name": "KFC", "image_url": "https://s3-media2.fl.yelpcdn.com/bphoto/TngTxXLlt7bSNlVnRG9Zww/o.jpg", "is_closed": false, "url": "https://www.yelp.com/biz/kfc-hamburg-11?adjust_creative=hBJOknVQJ58S5goQyjmwRw&utm_campaign=yelp_api_v3&utm_medium=api_v3_business_search&utm_source=hBJOknVQJ58S5goQyjmwRw", "review_count": 21, "categories": [{"alias": "hotdogs", "title": "Fast Food"}, {"alias": "chicken_wings", "title": "Chicken Wings"}, {"alias": "chickenshop", "title": "Chicken Shop"}], "rating": 2.5, "coordinates": {"latitude": 53.54974, "longitude": 9.96111}, "transactions": [], "price": "\u20ac\u20ac\u20ac", "location": {"address1": "Reeperbahn 100", "address2": null, "address3": null, "city": "Hamburg", "zip_code": "20359", "country": "DE", "state": "HH", "display_address": ["Reeperbahn 100", "20359 Hamburg", "Germany"]}, "phone": "+494031761104", "display_phone": "+49 40 31761104", "distance": 796.987616167578}, {"id": "Fks0j7dotDeOEqY9MHoTNg", "alias": "d\u00f6ner-freiheit-hamburg", "name": "D\u00f6ner Freiheit", "image_url": "https://s3-media2.fl.yelpcdn.com/bphoto/mh26y0zywFDlndgfDMNF7w/o.jpg", "is_closed": false, "url": "https://www.yelp.com/biz/d%C3%B6ner-freiheit-hamburg?adjust_creative=hBJOknVQJ58S5goQyjmwRw&utm_campaign=yelp_api_v3&utm_medium=api_v3_business_search&utm_source=hBJOknVQJ58S5goQyjmwRw", "review_count": 7, "categories": [{"alias": "hotdogs", "title": "Fast Food"}, {"alias": "kebab", "title": "Kebab"}], "rating": 3.5, "coordinates": {"latitude": 53.5505799, "longitude": 9.95747}, "transactions": [], "price": "\u20ac\u20ac", "location": {"address1": "Gro\u00dfe Freiheit 15", "address2": "", "address3": "", "city": "Hamburg", "zip_code": "22767", "country": "DE", "state": "HH", "display_address": ["Gro\u00dfe Freiheit 15", "22767 Hamburg", "Germany"]}, "phone": "+494074200214", "display_phone": "+49 40 74200214", "distance": 907.3942660115299}, {"id": "eHPpyhAt8lilv93Iouvjfg", "alias": "tian-fu-hamburg", "name": "Tian Fu", "image_url": "https://s3-media2.fl.yelpcdn.com/bphoto/J0AWQRKrY7GTPJhAj53U5Q/o.jpg", "is_closed": false, "url": "https://www.yelp.com/biz/tian-fu-hamburg?adjust_creative=hBJOknVQJ58S5goQyjmwRw&utm_campaign=yelp_api_v3&utm_medium=api_v3_business_search&utm_source=hBJOknVQJ58S5goQyjmwRw", "review_count": 14, "categories": [{"alias": "chinese", "title": "Chinese"}], "rating": 3.5, "coordinates": {"latitude": 53.54997, "longitude": 9.96213}, "transactions": [], "price": "\u20ac", "location": {"address1": "Hein-Hoyer-Str. 3", "address2": null, "address3": null, "city": "Hamburg", "zip_code": "20359", "country": "DE", "state": "HH", "display_address": ["Hein-Hoyer-Str. 3", "20359 Hamburg", "Germany"]}, "phone": "+494031181886", "display_phone": "+49 40 31181886", "distance": 823.5132130736472}, {"id": "mmitz4-CifuyX6m9NI9Ftg", "alias": "feinkost-schnalke-hamburg", "name": "Feinkost Schnalke", "image_url": "https://s3-media1.fl.yelpcdn.com/bphoto/fi1vvE0bAGAdEysrZmFNPw/o.jpg", "is_closed": false, "url": "https://www.yelp.com/biz/feinkost-schnalke-hamburg?adjust_creative=hBJOknVQJ58S5goQyjmwRw&utm_campaign=yelp_api_v3&utm_medium=api_v3_business_search&utm_source=hBJOknVQJ58S5goQyjmwRw", "review_count": 5, "categories": [{"alias": "delis", "title": "Delis"}, {"alias": "catering", "title": "Caterers"}], "rating": 4.0, "coordinates": {"latitude": 53.55223, "longitude": 9.96364}, "transactions": [], "price": "\u20ac\u20ac", "location": {"address1": "Clemens-Schultz-Str. 31", "address2": null, "address3": null, "city": "Hamburg", "zip_code": "20359", "country": "DE", "state": "HH", "display_address": ["Clemens-Schultz-Str. 31", "20359 Hamburg", "Germany"]}, "phone": "+4940317772x0", "display_phone": "+49 40 317772 ext. 0", "distance": 1087.7183986735736}, {"id": "ZMY-e_2KpF9PyKP6ebjUHA", "alias": "steak-und-fish-house-hamburg", "name": "Steak & Fish House", "image_url": "https://s3-media1.fl.yelpcdn.com/bphoto/nUCFrTTQbBXM42g0CUod8g/o.jpg", "is_closed": false, "url": "https://www.yelp.com/biz/steak-und-fish-house-hamburg?adjust_creative=hBJOknVQJ58S5goQyjmwRw&utm_campaign=yelp_api_v3&utm_medium=api_v3_business_search&utm_source=hBJOknVQJ58S5goQyjmwRw", "review_count": 39, "categories": [{"alias": "steak", "title": "Steakhouses"}], "rating": 2.0, "coordinates": {"latitude": 53.5499611, "longitude": 9.9649897}, "transactions": [], "price": "\u20ac\u20ac\u20ac", "location": {"address1": "Reeperbahn 42", "address2": "", "address3": "", "city": "Hamburg", "zip_code": "20359", "country": "DE", "state": "HH", "display_address": ["Reeperbahn 42", "20359 Hamburg", "Germany"]}, "phone": "+49403193743", "display_phone": "+49 40 3193743", "distance": 873.4369412026168}, {"id": "2T1aKnn-Z7vJ7th6TKcenw", "alias": "imbiss-hei\u00dfe-ecke-hamburg", "name": "Imbiss Hei\u00dfe Ecke", "image_url": "https://s3-media2.fl.yelpcdn.com/bphoto/GYMUcQWHH0mgyOTSHIn6gw/o.jpg", "is_closed": false, "url": "https://www.yelp.com/biz/imbiss-hei%C3%9Fe-ecke-hamburg?adjust_creative=hBJOknVQJ58S5goQyjmwRw&utm_campaign=yelp_api_v3&utm_medium=api_v3_business_search&utm_source=hBJOknVQJ58S5goQyjmwRw", "review_count": 5, "categories": [{"alias": "currysausage", "title": "Curry Sausage"}], "rating": 3.0, "coordinates": {"latitude": 53.5493, "longitude": 9.96311}, "transactions": [], "price": "\u20ac\u20ac", "location": {"address1": "Spielbudenplatz 28", "address2": "", "address3": null, "city": "Hamburg", "zip_code": "20359", "country": "DE", "state": "HH", "display_address": ["Spielbudenplatz 28", "20359 Hamburg", "Germany"]}, "phone": "+49408550623224", "display_phone": "+49 40 8550623224", "distance": 764.4531161409864}, {"id": "C_tkQmZ8uoywWnAykWucsg", "alias": "medusa-hamburg-2", "name": "Medusa", "image_url": "https://s3-media1.fl.yelpcdn.com/bphoto/qCQYjOxGke118xifvjboTQ/o.jpg", "is_closed": false, "url": "https://www.yelp.com/biz/medusa-hamburg-2?adjust_creative=hBJOknVQJ58S5goQyjmwRw&utm_campaign=yelp_api_v3&utm_medium=api_v3_business_search&utm_source=hBJOknVQJ58S5goQyjmwRw", "review_count": 8, "categories": [{"alias": "italian", "title": "Italian"}], "rating": 3.0, "coordinates": {"latitude": 53.5494, "longitude": 9.96432}, "transactions": [], "price": "\u20ac\u20ac", "location": {"address1": "Spielbudenplatz 21", "address2": null, "address3": null, "city": "Hamburg", "zip_code": "20359", "country": "DE", "state": "HH", "display_address": ["Spielbudenplatz 21", "20359 Hamburg", "Germany"]}, "phone": "+4940313503", "display_phone": "+49 40 313503", "distance": 797.1443359502155}, {"id": "48KaIem5CZNQ1vI8RreFwg", "alias": "pizza-hut-hamburg-12", "name": "Pizza Hut", "image_url": "https://s3-media4.fl.yelpcdn.com/bphoto/anIS2S9e2EV18dX_mzMjJg/o.jpg", "is_closed": false, "url": "https://www.yelp.com/biz/pizza-hut-hamburg-12?adjust_creative=hBJOknVQJ58S5goQyjmwRw&utm_campaign=yelp_api_v3&utm_medium=api_v3_business_search&utm_source=hBJOknVQJ58S5goQyjmwRw", "review_count": 9, "categories": [{"alias": "pizza", "title": "Pizza"}, {"alias": "hotdogs", "title": "Fast Food"}], "rating": 2.0, "coordinates": {"latitude": 53.54969, "longitude": 9.95947}, "transactions": [], "price": "\u20ac", "location": {"address1": "Reeperbahn 136", "address2": null, "address3": null, "city": "Hamburg", "zip_code": "20359", "country": "DE", "state": "HH", "display_address": ["Reeperbahn 136", "20359 Hamburg", "Germany"]}, "phone": "+494041921999", "display_phone": "+49 40 41921999", "distance": 796.8193966597916}, {"id": "S_u0CcjFYtWDn22PySPc4Q", "alias": "d\u00f6ner-company-hamburg", "name": "D\u00f6ner Company", "image_url": "https://s3-media1.fl.yelpcdn.com/bphoto/q0NrFHmySDNjx4sgUGuj1g/o.jpg", "is_closed": false, "url": "https://www.yelp.com/biz/d%C3%B6ner-company-hamburg?adjust_creative=hBJOknVQJ58S5goQyjmwRw&utm_campaign=yelp_api_v3&utm_medium=api_v3_business_search&utm_source=hBJOknVQJ58S5goQyjmwRw", "review_count": 15, "categories": [{"alias": "kebab", "title": "Kebab"}], "rating": 2.5, "coordinates": {"latitude": 53.5492, "longitude": 9.96192}, "transactions": [], "price": "\u20ac\u20ac", "location": {"address1": "Reeperbahn 83", "address2": null, "address3": null, "city": "Hamburg", "zip_code": "20359", "country": "DE", "state": "HH", "display_address": ["Reeperbahn 83", "20359 Hamburg", "Germany"]}, "phone": "+494031108028", "display_phone": "+49 40 31108028", "distance": 739.3377948437716}, {"id": "vve-7usll5e6jgpQAjWIFQ", "alias": "mardin-d\u00f6ner-hamburg", "name": "Mardin D\u00f6ner", "image_url": "", "is_closed": false, "url": "https://www.yelp.com/biz/mardin-d%C3%B6ner-hamburg?adjust_creative=hBJOknVQJ58S5goQyjmwRw&utm_campaign=yelp_api_v3&utm_medium=api_v3_business_search&utm_source=hBJOknVQJ58S5goQyjmwRw", "review_count": 1, "categories": [{"alias": "kebab", "title": "Kebab"}, {"alias": "hotdogs", "title": "Fast Food"}], "rating": 1.0, "coordinates": {"latitude": 53.5497299, "longitude": 9.96064}, "transactions": [], "location": {"address1": "Reeperbahn 110", "address2": "", "address3": null, "city": "Hamburg", "zip_code": "20359", "country": "DE", "state": "HH", "display_address": ["Reeperbahn 110", "20359 Hamburg", "Germany"]}, "phone": "", "display_phone": "", "distance": 795.093561794453}, {"id": "ZFHzPccrwtL2lIDEhMrXvw", "alias": "vespucci-hamburg", "name": "Vespucci", "image_url": "https://s3-media1.fl.yelpcdn.com/bphoto/BexN-bDQP4YJERvS57Mk6w/o.jpg", "is_closed": false, "url": "https://www.yelp.com/biz/vespucci-hamburg?adjust_creative=hBJOknVQJ58S5goQyjmwRw&utm_campaign=yelp_api_v3&utm_medium=api_v3_business_search&utm_source=hBJOknVQJ58S5goQyjmwRw", "review_count": 13, "categories": [{"alias": "italian", "title": "Italian"}, {"alias": "pizza", "title": "Pizza"}, {"alias": "cocktailbars", "title": "Cocktail Bars"}], "rating": 3.0, "coordinates": {"latitude": 53.5498, "longitude": 9.96023}, "transactions": [], "price": "\u20ac\u20ac", "location": {"address1": "Reeperbahn 116", "address2": null, "address3": null, "city": "Hamburg", "zip_code": "20359", "country": "DE", "state": "HH", "display_address": ["Reeperbahn 116", "20359 Hamburg", "Germany"]}, "phone": "+494022642745", "display_phone": "+49 40 22642745", "distance": 799.8858178535555}, {"id": "JhcNEv_AVXyozo41b9XllA", "alias": "holiday-d\u00f6ner-hamburg", "name": "Holiday D\u00f6ner", "image_url": "https://s3-media4.fl.yelpcdn.com/bphoto/i8la9rw64dvYJxD4kdW5RA/o.jpg", "is_closed": false, "url": "https://www.yelp.com/biz/holiday-d%C3%B6ner-hamburg?adjust_creative=hBJOknVQJ58S5goQyjmwRw&utm_campaign=yelp_api_v3&utm_medium=api_v3_business_search&utm_source=hBJOknVQJ58S5goQyjmwRw", "review_count": 3, "categories": [{"alias": "kebab", "title": "Kebab"}], "rating": 2.5, "coordinates": {"latitude": 53.5495, "longitude": 9.96032}, "transactions": [], "price": "\u20ac", "location": {"address1": "Reeperbahn 101", "address2": null, "address3": null, "city": "Hamburg", "zip_code": "20359", "country": "DE", "state": "HH", "display_address": ["Reeperbahn 101", "20359 Hamburg", "Germany"]}, "phone": "", "display_phone": "", "distance": 766.4385399280569}, {"id": "WZXuFxkcUiCSZppXa6SlZg", "alias": "rodizio-steak-house-hamburg", "name": "Rodizio Steak House", "image_url": "https://s3-media1.fl.yelpcdn.com/bphoto/xz0sy9GA70Tig9_8lIYnuQ/o.jpg", "is_closed": false, "url": "https://www.yelp.com/biz/rodizio-steak-house-hamburg?adjust_creative=hBJOknVQJ58S5goQyjmwRw&utm_campaign=yelp_api_v3&utm_medium=api_v3_business_search&utm_source=hBJOknVQJ58S5goQyjmwRw", "review_count": 5, "categories": [{"alias": "steak", "title": "Steakhouses"}], "rating": 1.5, "coordinates": {"latitude": 53.5486859, "longitude": 9.9605834}, "transactions": [], "price": "\u20ac\u20ac", "location": {"address1": "Hans-Albers-Platz 5 - 6", "address2": "", "address3": "", "city": "Hamburg", "zip_code": "20359", "country": "DE", "state": "HH", "display_address": ["Hans-Albers-Platz 5 - 6", "20359 Hamburg", "Germany"]}, "phone": "+494031796454", "display_phone": "+49 40 31796454", "distance": 675.907170303385}, {"id": "iahhFOS4Jv-ctkrPVNqbeA", "alias": "bayern-st\u00fcberl-hamburg", "name": "Bayern St\u00fcberl", "image_url": "https://s3-media2.fl.yelpcdn.com/bphoto/ibjrxRi-AyUgT48_cckImw/o.jpg", "is_closed": false, "url": "https://www.yelp.com/biz/bayern-st%C3%BCberl-hamburg?adjust_creative=hBJOknVQJ58S5goQyjmwRw&utm_campaign=yelp_api_v3&utm_medium=api_v3_business_search&utm_source=hBJOknVQJ58S5goQyjmwRw", "review_count": 1, "categories": [{"alias": "restaurants", "title": "Restaurants"}], "rating": 3.0, "coordinates": {"latitude": 53.5485, "longitude": 9.96208}, "transactions": [], "price": "\u20ac", "location": {"address1": "Friedrichstr. 5", "address2": null, "address3": null, "city": "Hamburg", "zip_code": "20359", "country": "DE", "state": "HH", "display_address": ["Friedrichstr. 5", "20359 Hamburg", "Germany"]}, "phone": "", "display_phone": "", "distance": 663.8655832286785}, {"id": "yFZ-QHNWE0pHlLAPdeuQkQ", "alias": "hesburger-hamburg", "name": "Hesburger", "image_url": "https://s3-media1.fl.yelpcdn.com/bphoto/ENkJMChx9kCJpR_uJjf36g/o.jpg", "is_closed": false, "url": "https://www.yelp.com/biz/hesburger-hamburg?adjust_creative=hBJOknVQJ58S5goQyjmwRw&utm_campaign=yelp_api_v3&utm_medium=api_v3_business_search&utm_source=hBJOknVQJ58S5goQyjmwRw", "review_count": 4, "categories": [{"alias": "hotdogs", "title": "Fast Food"}, {"alias": "burgers", "title": "Burgers"}], "rating": 2.5, "coordinates": {"latitude": 53.5484890453157, "longitude": 9.96053384788513}, "transactions": [], "price": "\u20ac", "location": {"address1": "Hans-Albers-Platz 3", "address2": "", "address3": "", "city": "Hamburg", "zip_code": "20359", "country": "DE", "state": "HH", "display_address": ["Hans-Albers-Platz 3", "20359 Hamburg", "Germany"]}, "phone": "+494031794648", "display_phone": "+49 40 31794648", "distance": 653.987177097172}, {"id": "ML3Ix4aV0Ed86FPBAAk-bw", "alias": "burger-king-hamburg-15", "name": "Burger King", "image_url": "https://s3-media3.fl.yelpcdn.com/bphoto/OudojMIkXnI9Tb2yFJJUuA/o.jpg", "is_closed": false, "url": "https://www.yelp.com/biz/burger-king-hamburg-15?adjust_creative=hBJOknVQJ58S5goQyjmwRw&utm_campaign=yelp_api_v3&utm_medium=api_v3_business_search&utm_source=hBJOknVQJ58S5goQyjmwRw", "review_count": 41, "categories": [{"alias": "hotdogs", "title": "Fast Food"}, {"alias": "burgers", "title": "Burgers"}], "rating": 2.5, "coordinates": {"latitude": 53.54918, "longitude": 9.96228}, "transactions": [], "price": "\u20ac\u20ac", "location": {"address1": "Reeperbahn 75", "address2": null, "address3": null, "city": "Hamburg", "zip_code": "20359", "country": "DE", "state": "HH", "display_address": ["Reeperbahn 75", "20359 Hamburg", "Germany"]}, "phone": "+49403171061", "display_phone": "+49 40 3171061", "distance": 719.8601930831742}, {"id": "y295DQUIn0K1AIshn3wCBg", "alias": "kiezzeria-hamburg", "name": "Kiezzeria", "image_url": "https://s3-media2.fl.yelpcdn.com/bphoto/E5n1RReZ3OKkJu0-KlWllw/o.jpg", "is_closed": false, "url": "https://www.yelp.com/biz/kiezzeria-hamburg?adjust_creative=hBJOknVQJ58S5goQyjmwRw&utm_campaign=yelp_api_v3&utm_medium=api_v3_business_search&utm_source=hBJOknVQJ58S5goQyjmwRw", "review_count": 2, "categories": [{"alias": "pizza", "title": "Pizza"}], "rating": 2.5, "coordinates": {"latitude": 53.5488403, "longitude": 9.9607657}, "transactions": [], "location": {"address1": "Hans-Albers-Platz 8", "address2": "", "address3": "", "city": "Hamburg", "zip_code": "20359", "country": "DE", "state": "HH", "display_address": ["Hans-Albers-Platz 8", "20359 Hamburg", "Germany"]}, "phone": "+4917640409237", "display_phone": "+49 176 40409237", "distance": 693.319995538207}, {"id": "UuCp9GnX6qegJkhhvqjRng", "alias": "galeria-36-hamburg", "name": "Galeria 36", "image_url": "https://s3-media3.fl.yelpcdn.com/bphoto/vyqJZEWLQeNQwTBt6bqWiw/o.jpg", "is_closed": false, "url": "https://www.yelp.com/biz/galeria-36-hamburg?adjust_creative=hBJOknVQJ58S5goQyjmwRw&utm_campaign=yelp_api_v3&utm_medium=api_v3_business_search&utm_source=hBJOknVQJ58S5goQyjmwRw", "review_count": 5, "categories": [{"alias": "cocktailbars", "title": "Cocktail Bars"}, {"alias": "cafes", "title": "Cafes"}], "rating": 3.5, "coordinates": {"latitude": 53.5512, "longitude": 9.95789}, "transactions": [], "price": "\u20ac\u20ac", "location": {"address1": "Gro\u00dfe Freiheit 36", "address2": "", "address3": "", "city": "Hamburg", "zip_code": "22767", "country": "DE", "state": "HH", "display_address": ["Gro\u00dfe Freiheit 36", "22767 Hamburg", "Germany"]}, "phone": "+49403177780", "display_phone": "+49 40 3177780", "distance": 968.3502068425123}, {"id": "eC3nBIziE0ebdtWGjpsL0Q", "alias": "dem-restaurant-hamburg-2", "name": "Dem Restaurant", "image_url": "", "is_closed": false, "url": "https://www.yelp.com/biz/dem-restaurant-hamburg-2?adjust_creative=hBJOknVQJ58S5goQyjmwRw&utm_campaign=yelp_api_v3&utm_medium=api_v3_business_search&utm_source=hBJOknVQJ58S5goQyjmwRw", "review_count": 1, "categories": [{"alias": "steak", "title": "Steakhouses"}], "rating": 1.0, "coordinates": {"latitude": 53.54996, "longitude": 9.96499}, "transactions": [], "location": {"address1": "Reeperbahn 42", "address2": "", "address3": null, "city": "Hamburg", "zip_code": "20359", "country": "DE", "state": "HH", "display_address": ["Reeperbahn 42", "20359 Hamburg", "Germany"]}, "phone": "+494031790050", "display_phone": "+49 40 31790050", "distance": 873.4369412026168}]