[{"id": "Da4McQKtPmbELC4kPb_2fQ", "alias": "goot-hamburg-3", "name": "Goot", "image_url": "https://s3-media2.fl.yelpcdn.com/bphoto/4UY2u9C3Q11vMFTMfY7dAg/o.jpg", "is_closed": false, "url": "https://www.yelp.com/biz/goot-hamburg-3?adjust_creative=hBJOknVQJ58S5goQyjmwRw&utm_campaign=yelp_api_v3&utm_medium=api_v3_business_search&utm_source=hBJOknVQJ58S5goQyjmwRw", "review_count": 44, "categories": [{"alias": "german", "title": "German"}], "rating": 4.5, "coordinates": {"latitude": 53.54849, "longitude": 10.00065}, "transactions": [], "price": "\u20ac", "location": {"address1": "Depenau 10", "address2": "", "address3": "", "city": "Hamburg", "zip_code": "20095", "country": "DE", "state": "HH", "display_address": ["Depenau 10", "20095 Hamburg", "Germany"]}, "phone": "+494067306171", "display_phone": "+49 40 67306171", "distance": 775.2437043641635}, {"id": "hyIIPFlLivFWI8p0F08MTw", "alias": "im-sprinkenhof-hamburg-2", "name": "Im Sprinkenhof", "image_url": "https://s3-media1.fl.yelpcdn.com/bphoto/rczF3CwKnX8nJKMEUUlNmQ/o.jpg", "is_closed": false, "url": "https://www.yelp.com/biz/im-sprinkenhof-hamburg-2?adjust_creative=hBJOknVQJ58S5goQyjmwRw&utm_campaign=yelp_api_v3&utm_medium=api_v3_business_search&utm_source=hBJOknVQJ58S5goQyjmwRw", "review_count": 75, "categories": [{"alias": "seafood", "title": "Seafood"}, {"alias": "german", "title": "German"}], "rating": 4.5, "coordinates": {"latitude": 53.5486099, "longitude": 10.00359}, "transactions": [], "price": "\u20ac\u20ac", "location": {"address1": "Burchardstr. 8", "address2": "", "address3": "", "city": "Hamburg", "zip_code": "20095", "country": "DE", "state": "HH", "display_address": ["Burchardstr. 8", "20095 Hamburg", "Germany"]}, "phone": "+4940335185", "display_phone": "+49 40 335185", "distance": 719.530289352031}, {"id": "Mht3cgKJjA_rrfxla8x6rA", "alias": "the-table-hamburg", "name": "The Table", "image_url": "https://s3-media2.fl.yelpcdn.com/bphoto/hEQnX6xYCz2buBeR53DDug/o.jpg", "is_closed": false, "url": "https://www.yelp.com/biz/the-table-hamburg?adjust_creative=hBJOknVQJ58S5goQyjmwRw&utm_campaign=yelp_api_v3&utm_medium=api_v3_business_search&utm_source=hBJOknVQJ58S5goQyjmwRw", "review_count": 12, "categories": [{"alias": "modern_european", "title": "Modern European"}], "rating": 5.0, "coordinates": {"latitude": 53.54261, "longitude": 10.00305}, "transactions": [], "price": "\u20ac\u20ac\u20ac\u20ac", "location": {"address1": "Shanghaiallee 15", "address2": "", "address3": "", "city": "Hamburg", "zip_code": "20457", "country": "DE", "state": "HH", "display_address": ["Shanghaiallee 15", "20457 Hamburg", "Germany"]}, "phone": "+494022867422", "display_phone": "+49 40 22867422", "distance": 174.20835343974505}, {"id": "L5uVUg2ZGF1-5155cG3EAw", "alias": "daruma-hamburg", "name": "Daruma", "image_url": "https://s3-media1.fl.yelpcdn.com/bphoto/F5X9BrlGi6dfi_362WboJw/o.jpg", "is_closed": false, "url": "https://www.yelp.com/biz/daruma-hamburg?adjust_creative=hBJOknVQJ58S5goQyjmwRw&utm_campaign=yelp_api_v3&utm_medium=api_v3_business_search&utm_source=hBJOknVQJ58S5goQyjmwRw", "review_count": 56, "categories": [{"alias": "japanese", "title": "Japanese"}], "rating": 4.0, "coordinates": {"latitude": 53.5456836, "longitude": 10.0078954}, "transactions": [], "price": "\u20ac\u20ac\u20ac", "location": {"address1": "Stadtdeich 1", "address2": "", "address3": null, "city": "Hamburg", "zip_code": "20097", "country": "DE", "state": "HH", "display_address": ["Stadtdeich 1", "20097 Hamburg", "Germany"]}, "phone": "+4940326632", "display_phone": "+49 40 326632", "distance": 408.9693256936951}, {"id": "xGvxRrHJH9DZ9YdzhqkcqA", "alias": "seoul-1988-hamburg-3", "name": "Seoul 1988", "image_url": "https://s3-media4.fl.yelpcdn.com/bphoto/X4gq0rQzYrq9VchvNT5Tlg/o.jpg", "is_closed": false, "url": "https://www.yelp.com/biz/seoul-1988-hamburg-3?adjust_creative=hBJOknVQJ58S5goQyjmwRw&utm_campaign=yelp_api_v3&utm_medium=api_v3_business_search&utm_source=hBJOknVQJ58S5goQyjmwRw", "review_count": 3, "categories": [{"alias": "korean", "title": "Korean"}], "rating": 5.0, "coordinates": {"latitude": 53.5483388001164, "longitude": 9.9999051913619}, "transactions": [], "location": {"address1": "Hopfensack 8", "address2": "", "address3": null, "city": "Hamburg", "zip_code": "20457", "country": "DE", "state": "HH", "display_address": ["Hopfensack 8", "20457 Hamburg", "Germany"]}, "phone": "+494060854820", "display_phone": "+49 40 60854820", "distance": 780.0329325892206}, {"id": "4VLWxrhA6vgAwHS27XtnEw", "alias": "sakura-udon-hamburg", "name": "Sakura Udon", "image_url": "https://s3-media3.fl.yelpcdn.com/bphoto/S0g3DdZehVWa4VKiLNiTIA/o.jpg", "is_closed": false, "url": "https://www.yelp.com/biz/sakura-udon-hamburg?adjust_creative=hBJOknVQJ58S5goQyjmwRw&utm_campaign=yelp_api_v3&utm_medium=api_v3_business_search&utm_source=hBJOknVQJ58S5goQyjmwRw", "review_count": 1, "categories": [{"alias": "japanese", "title": "Japanese"}], "rating": 5.0, "coordinates": {"latitude": 53.5524656747929, "longitude": 9.999646}, "transactions": [], "price": "\u20ac\u20ac", "location": {"address1": "Rosenstr. 8", "address2": "", "address3": null, "city": "Hamburg", "zip_code": "20095", "country": "DE", "state": "HH", "display_address": ["Rosenstr. 8", "20095 Hamburg", "Germany"]}, "phone": "", "display_phone": "", "distance": 1206.3649603030358}, {"id": "3H3LA7zHDQMKxhbKZ_uXXA", "alias": "weltcaf\u00e9-elbfaire-hamburg", "name": "Weltcaf\u00e9 ElbFaire", "image_url": "https://s3-media3.fl.yelpcdn.com/bphoto/M3fR1UtCWWFDDOmBfbcdOw/o.jpg", "is_closed": false, "url": "https://www.yelp.com/biz/weltcaf%C3%A9-elbfaire-hamburg?adjust_creative=hBJOknVQJ58S5goQyjmwRw&utm_campaign=yelp_api_v3&utm_medium=api_v3_business_search&utm_source=hBJOknVQJ58S5goQyjmwRw", "review_count": 3, "categories": [{"alias": "cafes", "title": "Cafes"}], "rating": 4.5, "coordinates": {"latitude": 53.5430102, "longitude": 10.0025401}, "transactions": [], "price": "\u20ac\u20ac", "location": {"address1": "Shanghaiallee 12", "address2": null, "address3": null, "city": "Hamburg", "zip_code": "20457", "country": "DE", "state": "HH", "display_address": ["Shanghaiallee 12", "20457 Hamburg", "Germany"]}, "phone": "", "display_phone": "", "distance": 227.43773418631903}, {"id": "6ZRX2gkzFIJR5FHdcFv3nQ", "alias": "rudolphs-hamburg", "name": "Rudolph's", "image_url": "https://s3-media4.fl.yelpcdn.com/bphoto/SepkNvmskWl0XSIIVeJfyw/o.jpg", "is_closed": false, "url": "https://www.yelp.com/biz/rudolphs-hamburg?adjust_creative=hBJOknVQJ58S5goQyjmwRw&utm_campaign=yelp_api_v3&utm_medium=api_v3_business_search&utm_source=hBJOknVQJ58S5goQyjmwRw", "review_count": 41, "categories": [{"alias": "gluten_free", "title": "Gluten-Free"}, {"alias": "italian", "title": "Italian"}, {"alias": "vegan", "title": "Vegan"}], "rating": 4.0, "coordinates": {"latitude": 53.544853, "longitude": 10.00275}, "transactions": [], "price": "\u20ac\u20ac", "location": {"address1": "Poggenm\u00fchle 5", "address2": "", "address3": "", "city": "Hamburg", "zip_code": "20457", "country": "DE", "state": "HH", "display_address": ["Poggenm\u00fchle 5", "20457 Hamburg", "Germany"]}, "phone": "+494018297789", "display_phone": "+49 40 18297789", "distance": 351.2329749197914}, {"id": "K51sEgMHbQtgyn0-AuVItw", "alias": "m\u00f6-grill-hamburg", "name": "M\u00f6-Grill", "image_url": "https://s3-media2.fl.yelpcdn.com/bphoto/6zjLFOElKxgrePWVsHW_rw/o.jpg", "is_closed": false, "url": "https://www.yelp.com/biz/m%C3%B6-grill-hamburg?adjust_creative=hBJOknVQJ58S5goQyjmwRw&utm_campaign=yelp_api_v3&utm_medium=api_v3_business_search&utm_source=hBJOknVQJ58S5goQyjmwRw", "review_count": 207, "categories": [{"alias": "foodstands", "title": "Food Stands"}, {"alias": "currysausage", "title": "Curry Sausage"}], "rating": 4.5, "coordinates": {"latitude": 53.5513667883637, "longitude": 10.001417773994}, "transactions": [], "price": "\u20ac", "location": {"address1": "M\u00f6nckebergstr. 11", "address2": "", "address3": "", "city": "Hamburg", "zip_code": "20095", "country": "DE", "state": "HH", "display_address": ["M\u00f6nckebergstr. 11", "20095 Hamburg", "Germany"]}, "phone": "+4940335529", "display_phone": "+49 40 335529", "distance": 1054.477390296684}, {"id": "MSJB3yAVP31RwK7THjfgVA", "alias": "comida-taqueria-mexicana-hamburg", "name": "Comida Taqueria Mexicana", "image_url": "https://s3-media1.fl.yelpcdn.com/bphoto/ZPEvn5B8RTD2clB5HiB9mg/o.jpg", "is_closed": false, "url": "https://www.yelp.com/biz/comida-taqueria-mexicana-hamburg?adjust_creative=hBJOknVQJ58S5goQyjmwRw&utm_campaign=yelp_api_v3&utm_medium=api_v3_business_search&utm_source=hBJOknVQJ58S5goQyjmwRw", "review_count": 26, "categories": [{"alias": "mexican", "title": "Mexican"}], "rating": 4.0, "coordinates": {"latitude": 53.5517012035225, "longitude": 10.0000838935375}, "transactions": [], "price": "\u20ac", "location": {"address1": "Spitalerstr. 22", "address2": "UG", "address3": null, "city": "Hamburg", "zip_code": "20095", "country": "DE", "state": "HH", "display_address": ["Spitalerstr. 22", "UG", "20095 Hamburg", "Germany"]}, "phone": "+494076752963", "display_phone": "+49 40 76752963", "distance": 1116.5789662190846}, {"id": "FJtOhCO5Dz74JZP9HcwSow", "alias": "zweierlei-hamburg", "name": "Zweierlei", "image_url": "https://s3-media1.fl.yelpcdn.com/bphoto/xURYfixtPfmBOLxBtgYnmw/o.jpg", "is_closed": false, "url": "https://www.yelp.com/biz/zweierlei-hamburg?adjust_creative=hBJOknVQJ58S5goQyjmwRw&utm_campaign=yelp_api_v3&utm_medium=api_v3_business_search&utm_source=hBJOknVQJ58S5goQyjmwRw", "review_count": 8, "categories": [{"alias": "german", "title": "German"}, {"alias": "korean", "title": "Korean"}, {"alias": "international", "title": "International"}], "rating": 4.5, "coordinates": {"latitude": 53.54995, "longitude": 10.00238}, "transactions": [], "price": "\u20ac", "location": {"address1": "Steinstr. 17 A", "address2": "", "address3": null, "city": "Hamburg", "zip_code": "20095", "country": "DE", "state": "HH", "display_address": ["Steinstr. 17 A", "20095 Hamburg", "Germany"]}, "phone": "", "display_phone": "", "distance": 886.740464471136}, {"id": "Q2NllTqb4o3rJmsdv_V5MQ", "alias": "oberhafen-kantine-hamburg", "name": "Oberhafen Kantine", "image_url": "https://s3-media2.fl.yelpcdn.com/bphoto/uB8u7dLThhnuv5vZ081GrQ/o.jpg", "is_closed": false, "url": "https://www.yelp.com/biz/oberhafen-kantine-hamburg?adjust_creative=hBJOknVQJ58S5goQyjmwRw&utm_campaign=yelp_api_v3&utm_medium=api_v3_business_search&utm_source=hBJOknVQJ58S5goQyjmwRw", "review_count": 116, "categories": [{"alias": "northerngerman", "title": "Northern German"}], "rating": 3.5, "coordinates": {"latitude": 53.544622, "longitude": 10.00687}, "transactions": [], "price": "\u20ac\u20ac", "location": {"address1": "Stockmeyerstr. 39", "address2": null, "address3": null, "city": "Hamburg", "zip_code": "20457", "country": "DE", "state": "HH", "display_address": ["Stockmeyerstr. 39", "20457 Hamburg", "Germany"]}, "phone": "+494032809984", "display_phone": "+49 40 32809984", "distance": 284.3854633719468}, {"id": "ZmEJfw6CqWOPYTeJqIi8Jg", "alias": "alte-liebe-hamburg", "name": "Alte Liebe", "image_url": "https://s3-media1.fl.yelpcdn.com/bphoto/kjIfO01e7mj1kTmfPPjuLg/o.jpg", "is_closed": false, "url": "https://www.yelp.com/biz/alte-liebe-hamburg?adjust_creative=hBJOknVQJ58S5goQyjmwRw&utm_campaign=yelp_api_v3&utm_medium=api_v3_business_search&utm_source=hBJOknVQJ58S5goQyjmwRw", "review_count": 4, "categories": [{"alias": "german", "title": "German"}, {"alias": "cafes", "title": "Cafes"}], "rating": 3.5, "coordinates": {"latitude": 53.5432380614137, "longitude": 9.99964057380339}, "transactions": [], "price": "\u20ac\u20ac", "location": {"address1": "Koreastr. 1", "address2": "", "address3": "", "city": "Hamburg", "zip_code": "20457", "country": "DE", "state": "HH", "display_address": ["Koreastr. 1", "20457 Hamburg", "Germany"]}, "phone": "+494045060626", "display_phone": "+49 40 45060626", "distance": 417.24752574551184}, {"id": "G8vTrkjmYm7ymw8fYQ_-0A", "alias": "baakennest-hamburg", "name": "BaakenNest", "image_url": "https://s3-media3.fl.yelpcdn.com/bphoto/qeJrORu6lUhM5uLKtraHew/o.jpg", "is_closed": false, "url": "https://www.yelp.com/biz/baakennest-hamburg?adjust_creative=hBJOknVQJ58S5goQyjmwRw&utm_campaign=yelp_api_v3&utm_medium=api_v3_business_search&utm_source=hBJOknVQJ58S5goQyjmwRw", "review_count": 1, "categories": [{"alias": "bars", "title": "Bars"}, {"alias": "delis", "title": "Delis"}], "rating": 5.0, "coordinates": {"latitude": 53.5397197726081, "longitude": 10.0116428015394}, "transactions": [], "location": {"address1": "Versmannstr. 24", "address2": "", "address3": null, "city": "Hamburg", "zip_code": "20457", "country": "DE", "state": "HH", "display_address": ["Versmannstr. 24", "20457 Hamburg", "Germany"]}, "phone": "+494030094120", "display_phone": "+49 40 30094120", "distance": 480.7506663375054}, {"id": "yO8fDQa606LyvUDecH5efA", "alias": "die-r\u00f6sterei-hamburg-3", "name": "Die R\u00f6sterei", "image_url": "https://s3-media2.fl.yelpcdn.com/bphoto/SWGlIKKQ1NWFFjLRKE2fGQ/o.jpg", "is_closed": false, "url": "https://www.yelp.com/biz/die-r%C3%B6sterei-hamburg-3?adjust_creative=hBJOknVQJ58S5goQyjmwRw&utm_campaign=yelp_api_v3&utm_medium=api_v3_business_search&utm_source=hBJOknVQJ58S5goQyjmwRw", "review_count": 21, "categories": [{"alias": "cafes", "title": "Cafes"}, {"alias": "coffeeroasteries", "title": "Coffee Roasteries"}], "rating": 4.5, "coordinates": {"latitude": 53.54993, "longitude": 10.0018999}, "transactions": [], "price": "\u20ac", "location": {"address1": "Steinstr. 19 b", "address2": "", "address3": "", "city": "Hamburg", "zip_code": "20095", "country": "DE", "state": "HH", "display_address": ["Steinstr. 19 b", "20095 Hamburg", "Germany"]}, "phone": "+494032526364", "display_phone": "+49 40 32526364", "distance": 895.1640862729412}, {"id": "4X4tuH5O44L2OoF__0W2Sg", "alias": "sakura-sushi-hamburg-3", "name": "Sakura Sushi", "image_url": "https://s3-media2.fl.yelpcdn.com/bphoto/-K5e6Zo0wyUcWiCnHhYWrw/o.jpg", "is_closed": false, "url": "https://www.yelp.com/biz/sakura-sushi-hamburg-3?adjust_creative=hBJOknVQJ58S5goQyjmwRw&utm_campaign=yelp_api_v3&utm_medium=api_v3_business_search&utm_source=hBJOknVQJ58S5goQyjmwRw", "review_count": 76, "categories": [{"alias": "sushi", "title": "Sushi Bars"}], "rating": 4.5, "coordinates": {"latitude": 53.55245, "longitude": 9.99975}, "transactions": [], "price": "\u20ac\u20ac", "location": {"address1": "Rosenstr. 8", "address2": "", "address3": null, "city": "Hamburg", "zip_code": "20095", "country": "DE", "state": "HH", "display_address": ["Rosenstr. 8", "20095 Hamburg", "Germany"]}, "phone": "+494030309670", "display_phone": "+49 40 30309670", "distance": 1207.3659512774213}, {"id": "sddmE0Ee6yLcTbb0TlBJXg", "alias": "fillet-of-soul-hamburg", "name": "Fillet of Soul", "image_url": "https://s3-media3.fl.yelpcdn.com/bphoto/euRuWxF5KcWvIsrO_IXxDg/o.jpg", "is_closed": false, "url": "https://www.yelp.com/biz/fillet-of-soul-hamburg?adjust_creative=hBJOknVQJ58S5goQyjmwRw&utm_campaign=yelp_api_v3&utm_medium=api_v3_business_search&utm_source=hBJOknVQJ58S5goQyjmwRw", "review_count": 132, "categories": [{"alias": "modern_european", "title": "Modern European"}, {"alias": "seafood", "title": "Seafood"}], "rating": 4.0, "coordinates": {"latitude": 53.5465489523933, "longitude": 10.0060135998539}, "transactions": [], "price": "\u20ac\u20ac\u20ac", "location": {"address1": "Deichtorstr. 2", "address2": "", "address3": null, "city": "Hamburg", "zip_code": "20095", "country": "DE", "state": "HH", "display_address": ["Deichtorstr. 2", "20095 Hamburg", "Germany"]}, "phone": "+494070705800", "display_phone": "+49 40 70705800", "distance": 479.99526867254235}, {"id": "aUpUwcXH49H6mXw1kuMw9Q", "alias": "hamburg-im-s\u00fcden-hamburg", "name": "Hamburg im S\u00fcden", "image_url": "https://s3-media3.fl.yelpcdn.com/bphoto/_jWfnDmeoM090OwKGsO4ZA/o.jpg", "is_closed": false, "url": "https://www.yelp.com/biz/hamburg-im-s%C3%BCden-hamburg?adjust_creative=hBJOknVQJ58S5goQyjmwRw&utm_campaign=yelp_api_v3&utm_medium=api_v3_business_search&utm_source=hBJOknVQJ58S5goQyjmwRw", "review_count": 12, "categories": [{"alias": "wine_bars", "title": "Wine Bars"}, {"alias": "tapas", "title": "Tapas Bars"}, {"alias": "seafood", "title": "Seafood"}], "rating": 4.0, "coordinates": {"latitude": 53.5429832312882, "longitude": 10.0004207404741}, "transactions": [], "price": "\u20ac\u20ac\u20ac", "location": {"address1": "Koreastr. 2", "address2": "", "address3": "", "city": "Hamburg", "zip_code": "20354", "country": "DE", "state": "HH", "display_address": ["Koreastr. 2", "20354 Hamburg", "Germany"]}, "phone": "+4940226161511", "display_phone": "+49 40 226161511", "distance": 360.2575144636881}, {"id": "Tk_NOuvCx8BVsqWyiwAfSg", "alias": "tschebull-hamburg", "name": "Tschebull", "image_url": "https://s3-media3.fl.yelpcdn.com/bphoto/oOphMO5vSlfzglzeIUKSLA/o.jpg", "is_closed": false, "url": "https://www.yelp.com/biz/tschebull-hamburg?adjust_creative=hBJOknVQJ58S5goQyjmwRw&utm_campaign=yelp_api_v3&utm_medium=api_v3_business_search&utm_source=hBJOknVQJ58S5goQyjmwRw", "review_count": 196, "categories": [{"alias": "austrian", "title": "Austrian"}, {"alias": "bars", "title": "Bars"}], "rating": 4.5, "coordinates": {"latitude": 53.551229, "longitude": 10.003249}, "transactions": [], "price": "\u20ac\u20ac\u20ac", "location": {"address1": "M\u00f6nckebergstr. 7", "address2": "", "address3": null, "city": "Hamburg", "zip_code": "20095", "country": "DE", "state": "HH", "display_address": ["M\u00f6nckebergstr. 7", "20095 Hamburg", "Germany"]}, "phone": "+494032964796", "display_phone": "+49 40 32964796", "distance": 1013.3164877184513}, {"id": "eP3mUr5VWdRtEo1QINjm6A", "alias": "komb\u00fcse-hamburg-2", "name": "Komb\u00fcse", "image_url": "https://s3-media1.fl.yelpcdn.com/bphoto/cMryLnyBo43DHNyfKzbU6w/o.jpg", "is_closed": false, "url": "https://www.yelp.com/biz/komb%C3%BCse-hamburg-2?adjust_creative=hBJOknVQJ58S5goQyjmwRw&utm_campaign=yelp_api_v3&utm_medium=api_v3_business_search&utm_source=hBJOknVQJ58S5goQyjmwRw", "review_count": 12, "categories": [{"alias": "northerngerman", "title": "Northern German"}], "rating": 4.0, "coordinates": {"latitude": 53.5495276523598, "longitude": 10.0032118437942}, "transactions": [], "price": "\u20ac\u20ac", "location": {"address1": "Springeltwiete 9", "address2": "", "address3": null, "city": "Hamburg", "zip_code": "20095", "country": "DE", "state": "HH", "display_address": ["Springeltwiete 9", "20095 Hamburg", "Germany"]}, "phone": "+4940335817", "display_phone": "+49 40 335817", "distance": 827.672872907496}, {"id": "i-YznMBXRpR4ELl9ZFSJAw", "alias": "shiso-burger-hamburg-3", "name": "Shiso Burger", "image_url": "https://s3-media2.fl.yelpcdn.com/bphoto/Y98YBWWWCz81VQdIRdyinA/o.jpg", "is_closed": false, "url": "https://www.yelp.com/biz/shiso-burger-hamburg-3?adjust_creative=hBJOknVQJ58S5goQyjmwRw&utm_campaign=yelp_api_v3&utm_medium=api_v3_business_search&utm_source=hBJOknVQJ58S5goQyjmwRw", "review_count": 15, "categories": [{"alias": "burgers", "title": "Burgers"}, {"alias": "asianfusion", "title": "Asian Fusion"}], "rating": 4.5, "coordinates": {"latitude": 53.5505636335525, "longitude": 10.0020704045892}, "transactions": [], "location": {"address1": "Bugenhagenstr. 23", "address2": "", "address3": null, "city": "Hamburg", "zip_code": "20095", "country": "DE", "state": "HH", "display_address": ["Bugenhagenstr. 23", "20095 Hamburg", "Germany"]}, "phone": "+494030927791", "display_phone": "+49 40 30927791", "distance": 957.0060430009628}, {"id": "-noLr4l5QBdxErXLCH4laQ", "alias": "genusshelden-hamburg", "name": "Genusshelden", "image_url": "https://s3-media2.fl.yelpcdn.com/bphoto/L78c23nfXsDnx7b1Iv4aow/o.jpg", "is_closed": false, "url": "https://www.yelp.com/biz/genusshelden-hamburg?adjust_creative=hBJOknVQJ58S5goQyjmwRw&utm_campaign=yelp_api_v3&utm_medium=api_v3_business_search&utm_source=hBJOknVQJ58S5goQyjmwRw", "review_count": 4, "categories": [{"alias": "modern_european", "title": "Modern European"}, {"alias": "breakfast_brunch", "title": "Breakfast & Brunch"}], "rating": 5.0, "coordinates": {"latitude": 53.5511107, "longitude": 10.0023967}, "transactions": [], "location": {"address1": "M\u00f6nckebergstr. 7", "address2": "", "address3": "1. OG", "city": "Hamburg", "zip_code": "20095", "country": "DE", "state": "HH", "display_address": ["M\u00f6nckebergstr. 7", "1. OG", "20095 Hamburg", "Germany"]}, "phone": "+494052157767", "display_phone": "+49 40 52157767", "distance": 1011.0759916103982}, {"id": "05m8ZBb9BrkI6tsFAW0qGw", "alias": "pho-tinh-hamburg", "name": "Pho Tinh", "image_url": "https://s3-media2.fl.yelpcdn.com/bphoto/sZRBe7n7Oi14xkg-JLtF0Q/o.jpg", "is_closed": false, "url": "https://www.yelp.com/biz/pho-tinh-hamburg?adjust_creative=hBJOknVQJ58S5goQyjmwRw&utm_campaign=yelp_api_v3&utm_medium=api_v3_business_search&utm_source=hBJOknVQJ58S5goQyjmwRw", "review_count": 6, "categories": [{"alias": "vietnamese", "title": "Vietnamese"}], "rating": 4.0, "coordinates": {"latitude": 53.549393, "longitude": 10.001714}, "transactions": [], "location": {"address1": "Altst\u00e4dter Str. 23", "address2": "", "address3": null, "city": "Hamburg", "zip_code": "20095", "country": "DE", "state": "HH", "display_address": ["Altst\u00e4dter Str. 23", "20095 Hamburg", "Germany"]}, "phone": "", "display_phone": "", "distance": 838.8414466654674}, {"id": "gNtjok1FTekyd4BI1QJ5OQ", "alias": "leonhards-hamburg", "name": "Leonhard's", "image_url": "https://s3-media2.fl.yelpcdn.com/bphoto/I89rxyJNw6mnkcVJyQW6rg/o.jpg", "is_closed": false, "url": "https://www.yelp.com/biz/leonhards-hamburg?adjust_creative=hBJOknVQJ58S5goQyjmwRw&utm_campaign=yelp_api_v3&utm_medium=api_v3_business_search&utm_source=hBJOknVQJ58S5goQyjmwRw", "review_count": 3, "categories": [{"alias": "breakfast_brunch", "title": "Breakfast & Brunch"}, {"alias": "cafes", "title": "Cafes"}], "rating": 4.5, "coordinates": {"latitude": 53.5510973844843, "longitude": 10.0045214833337}, "transactions": [], "location": {"address1": "M\u00f6nckebergstr. 3", "address2": "", "address3": "4.Etage", "city": "Hamburg", "zip_code": "20095", "country": "DE", "state": "HH", "display_address": ["M\u00f6nckebergstr. 3", "4.Etage", "20095 Hamburg", "Germany"]}, "phone": "+494033307350", "display_phone": "+49 40 33307350", "distance": 988.5883031741188}, {"id": "_wb_8bDSfSZXZ76NwNKA5w", "alias": "hobenk\u00f6\u00f6k-hamburg", "name": "Hobenk\u00f6\u00f6k", "image_url": "https://s3-media3.fl.yelpcdn.com/bphoto/LjtRNE6Y6Ah17f5LLCnfNQ/o.jpg", "is_closed": false, "url": "https://www.yelp.com/biz/hobenk%C3%B6%C3%B6k-hamburg?adjust_creative=hBJOknVQJ58S5goQyjmwRw&utm_campaign=yelp_api_v3&utm_medium=api_v3_business_search&utm_source=hBJOknVQJ58S5goQyjmwRw", "review_count": 8, "categories": [{"alias": "german", "title": "German"}], "rating": 3.5, "coordinates": {"latitude": 53.5433450982727, "longitude": 10.0082123279572}, "transactions": [], "location": {"address1": "Stockmeyerstr. 43", "address2": "", "address3": null, "city": "Hamburg", "zip_code": "20457", "country": "DE", "state": "HH", "display_address": ["Stockmeyerstr. 43", "20457 Hamburg", "Germany"]}, "phone": "+494022865538", "display_phone": "+49 40 22865538", "distance": 205.45273333606423}, {"id": "XTG8Tfp8KeiGXIRMCaVAow", "alias": "mitri-saliba-hamburg", "name": "Mitri Saliba", "image_url": "https://s3-media2.fl.yelpcdn.com/bphoto/xE0lmVx6GQ4EXYgzU7QmFA/o.jpg", "is_closed": false, "url": "https://www.yelp.com/biz/mitri-saliba-hamburg?adjust_creative=hBJOknVQJ58S5goQyjmwRw&utm_campaign=yelp_api_v3&utm_medium=api_v3_business_search&utm_source=hBJOknVQJ58S5goQyjmwRw", "review_count": 23, "categories": [{"alias": "lebanese", "title": "Lebanese"}], "rating": 4.0, "coordinates": {"latitude": 53.5497, "longitude": 10.0031}, "transactions": [], "price": "\u20ac", "location": {"address1": "Springeltwiete 7", "address2": null, "address3": null, "city": "Hamburg", "zip_code": "20095", "country": "DE", "state": "HH", "display_address": ["Springeltwiete 7", "20095 Hamburg", "Germany"]}, "phone": "+494030392886", "display_phone": "+49 40 30392886", "distance": 847.9368281227577}, {"id": "1ulxY6eXi15e6atwRYTScg", "alias": "k\u00f6rri-hamburg", "name": "K\u00f6rri", "image_url": "https://s3-media1.fl.yelpcdn.com/bphoto/8QIsBuAYfs8ZqpIWf94i8A/o.jpg", "is_closed": false, "url": "https://www.yelp.com/biz/k%C3%B6rri-hamburg?adjust_creative=hBJOknVQJ58S5goQyjmwRw&utm_campaign=yelp_api_v3&utm_medium=api_v3_business_search&utm_source=hBJOknVQJ58S5goQyjmwRw", "review_count": 134, "categories": [{"alias": "currysausage", "title": "Curry Sausage"}, {"alias": "german", "title": "German"}], "rating": 4.0, "coordinates": {"latitude": 53.5486508003694, "longitude": 10.0038022343709}, "transactions": [], "price": "\u20ac\u20ac", "location": {"address1": "Springeltwiete 2", "address2": "", "address3": null, "city": "Hamburg", "zip_code": "20095", "country": "DE", "state": "HH", "display_address": ["Springeltwiete 2", "20095 Hamburg", "Germany"]}, "phone": "+494076755100", "display_phone": "+49 40 76755100", "distance": 724.567183937782}, {"id": "Y47o8F3lu0e3uZ96elthMg", "alias": "catch-of-the-day-hamburg-4", "name": "Catch of the Day", "image_url": "https://s3-media2.fl.yelpcdn.com/bphoto/wvZRWQA2m3PU5ZyozkCRMg/o.jpg", "is_closed": false, "url": "https://www.yelp.com/biz/catch-of-the-day-hamburg-4?adjust_creative=hBJOknVQJ58S5goQyjmwRw&utm_campaign=yelp_api_v3&utm_medium=api_v3_business_search&utm_source=hBJOknVQJ58S5goQyjmwRw", "review_count": 18, "categories": [{"alias": "bistros", "title": "Bistros"}, {"alias": "seafood", "title": "Seafood"}, {"alias": "cafes", "title": "Cafes"}], "rating": 3.5, "coordinates": {"latitude": 53.5431786, "longitude": 9.9997797}, "transactions": [], "price": "\u20ac\u20ac", "location": {"address1": "Koreastr. 1", "address2": "", "address3": "", "city": "Hamburg", "zip_code": "20457", "country": "DE", "state": "HH", "display_address": ["Koreastr. 1", "20457 Hamburg", "Germany"]}, "phone": "+494076797235", "display_phone": "+49 40 76797235", "distance": 415.5707063593213}, {"id": "p9nxAtsbDqH-cO8Luhj0yQ", "alias": "the-brick-hamburg", "name": "The Brick", "image_url": "https://s3-media3.fl.yelpcdn.com/bphoto/xy82lLKkNXWTZ2M_kRHDmw/o.jpg", "is_closed": false, "url": "https://www.yelp.com/biz/the-brick-hamburg?adjust_creative=hBJOknVQJ58S5goQyjmwRw&utm_campaign=yelp_api_v3&utm_medium=api_v3_business_search&utm_source=hBJOknVQJ58S5goQyjmwRw", "review_count": 1, "categories": [{"alias": "persian", "title": "Persian/Iranian"}], "rating": 5.0, "coordinates": {"latitude": 53.54843, "longitude": 10.00275}, "transactions": [], "location": {"address1": "Burchardstr. 13 c", "address2": null, "address3": "", "city": "Hamburg", "zip_code": "20148", "country": "DE", "state": "HH", "display_address": ["Burchardstr. 13 c", "20148 Hamburg", "Germany"]}, "phone": "+4917655403333", "display_phone": "+49 176 55403333", "distance": 709.9768258385358}, {"id": "sSjKoGIzCpuvqavIiy-2ig", "alias": "boname-hamburg", "name": "bona'me", "image_url": "https://s3-media2.fl.yelpcdn.com/bphoto/zKQYtQIsocRRqN4GsQZF0g/o.jpg", "is_closed": false, "url": "https://www.yelp.com/biz/boname-hamburg?adjust_creative=hBJOknVQJ58S5goQyjmwRw&utm_campaign=yelp_api_v3&utm_medium=api_v3_business_search&utm_source=hBJOknVQJ58S5goQyjmwRw", "review_count": 42, "categories": [{"alias": "oriental", "title": "Oriental"}, {"alias": "turkish", "title": "Turkish"}], "rating": 3.5, "coordinates": {"latitude": 53.5487184074553, "longitude": 10.0013569841042}, "transactions": [], "price": "\u20ac\u20ac", "location": {"address1": "Burchardstr. 17", "address2": "", "address3": null, "city": "Hamburg", "zip_code": "20095", "country": "DE", "state": "HH", "display_address": ["Burchardstr. 17", "20095 Hamburg", "Germany"]}, "phone": "+494032870170", "display_phone": "+49 40 32870170", "distance": 776.4965375328621}, {"id": "vJbf1xbqZAWF7g70gb1hyQ", "alias": "altst\u00e4dter-stube-hamburg", "name": "Altst\u00e4dter Stube", "image_url": "https://s3-media2.fl.yelpcdn.com/bphoto/lsFxwLV6JMDpn1g0Ivj2vQ/o.jpg", "is_closed": false, "url": "https://www.yelp.com/biz/altst%C3%A4dter-stube-hamburg?adjust_creative=hBJOknVQJ58S5goQyjmwRw&utm_campaign=yelp_api_v3&utm_medium=api_v3_business_search&utm_source=hBJOknVQJ58S5goQyjmwRw", "review_count": 2, "categories": [{"alias": "northerngerman", "title": "Northern German"}], "rating": 4.0, "coordinates": {"latitude": 53.549451, "longitude": 10.002074}, "transactions": [], "price": "\u20ac", "location": {"address1": "Altst\u00e4dter Str. 17", "address2": null, "address3": null, "city": "Hamburg", "zip_code": "20095", "country": "DE", "state": "HH", "display_address": ["Altst\u00e4dter Str. 17", "20095 Hamburg", "Germany"]}, "phone": "+4940335862", "display_phone": "+49 40 335862", "distance": 837.8058228350444}, {"id": "WGo6RV4HLA03noKg4zEVTA", "alias": "luxus-biss-hamburg", "name": "Luxus Biss", "image_url": "https://s3-media1.fl.yelpcdn.com/bphoto/15OPbb4lMxTNIYCP07SpnA/o.jpg", "is_closed": false, "url": "https://www.yelp.com/biz/luxus-biss-hamburg?adjust_creative=hBJOknVQJ58S5goQyjmwRw&utm_campaign=yelp_api_v3&utm_medium=api_v3_business_search&utm_source=hBJOknVQJ58S5goQyjmwRw", "review_count": 37, "categories": [{"alias": "foodstands", "title": "Food Stands"}], "rating": 4.5, "coordinates": {"latitude": 53.5498199, "longitude": 10.00121}, "transactions": [], "price": "\u20ac", "location": {"address1": "Mohlenhofstr. 2", "address2": "", "address3": "", "city": "Hamburg", "zip_code": "20095", "country": "DE", "state": "HH", "display_address": ["Mohlenhofstr. 2", "20095 Hamburg", "Germany"]}, "phone": "+494063942294", "display_phone": "+49 40 63942294", "distance": 904.1873557098021}, {"id": "B9RrvDiKSzqBvsbd6Dbung", "alias": "l\u00f6wenbr\u00e4u-hamburg", "name": "L\u00f6wenbr\u00e4u", "image_url": "https://s3-media2.fl.yelpcdn.com/bphoto/-yW30lSCNUutk0gtXcJeIg/o.jpg", "is_closed": false, "url": "https://www.yelp.com/biz/l%C3%B6wenbr%C3%A4u-hamburg?adjust_creative=hBJOknVQJ58S5goQyjmwRw&utm_campaign=yelp_api_v3&utm_medium=api_v3_business_search&utm_source=hBJOknVQJ58S5goQyjmwRw", "review_count": 5, "categories": [{"alias": "german", "title": "German"}, {"alias": "bars", "title": "Bars"}], "rating": 4.0, "coordinates": {"latitude": 53.55297, "longitude": 10.00587}, "transactions": [], "price": "\u20ac", "location": {"address1": "Glockengie\u00dferwall 8 - 10", "address2": null, "address3": "Wandelhalle", "city": "Hamburg", "zip_code": "20095", "country": "DE", "state": "HH", "display_address": ["Glockengie\u00dferwall 8 - 10", "Wandelhalle", "20095 Hamburg", "Germany"]}, "phone": "+4940335913", "display_phone": "+49 40 335913", "distance": 1193.6437679083579}, {"id": "C-Q8za0niTnjPtdVK0VnbQ", "alias": "ngan-tinh-hamburg-6", "name": "Ngan Tinh", "image_url": "https://s3-media2.fl.yelpcdn.com/bphoto/614InsE6fX6B1pOd1wsaxg/o.jpg", "is_closed": false, "url": "https://www.yelp.com/biz/ngan-tinh-hamburg-6?adjust_creative=hBJOknVQJ58S5goQyjmwRw&utm_campaign=yelp_api_v3&utm_medium=api_v3_business_search&utm_source=hBJOknVQJ58S5goQyjmwRw", "review_count": 41, "categories": [{"alias": "vietnamese", "title": "Vietnamese"}, {"alias": "panasian", "title": "Pan Asian"}], "rating": 4.0, "coordinates": {"latitude": 53.5512295558715, "longitude": 10.002632486647}, "transactions": [], "price": "\u20ac\u20ac", "location": {"address1": "M\u00f6nckebergstr. 7", "address2": "", "address3": null, "city": "Hamburg", "zip_code": "20095", "country": "DE", "state": "HH", "display_address": ["M\u00f6nckebergstr. 7", "20095 Hamburg", "Germany"]}, "phone": "+494030386693", "display_phone": "+49 40 30386693", "distance": 1020.7467990198797}, {"id": "5MRqQljZ0-zePnGVEKjLSQ", "alias": "thai-gourmet-hamburg", "name": "Thai Gourmet", "image_url": "https://s3-media3.fl.yelpcdn.com/bphoto/p4sg1P9bbhbIPy4nfFf5RQ/o.jpg", "is_closed": false, "url": "https://www.yelp.com/biz/thai-gourmet-hamburg?adjust_creative=hBJOknVQJ58S5goQyjmwRw&utm_campaign=yelp_api_v3&utm_medium=api_v3_business_search&utm_source=hBJOknVQJ58S5goQyjmwRw", "review_count": 6, "categories": [{"alias": "thai", "title": "Thai"}, {"alias": "asianfusion", "title": "Asian Fusion"}], "rating": 4.5, "coordinates": {"latitude": 53.5519182484017, "longitude": 10.0002623395814}, "transactions": [], "price": "\u20ac", "location": {"address1": "Spitalerstr. 22", "address2": "", "address3": null, "city": "Hamburg", "zip_code": "20095", "country": "DE", "state": "HH", "display_address": ["Spitalerstr. 22", "20095 Hamburg", "Germany"]}, "phone": "", "display_phone": "", "distance": 1135.5544290217088}, {"id": "vBVpHo7WDyy2b_tsalUXQA", "alias": "laufauf-hamburg-2", "name": "Laufauf", "image_url": "https://s3-media4.fl.yelpcdn.com/bphoto/5c4WiXzBv-YneMJ-71kXQg/o.jpg", "is_closed": false, "url": "https://www.yelp.com/biz/laufauf-hamburg-2?adjust_creative=hBJOknVQJ58S5goQyjmwRw&utm_campaign=yelp_api_v3&utm_medium=api_v3_business_search&utm_source=hBJOknVQJ58S5goQyjmwRw", "review_count": 56, "categories": [{"alias": "german", "title": "German"}], "rating": 4.0, "coordinates": {"latitude": 53.54891, "longitude": 9.99973}, "transactions": [], "price": "\u20ac\u20ac", "location": {"address1": "Kattrepel 2", "address2": null, "address3": null, "city": "Hamburg", "zip_code": "20095", "country": "DE", "state": "HH", "display_address": ["Kattrepel 2", "20095 Hamburg", "Germany"]}, "phone": "+4940326626", "display_phone": "+49 40 326626", "distance": 850.1992471726865}, {"id": "7oBY74EvXpFCqy79AK6tFA", "alias": "ariana-hamburg", "name": "Ariana", "image_url": "https://s3-media4.fl.yelpcdn.com/bphoto/Mn1UydardWGnmJxGfwOJQw/o.jpg", "is_closed": false, "url": "https://www.yelp.com/biz/ariana-hamburg?adjust_creative=hBJOknVQJ58S5goQyjmwRw&utm_campaign=yelp_api_v3&utm_medium=api_v3_business_search&utm_source=hBJOknVQJ58S5goQyjmwRw", "review_count": 3, "categories": [{"alias": "afghani", "title": "Afghan"}], "rating": 5.0, "coordinates": {"latitude": 53.55281, "longitude": 10.00102}, "transactions": [], "location": {"address1": "Rosenstr. 25", "address2": "", "address3": null, "city": "Hamburg", "zip_code": "20095", "country": "DE", "state": "HH", "display_address": ["Rosenstr. 25", "20095 Hamburg", "Germany"]}, "phone": "+494040185995", "display_phone": "+49 40 40185995", "distance": 1212.5903483970176}, {"id": "AEIvlAzEoDqBvH0S99kZ2A", "alias": "daniel-wischer-hamburg-3", "name": "Daniel Wischer", "image_url": "https://s3-media3.fl.yelpcdn.com/bphoto/q-54ey0wijLhcTNp8jZiZQ/o.jpg", "is_closed": false, "url": "https://www.yelp.com/biz/daniel-wischer-hamburg-3?adjust_creative=hBJOknVQJ58S5goQyjmwRw&utm_campaign=yelp_api_v3&utm_medium=api_v3_business_search&utm_source=hBJOknVQJ58S5goQyjmwRw", "review_count": 49, "categories": [{"alias": "seafood", "title": "Seafood"}], "rating": 4.0, "coordinates": {"latitude": 53.54996, "longitude": 10.00256}, "transactions": [], "price": "\u20ac\u20ac", "location": {"address1": "Steinstr. 15 a", "address2": null, "address3": null, "city": "Hamburg", "zip_code": "20095", "country": "DE", "state": "HH", "display_address": ["Steinstr. 15 a", "20095 Hamburg", "Germany"]}, "phone": "+494032525795", "display_phone": "+49 40 32525795", "distance": 882.5916722484114}, {"id": "sa2es2LUUwAHFcmoQaA2oA", "alias": "rok-rock-our-kitchen-hamburg-3", "name": "ROK - Rock Our Kitchen", "image_url": "https://s3-media4.fl.yelpcdn.com/bphoto/U3TtZCB1HpVznifFL-Nv2g/o.jpg", "is_closed": false, "url": "https://www.yelp.com/biz/rok-rock-our-kitchen-hamburg-3?adjust_creative=hBJOknVQJ58S5goQyjmwRw&utm_campaign=yelp_api_v3&utm_medium=api_v3_business_search&utm_source=hBJOknVQJ58S5goQyjmwRw", "review_count": 36, "categories": [{"alias": "salad", "title": "Salad"}, {"alias": "pizza", "title": "Pizza"}, {"alias": "wine_bars", "title": "Wine Bars"}], "rating": 4.0, "coordinates": {"latitude": 53.55254, "longitude": 10.002001}, "transactions": [], "price": "\u20ac\u20ac", "location": {"address1": "Lilienstr. 9", "address2": "", "address3": null, "city": "Hamburg", "zip_code": "20095", "country": "DE", "state": "HH", "display_address": ["Lilienstr. 9", "20095 Hamburg", "Germany"]}, "phone": "+4915118655286", "display_phone": "+49 1511 8655286", "distance": 1171.9218521988212}, {"id": "1l6d-mhl7QremJAQ_iULlQ", "alias": "nagel-hamburg-4", "name": "Nagel", "image_url": "https://s3-media1.fl.yelpcdn.com/bphoto/w9iCLsEtgkhFxsuKeJZlhg/o.jpg", "is_closed": false, "url": "https://www.yelp.com/biz/nagel-hamburg-4?adjust_creative=hBJOknVQJ58S5goQyjmwRw&utm_campaign=yelp_api_v3&utm_medium=api_v3_business_search&utm_source=hBJOknVQJ58S5goQyjmwRw", "review_count": 75, "categories": [{"alias": "german", "title": "German"}, {"alias": "pubs", "title": "Pubs"}], "rating": 3.5, "coordinates": {"latitude": 53.5527294985217, "longitude": 10.0087964160167}, "transactions": [], "price": "\u20ac\u20ac", "location": {"address1": "Kirchenallee 57", "address2": "", "address3": null, "city": "Hamburg", "zip_code": "20099", "country": "DE", "state": "HH", "display_address": ["Kirchenallee 57", "20099 Hamburg", "Germany"]}, "phone": "+4940247121", "display_phone": "+49 40 247121", "distance": 1184.3659643861959}, {"id": "HV_3FDhm_xy177f8hr9wVQ", "alias": "wasserschloss-hamburg-3", "name": "Wasserschloss", "image_url": "https://s3-media2.fl.yelpcdn.com/bphoto/YVLM2aqFwPtum79GBhJRCQ/o.jpg", "is_closed": false, "url": "https://www.yelp.com/biz/wasserschloss-hamburg-3?adjust_creative=hBJOknVQJ58S5goQyjmwRw&utm_campaign=yelp_api_v3&utm_medium=api_v3_business_search&utm_source=hBJOknVQJ58S5goQyjmwRw", "review_count": 100, "categories": [{"alias": "german", "title": "German"}, {"alias": "breakfast_brunch", "title": "Breakfast & Brunch"}], "rating": 3.5, "coordinates": {"latitude": 53.54555, "longitude": 10.00008}, "transactions": [], "price": "\u20ac\u20ac\u20ac", "location": {"address1": "Dienerreihe 4", "address2": "", "address3": "", "city": "Hamburg", "zip_code": "20457", "country": "DE", "state": "HH", "display_address": ["Dienerreihe 4", "20457 Hamburg", "Germany"]}, "phone": "+4940558982640", "display_phone": "+49 40 558982640", "distance": 524.3849987475074}, {"id": "sBta_-0fWSZZPQ99EEx_mg", "alias": "sallis-kebap-grill-hamburg", "name": "Salli's Kebap Grill", "image_url": "https://s3-media4.fl.yelpcdn.com/bphoto/OicvB6MI9P5P6QKMptZbVw/o.jpg", "is_closed": false, "url": "https://www.yelp.com/biz/sallis-kebap-grill-hamburg?adjust_creative=hBJOknVQJ58S5goQyjmwRw&utm_campaign=yelp_api_v3&utm_medium=api_v3_business_search&utm_source=hBJOknVQJ58S5goQyjmwRw", "review_count": 2, "categories": [{"alias": "kebab", "title": "Kebab"}, {"alias": "foodstands", "title": "Food Stands"}], "rating": 5.0, "coordinates": {"latitude": 53.5539285, "longitude": 10.0043007}, "transactions": [], "price": "\u20ac\u20ac", "location": {"address1": "Glockengie\u00dferwall 8 - 10", "address2": "", "address3": "Wandelhalle", "city": "Hamburg", "zip_code": "20095", "country": "DE", "state": "HH", "display_address": ["Glockengie\u00dferwall 8 - 10", "Wandelhalle", "20095 Hamburg", "Germany"]}, "phone": "+494030061944", "display_phone": "+49 40 30061944", "distance": 1189.3628653751168}, {"id": "Y0qJ9IMHh-1p5sEBRpan6g", "alias": "brasserie-atlas-hamburg", "name": "Brasserie Atlas", "image_url": "https://s3-media2.fl.yelpcdn.com/bphoto/VO0V86v3Xvu6sIqkMQ6bXw/o.jpg", "is_closed": false, "url": "https://www.yelp.com/biz/brasserie-atlas-hamburg?adjust_creative=hBJOknVQJ58S5goQyjmwRw&utm_campaign=yelp_api_v3&utm_medium=api_v3_business_search&utm_source=hBJOknVQJ58S5goQyjmwRw", "review_count": 14, "categories": [{"alias": "brasseries", "title": "Brasseries"}, {"alias": "international", "title": "International"}], "rating": 4.0, "coordinates": {"latitude": 53.548407, "longitude": 10.002805}, "transactions": [], "price": "\u20ac\u20ac", "location": {"address1": "Burchardstr. 13c", "address2": "", "address3": "", "city": "Hamburg", "zip_code": "20095", "country": "DE", "state": "HH", "display_address": ["Burchardstr. 13c", "20095 Hamburg", "Germany"]}, "phone": "+494070299994", "display_phone": "+49 40 70299994", "distance": 709.9768258385358}, {"id": "Uoflen6zlE4qBrJ4a_gcLQ", "alias": "k\u00f6z-ocakba\u015f\u0131-barbecue-house-hamburg", "name": "K\u00f6z Ocakba\u015f\u0131 - Barbecue House", "image_url": "https://s3-media3.fl.yelpcdn.com/bphoto/cXPjwN-4q9m95HMv4TG7nw/o.jpg", "is_closed": false, "url": "https://www.yelp.com/biz/k%C3%B6z-ocakba%C5%9F%C4%B1-barbecue-house-hamburg?adjust_creative=hBJOknVQJ58S5goQyjmwRw&utm_campaign=yelp_api_v3&utm_medium=api_v3_business_search&utm_source=hBJOknVQJ58S5goQyjmwRw", "review_count": 34, "categories": [{"alias": "turkish", "title": "Turkish"}], "rating": 4.5, "coordinates": {"latitude": 53.5529, "longitude": 10.0109}, "transactions": [], "price": "\u20ac\u20ac", "location": {"address1": "Steindamm 6", "address2": null, "address3": null, "city": "Hamburg", "zip_code": "20099", "country": "DE", "state": "HH", "display_address": ["Steindamm 6", "20099 Hamburg", "Germany"]}, "phone": "+494024874515", "display_phone": "+49 40 24874515", "distance": 1234.110135833275}, {"id": "wd9jrPs0dt-oZL5_Jc1ReQ", "alias": "apples-hamburg", "name": "Apples", "image_url": "https://s3-media1.fl.yelpcdn.com/bphoto/AEbCXJz3kxGvlXBHN7amfQ/o.jpg", "is_closed": false, "url": "https://www.yelp.com/biz/apples-hamburg?adjust_creative=hBJOknVQJ58S5goQyjmwRw&utm_campaign=yelp_api_v3&utm_medium=api_v3_business_search&utm_source=hBJOknVQJ58S5goQyjmwRw", "review_count": 79, "categories": [{"alias": "modern_european", "title": "Modern European"}, {"alias": "bars", "title": "Bars"}], "rating": 4.5, "coordinates": {"latitude": 53.55079, "longitude": 10.0035399}, "transactions": [], "price": "\u20ac\u20ac\u20ac", "location": {"address1": "Bugenhagenstr. 8", "address2": "", "address3": "", "city": "Hamburg", "zip_code": "20095", "country": "DE", "state": "HH", "display_address": ["Bugenhagenstr. 8", "20095 Hamburg", "Germany"]}, "phone": "+494033321771", "display_phone": "+49 40 33321771", "distance": 984.1159558190651}, {"id": "tWP0TK9swror6Ou-Sp7xvw", "alias": "happy-waffel-hamburg", "name": "Happy Waffel", "image_url": "https://s3-media3.fl.yelpcdn.com/bphoto/ATe7OvPDbCZf-L9KglNHsA/o.jpg", "is_closed": false, "url": "https://www.yelp.com/biz/happy-waffel-hamburg?adjust_creative=hBJOknVQJ58S5goQyjmwRw&utm_campaign=yelp_api_v3&utm_medium=api_v3_business_search&utm_source=hBJOknVQJ58S5goQyjmwRw", "review_count": 23, "categories": [{"alias": "waffles", "title": "Waffles"}], "rating": 4.0, "coordinates": {"latitude": 53.55031, "longitude": 10.00178}, "transactions": [], "price": "\u20ac", "location": {"address1": "Jakobikirchhof 9", "address2": "", "address3": "", "city": "Hamburg", "zip_code": "20095", "country": "DE", "state": "HH", "display_address": ["Jakobikirchhof 9", "20095 Hamburg", "Germany"]}, "phone": "", "display_phone": "", "distance": 937.9885525949599}, {"id": "uAXExUqT1doNXkYyBvOJew", "alias": "mitri-saliba-hamburg-2", "name": "Mitri Saliba", "image_url": "https://s3-media1.fl.yelpcdn.com/bphoto/v1_RIDW_rplb0JUViGHUVg/o.jpg", "is_closed": false, "url": "https://www.yelp.com/biz/mitri-saliba-hamburg-2?adjust_creative=hBJOknVQJ58S5goQyjmwRw&utm_campaign=yelp_api_v3&utm_medium=api_v3_business_search&utm_source=hBJOknVQJ58S5goQyjmwRw", "review_count": 11, "categories": [{"alias": "syrian", "title": "Syrian"}], "rating": 4.5, "coordinates": {"latitude": 53.55287, "longitude": 10.00012}, "transactions": [], "price": "\u20ac\u20ac", "location": {"address1": "Gertrudenstr. 2", "address2": "", "address3": "", "city": "Hamburg", "zip_code": "20095", "country": "DE", "state": "HH", "display_address": ["Gertrudenstr. 2", "20095 Hamburg", "Germany"]}, "phone": "+494076793759", "display_phone": "+49 40 76793759", "distance": 1246.627487552608}, {"id": "mNhDpqgkKKzrW4e1DmUH6A", "alias": "herr-kwong-hamburg", "name": "Herr Kwong", "image_url": "https://s3-media3.fl.yelpcdn.com/bphoto/dVoNSxWq3NDaEdW386lJqw/o.jpg", "is_closed": false, "url": "https://www.yelp.com/biz/herr-kwong-hamburg?adjust_creative=hBJOknVQJ58S5goQyjmwRw&utm_campaign=yelp_api_v3&utm_medium=api_v3_business_search&utm_source=hBJOknVQJ58S5goQyjmwRw", "review_count": 34, "categories": [{"alias": "chinese", "title": "Chinese"}], "rating": 4.0, "coordinates": {"latitude": 53.54927, "longitude": 10.00106}, "transactions": [], "price": "\u20ac\u20ac", "location": {"address1": "Burchardstr. 16", "address2": "", "address3": "", "city": "Hamburg", "zip_code": "20095", "country": "DE", "state": "HH", "display_address": ["Burchardstr. 16", "20095 Hamburg", "Germany"]}, "phone": "+4940336806", "display_phone": "+49 40 336806", "distance": 847.341567558834}, {"id": "Eiom4FONU0zhvhhwVjINog", "alias": "kl\u00e4ssigs-hamburg", "name": "Kl\u00e4ssig's", "image_url": "https://s3-media1.fl.yelpcdn.com/bphoto/vZcpVmiXb0FuxXPqidPg1w/o.jpg", "is_closed": false, "url": "https://www.yelp.com/biz/kl%C3%A4ssigs-hamburg?adjust_creative=hBJOknVQJ58S5goQyjmwRw&utm_campaign=yelp_api_v3&utm_medium=api_v3_business_search&utm_source=hBJOknVQJ58S5goQyjmwRw", "review_count": 13, "categories": [{"alias": "seafood", "title": "Seafood"}], "rating": 4.0, "coordinates": {"latitude": 53.5516900490713, "longitude": 10.0008898973465}, "transactions": [], "price": "\u20ac\u20ac", "location": {"address1": "Spitalerstr. 22", "address2": "", "address3": null, "city": "Hamburg", "zip_code": "20095", "country": "DE", "state": "HH", "display_address": ["Spitalerstr. 22", "20095 Hamburg", "Germany"]}, "phone": "", "display_phone": "", "distance": 1098.761056270884}, {"id": "Nu_jP17T-c_gSG-zV7lhQQ", "alias": "strauchs-falco-hamburg", "name": "Strauchs Falco", "image_url": "https://s3-media1.fl.yelpcdn.com/bphoto/K6tnNATGqezXEEI74ZyNKA/o.jpg", "is_closed": false, "url": "https://www.yelp.com/biz/strauchs-falco-hamburg?adjust_creative=hBJOknVQJ58S5goQyjmwRw&utm_campaign=yelp_api_v3&utm_medium=api_v3_business_search&utm_source=hBJOknVQJ58S5goQyjmwRw", "review_count": 23, "categories": [{"alias": "northerngerman", "title": "Northern German"}, {"alias": "mediterranean", "title": "Mediterranean"}], "rating": 3.5, "coordinates": {"latitude": 53.5429387276499, "longitude": 10.0003442924706}, "transactions": [], "price": "\u20ac\u20ac\u20ac", "location": {"address1": "Koreastr. 2", "address2": "", "address3": "", "city": "Hamburg", "zip_code": "20354", "country": "DE", "state": "HH", "display_address": ["Koreastr. 2", "20354 Hamburg", "Germany"]}, "phone": "+4940226161511", "display_phone": "+49 40 226161511", "distance": 364.07990596438185}, {"id": "Ulfbttuct2SCuoCTJtdxMg", "alias": "ahoi-by-steffen-henssler-hamburg-2", "name": "Ahoi by Steffen Henssler", "image_url": "https://s3-media1.fl.yelpcdn.com/bphoto/j166MRFVvciDw9gjTVWpDw/o.jpg", "is_closed": false, "url": "https://www.yelp.com/biz/ahoi-by-steffen-henssler-hamburg-2?adjust_creative=hBJOknVQJ58S5goQyjmwRw&utm_campaign=yelp_api_v3&utm_medium=api_v3_business_search&utm_source=hBJOknVQJ58S5goQyjmwRw", "review_count": 52, "categories": [{"alias": "international", "title": "International"}, {"alias": "fischbroetchen", "title": "Fischbroetchen"}], "rating": 3.5, "coordinates": {"latitude": 53.55193, "longitude": 10.00208}, "transactions": [], "price": "\u20ac\u20ac", "location": {"address1": "Spitalerstr. 12", "address2": "", "address3": null, "city": "Hamburg", "zip_code": "20095", "country": "DE", "state": "HH", "display_address": ["Spitalerstr. 12", "20095 Hamburg", "Germany"]}, "phone": "+494064660560", "display_phone": "+49 40 64660560", "distance": 1129.8511167042484}, {"id": "G_bKcShBqhkMyTjZAALNLg", "alias": "mensa-hcu-hamburg", "name": "Mensa HCU", "image_url": "https://s3-media4.fl.yelpcdn.com/bphoto/Zug2F4de_gaB3NAj4RuHWw/o.jpg", "is_closed": false, "url": "https://www.yelp.com/biz/mensa-hcu-hamburg?adjust_creative=hBJOknVQJ58S5goQyjmwRw&utm_campaign=yelp_api_v3&utm_medium=api_v3_business_search&utm_source=hBJOknVQJ58S5goQyjmwRw", "review_count": 1, "categories": [{"alias": "canteen", "title": "Canteen"}], "rating": 4.0, "coordinates": {"latitude": 53.540228, "longitude": 10.005366}, "transactions": [], "location": {"address1": "\u00dcberseeallee 16", "address2": "", "address3": "", "city": "Hamburg", "zip_code": "20457", "country": "DE", "state": "HH", "display_address": ["\u00dcberseeallee 16", "20457 Hamburg", "Germany"]}, "phone": "+494028472722", "display_phone": "+49 40 28472722", "distance": 224.50133091643008}, {"id": "p85vYXoFQ1BWSQyD6uk2CQ", "alias": "flowers-whisper-hamburg", "name": "Flowers' Whisper", "image_url": "https://s3-media1.fl.yelpcdn.com/bphoto/CANPei-Ys7MlBBIXwVMF5Q/o.jpg", "is_closed": false, "url": "https://www.yelp.com/biz/flowers-whisper-hamburg?adjust_creative=hBJOknVQJ58S5goQyjmwRw&utm_campaign=yelp_api_v3&utm_medium=api_v3_business_search&utm_source=hBJOknVQJ58S5goQyjmwRw", "review_count": 8, "categories": [{"alias": "cakeshop", "title": "Patisserie/Cake Shop"}, {"alias": "cafes", "title": "Cafes"}], "rating": 4.5, "coordinates": {"latitude": 53.551057985531, "longitude": 10.0021674561208}, "transactions": [], "price": "\u20ac\u20ac", "location": {"address1": "M\u00f6nckebergstr. 7", "address2": "", "address3": null, "city": "Hamburg", "zip_code": "20095", "country": "DE", "state": "HH", "display_address": ["M\u00f6nckebergstr. 7", "20095 Hamburg", "Germany"]}, "phone": "+494037028495", "display_phone": "+49 40 37028495", "distance": 1008.7775188706893}, {"id": "qF7VNb1X9E4PnyJgbujG-Q", "alias": "flan\u00e9-hamburg", "name": "Flan\u00e9", "image_url": "https://s3-media4.fl.yelpcdn.com/bphoto/qBY6iuYtuxWCxXcXXTyjFg/o.jpg", "is_closed": false, "url": "https://www.yelp.com/biz/flan%C3%A9-hamburg?adjust_creative=hBJOknVQJ58S5goQyjmwRw&utm_campaign=yelp_api_v3&utm_medium=api_v3_business_search&utm_source=hBJOknVQJ58S5goQyjmwRw", "review_count": 19, "categories": [{"alias": "cafes", "title": "Cafes"}, {"alias": "chocolate", "title": "Chocolatiers & Shops"}, {"alias": "cakeshop", "title": "Patisserie/Cake Shop"}], "rating": 4.5, "coordinates": {"latitude": 53.5510979518778, "longitude": 10.0024449797622}, "transactions": [], "price": "\u20ac\u20ac", "location": {"address1": "M\u00f6nckebergstr. 7", "address2": "", "address3": "", "city": "Hamburg", "zip_code": "20095", "country": "DE", "state": "HH", "display_address": ["M\u00f6nckebergstr. 7", "20095 Hamburg", "Germany"]}, "phone": "+494079029341", "display_phone": "+49 40 79029341", "distance": 1009.00240796556}, {"id": "cT2d2Pahuc7CYZislHoyGw", "alias": "surfkitchen-hamburg-2", "name": "Surfkitchen", "image_url": "https://s3-media2.fl.yelpcdn.com/bphoto/aL6EwgpqWL31BtzmHNuqPA/o.jpg", "is_closed": false, "url": "https://www.yelp.com/biz/surfkitchen-hamburg-2?adjust_creative=hBJOknVQJ58S5goQyjmwRw&utm_campaign=yelp_api_v3&utm_medium=api_v3_business_search&utm_source=hBJOknVQJ58S5goQyjmwRw", "review_count": 44, "categories": [{"alias": "pizza", "title": "Pizza"}], "rating": 3.5, "coordinates": {"latitude": 53.542744, "longitude": 10.000565}, "transactions": [], "price": "\u20ac\u20ac", "location": {"address1": "Hongkongstr. 2 - 4", "address2": null, "address3": "", "city": "Hamburg", "zip_code": "20457", "country": "DE", "state": "HH", "display_address": ["Hongkongstr. 2 - 4", "20457 Hamburg", "Germany"]}, "phone": "+494032041258", "display_phone": "+49 40 32041258", "distance": 345.657927693898}, {"id": "Tn-1N4TKueG1Ww65LCDoYA", "alias": "saalbach-hamburg", "name": "Saalbach", "image_url": "https://s3-media3.fl.yelpcdn.com/bphoto/V8p9kGoL54yS_YWUyy0fiQ/o.jpg", "is_closed": false, "url": "https://www.yelp.com/biz/saalbach-hamburg?adjust_creative=hBJOknVQJ58S5goQyjmwRw&utm_campaign=yelp_api_v3&utm_medium=api_v3_business_search&utm_source=hBJOknVQJ58S5goQyjmwRw", "review_count": 29, "categories": [{"alias": "foodstands", "title": "Food Stands"}, {"alias": "german", "title": "German"}], "rating": 4.0, "coordinates": {"latitude": 53.54993, "longitude": 10.0018999}, "transactions": [], "price": "\u20ac", "location": {"address1": "Steinstr. 19", "address2": "", "address3": "", "city": "Hamburg", "zip_code": "20095", "country": "DE", "state": "HH", "display_address": ["Steinstr. 19", "20095 Hamburg", "Germany"]}, "phone": "+4940335526", "display_phone": "+49 40 335526", "distance": 886.4040989266398}, {"id": "-7AsMKjzFEqv08oGkTiRJQ", "alias": "caf\u00e9-erlk\u00f6nig-hamburg", "name": "Caf\u00e9 Erlk\u00f6nig", "image_url": "https://s3-media1.fl.yelpcdn.com/bphoto/hchHbCdP0ugRIThJuyszDw/o.jpg", "is_closed": false, "url": "https://www.yelp.com/biz/caf%C3%A9-erlk%C3%B6nig-hamburg?adjust_creative=hBJOknVQJ58S5goQyjmwRw&utm_campaign=yelp_api_v3&utm_medium=api_v3_business_search&utm_source=hBJOknVQJ58S5goQyjmwRw", "review_count": 1, "categories": [{"alias": "bistros", "title": "Bistros"}, {"alias": "cafes", "title": "Cafes"}], "rating": 4.0, "coordinates": {"latitude": 53.54332, "longitude": 10.00248}, "transactions": [], "location": {"address1": "Prototyp Museum", "address2": "Shanghaiallee 7", "address3": "", "city": "Hamburg", "zip_code": "20457", "country": "DE", "state": "HH", "display_address": ["Prototyp Museum", "Shanghaiallee 7", "20457 Hamburg", "Germany"]}, "phone": "+494039996969", "display_phone": "+49 40 39996969", "distance": 229.64979573907624}, {"id": "vtu0hdoNrX1G35lpvW1oVA", "alias": "aki-running-sushi-hamburg", "name": "Aki Running Sushi", "image_url": "https://s3-media1.fl.yelpcdn.com/bphoto/A4gS38chZ-ocrTrGYNP3bA/o.jpg", "is_closed": false, "url": "https://www.yelp.com/biz/aki-running-sushi-hamburg?adjust_creative=hBJOknVQJ58S5goQyjmwRw&utm_campaign=yelp_api_v3&utm_medium=api_v3_business_search&utm_source=hBJOknVQJ58S5goQyjmwRw", "review_count": 17, "categories": [{"alias": "panasian", "title": "Pan Asian"}, {"alias": "conveyorsushi", "title": "Conveyor Belt Sushi"}], "rating": 3.5, "coordinates": {"latitude": 53.55169, "longitude": 10.00089}, "transactions": [], "price": "\u20ac", "location": {"address1": "Spitalerstr. 22", "address2": "", "address3": null, "city": "Hamburg", "zip_code": "20095", "country": "DE", "state": "HH", "display_address": ["Spitalerstr. 22", "20095 Hamburg", "Germany"]}, "phone": "", "display_phone": "", "distance": 1126.005224400497}, {"id": "PaJooy5EEBd4RMDIgQwqYQ", "alias": "pane-e-tulipani-hamburg", "name": "Pane e Tulipani", "image_url": "https://s3-media2.fl.yelpcdn.com/bphoto/TvUeeMT5TcQLvE63YclvFg/o.jpg", "is_closed": false, "url": "https://www.yelp.com/biz/pane-e-tulipani-hamburg?adjust_creative=hBJOknVQJ58S5goQyjmwRw&utm_campaign=yelp_api_v3&utm_medium=api_v3_business_search&utm_source=hBJOknVQJ58S5goQyjmwRw", "review_count": 59, "categories": [{"alias": "italian", "title": "Italian"}, {"alias": "cocktailbars", "title": "Cocktail Bars"}, {"alias": "cafes", "title": "Cafes"}], "rating": 4.0, "coordinates": {"latitude": 53.5483670129138, "longitude": 10.0064795925903}, "transactions": [], "price": "\u20ac\u20ac\u20ac", "location": {"address1": "Klosterwall 23", "address2": "", "address3": null, "city": "Hamburg", "zip_code": "20095", "country": "DE", "state": "HH", "display_address": ["Klosterwall 23", "20095 Hamburg", "Germany"]}, "phone": "+494080601688", "display_phone": "+49 40 80601688", "distance": 683.5938117381661}, {"id": "PMzwBekKvgs04VmoXnH0JQ", "alias": "caf\u00e9-spund-hamburg-2", "name": "Caf\u00e9 Spund", "image_url": "https://s3-media1.fl.yelpcdn.com/bphoto/Lj8y53gApejSPVkNZjqTrg/o.jpg", "is_closed": false, "url": "https://www.yelp.com/biz/caf%C3%A9-spund-hamburg-2?adjust_creative=hBJOknVQJ58S5goQyjmwRw&utm_campaign=yelp_api_v3&utm_medium=api_v3_business_search&utm_source=hBJOknVQJ58S5goQyjmwRw", "review_count": 16, "categories": [{"alias": "gaybars", "title": "Gay Bars"}, {"alias": "bistros", "title": "Bistros"}, {"alias": "cafes", "title": "Cafes"}], "rating": 4.0, "coordinates": {"latitude": 53.54971, "longitude": 10.00158}, "transactions": [], "price": "\u20ac\u20ac", "location": {"address1": "Mohlenhofstr. 3", "address2": null, "address3": null, "city": "Hamburg", "zip_code": "20095", "country": "DE", "state": "HH", "display_address": ["Mohlenhofstr. 3", "20095 Hamburg", "Germany"]}, "phone": "+4940326577", "display_phone": "+49 40 326577", "distance": 880.3302714621826}, {"id": "37z9XYVPzi4R3ub_ZSnr4Q", "alias": "la-nave-hamburg", "name": "La Nave", "image_url": "https://s3-media3.fl.yelpcdn.com/bphoto/31YOkbUvXE6onfsnOESK2Q/o.jpg", "is_closed": false, "url": "https://www.yelp.com/biz/la-nave-hamburg?adjust_creative=hBJOknVQJ58S5goQyjmwRw&utm_campaign=yelp_api_v3&utm_medium=api_v3_business_search&utm_source=hBJOknVQJ58S5goQyjmwRw", "review_count": 9, "categories": [{"alias": "italian", "title": "Italian"}], "rating": 4.0, "coordinates": {"latitude": 53.5483686, "longitude": 9.9999114}, "transactions": [], "price": "\u20ac", "location": {"address1": "Hopfensack 8", "address2": "", "address3": "", "city": "Hamburg", "zip_code": "20457", "country": "DE", "state": "HH", "display_address": ["Hopfensack 8", "20457 Hamburg", "Germany"]}, "phone": "+494030393970", "display_phone": "+49 40 30393970", "distance": 782.7160297865854}, {"id": "wesbcFOHz7Gr7jIhXQypLA", "alias": "levante-cocina-fina-hamburg", "name": "Levante Cocina Fina", "image_url": "https://s3-media1.fl.yelpcdn.com/bphoto/24jz0csrjjB3C3E0DP9j5A/o.jpg", "is_closed": false, "url": "https://www.yelp.com/biz/levante-cocina-fina-hamburg?adjust_creative=hBJOknVQJ58S5goQyjmwRw&utm_campaign=yelp_api_v3&utm_medium=api_v3_business_search&utm_source=hBJOknVQJ58S5goQyjmwRw", "review_count": 5, "categories": [{"alias": "pizza", "title": "Pizza"}], "rating": 4.5, "coordinates": {"latitude": 53.5513242, "longitude": 10.0025564}, "transactions": [], "price": "\u20ac\u20ac", "location": {"address1": "M\u00f6nckebergstr. 7", "address2": "", "address3": "", "city": "Hamburg", "zip_code": "20095", "country": "DE", "state": "HH", "display_address": ["M\u00f6nckebergstr. 7", "20095 Hamburg", "Germany"]}, "phone": "+494076752421", "display_phone": "+49 40 76752421", "distance": 1032.0679260083575}, {"id": "zI_fhfnLzMmlApvdzOLFUg", "alias": "yormas-hamburg-5", "name": "Yorma's", "image_url": "https://s3-media3.fl.yelpcdn.com/bphoto/gSTp3N-pVizmYlP25Iy1ng/o.jpg", "is_closed": false, "url": "https://www.yelp.com/biz/yormas-hamburg-5?adjust_creative=hBJOknVQJ58S5goQyjmwRw&utm_campaign=yelp_api_v3&utm_medium=api_v3_business_search&utm_source=hBJOknVQJ58S5goQyjmwRw", "review_count": 27, "categories": [{"alias": "sandwiches", "title": "Sandwiches"}], "rating": 4.0, "coordinates": {"latitude": 53.552083, "longitude": 10.006625}, "transactions": [], "price": "\u20ac", "location": {"address1": "Hachmannplatz 1", "address2": "S\u00fcdsteg", "address3": null, "city": "Hamburg", "zip_code": "20099", "country": "DE", "state": "HH", "display_address": ["Hachmannplatz 1", "S\u00fcdsteg", "20099 Hamburg", "Germany"]}, "phone": "+49993189564242", "display_phone": "+49 9931 89564242", "distance": 1096.586131185791}, {"id": "n_Yio-a9VzssOtDbgezpRA", "alias": "subu-sushi-burrito-hamburg-3", "name": "Subu Sushi Burrito", "image_url": "https://s3-media3.fl.yelpcdn.com/bphoto/x2oh5mzvkzvrXjswE_MjXQ/o.jpg", "is_closed": false, "url": "https://www.yelp.com/biz/subu-sushi-burrito-hamburg-3?adjust_creative=hBJOknVQJ58S5goQyjmwRw&utm_campaign=yelp_api_v3&utm_medium=api_v3_business_search&utm_source=hBJOknVQJ58S5goQyjmwRw", "review_count": 3, "categories": [{"alias": "foodtrucks", "title": "Food Trucks"}, {"alias": "sushi", "title": "Sushi Bars"}], "rating": 5.0, "coordinates": {"latitude": 53.5526819869811, "longitude": 10.0010880455375}, "transactions": [], "price": "\u20ac", "location": {"address1": "", "address2": "", "address3": "", "city": "Hamburg", "zip_code": "", "country": "DE", "state": "HH", "display_address": ["Hamburg", "Germany"]}, "phone": "+4917670834316", "display_phone": "+49 176 70834316", "distance": 1201.3137302186549}, {"id": "9dqAhaYP8QX3Y-5u8L7mSg", "alias": "lieblings-hamburg-5", "name": "Lieblings", "image_url": "https://s3-media4.fl.yelpcdn.com/bphoto/hUif_hcXVj6zBkwxODocZg/o.jpg", "is_closed": false, "url": "https://www.yelp.com/biz/lieblings-hamburg-5?adjust_creative=hBJOknVQJ58S5goQyjmwRw&utm_campaign=yelp_api_v3&utm_medium=api_v3_business_search&utm_source=hBJOknVQJ58S5goQyjmwRw", "review_count": 62, "categories": [{"alias": "icecream", "title": "Ice Cream & Frozen Yogurt"}, {"alias": "cafes", "title": "Cafes"}], "rating": 4.5, "coordinates": {"latitude": 53.54944, "longitude": 10.00266}, "transactions": [], "price": "\u20ac\u20ac", "location": {"address1": "Altst\u00e4dter Str. 15", "address2": "", "address3": "", "city": "Hamburg", "zip_code": "20095", "country": "DE", "state": "HH", "display_address": ["Altst\u00e4dter Str. 15", "20095 Hamburg", "Germany"]}, "phone": "+494079416796", "display_phone": "+49 40 79416796", "distance": 830.3367262587171}, {"id": "Qfr6qDA4GHge0xgTwLc6rw", "alias": "brezelb\u00e4ckerei-ditsch-hamburg-10", "name": "Brezelb\u00e4ckerei Ditsch", "image_url": "https://s3-media4.fl.yelpcdn.com/bphoto/USFuUMIDegVB8-ozY6ITTw/o.jpg", "is_closed": false, "url": "https://www.yelp.com/biz/brezelb%C3%A4ckerei-ditsch-hamburg-10?adjust_creative=hBJOknVQJ58S5goQyjmwRw&utm_campaign=yelp_api_v3&utm_medium=api_v3_business_search&utm_source=hBJOknVQJ58S5goQyjmwRw", "review_count": 10, "categories": [{"alias": "pretzels", "title": "Pretzels"}, {"alias": "hotdogs", "title": "Fast Food"}], "rating": 4.0, "coordinates": {"latitude": 53.550814, "longitude": 10.000663}, "transactions": [], "price": "\u20ac", "location": {"address1": "M\u00f6nckebergstr. 11", "address2": null, "address3": null, "city": "Hamburg", "zip_code": "20095", "country": "DE", "state": "HH", "display_address": ["M\u00f6nckebergstr. 11", "20095 Hamburg", "Germany"]}, "phone": "+494030309915", "display_phone": "+49 40 30309915", "distance": 1010.8194483218678}, {"id": "OJRHhioGdABNyPFNQt9V4w", "alias": "da-emilio-hamburg", "name": "Da Emilio", "image_url": "https://s3-media2.fl.yelpcdn.com/bphoto/w2HVb_SvzG9VBMJVP4Wc3A/o.jpg", "is_closed": false, "url": "https://www.yelp.com/biz/da-emilio-hamburg?adjust_creative=hBJOknVQJ58S5goQyjmwRw&utm_campaign=yelp_api_v3&utm_medium=api_v3_business_search&utm_source=hBJOknVQJ58S5goQyjmwRw", "review_count": 5, "categories": [{"alias": "italian", "title": "Italian"}], "rating": 4.5, "coordinates": {"latitude": 53.55169, "longitude": 10.00089}, "transactions": [], "location": {"address1": "Spitalerstr. 22", "address2": "", "address3": null, "city": "Hamburg", "zip_code": "20095", "country": "DE", "state": "HH", "display_address": ["Spitalerstr. 22", "20095 Hamburg", "Germany"]}, "phone": "+493079785490", "display_phone": "+49 30 79785490", "distance": 1126.005224400497}, {"id": "IXtkTDyPslFKFzjZouTG1Q", "alias": "eat-brazil-hamburg", "name": "EAT Brazil", "image_url": "https://s3-media2.fl.yelpcdn.com/bphoto/99loJJz5AmyQlu4TwJ0CmA/o.jpg", "is_closed": false, "url": "https://www.yelp.com/biz/eat-brazil-hamburg?adjust_creative=hBJOknVQJ58S5goQyjmwRw&utm_campaign=yelp_api_v3&utm_medium=api_v3_business_search&utm_source=hBJOknVQJ58S5goQyjmwRw", "review_count": 1, "categories": [{"alias": "brazilian", "title": "Brazilian"}, {"alias": "cafes", "title": "Cafes"}], "rating": 2.0, "coordinates": {"latitude": 53.5398, "longitude": 10.01088}, "transactions": [], "location": {"address1": "Versmannstr. 24", "address2": "", "address3": null, "city": "Hamburg", "zip_code": "20457", "country": "DE", "state": "HH", "display_address": ["Versmannstr. 24", "20457 Hamburg", "Germany"]}, "phone": "+491719544987", "display_phone": "+49 171 9544987", "distance": 451.01795159501665}, {"id": "2Wmn6aCOSUgqgCBfg_WsNg", "alias": "der-suppenladen-hamburg", "name": "Der Suppenladen", "image_url": "https://s3-media2.fl.yelpcdn.com/bphoto/6yTwFsVIRHT5W3TKCmz7wA/o.jpg", "is_closed": false, "url": "https://www.yelp.com/biz/der-suppenladen-hamburg?adjust_creative=hBJOknVQJ58S5goQyjmwRw&utm_campaign=yelp_api_v3&utm_medium=api_v3_business_search&utm_source=hBJOknVQJ58S5goQyjmwRw", "review_count": 10, "categories": [{"alias": "soup", "title": "Soup"}], "rating": 3.5, "coordinates": {"latitude": 53.5483154, "longitude": 10.0015183}, "transactions": [], "price": "\u20ac", "location": {"address1": "Chilehaus", "address2": "Fischertwiete 2", "address3": "", "city": "Hamburg", "zip_code": "20095", "country": "DE", "state": "HH", "display_address": ["Chilehaus", "Fischertwiete 2", "20095 Hamburg", "Germany"]}, "phone": "+494032506800", "display_phone": "+49 40 32506800", "distance": 713.7447356519186}, {"id": "cte6WBG5OtByoUelReCk5Q", "alias": "huang-hamburg", "name": "Huang", "image_url": "https://s3-media3.fl.yelpcdn.com/bphoto/L10WcC1AF2tO0NHGoYSWeA/o.jpg", "is_closed": false, "url": "https://www.yelp.com/biz/huang-hamburg?adjust_creative=hBJOknVQJ58S5goQyjmwRw&utm_campaign=yelp_api_v3&utm_medium=api_v3_business_search&utm_source=hBJOknVQJ58S5goQyjmwRw", "review_count": 5, "categories": [{"alias": "thai", "title": "Thai"}, {"alias": "chinese", "title": "Chinese"}, {"alias": "panasian", "title": "Pan Asian"}], "rating": 4.0, "coordinates": {"latitude": 53.5499611, "longitude": 10.0027704}, "transactions": [], "price": "\u20ac", "location": {"address1": "Steinstr. 15", "address2": "", "address3": "", "city": "Hamburg", "zip_code": "20095", "country": "DE", "state": "HH", "display_address": ["Steinstr. 15", "20095 Hamburg", "Germany"]}, "phone": "+494065868878", "display_phone": "+49 40 65868878", "distance": 878.6845626871429}, {"id": "XcaPVEX6N13p5ztBB2haGg", "alias": "destille-hamburg", "name": "Destille", "image_url": "https://s3-media1.fl.yelpcdn.com/bphoto/ln-WeteeQ55EiZMr1a1Uqw/o.jpg", "is_closed": false, "url": "https://www.yelp.com/biz/destille-hamburg?adjust_creative=hBJOknVQJ58S5goQyjmwRw&utm_campaign=yelp_api_v3&utm_medium=api_v3_business_search&utm_source=hBJOknVQJ58S5goQyjmwRw", "review_count": 13, "categories": [{"alias": "cafes", "title": "Cafes"}], "rating": 4.5, "coordinates": {"latitude": 53.5512682137412, "longitude": 10.0096966338684}, "transactions": [], "price": "\u20ac\u20ac", "location": {"address1": "Steintorplatz 1", "address2": "", "address3": "Museum f\u00fcr Kunst und Gewerbe", "city": "Hamburg", "zip_code": "20099", "country": "DE", "state": "HH", "display_address": ["Steintorplatz 1", "Museum f\u00fcr Kunst und Gewerbe", "20099 Hamburg", "Germany"]}, "phone": "+49402803354", "display_phone": "+49 40 2803354", "distance": 1038.0722114346868}, {"id": "7AaSIbWFJO3goPXi7d4bPA", "alias": "su-ja-hamburg-2", "name": "Su-Ja", "image_url": "https://s3-media2.fl.yelpcdn.com/bphoto/9KSSd2eBDjVNnRNADaXJHA/o.jpg", "is_closed": false, "url": "https://www.yelp.com/biz/su-ja-hamburg-2?adjust_creative=hBJOknVQJ58S5goQyjmwRw&utm_campaign=yelp_api_v3&utm_medium=api_v3_business_search&utm_source=hBJOknVQJ58S5goQyjmwRw", "review_count": 5, "categories": [{"alias": "indpak", "title": "Indian"}], "rating": 4.0, "coordinates": {"latitude": 53.55169, "longitude": 10.00089}, "transactions": [], "price": "\u20ac", "location": {"address1": "Spitalerstr. 22", "address2": "", "address3": null, "city": "Hamburg", "zip_code": "20095", "country": "DE", "state": "HH", "display_address": ["Spitalerstr. 22", "20095 Hamburg", "Germany"]}, "phone": "+491738029640", "display_phone": "+49 173 8029640", "distance": 1126.005224400497}, {"id": "GI5nMwJ3135yTZ-MEmaClA", "alias": "palazzo-hamburg-3", "name": "Palazzo", "image_url": "https://s3-media1.fl.yelpcdn.com/bphoto/emYQ-CJ9BY7iAEZqOwZgsA/o.jpg", "is_closed": false, "url": "https://www.yelp.com/biz/palazzo-hamburg-3?adjust_creative=hBJOknVQJ58S5goQyjmwRw&utm_campaign=yelp_api_v3&utm_medium=api_v3_business_search&utm_source=hBJOknVQJ58S5goQyjmwRw", "review_count": 4, "categories": [{"alias": "dinnertheater", "title": "Dinner Theater"}], "rating": 4.0, "coordinates": {"latitude": 53.5469, "longitude": 10.00669}, "transactions": [], "location": {"address1": "Deichtorstr. 1", "address2": "", "address3": "", "city": "Hamburg", "zip_code": "20095", "country": "DE", "state": "HH", "display_address": ["Deichtorstr. 1", "20095 Hamburg", "Germany"]}, "phone": "", "display_phone": "", "distance": 524.7197521467568}, {"id": "ec2sT85eZzBFgEabF-18MQ", "alias": "wonder-waffel-hamburg-4", "name": "Wonder Waffel", "image_url": "https://s3-media1.fl.yelpcdn.com/bphoto/uCZXKeqZWqiJ3tKepjvjSQ/o.jpg", "is_closed": false, "url": "https://www.yelp.com/biz/wonder-waffel-hamburg-4?adjust_creative=hBJOknVQJ58S5goQyjmwRw&utm_campaign=yelp_api_v3&utm_medium=api_v3_business_search&utm_source=hBJOknVQJ58S5goQyjmwRw", "review_count": 8, "categories": [{"alias": "waffles", "title": "Waffles"}, {"alias": "juicebars", "title": "Juice Bars & Smoothies"}, {"alias": "icecream", "title": "Ice Cream & Frozen Yogurt"}], "rating": 4.0, "coordinates": {"latitude": 53.552364, "longitude": 10.001784}, "transactions": [], "location": {"address1": "Lilienstr. 15", "address2": "", "address3": null, "city": "Hamburg", "zip_code": "20095", "country": "DE", "state": "HH", "display_address": ["Lilienstr. 15", "20095 Hamburg", "Germany"]}, "phone": "+491607966846", "display_phone": "+49 160 7966846", "distance": 1155.9407178397448}, {"id": "ZlfGL00gziX1YcVAS-VYjQ", "alias": "curry-masala-hamburg", "name": "Curry Masala", "image_url": "https://s3-media2.fl.yelpcdn.com/bphoto/U8LBtcEYbn-2NekAJeqEBg/o.jpg", "is_closed": false, "url": "https://www.yelp.com/biz/curry-masala-hamburg?adjust_creative=hBJOknVQJ58S5goQyjmwRw&utm_campaign=yelp_api_v3&utm_medium=api_v3_business_search&utm_source=hBJOknVQJ58S5goQyjmwRw", "review_count": 6, "categories": [{"alias": "indpak", "title": "Indian"}], "rating": 3.5, "coordinates": {"latitude": 53.54959, "longitude": 10.0016}, "transactions": [], "price": "\u20ac\u20ac", "location": {"address1": "Mohlenhofstr. 7", "address2": "", "address3": "", "city": "Hamburg", "zip_code": "20095", "country": "DE", "state": "HH", "display_address": ["Mohlenhofstr. 7", "20095 Hamburg", "Germany"]}, "phone": "+494030376859", "display_phone": "+49 40 30376859", "distance": 853.1024978863395}, {"id": "RalKIu6oNIE8cazo_WJzTg", "alias": "cafe-de-mahh-hamburg", "name": "Cafe De MaHH", "image_url": "https://s3-media2.fl.yelpcdn.com/bphoto/Ec8fXgz3bcJrofiYIt4OKw/o.jpg", "is_closed": false, "url": "https://www.yelp.com/biz/cafe-de-mahh-hamburg?adjust_creative=hBJOknVQJ58S5goQyjmwRw&utm_campaign=yelp_api_v3&utm_medium=api_v3_business_search&utm_source=hBJOknVQJ58S5goQyjmwRw", "review_count": 1, "categories": [{"alias": "cafes", "title": "Cafes"}], "rating": 4.0, "coordinates": {"latitude": 53.5484951737335, "longitude": 10.0039559975266}, "transactions": [], "location": {"address1": "Burchardstr. 10", "address2": "", "address3": "", "city": "Hamburg", "zip_code": "20095", "country": "DE", "state": "HH", "display_address": ["Burchardstr. 10", "20095 Hamburg", "Germany"]}, "phone": "+494030393444", "display_phone": "+49 40 30393444", "distance": 705.7830160832964}, {"id": "pRji4PKv8PrO3T9nDpt1Rg", "alias": "le-qu\u00e1n-hamburg-4", "name": "Le Qu\u00e1n", "image_url": "https://s3-media3.fl.yelpcdn.com/bphoto/MS255rUXtP1DIhZ-M1fz_A/o.jpg", "is_closed": false, "url": "https://www.yelp.com/biz/le-qu%C3%A1n-hamburg-4?adjust_creative=hBJOknVQJ58S5goQyjmwRw&utm_campaign=yelp_api_v3&utm_medium=api_v3_business_search&utm_source=hBJOknVQJ58S5goQyjmwRw", "review_count": 2, "categories": [{"alias": "vietnamese", "title": "Vietnamese"}], "rating": 2.0, "coordinates": {"latitude": 53.54270263082, "longitude": 10.0030912661316}, "transactions": [], "location": {"address1": "Steinschanze 2 A", "address2": "", "address3": null, "city": "Hamburg", "zip_code": "20457", "country": "DE", "state": "HH", "display_address": ["Steinschanze 2 A", "20457 Hamburg", "Germany"]}, "phone": "", "display_phone": "", "distance": 181.66159600824753}, {"id": "QRnFqSfnhKRqjrKEBMPS9g", "alias": "cityd\u00f6ner-hamburg", "name": "CityD\u00f6ner", "image_url": "https://s3-media3.fl.yelpcdn.com/bphoto/FEjfnH3Y8f2KfnST0Qw55A/o.jpg", "is_closed": false, "url": "https://www.yelp.com/biz/cityd%C3%B6ner-hamburg?adjust_creative=hBJOknVQJ58S5goQyjmwRw&utm_campaign=yelp_api_v3&utm_medium=api_v3_business_search&utm_source=hBJOknVQJ58S5goQyjmwRw", "review_count": 48, "categories": [{"alias": "kebab", "title": "Kebab"}], "rating": 3.5, "coordinates": {"latitude": 53.5518, "longitude": 10.0056}, "transactions": [], "price": "\u20ac\u20ac", "location": {"address1": "Hauptbahnhof Hamburg", "address2": "", "address3": null, "city": "Hamburg", "zip_code": "20095", "country": "DE", "state": "HH", "display_address": ["Hauptbahnhof Hamburg", "20095 Hamburg", "Germany"]}, "phone": "", "display_phone": "", "distance": 1063.540385562544}, {"id": "koExBgS9t0BuEKLRMFr68w", "alias": "shudu-hamburg", "name": "Shudu", "image_url": "https://s3-media2.fl.yelpcdn.com/bphoto/h_gArZE64DJaa55aN17oIg/o.jpg", "is_closed": false, "url": "https://www.yelp.com/biz/shudu-hamburg?adjust_creative=hBJOknVQJ58S5goQyjmwRw&utm_campaign=yelp_api_v3&utm_medium=api_v3_business_search&utm_source=hBJOknVQJ58S5goQyjmwRw", "review_count": 50, "categories": [{"alias": "chinese", "title": "Chinese"}], "rating": 3.0, "coordinates": {"latitude": 53.55236, "longitude": 10.00514}, "transactions": [], "price": "\u20ac\u20ac", "location": {"address1": "Steintorwall 4", "address2": null, "address3": null, "city": "Hamburg", "zip_code": "20095", "country": "DE", "state": "HH", "display_address": ["Steintorwall 4", "20095 Hamburg", "Germany"]}, "phone": "+494086693266", "display_phone": "+49 40 86693266", "distance": 1121.1991768850537}, {"id": "aH8otpspbETCTVVXTzibog", "alias": "kleine-heimat-hamburg-2", "name": "Kleine Heimat", "image_url": "https://s3-media1.fl.yelpcdn.com/bphoto/GIoxzMepntooyWwAB75-7w/o.jpg", "is_closed": false, "url": "https://www.yelp.com/biz/kleine-heimat-hamburg-2?adjust_creative=hBJOknVQJ58S5goQyjmwRw&utm_campaign=yelp_api_v3&utm_medium=api_v3_business_search&utm_source=hBJOknVQJ58S5goQyjmwRw", "review_count": 2, "categories": [{"alias": "cafes", "title": "Cafes"}, {"alias": "bistros", "title": "Bistros"}], "rating": 3.5, "coordinates": {"latitude": 53.54305, "longitude": 10.00059}, "transactions": [], "price": "\u20ac\u20ac", "location": {"address1": "Hongkongstr. 2 - 4", "address2": "", "address3": "", "city": "Hamburg", "zip_code": "20457", "country": "DE", "state": "HH", "display_address": ["Hongkongstr. 2 - 4", "20457 Hamburg", "Germany"]}, "phone": "+494032041259", "display_phone": "+49 40 32041259", "distance": 336.1846561171238}, {"id": "2iD8sTf3DK9kT7rNlGPJ2w", "alias": "better-burger-company-hamburg-2", "name": "Better Burger Company ", "image_url": "https://s3-media2.fl.yelpcdn.com/bphoto/IZ_LzzSG5hBtefyoehHxRw/o.jpg", "is_closed": false, "url": "https://www.yelp.com/biz/better-burger-company-hamburg-2?adjust_creative=hBJOknVQJ58S5goQyjmwRw&utm_campaign=yelp_api_v3&utm_medium=api_v3_business_search&utm_source=hBJOknVQJ58S5goQyjmwRw", "review_count": 104, "categories": [{"alias": "burgers", "title": "Burgers"}], "rating": 3.5, "coordinates": {"latitude": 53.5527835836958, "longitude": 10.0003753451125}, "transactions": [], "price": "\u20ac\u20ac", "location": {"address1": "Rosenstra\u00dfe / Gertrudenkirchhof", "address2": "", "address3": null, "city": "Hamburg", "zip_code": "20095", "country": "DE", "state": "HH", "display_address": ["Rosenstra\u00dfe / Gertrudenkirchhof", "20095 Hamburg", "Germany"]}, "phone": "+494033395233", "display_phone": "+49 40 33395233", "distance": 1224.9894017274805}, {"id": "59OPROu_sozaLoR1lzGNAQ", "alias": "vincendo-hamburg", "name": "Vincendo", "image_url": "https://s3-media2.fl.yelpcdn.com/bphoto/BS53TaeIgVGy9FRdhUAr4Q/o.jpg", "is_closed": false, "url": "https://www.yelp.com/biz/vincendo-hamburg?adjust_creative=hBJOknVQJ58S5goQyjmwRw&utm_campaign=yelp_api_v3&utm_medium=api_v3_business_search&utm_source=hBJOknVQJ58S5goQyjmwRw", "review_count": 4, "categories": [{"alias": "italian", "title": "Italian"}], "rating": 4.5, "coordinates": {"latitude": 53.5487, "longitude": 10.0037}, "transactions": [], "location": {"address1": "Springeltwiete 2", "address2": null, "address3": null, "city": "Hamburg", "zip_code": "20095", "country": "DE", "state": "HH", "display_address": ["Springeltwiete 2", "20095 Hamburg", "Germany"]}, "phone": "+494032082909", "display_phone": "+49 40 32082909", "distance": 731.1600629203352}, {"id": "q8PTbF52Q3yXqCHkGDuC_g", "alias": "sausalitos-hamburg", "name": "Sausalitos", "image_url": "https://s3-media2.fl.yelpcdn.com/bphoto/D2nTk7z342ZKwZN-6ewbPg/o.jpg", "is_closed": false, "url": "https://www.yelp.com/biz/sausalitos-hamburg?adjust_creative=hBJOknVQJ58S5goQyjmwRw&utm_campaign=yelp_api_v3&utm_medium=api_v3_business_search&utm_source=hBJOknVQJ58S5goQyjmwRw", "review_count": 217, "categories": [{"alias": "cocktailbars", "title": "Cocktail Bars"}, {"alias": "tex-mex", "title": "Tex-Mex"}], "rating": 3.0, "coordinates": {"latitude": 53.5484187256409, "longitude": 10.0020697374343}, "transactions": [], "price": "\u20ac\u20ac", "location": {"address1": "Fischertwiete 2", "address2": null, "address3": null, "city": "Hamburg", "zip_code": "20095", "country": "DE", "state": "HH", "display_address": ["Fischertwiete 2", "20095 Hamburg", "Germany"]}, "phone": "+494033395120", "display_phone": "+49 40 33395120", "distance": 728.7297153425794}, {"id": "Er9tEfSqDgwu7YJJuo-WzQ", "alias": "coffee-lounge-tilia-hamburg", "name": "Coffee Lounge Tilia", "image_url": "https://s3-media2.fl.yelpcdn.com/bphoto/O1WnCxbi3_6rZDMoYL7-aw/o.jpg", "is_closed": false, "url": "https://www.yelp.com/biz/coffee-lounge-tilia-hamburg?adjust_creative=hBJOknVQJ58S5goQyjmwRw&utm_campaign=yelp_api_v3&utm_medium=api_v3_business_search&utm_source=hBJOknVQJ58S5goQyjmwRw", "review_count": 1, "categories": [{"alias": "cafes", "title": "Cafes"}], "rating": 5.0, "coordinates": {"latitude": 53.5526, "longitude": 10.001}, "transactions": [], "location": {"address1": "Gertrudenstr.10", "address2": null, "address3": null, "city": "Hamburg", "zip_code": "20095", "country": "DE", "state": "HH", "display_address": ["Gertrudenstr.10", "20095 Hamburg", "Germany"]}, "phone": "", "display_phone": "", "distance": 1194.0089464998553}, {"id": "4BlbevmieJzX05kz6eNQ7A", "alias": "salads-hamburg", "name": "Salads", "image_url": "https://s3-media2.fl.yelpcdn.com/bphoto/WBOTAMcyzLtFy5dceTFK1A/o.jpg", "is_closed": false, "url": "https://www.yelp.com/biz/salads-hamburg?adjust_creative=hBJOknVQJ58S5goQyjmwRw&utm_campaign=yelp_api_v3&utm_medium=api_v3_business_search&utm_source=hBJOknVQJ58S5goQyjmwRw", "review_count": 11, "categories": [{"alias": "salad", "title": "Salad"}], "rating": 4.0, "coordinates": {"latitude": 53.55159, "longitude": 9.99943}, "transactions": [], "price": "\u20ac", "location": {"address1": "Gerhart-Hauptmann-Platz 48", "address2": "", "address3": "", "city": "Hamburg", "zip_code": "20095", "country": "DE", "state": "HH", "display_address": ["Gerhart-Hauptmann-Platz 48", "20095 Hamburg", "Germany"]}, "phone": "+494021050038", "display_phone": "+49 40 21050038", "distance": 1158.9548303369468}, {"id": "9K3uSrKIBl76QHxEAhed0A", "alias": "dean-und-david-hamburg-5", "name": "Dean & David", "image_url": "https://s3-media3.fl.yelpcdn.com/bphoto/uL1mJMaj0SyGx9v7n8oflw/o.jpg", "is_closed": false, "url": "https://www.yelp.com/biz/dean-und-david-hamburg-5?adjust_creative=hBJOknVQJ58S5goQyjmwRw&utm_campaign=yelp_api_v3&utm_medium=api_v3_business_search&utm_source=hBJOknVQJ58S5goQyjmwRw", "review_count": 4, "categories": [{"alias": "salad", "title": "Salad"}, {"alias": "hotdogs", "title": "Fast Food"}], "rating": 3.5, "coordinates": {"latitude": 53.5523311351974, "longitude": 10.0073047372345}, "transactions": [], "location": {"address1": "Hachmannplatz 16", "address2": "", "address3": "Wandelhalle", "city": "Hamburg", "zip_code": "20099", "country": "DE", "state": "HH", "display_address": ["Hachmannplatz 16", "Wandelhalle", "20099 Hamburg", "Germany"]}, "phone": "+494041307350", "display_phone": "+49 40 41307350", "distance": 1127.403330246117}, {"id": "5B1JfSfyOjgEhrnvYYdPsg", "alias": "oh-its-fresh-hamburg-14", "name": "Oh it's fresh!", "image_url": "https://s3-media2.fl.yelpcdn.com/bphoto/yFjKO1DDr3mRs6etfRhxsQ/o.jpg", "is_closed": false, "url": "https://www.yelp.com/biz/oh-its-fresh-hamburg-14?adjust_creative=hBJOknVQJ58S5goQyjmwRw&utm_campaign=yelp_api_v3&utm_medium=api_v3_business_search&utm_source=hBJOknVQJ58S5goQyjmwRw", "review_count": 2, "categories": [{"alias": "cafes", "title": "Cafes"}, {"alias": "bagels", "title": "Bagels"}], "rating": 2.0, "coordinates": {"latitude": 53.5454708501826, "longitude": 10.0030094256562}, "transactions": [], "location": {"address1": "Ericus-Contor", "address2": "Ericusspitze 2", "address3": "", "city": "Hamburg", "zip_code": "20457", "country": "DE", "state": "HH", "display_address": ["Ericus-Contor", "Ericusspitze 2", "20457 Hamburg", "Germany"]}, "phone": "+494024431493", "display_phone": "+49 40 24431493", "distance": 402.02820788256287}, {"id": "peleM-BFvgBpFd-Z7trXGw", "alias": "quan-ngun-hamburg", "name": "Quan Ngun", "image_url": "https://s3-media2.fl.yelpcdn.com/bphoto/lNfz6le1bdYSzZVZfXwJOQ/o.jpg", "is_closed": false, "url": "https://www.yelp.com/biz/quan-ngun-hamburg?adjust_creative=hBJOknVQJ58S5goQyjmwRw&utm_campaign=yelp_api_v3&utm_medium=api_v3_business_search&utm_source=hBJOknVQJ58S5goQyjmwRw", "review_count": 4, "categories": [{"alias": "vietnamese", "title": "Vietnamese"}], "rating": 3.0, "coordinates": {"latitude": 53.54882, "longitude": 10.00329}, "transactions": [], "price": "\u20ac", "location": {"address1": "Springeltwiete 1", "address2": "", "address3": "", "city": "Hamburg", "zip_code": "20095", "country": "DE", "state": "HH", "display_address": ["Springeltwiete 1", "20095 Hamburg", "Germany"]}, "phone": "+494046866742", "display_phone": "+49 40 46866742", "distance": 753.3831294560589}, {"id": "zIN_J-FbrzftPPewvgIyXg", "alias": "yormas-hamburg-6", "name": "Yorma's", "image_url": "https://s3-media1.fl.yelpcdn.com/bphoto/HYSpS9OQlMxPefWBI5NE9w/o.jpg", "is_closed": false, "url": "https://www.yelp.com/biz/yormas-hamburg-6?adjust_creative=hBJOknVQJ58S5goQyjmwRw&utm_campaign=yelp_api_v3&utm_medium=api_v3_business_search&utm_source=hBJOknVQJ58S5goQyjmwRw", "review_count": 6, "categories": [{"alias": "sandwiches", "title": "Sandwiches"}], "rating": 4.5, "coordinates": {"latitude": 53.5528442705626, "longitude": 10.007901661377}, "transactions": [], "price": "\u20ac", "location": {"address1": "Hachmannplatz 16", "address2": "S-Bahnsteig", "address3": "", "city": "Hamburg", "zip_code": "20099", "country": "DE", "state": "HH", "display_address": ["Hachmannplatz 16", "S-Bahnsteig", "20099 Hamburg", "Germany"]}, "phone": "+49993189564242", "display_phone": "+49 9931 89564242", "distance": 1188.3514979528793}, {"id": "Z1BBCzKDGogI7CPGyarNdA", "alias": "caf\u00e9-pars-hamburg", "name": "Caf\u00e9 Pars", "image_url": "", "is_closed": false, "url": "https://www.yelp.com/biz/caf%C3%A9-pars-hamburg?adjust_creative=hBJOknVQJ58S5goQyjmwRw&utm_campaign=yelp_api_v3&utm_medium=api_v3_business_search&utm_source=hBJOknVQJ58S5goQyjmwRw", "review_count": 3, "categories": [{"alias": "cafes", "title": "Cafes"}], "rating": 3.5, "coordinates": {"latitude": 53.54937, "longitude": 10.00544}, "transactions": [], "price": "\u20ac", "location": {"address1": "Johanniswall 3", "address2": null, "address3": null, "city": "Hamburg", "zip_code": "20095", "country": "DE", "state": "HH", "display_address": ["Johanniswall 3", "20095 Hamburg", "Germany"]}, "phone": "+494018073639", "display_phone": "+49 40 18073639", "distance": 793.5293161707017}, {"id": "olvC98Uv3L-6R7EqGnnZEw", "alias": "le-qu\u00e1n-hamburg-8", "name": "Le Qu\u00e1n", "image_url": "https://s3-media3.fl.yelpcdn.com/bphoto/aOhjQksS7HnFXH8Amcrwog/o.jpg", "is_closed": false, "url": "https://www.yelp.com/biz/le-qu%C3%A1n-hamburg-8?adjust_creative=hBJOknVQJ58S5goQyjmwRw&utm_campaign=yelp_api_v3&utm_medium=api_v3_business_search&utm_source=hBJOknVQJ58S5goQyjmwRw", "review_count": 4, "categories": [{"alias": "vietnamese", "title": "Vietnamese"}], "rating": 4.0, "coordinates": {"latitude": 53.5521485883993, "longitude": 9.99991773701873}, "transactions": [], "price": "\u20ac\u20ac", "location": {"address1": "Spitalerstr. 22", "address2": "", "address3": null, "city": "Hamburg", "zip_code": "20095", "country": "DE", "state": "HH", "display_address": ["Spitalerstr. 22", "20095 Hamburg", "Germany"]}, "phone": "+494030061777", "display_phone": "+49 40 30061777", "distance": 1167.1527615046934}, {"id": "M135dF0P3bNkw5VwDvE6Gg", "alias": "prego-hamburg-2", "name": "Prego", "image_url": "https://s3-media1.fl.yelpcdn.com/bphoto/rOIzVgXFvKjXqfoYaKLu4w/o.jpg", "is_closed": false, "url": "https://www.yelp.com/biz/prego-hamburg-2?adjust_creative=hBJOknVQJ58S5goQyjmwRw&utm_campaign=yelp_api_v3&utm_medium=api_v3_business_search&utm_source=hBJOknVQJ58S5goQyjmwRw", "review_count": 70, "categories": [{"alias": "italian", "title": "Italian"}, {"alias": "pizza", "title": "Pizza"}], "rating": 3.0, "coordinates": {"latitude": 53.5518, "longitude": 10.00106}, "transactions": [], "price": "\u20ac\u20ac", "location": {"address1": "Lilienstr. 36", "address2": "", "address3": "", "city": "Hamburg", "zip_code": "20095", "country": "DE", "state": "HH", "display_address": ["Lilienstr. 36", "20095 Hamburg", "Germany"]}, "phone": "+494030392297", "display_phone": "+49 40 30392297", "distance": 1108.0627368178157}, {"id": "4oZ0yZI7gIzv7AwmJFYCFQ", "alias": "ciao-bella-hamburg-6", "name": "Ciao Bella", "image_url": "https://s3-media2.fl.yelpcdn.com/bphoto/phbC7P4QaNhjRdZgRPV2bw/o.jpg", "is_closed": false, "url": "https://www.yelp.com/biz/ciao-bella-hamburg-6?adjust_creative=hBJOknVQJ58S5goQyjmwRw&utm_campaign=yelp_api_v3&utm_medium=api_v3_business_search&utm_source=hBJOknVQJ58S5goQyjmwRw", "review_count": 3, "categories": [{"alias": "italian", "title": "Italian"}], "rating": 4.5, "coordinates": {"latitude": 53.5487, "longitude": 10.0037}, "transactions": [], "price": "\u20ac", "location": {"address1": "Springeltwiete 2", "address2": null, "address3": null, "city": "Hamburg", "zip_code": "20095", "country": "DE", "state": "HH", "display_address": ["Springeltwiete 2", "20095 Hamburg", "Germany"]}, "phone": "", "display_phone": "", "distance": 731.1600629203352}, {"id": "0dG59efWOX0TbPNCJjIHfA", "alias": "cupn-go-hamburg-3", "name": "Cup'n Go", "image_url": "https://s3-media4.fl.yelpcdn.com/bphoto/iGhtM8lA7THQbqtp6EjzbA/o.jpg", "is_closed": false, "url": "https://www.yelp.com/biz/cupn-go-hamburg-3?adjust_creative=hBJOknVQJ58S5goQyjmwRw&utm_campaign=yelp_api_v3&utm_medium=api_v3_business_search&utm_source=hBJOknVQJ58S5goQyjmwRw", "review_count": 13, "categories": [{"alias": "hotdogs", "title": "Fast Food"}], "rating": 4.5, "coordinates": {"latitude": 53.553, "longitude": 10.007}, "transactions": [], "price": "\u20ac", "location": {"address1": "Hauptbahnhof", "address2": null, "address3": null, "city": "Hamburg", "zip_code": "", "country": "DE", "state": "HH", "display_address": ["Hauptbahnhof", "Hamburg", "Germany"]}, "phone": "", "display_phone": "", "distance": 1199.8979537438643}, {"id": "9pp4kjtYGXXtrjVlOeDhCQ", "alias": "barefood-deli-hamburg-6", "name": "Barefood Deli", "image_url": "https://s3-media1.fl.yelpcdn.com/bphoto/uybQXgM9rIsK4rpn8_tJ8A/o.jpg", "is_closed": false, "url": "https://www.yelp.com/biz/barefood-deli-hamburg-6?adjust_creative=hBJOknVQJ58S5goQyjmwRw&utm_campaign=yelp_api_v3&utm_medium=api_v3_business_search&utm_source=hBJOknVQJ58S5goQyjmwRw", "review_count": 62, "categories": [{"alias": "delis", "title": "Delis"}], "rating": 3.5, "coordinates": {"latitude": 53.5526942, "longitude": 10.0022081}, "transactions": [], "price": "\u20ac\u20ac", "location": {"address1": "Lilienstr. 5 - 9", "address2": "", "address3": null, "city": "Hamburg", "zip_code": "20095", "country": "DE", "state": "HH", "display_address": ["Lilienstr. 5 - 9", "20095 Hamburg", "Germany"]}, "phone": "+494036930540", "display_phone": "+49 40 36930540", "distance": 1185.9340415589252}, {"id": "KDTV1f-b4DCTwiRu12cx_w", "alias": "pommstore-hamburg-2", "name": "PommStore", "image_url": "https://s3-media4.fl.yelpcdn.com/bphoto/-t3ZW-xxqTJwNcY7k1XbWQ/o.jpg", "is_closed": false, "url": "https://www.yelp.com/biz/pommstore-hamburg-2?adjust_creative=hBJOknVQJ58S5goQyjmwRw&utm_campaign=yelp_api_v3&utm_medium=api_v3_business_search&utm_source=hBJOknVQJ58S5goQyjmwRw", "review_count": 1, "categories": [{"alias": "belgian", "title": "Belgian"}, {"alias": "currysausage", "title": "Curry Sausage"}], "rating": 3.0, "coordinates": {"latitude": 53.55169, "longitude": 10.00089}, "transactions": [], "price": "\u20ac", "location": {"address1": "Spitalerstr. 22", "address2": "", "address3": null, "city": "Hamburg", "zip_code": "20095", "country": "DE", "state": "HH", "display_address": ["Spitalerstr. 22", "20095 Hamburg", "Germany"]}, "phone": "", "display_phone": "", "distance": 1126.005224400497}, {"id": "PI9wGFqm3VWOQMA_EHHOaQ", "alias": "turmcaf\u00e9-st-jacobi-hamburg", "name": "Turmcaf\u00e9 St. Jacobi", "image_url": "https://s3-media4.fl.yelpcdn.com/bphoto/PTtwrw-Ps56iXJdVIrnfHA/o.jpg", "is_closed": false, "url": "https://www.yelp.com/biz/turmcaf%C3%A9-st-jacobi-hamburg?adjust_creative=hBJOknVQJ58S5goQyjmwRw&utm_campaign=yelp_api_v3&utm_medium=api_v3_business_search&utm_source=hBJOknVQJ58S5goQyjmwRw", "review_count": 5, "categories": [{"alias": "cafes", "title": "Cafes"}], "rating": 4.5, "coordinates": {"latitude": 53.5502, "longitude": 10.0006}, "transactions": [], "price": "\u20ac", "location": {"address1": "St. Jacobi Kirche", "address2": "Jacobikirchhof 22", "address3": "Eingang Steinstra\u00dfe", "city": "Hamburg", "zip_code": "20095", "country": "DE", "state": "HH", "display_address": ["St. Jacobi Kirche", "Jacobikirchhof 22", "Eingang Steinstra\u00dfe", "20095 Hamburg", "Germany"]}, "phone": "", "display_phone": "", "distance": 948.1416215657947}, {"id": "uIZCMTgMkgBsFG1Sy8LgRQ", "alias": "caf\u00e9-azucar-hamburg-3", "name": "Caf\u00e9 Azucar", "image_url": "https://s3-media2.fl.yelpcdn.com/bphoto/rGSfos2wN5VK5vlY8HtKIQ/o.jpg", "is_closed": false, "url": "https://www.yelp.com/biz/caf%C3%A9-azucar-hamburg-3?adjust_creative=hBJOknVQJ58S5goQyjmwRw&utm_campaign=yelp_api_v3&utm_medium=api_v3_business_search&utm_source=hBJOknVQJ58S5goQyjmwRw", "review_count": 3, "categories": [{"alias": "cafes", "title": "Cafes"}], "rating": 4.0, "coordinates": {"latitude": 53.55031, "longitude": 10.00178}, "transactions": [], "price": "\u20ac\u20ac", "location": {"address1": "Jakobikirchhof 9", "address2": "", "address3": "", "city": "Hamburg", "zip_code": "20095", "country": "DE", "state": "HH", "display_address": ["Jakobikirchhof 9", "20095 Hamburg", "Germany"]}, "phone": "", "display_phone": "", "distance": 937.9885525949599}, {"id": "HTjoHgP4tjClEd3kxEjUcw", "alias": "nordsee-hamburg-8", "name": "Nordsee", "image_url": "https://s3-media4.fl.yelpcdn.com/bphoto/DGp4H_zX_1HhhTnKTx0VqQ/o.jpg", "is_closed": false, "url": "https://www.yelp.com/biz/nordsee-hamburg-8?adjust_creative=hBJOknVQJ58S5goQyjmwRw&utm_campaign=yelp_api_v3&utm_medium=api_v3_business_search&utm_source=hBJOknVQJ58S5goQyjmwRw", "review_count": 9, "categories": [{"alias": "fischbroetchen", "title": "Fischbroetchen"}], "rating": 3.5, "coordinates": {"latitude": 53.5521356288092, "longitude": 10.0066024607429}, "transactions": [], "price": "\u20ac", "location": {"address1": "Hamburg Hauptbahnhof", "address2": "Wandelhalle", "address3": "Glockengie\u00dferwall 8 - 10", "city": "Hamburg", "zip_code": "20099", "country": "DE", "state": "HH", "display_address": ["Hamburg Hauptbahnhof", "Wandelhalle", "Glockengie\u00dferwall 8 - 10", "20099 Hamburg", "Germany"]}, "phone": "+4917626008904", "display_phone": "+49 176 26008904", "distance": 1102.3503962845348}, {"id": "KBk3I--oGcdPErFdk9NYOQ", "alias": "cafe-klein-hamburg", "name": "Cafe Klein", "image_url": "https://s3-media1.fl.yelpcdn.com/bphoto/w0sKNRGAUia33uVZn632mA/o.jpg", "is_closed": false, "url": "https://www.yelp.com/biz/cafe-klein-hamburg?adjust_creative=hBJOknVQJ58S5goQyjmwRw&utm_campaign=yelp_api_v3&utm_medium=api_v3_business_search&utm_source=hBJOknVQJ58S5goQyjmwRw", "review_count": 2, "categories": [{"alias": "cafes", "title": "Cafes"}], "rating": 4.0, "coordinates": {"latitude": 53.55125, "longitude": 10.00289}, "transactions": [], "price": "\u20ac\u20ac", "location": {"address1": "M\u00f6nckebergstr. 7", "address2": "", "address3": "", "city": "Hamburg", "zip_code": "20095", "country": "DE", "state": "HH", "display_address": ["M\u00f6nckebergstr. 7", "20095 Hamburg", "Germany"]}, "phone": "+494030087358", "display_phone": "+49 40 30087358", "distance": 1011.0759916103982}, {"id": "lremydAs79-qKJ3XrEe4mw", "alias": "gosch-sylt-hamburg-6", "name": "Gosch Sylt", "image_url": "https://s3-media1.fl.yelpcdn.com/bphoto/sAxE31luH3ZIPQT6eKh01A/o.jpg", "is_closed": false, "url": "https://www.yelp.com/biz/gosch-sylt-hamburg-6?adjust_creative=hBJOknVQJ58S5goQyjmwRw&utm_campaign=yelp_api_v3&utm_medium=api_v3_business_search&utm_source=hBJOknVQJ58S5goQyjmwRw", "review_count": 28, "categories": [{"alias": "seafood", "title": "Seafood"}], "rating": 3.5, "coordinates": {"latitude": 53.5539285, "longitude": 10.0043007}, "transactions": [], "price": "\u20ac\u20ac", "location": {"address1": "Glockengie\u00dferwall 8 - 10", "address2": "", "address3": "Wandelhalle", "city": "Hamburg", "zip_code": "20099", "country": "DE", "state": "HH", "display_address": ["Glockengie\u00dferwall 8 - 10", "Wandelhalle", "20099 Hamburg", "Germany"]}, "phone": "+494041543769", "display_phone": "+49 40 41543769", "distance": 1189.3628653751168}, {"id": "DfYhkzVh3P5bhcXX7aYMiA", "alias": "kochl\u00f6ffel-hamburg-2", "name": "Kochl\u00f6ffel", "image_url": "https://s3-media4.fl.yelpcdn.com/bphoto/E3PNKsEjfK65DzgYug22lw/o.jpg", "is_closed": false, "url": "https://www.yelp.com/biz/kochl%C3%B6ffel-hamburg-2?adjust_creative=hBJOknVQJ58S5goQyjmwRw&utm_campaign=yelp_api_v3&utm_medium=api_v3_business_search&utm_source=hBJOknVQJ58S5goQyjmwRw", "review_count": 8, "categories": [{"alias": "currysausage", "title": "Curry Sausage"}, {"alias": "chickenshop", "title": "Chicken Shop"}], "rating": 3.5, "coordinates": {"latitude": 53.5516918417512, "longitude": 10.0008617341518}, "transactions": [], "price": "\u20ac", "location": {"address1": "Spitalerstr. 22", "address2": "", "address3": null, "city": "Hamburg", "zip_code": "20095", "country": "DE", "state": "HH", "display_address": ["Spitalerstr. 22", "20095 Hamburg", "Germany"]}, "phone": "", "display_phone": "", "distance": 1099.494184940037}, {"id": "swyrBlQp2Dujeqz0KrBZ-Q", "alias": "indian-delight-hamburg-2", "name": "indian delight", "image_url": "https://s3-media3.fl.yelpcdn.com/bphoto/VC-xRE5vbFdYpP_eOhEPLQ/o.jpg", "is_closed": false, "url": "https://www.yelp.com/biz/indian-delight-hamburg-2?adjust_creative=hBJOknVQJ58S5goQyjmwRw&utm_campaign=yelp_api_v3&utm_medium=api_v3_business_search&utm_source=hBJOknVQJ58S5goQyjmwRw", "review_count": 1, "categories": [{"alias": "indpak", "title": "Indian"}], "rating": 5.0, "coordinates": {"latitude": 53.55294, "longitude": 10.0089}, "transactions": [], "location": {"address1": "Kirchen Allee 56", "address2": null, "address3": "", "city": "Hamburg", "zip_code": "20099", "country": "DE", "state": "HH", "display_address": ["Kirchen Allee 56", "20099 Hamburg", "Germany"]}, "phone": "+4917623769054", "display_phone": "+49 176 23769054", "distance": 1179.02557304586}, {"id": "M8jlRBgWXMt295qGtr5meA", "alias": "l-italiano-vero-hamburg", "name": "L'italiano Vero", "image_url": "https://s3-media1.fl.yelpcdn.com/bphoto/QydrsjlGR4NiAtrOkYPTrg/o.jpg", "is_closed": false, "url": "https://www.yelp.com/biz/l-italiano-vero-hamburg?adjust_creative=hBJOknVQJ58S5goQyjmwRw&utm_campaign=yelp_api_v3&utm_medium=api_v3_business_search&utm_source=hBJOknVQJ58S5goQyjmwRw", "review_count": 16, "categories": [{"alias": "italian", "title": "Italian"}], "rating": 4.0, "coordinates": {"latitude": 53.5525093, "longitude": 10.0012503}, "transactions": [], "price": "\u20ac\u20ac", "location": {"address1": "Gertrudenkirchhof 6", "address2": "", "address3": "", "city": "Hamburg", "zip_code": "20095", "country": "DE", "state": "HH", "display_address": ["Gertrudenkirchhof 6", "20095 Hamburg", "Germany"]}, "phone": "+494028577373", "display_phone": "+49 40 28577373", "distance": 1182.0978955180203}, {"id": "wKccLXGjH_MFRq7KcepJzA", "alias": "mai-mai-hamburg-4", "name": "mai-mai", "image_url": "https://s3-media1.fl.yelpcdn.com/bphoto/tQfVcYbN-acT5URBNjrkIg/o.jpg", "is_closed": false, "url": "https://www.yelp.com/biz/mai-mai-hamburg-4?adjust_creative=hBJOknVQJ58S5goQyjmwRw&utm_campaign=yelp_api_v3&utm_medium=api_v3_business_search&utm_source=hBJOknVQJ58S5goQyjmwRw", "review_count": 1, "categories": [{"alias": "hotdogs", "title": "Fast Food"}], "rating": 4.0, "coordinates": {"latitude": 53.5515, "longitude": 10.0043}, "transactions": [], "price": "\u20ac", "location": {"address1": "M\u00f6nckebergstr. 3", "address2": null, "address3": null, "city": "Hamburg", "zip_code": "20095", "country": "DE", "state": "HH", "display_address": ["M\u00f6nckebergstr. 3", "20095 Hamburg", "Germany"]}, "phone": "", "display_phone": "", "distance": 1034.4478795558011}, {"id": "1fP2vUN90pWf65ZPmYUniw", "alias": "joeys-to-go-hamburg", "name": "Joey's To Go", "image_url": "https://s3-media3.fl.yelpcdn.com/bphoto/xtS683lY04Z4Z1UIVUjZBA/o.jpg", "is_closed": false, "url": "https://www.yelp.com/biz/joeys-to-go-hamburg?adjust_creative=hBJOknVQJ58S5goQyjmwRw&utm_campaign=yelp_api_v3&utm_medium=api_v3_business_search&utm_source=hBJOknVQJ58S5goQyjmwRw", "review_count": 1, "categories": [{"alias": "pizza", "title": "Pizza"}, {"alias": "hotdogs", "title": "Fast Food"}], "rating": 4.0, "coordinates": {"latitude": 53.5536982, "longitude": 10.0046017}, "transactions": [], "price": "\u20ac", "location": {"address1": "Hauptbahnhof", "address2": "Wandelhalle", "address3": "Glockengie\u00dferwall 8 - 10", "city": "Hamburg", "zip_code": "20095", "country": "DE", "state": "HH", "display_address": ["Hauptbahnhof", "Wandelhalle", "Glockengie\u00dferwall 8 - 10", "20095 Hamburg", "Germany"]}, "phone": "", "display_phone": "", "distance": 1189.9405612751805}, {"id": "LG-ciwU6K5bgqdDcp-VJ_w", "alias": "mr-clou-hamburg-3", "name": "Mr. Clou", "image_url": "https://s3-media4.fl.yelpcdn.com/bphoto/D1cX88GFjiPHvh8fp4-Elg/o.jpg", "is_closed": false, "url": "https://www.yelp.com/biz/mr-clou-hamburg-3?adjust_creative=hBJOknVQJ58S5goQyjmwRw&utm_campaign=yelp_api_v3&utm_medium=api_v3_business_search&utm_source=hBJOknVQJ58S5goQyjmwRw", "review_count": 5, "categories": [{"alias": "juicebars", "title": "Juice Bars & Smoothies"}, {"alias": "hotdogs", "title": "Fast Food"}], "rating": 4.0, "coordinates": {"latitude": 53.55139, "longitude": 10.0053699}, "transactions": [], "price": "\u20ac\u20ac", "location": {"address1": "M\u00f6nckebergtunnel", "address2": "M\u00f6nckebergstr. 1", "address3": "", "city": "Hamburg", "zip_code": "20095", "country": "DE", "state": "HH", "display_address": ["M\u00f6nckebergtunnel", "M\u00f6nckebergstr. 1", "20095 Hamburg", "Germany"]}, "phone": "+4917632646717", "display_phone": "+49 176 32646717", "distance": 1009.3390190006983}, {"id": "ybzFrfZ4_a_a9JonCjpANw", "alias": "mcdonalds-hamburg-44", "name": "McDonald's", "image_url": "https://s3-media3.fl.yelpcdn.com/bphoto/rqyYkTMqvayjcWQq8gGFNQ/o.jpg", "is_closed": false, "url": "https://www.yelp.com/biz/mcdonalds-hamburg-44?adjust_creative=hBJOknVQJ58S5goQyjmwRw&utm_campaign=yelp_api_v3&utm_medium=api_v3_business_search&utm_source=hBJOknVQJ58S5goQyjmwRw", "review_count": 47, "categories": [{"alias": "hotdogs", "title": "Fast Food"}, {"alias": "burgers", "title": "Burgers"}], "rating": 3.0, "coordinates": {"latitude": 53.5539285, "longitude": 10.0043007}, "transactions": [], "price": "\u20ac", "location": {"address1": "Glockengie\u00dferwall 8 - 10", "address2": "", "address3": "Wandelhalle", "city": "Hamburg", "zip_code": "20095", "country": "DE", "state": "HH", "display_address": ["Glockengie\u00dferwall 8 - 10", "Wandelhalle", "20095 Hamburg", "Germany"]}, "phone": "+4940326934", "display_phone": "+49 40 326934", "distance": 1189.3628653751168}, {"id": "agsFxbQGQBvZYfcNyHkhFg", "alias": "elbarkaden-lounge-hamburg", "name": "Elbarkaden Lounge", "image_url": "https://s3-media2.fl.yelpcdn.com/bphoto/B0R9SzdZcLEwpBu50TLGhA/o.jpg", "is_closed": false, "url": "https://www.yelp.com/biz/elbarkaden-lounge-hamburg?adjust_creative=hBJOknVQJ58S5goQyjmwRw&utm_campaign=yelp_api_v3&utm_medium=api_v3_business_search&utm_source=hBJOknVQJ58S5goQyjmwRw", "review_count": 7, "categories": [{"alias": "theater", "title": "Performing Arts"}, {"alias": "cafes", "title": "Cafes"}], "rating": 3.0, "coordinates": {"latitude": 53.5428944, "longitude": 10.0010078}, "transactions": [], "price": "\u20ac\u20ac", "location": {"address1": "Hongkongstr. 2 - 4", "address2": "", "address3": "", "city": "Hamburg", "zip_code": "20539", "country": "DE", "state": "HH", "display_address": ["Hongkongstr. 2 - 4", "20539 Hamburg", "Germany"]}, "phone": "+494035770777", "display_phone": "+49 40 35770777", "distance": 320.23629197859447}, {"id": "XZuDcz6c393T7k8HjQwFKg", "alias": "better-burger-company-hamburg-3", "name": "Better Burger Company ", "image_url": "https://s3-media4.fl.yelpcdn.com/bphoto/M1lH0wOg1ZPgcpLDnxibNQ/o.jpg", "is_closed": false, "url": "https://www.yelp.com/biz/better-burger-company-hamburg-3?adjust_creative=hBJOknVQJ58S5goQyjmwRw&utm_campaign=yelp_api_v3&utm_medium=api_v3_business_search&utm_source=hBJOknVQJ58S5goQyjmwRw", "review_count": 8, "categories": [{"alias": "burgers", "title": "Burgers"}], "rating": 3.0, "coordinates": {"latitude": 53.552829, "longitude": 10.000401}, "transactions": [], "price": "\u20ac", "location": {"address1": "Spitalerstr. 22", "address2": "", "address3": null, "city": "Hamburg", "zip_code": "20095", "country": "DE", "state": "HH", "display_address": ["Spitalerstr. 22", "20095 Hamburg", "Germany"]}, "phone": "+494033395233", "display_phone": "+49 40 33395233", "distance": 1229.3393215108144}, {"id": "pCwXYg81fjN-KVLCxmdbwg", "alias": "mathewes-coffee-und-deli-hamburg-3", "name": "Mathewes Coffee & Deli", "image_url": "https://s3-media2.fl.yelpcdn.com/bphoto/o89euPcvJ9owKeD5WDabEQ/o.jpg", "is_closed": false, "url": "https://www.yelp.com/biz/mathewes-coffee-und-deli-hamburg-3?adjust_creative=hBJOknVQJ58S5goQyjmwRw&utm_campaign=yelp_api_v3&utm_medium=api_v3_business_search&utm_source=hBJOknVQJ58S5goQyjmwRw", "review_count": 3, "categories": [{"alias": "cafes", "title": "Cafes"}, {"alias": "delis", "title": "Delis"}], "rating": 3.5, "coordinates": {"latitude": 53.55169, "longitude": 10.00089}, "transactions": [], "price": "\u20ac\u20ac", "location": {"address1": "Spitalerstr. 22", "address2": "", "address3": null, "city": "Hamburg", "zip_code": "20095", "country": "DE", "state": "HH", "display_address": ["Spitalerstr. 22", "20095 Hamburg", "Germany"]}, "phone": "+494032089888", "display_phone": "+49 40 32089888", "distance": 1126.005224400497}, {"id": "IgaP0lJxg0isgV0QYMulSg", "alias": "gastst\u00e4tte-sofram-hamburg", "name": "Gastst\u00e4tte Sofram", "image_url": "", "is_closed": false, "url": "https://www.yelp.com/biz/gastst%C3%A4tte-sofram-hamburg?adjust_creative=hBJOknVQJ58S5goQyjmwRw&utm_campaign=yelp_api_v3&utm_medium=api_v3_business_search&utm_source=hBJOknVQJ58S5goQyjmwRw", "review_count": 1, "categories": [{"alias": "turkish", "title": "Turkish"}], "rating": 5.0, "coordinates": {"latitude": 53.55298, "longitude": 10.01051}, "transactions": [], "location": {"address1": "Steindamm 5", "address2": null, "address3": null, "city": "Hamburg", "zip_code": "20099", "country": "DE", "state": "HH", "display_address": ["Steindamm 5", "20099 Hamburg", "Germany"]}, "phone": "+49402804066", "display_phone": "+49 40 2804066", "distance": 1199.3015333246817}, {"id": "FqAYFOxMGGbgoGpgbLBnMw", "alias": "fritts-hamburg", "name": "Fritt's", "image_url": "https://s3-media3.fl.yelpcdn.com/bphoto/SSSpe1upGuxce3LO3MRiZw/o.jpg", "is_closed": false, "url": "https://www.yelp.com/biz/fritts-hamburg?adjust_creative=hBJOknVQJ58S5goQyjmwRw&utm_campaign=yelp_api_v3&utm_medium=api_v3_business_search&utm_source=hBJOknVQJ58S5goQyjmwRw", "review_count": 1, "categories": [{"alias": "foodstands", "title": "Food Stands"}, {"alias": "currysausage", "title": "Curry Sausage"}, {"alias": "hotdogs", "title": "Fast Food"}], "rating": 4.0, "coordinates": {"latitude": 53.5529016068456, "longitude": 10.0066063935028}, "transactions": [], "price": "\u20ac", "location": {"address1": "Heidi-Kabel-Platz 13", "address2": "", "address3": "Wandelhalle", "city": "Hamburg", "zip_code": "20099", "country": "DE", "state": "HH", "display_address": ["Heidi-Kabel-Platz 13", "Wandelhalle", "20099 Hamburg", "Germany"]}, "phone": "+494032004820", "display_phone": "+49 40 32004820", "distance": 1187.4266561450884}, {"id": "MpFjqUNdNPUC1WieT8vkgw", "alias": "asia-hung-hamburg-11", "name": "asia hung", "image_url": "https://s3-media2.fl.yelpcdn.com/bphoto/RS1xRoWkP4WbZInQ3gYWEQ/o.jpg", "is_closed": false, "url": "https://www.yelp.com/biz/asia-hung-hamburg-11?adjust_creative=hBJOknVQJ58S5goQyjmwRw&utm_campaign=yelp_api_v3&utm_medium=api_v3_business_search&utm_source=hBJOknVQJ58S5goQyjmwRw", "review_count": 40, "categories": [{"alias": "hotdogs", "title": "Fast Food"}, {"alias": "panasian", "title": "Pan Asian"}], "rating": 3.5, "coordinates": {"latitude": 53.5539285, "longitude": 10.0043007}, "transactions": [], "price": "\u20ac", "location": {"address1": "Glockengie\u00dferwall  8-10", "address2": "", "address3": "Wandelhalle", "city": "Hamburg", "zip_code": "20095", "country": "DE", "state": "HH", "display_address": ["Glockengie\u00dferwall  8-10", "Wandelhalle", "20095 Hamburg", "Germany"]}, "phone": "+494030085088", "display_phone": "+49 40 30085088", "distance": 1189.3628653751168}, {"id": "vDEgRRDe0IIP0MuTaVtAlw", "alias": "sashimi-sushi-hamburg-3", "name": "Sashimi Sushi", "image_url": "https://s3-media3.fl.yelpcdn.com/bphoto/umG5Pg-F5YtxanD2ic1L2A/o.jpg", "is_closed": false, "url": "https://www.yelp.com/biz/sashimi-sushi-hamburg-3?adjust_creative=hBJOknVQJ58S5goQyjmwRw&utm_campaign=yelp_api_v3&utm_medium=api_v3_business_search&utm_source=hBJOknVQJ58S5goQyjmwRw", "review_count": 85, "categories": [{"alias": "sushi", "title": "Sushi Bars"}], "rating": 3.5, "coordinates": {"latitude": 53.5539285, "longitude": 10.0043007}, "transactions": [], "price": "\u20ac\u20ac", "location": {"address1": "Glockengie\u00dferwall 8 - 10", "address2": "", "address3": "Wandelhalle", "city": "Hamburg", "zip_code": "20095", "country": "DE", "state": "HH", "display_address": ["Glockengie\u00dferwall 8 - 10", "Wandelhalle", "20095 Hamburg", "Germany"]}, "phone": "+494030971697", "display_phone": "+49 40 30971697", "distance": 1189.3628653751168}, {"id": "oB3dcxmyjZ-2-gL-WYpxQA", "alias": "trattoria-vitello-hamburg", "name": "Trattoria Vitello", "image_url": "https://s3-media2.fl.yelpcdn.com/bphoto/pL3xCCwaxBnPffoZIgqdLA/o.jpg", "is_closed": false, "url": "https://www.yelp.com/biz/trattoria-vitello-hamburg?adjust_creative=hBJOknVQJ58S5goQyjmwRw&utm_campaign=yelp_api_v3&utm_medium=api_v3_business_search&utm_source=hBJOknVQJ58S5goQyjmwRw", "review_count": 4, "categories": [{"alias": "italian", "title": "Italian"}, {"alias": "pizza", "title": "Pizza"}], "rating": 3.5, "coordinates": {"latitude": 53.5520930017534, "longitude": 10.0004563853145}, "transactions": [], "price": "\u20ac", "location": {"address1": "Gerhart-Hauptmann-Platz 48", "address2": "", "address3": "", "city": "Hamburg", "zip_code": "20095", "country": "DE", "state": "HH", "display_address": ["Gerhart-Hauptmann-Platz 48", "20095 Hamburg", "Germany"]}, "phone": "+4940335195", "display_phone": "+49 40 335195", "distance": 1150.0489289615577}, {"id": "sV0XVAGCNuFa6oe0TSXdvg", "alias": "vivet-hamburg", "name": "Vivet", "image_url": "https://s3-media4.fl.yelpcdn.com/bphoto/mnPcenmzigmVkQOcxbDw1g/o.jpg", "is_closed": false, "url": "https://www.yelp.com/biz/vivet-hamburg?adjust_creative=hBJOknVQJ58S5goQyjmwRw&utm_campaign=yelp_api_v3&utm_medium=api_v3_business_search&utm_source=hBJOknVQJ58S5goQyjmwRw", "review_count": 43, "categories": [{"alias": "bars", "title": "Bars"}, {"alias": "cafes", "title": "Cafes"}], "rating": 3.0, "coordinates": {"latitude": 53.55187, "longitude": 10.00262}, "transactions": [], "price": "\u20ac\u20ac", "location": {"address1": "Spitaler Str. 9", "address2": "", "address3": "", "city": "Hamburg", "zip_code": "20095", "country": "DE", "state": "HH", "display_address": ["Spitaler Str. 9", "20095 Hamburg", "Germany"]}, "phone": "+494032901790", "display_phone": "+49 40 32901790", "distance": 1078.512688649072}, {"id": "QUmErtx4YrhUR40TItt3Ew", "alias": "nacht-der-gen\u00fcsse-hamburg", "name": "Nacht Der Gen\u00fcsse", "image_url": "https://s3-media2.fl.yelpcdn.com/bphoto/JMN0uGpKQK35gpo2Ngam4A/o.jpg", "is_closed": false, "url": "https://www.yelp.com/biz/nacht-der-gen%C3%BCsse-hamburg?adjust_creative=hBJOknVQJ58S5goQyjmwRw&utm_campaign=yelp_api_v3&utm_medium=api_v3_business_search&utm_source=hBJOknVQJ58S5goQyjmwRw", "review_count": 1, "categories": [{"alias": "restaurants", "title": "Restaurants"}], "rating": 4.0, "coordinates": {"latitude": 53.5508932, "longitude": 9.999948}, "transactions": [], "price": "\u20ac\u20ac", "location": {"address1": "M\u00f6nckebergstr", "address2": "", "address3": "", "city": "Hamburg", "zip_code": "20095", "country": "DE", "state": "HH", "display_address": ["M\u00f6nckebergstr", "20095 Hamburg", "Germany"]}, "phone": "", "display_phone": "", "distance": 1035.6003963395697}, {"id": "YGf4tyKM1PhVNx4SE0skww", "alias": "roncalli-grand-caf\u00e9-hamburg", "name": "Roncalli Grand Caf\u00e9", "image_url": "https://s3-media3.fl.yelpcdn.com/bphoto/_TV0HtspbG7HMeZg7rL0uw/o.jpg", "is_closed": false, "url": "https://www.yelp.com/biz/roncalli-grand-caf%C3%A9-hamburg?adjust_creative=hBJOknVQJ58S5goQyjmwRw&utm_campaign=yelp_api_v3&utm_medium=api_v3_business_search&utm_source=hBJOknVQJ58S5goQyjmwRw", "review_count": 45, "categories": [{"alias": "cafes", "title": "Cafes"}, {"alias": "breakfast_brunch", "title": "Breakfast & Brunch"}], "rating": 2.5, "coordinates": {"latitude": 53.55125, "longitude": 10.00289}, "transactions": [], "price": "\u20ac\u20ac", "location": {"address1": "M\u00f6nckebergstr. 7", "address2": "", "address3": "", "city": "Hamburg", "zip_code": "20095", "country": "DE", "state": "HH", "display_address": ["M\u00f6nckebergstr. 7", "20095 Hamburg", "Germany"]}, "phone": "+494030034943", "display_phone": "+49 40 30034943", "distance": 1011.0759916103982}, {"id": "upZRHKVI7AzhG6RZGlZQSQ", "alias": "piazza-hamburg", "name": "Piazza", "image_url": "https://s3-media1.fl.yelpcdn.com/bphoto/KBgepq-nXKVwT217t7f0Kg/o.jpg", "is_closed": false, "url": "https://www.yelp.com/biz/piazza-hamburg?adjust_creative=hBJOknVQJ58S5goQyjmwRw&utm_campaign=yelp_api_v3&utm_medium=api_v3_business_search&utm_source=hBJOknVQJ58S5goQyjmwRw", "review_count": 2, "categories": [{"alias": "italian", "title": "Italian"}], "rating": 2.5, "coordinates": {"latitude": 53.54885, "longitude": 10.0038}, "transactions": [], "location": {"address1": "Springeltwiete 2", "address2": "", "address3": "", "city": "Hamburg", "zip_code": "20095", "country": "DE", "state": "HH", "display_address": ["Springeltwiete 2", "20095 Hamburg", "Germany"]}, "phone": "+494033395177", "display_phone": "+49 40 33395177", "distance": 727.5106429138422}, {"id": "F5qOTOqqXetDNKF83Cq9EQ", "alias": "palang-good-coffee-hamburg", "name": "Palang Good Coffee", "image_url": "https://s3-media2.fl.yelpcdn.com/bphoto/AUBx1TcCyLw0aiRuOADrbg/o.jpg", "is_closed": false, "url": "https://www.yelp.com/biz/palang-good-coffee-hamburg?adjust_creative=hBJOknVQJ58S5goQyjmwRw&utm_campaign=yelp_api_v3&utm_medium=api_v3_business_search&utm_source=hBJOknVQJ58S5goQyjmwRw", "review_count": 5, "categories": [{"alias": "desserts", "title": "Desserts"}, {"alias": "cafes", "title": "Cafes"}], "rating": 3.5, "coordinates": {"latitude": 53.5483154, "longitude": 10.0015183}, "transactions": [], "price": "\u20ac", "location": {"address1": "Chilehaus", "address2": "Fischertwiete 2", "address3": "", "city": "Hamburg", "zip_code": "20095", "country": "DE", "state": "HH", "display_address": ["Chilehaus", "Fischertwiete 2", "20095 Hamburg", "Germany"]}, "phone": "+494030709900", "display_phone": "+49 40 30709900", "distance": 713.7447356519186}, {"id": "SYqUTWvgYumWKuV7_5Ffkw", "alias": "dalyan-hamburg-2", "name": "Dalyan", "image_url": "https://s3-media2.fl.yelpcdn.com/bphoto/HTOs3FEB9KcLcwMoxzw-Zw/o.jpg", "is_closed": false, "url": "https://www.yelp.com/biz/dalyan-hamburg-2?adjust_creative=hBJOknVQJ58S5goQyjmwRw&utm_campaign=yelp_api_v3&utm_medium=api_v3_business_search&utm_source=hBJOknVQJ58S5goQyjmwRw", "review_count": 1, "categories": [{"alias": "kebab", "title": "Kebab"}], "rating": 3.0, "coordinates": {"latitude": 53.5505799, "longitude": 10.0018999}, "transactions": [], "location": {"address1": "Bugenhagenstr. 23", "address2": "", "address3": "", "city": "Hamburg", "zip_code": "20095", "country": "DE", "state": "HH", "display_address": ["Bugenhagenstr. 23", "20095 Hamburg", "Germany"]}, "phone": "+494032507969", "display_phone": "+49 40 32507969", "distance": 943.5802668728763}, {"id": "Bj8UnD9SGFCwqXU0AIKZlw", "alias": "soul-kebab-hamburg", "name": "Soul Kebab", "image_url": "https://s3-media4.fl.yelpcdn.com/bphoto/HOcK46ySlYvuVG1X8-LXbA/o.jpg", "is_closed": false, "url": "https://www.yelp.com/biz/soul-kebab-hamburg?adjust_creative=hBJOknVQJ58S5goQyjmwRw&utm_campaign=yelp_api_v3&utm_medium=api_v3_business_search&utm_source=hBJOknVQJ58S5goQyjmwRw", "review_count": 5, "categories": [{"alias": "turkish", "title": "Turkish"}], "rating": 3.0, "coordinates": {"latitude": 53.55229, "longitude": 10.01069}, "transactions": [], "price": "\u20ac", "location": {"address1": "Adenauerallee 78", "address2": "", "address3": "", "city": "Hamburg", "zip_code": "20097", "country": "DE", "state": "HH", "display_address": ["Adenauerallee 78", "20097 Hamburg", "Germany"]}, "phone": "+494046871839", "display_phone": "+49 40 46871839", "distance": 1165.1057364905846}, {"id": "O0PkzULbuXrj-ctjiMK6yQ", "alias": "samos-hamburg", "name": "Samos", "image_url": "", "is_closed": false, "url": "https://www.yelp.com/biz/samos-hamburg?adjust_creative=hBJOknVQJ58S5goQyjmwRw&utm_campaign=yelp_api_v3&utm_medium=api_v3_business_search&utm_source=hBJOknVQJ58S5goQyjmwRw", "review_count": 1, "categories": [{"alias": "greek", "title": "Greek"}], "rating": 4.0, "coordinates": {"latitude": 53.5530104500952, "longitude": 10.0064602532294}, "transactions": [], "price": "\u20ac", "location": {"address1": "Glockengie\u00dferwall 8-10", "address2": "", "address3": "", "city": "Hamburg", "zip_code": "20095", "country": "DE", "state": "HH", "display_address": ["Glockengie\u00dferwall 8-10", "20095 Hamburg", "Germany"]}, "phone": "+494030061944", "display_phone": "+49 40 30061944", "distance": 1199.0856095345437}, {"id": "CYZTzm7Q2_GLiEQCj62x-w", "alias": "sushi-und-mehr-hamburg", "name": "Sushi & Mehr", "image_url": "https://s3-media1.fl.yelpcdn.com/bphoto/Gwa2e7g6zN-6dHK9gz4OSA/o.jpg", "is_closed": false, "url": "https://www.yelp.com/biz/sushi-und-mehr-hamburg?adjust_creative=hBJOknVQJ58S5goQyjmwRw&utm_campaign=yelp_api_v3&utm_medium=api_v3_business_search&utm_source=hBJOknVQJ58S5goQyjmwRw", "review_count": 8, "categories": [{"alias": "sushi", "title": "Sushi Bars"}], "rating": 3.5, "coordinates": {"latitude": 53.5524, "longitude": 10.0014}, "transactions": [], "price": "\u20ac\u20ac", "location": {"address1": "Lilienstr. 32", "address2": null, "address3": null, "city": "Hamburg", "zip_code": "20095", "country": "DE", "state": "HH", "display_address": ["Lilienstr. 32", "20095 Hamburg", "Germany"]}, "phone": "+494030392739", "display_phone": "+49 40 30392739", "distance": 1165.7998195114712}, {"id": "9x1sQmmJ-W4vDr8mlzFBgA", "alias": "din-hau-hamburg-5", "name": "Din Hau", "image_url": "https://s3-media1.fl.yelpcdn.com/bphoto/s5cGrv50eYVU_rFA67Ql3A/o.jpg", "is_closed": false, "url": "https://www.yelp.com/biz/din-hau-hamburg-5?adjust_creative=hBJOknVQJ58S5goQyjmwRw&utm_campaign=yelp_api_v3&utm_medium=api_v3_business_search&utm_source=hBJOknVQJ58S5goQyjmwRw", "review_count": 30, "categories": [{"alias": "panasian", "title": "Pan Asian"}], "rating": 2.5, "coordinates": {"latitude": 53.5527001, "longitude": 10.0038}, "transactions": [], "price": "\u20ac", "location": {"address1": "Kurze M\u00fchren 6", "address2": null, "address3": null, "city": "Hamburg", "zip_code": "20095", "country": "DE", "state": "HH", "display_address": ["Kurze M\u00fchren 6", "20095 Hamburg", "Germany"]}, "phone": "+494032004947", "display_phone": "+49 40 32004947", "distance": 1170.5302299695381}, {"id": "PK9oDETPRMqOadEK1-d4QA", "alias": "ciao-bella-hamburg-10", "name": "Ciao Bella", "image_url": "https://s3-media3.fl.yelpcdn.com/bphoto/ML4cwNU7vnDQj9qI4sKqiQ/o.jpg", "is_closed": false, "url": "https://www.yelp.com/biz/ciao-bella-hamburg-10?adjust_creative=hBJOknVQJ58S5goQyjmwRw&utm_campaign=yelp_api_v3&utm_medium=api_v3_business_search&utm_source=hBJOknVQJ58S5goQyjmwRw", "review_count": 1, "categories": [{"alias": "pizza", "title": "Pizza"}, {"alias": "foodstands", "title": "Food Stands"}], "rating": 4.0, "coordinates": {"latitude": 53.55178, "longitude": 10.00159}, "transactions": [], "price": "\u20ac", "location": {"address1": "Spitalerstra\u00dfe", "address2": "", "address3": null, "city": "Hamburg", "zip_code": "20095", "country": "DE", "state": "HH", "display_address": ["Spitalerstra\u00dfe", "20095 Hamburg", "Germany"]}, "phone": "+494048060741", "display_phone": "+49 40 48060741", "distance": 1095.8961663940463}, {"id": "1aivsdF34-um1VB9g41J7g", "alias": "wok-express-hamburg", "name": "Wok Express", "image_url": "https://s3-media2.fl.yelpcdn.com/bphoto/n79sPqObg4nJQKg-UQH-4Q/o.jpg", "is_closed": false, "url": "https://www.yelp.com/biz/wok-express-hamburg?adjust_creative=hBJOknVQJ58S5goQyjmwRw&utm_campaign=yelp_api_v3&utm_medium=api_v3_business_search&utm_source=hBJOknVQJ58S5goQyjmwRw", "review_count": 35, "categories": [{"alias": "wok", "title": "Wok"}, {"alias": "hotdogs", "title": "Fast Food"}], "rating": 2.5, "coordinates": {"latitude": 53.5525852362268, "longitude": 10.0070522803344}, "transactions": [], "price": "\u20ac", "location": {"address1": "Hamburg Hauptbahnhof", "address2": "Glockengie\u00dferwall 8 - 10", "address3": "", "city": "Hamburg", "zip_code": "20099", "country": "DE", "state": "HH", "display_address": ["Hamburg Hauptbahnhof", "Glockengie\u00dferwall 8 - 10", "20099 Hamburg", "Germany"]}, "phone": "+494032528865", "display_phone": "+49 40 32528865", "distance": 1154.1536879127411}, {"id": "xaKktalIK7dVtQH_X98DbA", "alias": "manju-hamburg", "name": "Manju", "image_url": "https://s3-media3.fl.yelpcdn.com/bphoto/u-qhf31SnSvT8d2Yae18ag/o.jpg", "is_closed": false, "url": "https://www.yelp.com/biz/manju-hamburg?adjust_creative=hBJOknVQJ58S5goQyjmwRw&utm_campaign=yelp_api_v3&utm_medium=api_v3_business_search&utm_source=hBJOknVQJ58S5goQyjmwRw", "review_count": 43, "categories": [{"alias": "indpak", "title": "Indian"}, {"alias": "foodstands", "title": "Food Stands"}], "rating": 3.0, "coordinates": {"latitude": 53.5539285, "longitude": 10.0043007}, "transactions": [], "price": "\u20ac", "location": {"address1": "Glockengie\u00dferwall 8 - 10", "address2": "", "address3": "Wandelhalle", "city": "Hamburg", "zip_code": "20095", "country": "DE", "state": "HH", "display_address": ["Glockengie\u00dferwall 8 - 10", "Wandelhalle", "20095 Hamburg", "Germany"]}, "phone": "+4917624724290", "display_phone": "+49 176 24724290", "distance": 1189.3628653751168}, {"id": "D5G06f7cuoytKVLMQfrtCw", "alias": "mcdonalds-hamburg-3", "name": "McDonald's", "image_url": "https://s3-media1.fl.yelpcdn.com/bphoto/jxwiXt35WIOQkh_DEVOzcQ/o.jpg", "is_closed": false, "url": "https://www.yelp.com/biz/mcdonalds-hamburg-3?adjust_creative=hBJOknVQJ58S5goQyjmwRw&utm_campaign=yelp_api_v3&utm_medium=api_v3_business_search&utm_source=hBJOknVQJ58S5goQyjmwRw", "review_count": 19, "categories": [{"alias": "hotdogs", "title": "Fast Food"}, {"alias": "burgers", "title": "Burgers"}], "rating": 2.5, "coordinates": {"latitude": 53.5505478035735, "longitude": 9.99967863168384}, "transactions": [], "price": "\u20ac", "location": {"address1": "Ida-Ehre-Platz 10", "address2": null, "address3": null, "city": "Hamburg", "zip_code": "20095", "country": "DE", "state": "HH", "display_address": ["Ida-Ehre-Platz 10", "20095 Hamburg", "Germany"]}, "phone": "+4940335004", "display_phone": "+49 40 335004", "distance": 1006.927469322973}, {"id": "eS4_NDVzbb931H2Dt90kdA", "alias": "sahha-hamburg", "name": "Sahha", "image_url": "https://s3-media3.fl.yelpcdn.com/bphoto/JyUqy6iqppRvCMTmRqoMAw/o.jpg", "is_closed": false, "url": "https://www.yelp.com/biz/sahha-hamburg?adjust_creative=hBJOknVQJ58S5goQyjmwRw&utm_campaign=yelp_api_v3&utm_medium=api_v3_business_search&utm_source=hBJOknVQJ58S5goQyjmwRw", "review_count": 3, "categories": [{"alias": "hotdogs", "title": "Fast Food"}], "rating": 4.0, "coordinates": {"latitude": 53.55274, "longitude": 10.00346}, "transactions": [], "location": {"address1": "Kurze M\u00fchren 1", "address2": null, "address3": null, "city": "Hamburg", "zip_code": "20095", "country": "DE", "state": "HH", "display_address": ["Kurze M\u00fchren 1", "20095 Hamburg", "Germany"]}, "phone": "", "display_phone": "", "distance": 1175.776233130807}, {"id": "FzlBOIMobvSltMccEwKzHw", "alias": "kfc-hamburg-9", "name": "KFC", "image_url": "https://s3-media2.fl.yelpcdn.com/bphoto/_LAxv5SX30JdCyq-TSahlg/o.jpg", "is_closed": false, "url": "https://www.yelp.com/biz/kfc-hamburg-9?adjust_creative=hBJOknVQJ58S5goQyjmwRw&utm_campaign=yelp_api_v3&utm_medium=api_v3_business_search&utm_source=hBJOknVQJ58S5goQyjmwRw", "review_count": 29, "categories": [{"alias": "hotdogs", "title": "Fast Food"}, {"alias": "chicken_wings", "title": "Chicken Wings"}, {"alias": "chickenshop", "title": "Chicken Shop"}], "rating": 3.0, "coordinates": {"latitude": 53.5539285, "longitude": 10.0043007}, "transactions": [], "price": "\u20ac\u20ac", "location": {"address1": "Glockengie\u00dferwall 8 - 10", "address2": "", "address3": null, "city": "Hamburg", "zip_code": "20095", "country": "DE", "state": "HH", "display_address": ["Glockengie\u00dferwall 8 - 10", "20095 Hamburg", "Germany"]}, "phone": "+494213651670", "display_phone": "+49 421 3651670", "distance": 1189.3628653751168}, {"id": "eynuZ9kQgaa8n9wIN4QTDw", "alias": "mr-clou-hamburg-8", "name": "Mr. Clou", "image_url": "https://s3-media2.fl.yelpcdn.com/bphoto/_YknguPzd5ag9w45U6gSdA/o.jpg", "is_closed": false, "url": "https://www.yelp.com/biz/mr-clou-hamburg-8?adjust_creative=hBJOknVQJ58S5goQyjmwRw&utm_campaign=yelp_api_v3&utm_medium=api_v3_business_search&utm_source=hBJOknVQJ58S5goQyjmwRw", "review_count": 3, "categories": [{"alias": "hotdogs", "title": "Fast Food"}, {"alias": "juicebars", "title": "Juice Bars & Smoothies"}], "rating": 3.0, "coordinates": {"latitude": 53.5528, "longitude": 10.0075}, "transactions": [], "price": "\u20ac\u20ac", "location": {"address1": "Hachmannplatz 10 - 16", "address2": "S\u00fcdsteg", "address3": null, "city": "Hamburg", "zip_code": "20099", "country": "DE", "state": "HH", "display_address": ["Hachmannplatz 10 - 16", "S\u00fcdsteg", "20099 Hamburg", "Germany"]}, "phone": "+494033395081", "display_phone": "+49 40 33395081", "distance": 1180.5358122336493}, {"id": "21VBGo_vGogeQNzsDT5mJw", "alias": "burger-king-hamburg-16", "name": "Burger King", "image_url": "https://s3-media3.fl.yelpcdn.com/bphoto/oNusq1GyrD7xSiM7qVkv5g/o.jpg", "is_closed": false, "url": "https://www.yelp.com/biz/burger-king-hamburg-16?adjust_creative=hBJOknVQJ58S5goQyjmwRw&utm_campaign=yelp_api_v3&utm_medium=api_v3_business_search&utm_source=hBJOknVQJ58S5goQyjmwRw", "review_count": 28, "categories": [{"alias": "hotdogs", "title": "Fast Food"}, {"alias": "burgers", "title": "Burgers"}], "rating": 3.0, "coordinates": {"latitude": 53.5521012551038, "longitude": 10.0068867018829}, "transactions": [], "price": "\u20ac\u20ac", "location": {"address1": "Hachmannplatz 16", "address2": "", "address3": "", "city": "Hamburg", "zip_code": "20099", "country": "DE", "state": "HH", "display_address": ["Hachmannplatz 16", "20099 Hamburg", "Germany"]}, "phone": "+494030297259", "display_phone": "+49 40 30297259", "distance": 1099.6834470971248}, {"id": "bbtzQNJp1ijf3rGTPVl32w", "alias": "currywurst-express-hamburg", "name": "Currywurst Express", "image_url": "https://s3-media1.fl.yelpcdn.com/bphoto/7gBh7Yki2jVKL1lRjStcQg/o.jpg", "is_closed": false, "url": "https://www.yelp.com/biz/currywurst-express-hamburg?adjust_creative=hBJOknVQJ58S5goQyjmwRw&utm_campaign=yelp_api_v3&utm_medium=api_v3_business_search&utm_source=hBJOknVQJ58S5goQyjmwRw", "review_count": 5, "categories": [{"alias": "currysausage", "title": "Curry Sausage"}, {"alias": "hotdogs", "title": "Fast Food"}], "rating": 4.0, "coordinates": {"latitude": 53.5539285, "longitude": 10.0043007}, "transactions": [], "price": "\u20ac\u20ac", "location": {"address1": "Glockengie\u00dferwall 8 - 10", "address2": "", "address3": "Wandelhalle", "city": "Hamburg", "zip_code": "20095", "country": "DE", "state": "HH", "display_address": ["Glockengie\u00dferwall 8 - 10", "Wandelhalle", "20095 Hamburg", "Germany"]}, "phone": "+494032529706", "display_phone": "+49 40 32529706", "distance": 1189.3628653751168}, {"id": "13dEfPpHq2FKvnY8Sk_siQ", "alias": "sait-kebab-salonu-hamburg-2", "name": "Sait Kebab Salonu", "image_url": "https://s3-media3.fl.yelpcdn.com/bphoto/dfkoJRXlzFz8xmzrBOP4Rw/o.jpg", "is_closed": false, "url": "https://www.yelp.com/biz/sait-kebab-salonu-hamburg-2?adjust_creative=hBJOknVQJ58S5goQyjmwRw&utm_campaign=yelp_api_v3&utm_medium=api_v3_business_search&utm_source=hBJOknVQJ58S5goQyjmwRw", "review_count": 2, "categories": [{"alias": "kebab", "title": "Kebab"}], "rating": 3.5, "coordinates": {"latitude": 53.5529397276843, "longitude": 10.0106789544225}, "transactions": [], "price": "\u20ac", "location": {"address1": "Steindamm 4", "address2": "", "address3": null, "city": "Hamburg", "zip_code": "20099", "country": "DE", "state": "HH", "display_address": ["Steindamm 4", "20099 Hamburg", "Germany"]}, "phone": "+494024870730", "display_phone": "+49 40 24870730", "distance": 1234.4038990153417}, {"id": "70PugdkUnpvKkwA9-WN-dw", "alias": "bar-levante-hamburg", "name": "Bar Levante", "image_url": "https://s3-media2.fl.yelpcdn.com/bphoto/-oEgIJOycsy4aZVuIVLBFw/o.jpg", "is_closed": false, "url": "https://www.yelp.com/biz/bar-levante-hamburg?adjust_creative=hBJOknVQJ58S5goQyjmwRw&utm_campaign=yelp_api_v3&utm_medium=api_v3_business_search&utm_source=hBJOknVQJ58S5goQyjmwRw", "review_count": 27, "categories": [{"alias": "italian", "title": "Italian"}, {"alias": "cafes", "title": "Cafes"}], "rating": 3.5, "coordinates": {"latitude": 53.55125, "longitude": 10.00289}, "transactions": [], "price": "\u20ac\u20ac", "location": {"address1": "M\u00f6nckebergstr. 7", "address2": null, "address3": null, "city": "Hamburg", "zip_code": "20095", "country": "DE", "state": "HH", "display_address": ["M\u00f6nckebergstr. 7", "20095 Hamburg", "Germany"]}, "phone": "+494032526363", "display_phone": "+49 40 32526363", "distance": 1011.0759916103982}, {"id": "YZAWRWcxMgvcijI3eCsXIA", "alias": "senfbar-hamburg", "name": "Senfbar", "image_url": "https://s3-media2.fl.yelpcdn.com/bphoto/hB8RZVZo2PII0_SD6mZMtQ/o.jpg", "is_closed": false, "url": "https://www.yelp.com/biz/senfbar-hamburg?adjust_creative=hBJOknVQJ58S5goQyjmwRw&utm_campaign=yelp_api_v3&utm_medium=api_v3_business_search&utm_source=hBJOknVQJ58S5goQyjmwRw", "review_count": 10, "categories": [{"alias": "hotdogs", "title": "Fast Food"}, {"alias": "currysausage", "title": "Curry Sausage"}, {"alias": "foodstands", "title": "Food Stands"}], "rating": 2.5, "coordinates": {"latitude": 53.5514973180344, "longitude": 10.0072183308372}, "transactions": [], "price": "\u20ac", "location": {"address1": "Hachmannplatz 16", "address2": "", "address3": "", "city": "Hamburg", "zip_code": "20099", "country": "DE", "state": "HH", "display_address": ["Hachmannplatz 16", "20099 Hamburg", "Germany"]}, "phone": "+494046063010", "display_phone": "+49 40 46063010", "distance": 1034.5608573274003}, {"id": "dpNDidQq6_GDd28CxfrCcg", "alias": "mcdonalds-hamburg-43", "name": "McDonald's", "image_url": "https://s3-media4.fl.yelpcdn.com/bphoto/8iSTNBUzA6FTEyiJW2fe4Q/o.jpg", "is_closed": false, "url": "https://www.yelp.com/biz/mcdonalds-hamburg-43?adjust_creative=hBJOknVQJ58S5goQyjmwRw&utm_campaign=yelp_api_v3&utm_medium=api_v3_business_search&utm_source=hBJOknVQJ58S5goQyjmwRw", "review_count": 22, "categories": [{"alias": "hotdogs", "title": "Fast Food"}, {"alias": "burgers", "title": "Burgers"}], "rating": 2.0, "coordinates": {"latitude": 53.5521, "longitude": 10.01093}, "transactions": [], "price": "\u20ac", "location": {"address1": "Adenauer Allee 78", "address2": "", "address3": "", "city": "Hamburg", "zip_code": "20097", "country": "DE", "state": "HH", "display_address": ["Adenauer Allee 78", "20097 Hamburg", "Germany"]}, "phone": "+4940246841", "display_phone": "+49 40 246841", "distance": 1162.5604887936756}, {"id": "fqUi-129F1ndtDDFPJiJVg", "alias": "mac-donalds-hamburg", "name": "Mac Donalds", "image_url": "https://s3-media4.fl.yelpcdn.com/bphoto/vXfHnPBUljXxhbUQFR2Rhw/o.jpg", "is_closed": false, "url": "https://www.yelp.com/biz/mac-donalds-hamburg?adjust_creative=hBJOknVQJ58S5goQyjmwRw&utm_campaign=yelp_api_v3&utm_medium=api_v3_business_search&utm_source=hBJOknVQJ58S5goQyjmwRw", "review_count": 1, "categories": [{"alias": "burgers", "title": "Burgers"}, {"alias": "hotdogs", "title": "Fast Food"}], "rating": 4.0, "coordinates": {"latitude": 53.552997, "longitude": 10.006085}, "transactions": [], "location": {"address1": "Glockengiesserwall 8-10", "address2": "", "address3": "", "city": "Hamburg", "zip_code": "20095", "country": "DE", "state": "HH", "display_address": ["Glockengiesserwall 8-10", "20095 Hamburg", "Germany"]}, "phone": "+4940326934", "display_phone": "+49 40 326934", "distance": 1189.3628653751168}, {"id": "-qHaWmqNzXpsGWEaTLUUDw", "alias": "sushi-circle-hamburg-3", "name": "Sushi Circle", "image_url": "https://s3-media2.fl.yelpcdn.com/bphoto/KWYoGHsy8plZE-saPXMWZQ/o.jpg", "is_closed": false, "url": "https://www.yelp.com/biz/sushi-circle-hamburg-3?adjust_creative=hBJOknVQJ58S5goQyjmwRw&utm_campaign=yelp_api_v3&utm_medium=api_v3_business_search&utm_source=hBJOknVQJ58S5goQyjmwRw", "review_count": 1, "categories": [{"alias": "sushi", "title": "Sushi Bars"}], "rating": 2.0, "coordinates": {"latitude": 53.5507515, "longitude": 10.0017259}, "transactions": [], "price": "\u20ac\u20ac", "location": {"address1": "Karstadt", "address2": "M\u00f6nckebergstr. 16", "address3": null, "city": "Hamburg", "zip_code": "20095", "country": "DE", "state": "HH", "display_address": ["Karstadt", "M\u00f6nckebergstr. 16", "20095 Hamburg", "Germany"]}, "phone": "+494076758272", "display_phone": "+49 40 76758272", "distance": 983.1062860899489}, {"id": "GAvvkmphPwp2e18cHs1-eA", "alias": "pizza-und-pasta-hamburg", "name": "Pizza & Pasta", "image_url": "https://s3-media4.fl.yelpcdn.com/bphoto/Wdp21nbi5n8AKvBwxnWIrQ/o.jpg", "is_closed": false, "url": "https://www.yelp.com/biz/pizza-und-pasta-hamburg?adjust_creative=hBJOknVQJ58S5goQyjmwRw&utm_campaign=yelp_api_v3&utm_medium=api_v3_business_search&utm_source=hBJOknVQJ58S5goQyjmwRw", "review_count": 6, "categories": [{"alias": "bistros", "title": "Bistros"}, {"alias": "italian", "title": "Italian"}], "rating": 2.5, "coordinates": {"latitude": 53.55202, "longitude": 9.99965}, "transactions": [], "price": "\u20ac\u20ac\u20ac\u20ac", "location": {"address1": "Gerhart-Hauptmann-Platz 48", "address2": "", "address3": "", "city": "Hamburg", "zip_code": "20095", "country": "DE", "state": "HH", "display_address": ["Gerhart-Hauptmann-Platz 48", "20095 Hamburg", "Germany"]}, "phone": "+4940327813", "display_phone": "+49 40 327813", "distance": 1159.6626614841416}, {"id": "ocl6OG0z8L8UMX-cig6Wvw", "alias": "beyti-mangal-hamburg", "name": "Beyti Mangal", "image_url": "https://s3-media1.fl.yelpcdn.com/bphoto/nfm44povfYF3zKc6lT7GRg/o.jpg", "is_closed": false, "url": "https://www.yelp.com/biz/beyti-mangal-hamburg?adjust_creative=hBJOknVQJ58S5goQyjmwRw&utm_campaign=yelp_api_v3&utm_medium=api_v3_business_search&utm_source=hBJOknVQJ58S5goQyjmwRw", "review_count": 9, "categories": [{"alias": "turkish", "title": "Turkish"}, {"alias": "kebab", "title": "Kebab"}], "rating": 2.5, "coordinates": {"latitude": 53.5529571, "longitude": 10.0104883}, "transactions": [], "price": "\u20ac\u20ac", "location": {"address1": "Steindamm 5", "address2": null, "address3": null, "city": "Hamburg", "zip_code": "20099", "country": "DE", "state": "HH", "display_address": ["Steindamm 5", "20099 Hamburg", "Germany"]}, "phone": "+494069081354", "display_phone": "+49 40 69081354", "distance": 1232.992322678025}, {"id": "rxjOTXVplQjZCHh4td1DNg", "alias": "mr-clou-hamburg-5", "name": "Mr. Clou", "image_url": "https://s3-media1.fl.yelpcdn.com/bphoto/MiFjGFr_4nwUkyG9HjX2og/o.jpg", "is_closed": false, "url": "https://www.yelp.com/biz/mr-clou-hamburg-5?adjust_creative=hBJOknVQJ58S5goQyjmwRw&utm_campaign=yelp_api_v3&utm_medium=api_v3_business_search&utm_source=hBJOknVQJ58S5goQyjmwRw", "review_count": 25, "categories": [{"alias": "juicebars", "title": "Juice Bars & Smoothies"}, {"alias": "hotdogs", "title": "Fast Food"}], "rating": 2.5, "coordinates": {"latitude": 53.5539285, "longitude": 10.0043007}, "transactions": [], "price": "\u20ac\u20ac", "location": {"address1": "Glockengie\u00dferwall 8 - 10", "address2": "", "address3": "Wandelhalle", "city": "Hamburg", "zip_code": "20095", "country": "DE", "state": "HH", "display_address": ["Glockengie\u00dferwall 8 - 10", "Wandelhalle", "20095 Hamburg", "Germany"]}, "phone": "+494032507721", "display_phone": "+49 40 32507721", "distance": 1189.3628653751168}, {"id": "yl6IUNspl6UBvAaUOf-d8w", "alias": "elbphilharmonie-kulturcaf\u00e9-hamburg-2", "name": "Elbphilharmonie Kulturcaf\u00e9", "image_url": "https://s3-media2.fl.yelpcdn.com/bphoto/t0U7DthpkZDY_LnwvGSsiw/o.jpg", "is_closed": false, "url": "https://www.yelp.com/biz/elbphilharmonie-kulturcaf%C3%A9-hamburg-2?adjust_creative=hBJOknVQJ58S5goQyjmwRw&utm_campaign=yelp_api_v3&utm_medium=api_v3_business_search&utm_source=hBJOknVQJ58S5goQyjmwRw", "review_count": 7, "categories": [{"alias": "restaurants", "title": "Restaurants"}, {"alias": "coffee", "title": "Coffee & Tea"}], "rating": 2.5, "coordinates": {"latitude": 53.55137, "longitude": 10.00111}, "transactions": [], "price": "\u20ac\u20ac\u20ac", "location": {"address1": "Barkhof 3", "address2": "", "address3": null, "city": "Hamburg", "zip_code": "20095", "country": "DE", "state": "HH", "display_address": ["Barkhof 3", "20095 Hamburg", "Germany"]}, "phone": "+494035766666", "display_phone": "+49 40 35766666", "distance": 1059.2156667819934}, {"id": "ASv5RMWP9SXwKiweCbOtzQ", "alias": "granditalia-hamburg", "name": "granditalia", "image_url": "https://s3-media2.fl.yelpcdn.com/bphoto/OUWkhHGa9cmr8lvnnrYLrA/o.jpg", "is_closed": false, "url": "https://www.yelp.com/biz/granditalia-hamburg?adjust_creative=hBJOknVQJ58S5goQyjmwRw&utm_campaign=yelp_api_v3&utm_medium=api_v3_business_search&utm_source=hBJOknVQJ58S5goQyjmwRw", "review_count": 1, "categories": [{"alias": "italian", "title": "Italian"}], "rating": 4.0, "coordinates": {"latitude": 53.5523, "longitude": 10.0009}, "transactions": [], "location": {"address1": "Gertrudenkirchhof 6", "address2": null, "address3": null, "city": "Hamburg", "zip_code": "20095", "country": "DE", "state": "HH", "display_address": ["Gertrudenkirchhof 6", "20095 Hamburg", "Germany"]}, "phone": "+494032872977", "display_phone": "+49 40 32872977", "distance": 1163.6371027561993}, {"id": "1nNX8p189K0xLF93b34rwA", "alias": "orasia-hamburg", "name": "Orasia", "image_url": "", "is_closed": false, "url": "https://www.yelp.com/biz/orasia-hamburg?adjust_creative=hBJOknVQJ58S5goQyjmwRw&utm_campaign=yelp_api_v3&utm_medium=api_v3_business_search&utm_source=hBJOknVQJ58S5goQyjmwRw", "review_count": 1, "categories": [{"alias": "panasian", "title": "Pan Asian"}], "rating": 4.0, "coordinates": {"latitude": 53.5521, "longitude": 10.0011}, "transactions": [], "location": {"address1": "Gertrudenkirchhof 8", "address2": null, "address3": null, "city": "Hamburg", "zip_code": "20095", "country": "DE", "state": "HH", "display_address": ["Gertrudenkirchhof 8", "20095 Hamburg", "Germany"]}, "phone": "", "display_phone": "", "distance": 1138.6481628888596}, {"id": "_96cOD-AIsyd9apOjj9G2A", "alias": "asiahung-hamburg-11", "name": "asiahung", "image_url": "https://s3-media4.fl.yelpcdn.com/bphoto/zC6CLyf0x7QUbx16WktpZQ/o.jpg", "is_closed": false, "url": "https://www.yelp.com/biz/asiahung-hamburg-11?adjust_creative=hBJOknVQJ58S5goQyjmwRw&utm_campaign=yelp_api_v3&utm_medium=api_v3_business_search&utm_source=hBJOknVQJ58S5goQyjmwRw", "review_count": 5, "categories": [{"alias": "hotdogs", "title": "Fast Food"}, {"alias": "panasian", "title": "Pan Asian"}], "rating": 2.5, "coordinates": {"latitude": 53.552897, "longitude": 10.006265}, "transactions": [], "price": "\u20ac", "location": {"address1": "Hamburg Hauptbahnhof", "address2": "Wandelhalle", "address3": "Glockengie\u00dferwall 8 - 10", "city": "Hamburg", "zip_code": "22095", "country": "DE", "state": "HH", "display_address": ["Hamburg Hauptbahnhof", "Wandelhalle", "Glockengie\u00dferwall 8 - 10", "22095 Hamburg", "Germany"]}, "phone": "", "display_phone": "", "distance": 1189.9405612751805}, {"id": "Oxsz1dj4qXZroD1LCS4WPw", "alias": "pizza-levante-hamburg-2", "name": "Pizza Levante", "image_url": "https://s3-media3.fl.yelpcdn.com/bphoto/C3SuIjpGMwvWo53uiQmclg/o.jpg", "is_closed": false, "url": "https://www.yelp.com/biz/pizza-levante-hamburg-2?adjust_creative=hBJOknVQJ58S5goQyjmwRw&utm_campaign=yelp_api_v3&utm_medium=api_v3_business_search&utm_source=hBJOknVQJ58S5goQyjmwRw", "review_count": 1, "categories": [{"alias": "pizza", "title": "Pizza"}, {"alias": "italian", "title": "Italian"}], "rating": 3.0, "coordinates": {"latitude": 53.5510055278762, "longitude": 10.0030136080734}, "transactions": [], "location": {"address1": "M\u00f6nckebergstr. 7", "address2": "", "address3": null, "city": "Hamburg", "zip_code": "20095", "country": "DE", "state": "HH", "display_address": ["M\u00f6nckebergstr. 7", "20095 Hamburg", "Germany"]}, "phone": "+494076752421", "display_phone": "+49 40 76752421", "distance": 991.494368730915}]