[{"id": "l0ytoM68XU9U4J4YNWWVNQ", "alias": "fischclub-hamburg", "name": "Fischclub", "image_url": "https://s3-media2.fl.yelpcdn.com/bphoto/oRQ5i2aDgkmoxsPioZwztg/o.jpg", "is_closed": false, "url": "https://www.yelp.com/biz/fischclub-hamburg?adjust_creative=hBJOknVQJ58S5goQyjmwRw&utm_campaign=yelp_api_v3&utm_medium=api_v3_business_search&utm_source=hBJOknVQJ58S5goQyjmwRw", "review_count": 68, "categories": [{"alias": "german", "title": "German"}, {"alias": "seafood", "title": "Seafood"}], "rating": 4.0, "coordinates": {"latitude": 53.5560298336027, "longitude": 9.80438381904816}, "transactions": [], "price": "\u20ac\u20ac\u20ac", "location": {"address1": "Strandweg 30 A", "address2": null, "address3": null, "city": "Hamburg", "zip_code": "22587", "country": "DE", "state": "HH", "display_address": ["Strandweg 30 A", "22587 Hamburg", "Germany"]}, "phone": "+4940869962", "display_phone": "+49 40 869962", "distance": 867.1210299091935}, {"id": "XinjyDWdj9lD5lX4jRfKNw", "alias": "riva-hamburg", "name": "RIVA", "image_url": "https://s3-media3.fl.yelpcdn.com/bphoto/BwsVm4I_ZfmnTHWokBRi6g/o.jpg", "is_closed": false, "url": "https://www.yelp.com/biz/riva-hamburg?adjust_creative=hBJOknVQJ58S5goQyjmwRw&utm_campaign=yelp_api_v3&utm_medium=api_v3_business_search&utm_source=hBJOknVQJ58S5goQyjmwRw", "review_count": 22, "categories": [{"alias": "bars", "title": "Bars"}, {"alias": "bistros", "title": "Bistros"}], "rating": 4.5, "coordinates": {"latitude": 53.56112, "longitude": 9.81111}, "transactions": [], "price": "\u20ac\u20ac", "location": {"address1": "Blankeneser Bahnhofstr. 36", "address2": null, "address3": null, "city": "Hamburg", "zip_code": "22587", "country": "DE", "state": "HH", "display_address": ["Blankeneser Bahnhofstr. 36", "22587 Hamburg", "Germany"]}, "phone": "+494086623770", "display_phone": "+49 40 86623770", "distance": 609.2830411479002}, {"id": "tnayDufFC496volXBPjbWg", "alias": "mama-trattoria-hamburg-5", "name": "Mama Trattoria", "image_url": "https://s3-media1.fl.yelpcdn.com/bphoto/KGz9NRqGM0RWdtx1eQAObw/o.jpg", "is_closed": false, "url": "https://www.yelp.com/biz/mama-trattoria-hamburg-5?adjust_creative=hBJOknVQJ58S5goQyjmwRw&utm_campaign=yelp_api_v3&utm_medium=api_v3_business_search&utm_source=hBJOknVQJ58S5goQyjmwRw", "review_count": 14, "categories": [{"alias": "italian", "title": "Italian"}], "rating": 3.5, "coordinates": {"latitude": 53.562122, "longitude": 9.812364}, "transactions": [], "price": "\u20ac\u20ac", "location": {"address1": "Blankeneser Bahnhofstr. 31", "address2": "", "address3": "", "city": "Hamburg", "zip_code": "22587", "country": "DE", "state": "HH", "display_address": ["Blankeneser Bahnhofstr. 31", "22587 Hamburg", "Germany"]}, "phone": "+494080007373", "display_phone": "+49 40 80007373", "distance": 643.9788205370298}, {"id": "JiXDs1z1G_dgUcKiai92CA", "alias": "ristorante-dal-fabbro-hamburg", "name": "Ristorante Dal Fabbro", "image_url": "https://s3-media1.fl.yelpcdn.com/bphoto/hdfotRGpEWZ6ya6OgRTPDQ/o.jpg", "is_closed": false, "url": "https://www.yelp.com/biz/ristorante-dal-fabbro-hamburg?adjust_creative=hBJOknVQJ58S5goQyjmwRw&utm_campaign=yelp_api_v3&utm_medium=api_v3_business_search&utm_source=hBJOknVQJ58S5goQyjmwRw", "review_count": 41, "categories": [{"alias": "italian", "title": "Italian"}], "rating": 4.0, "coordinates": {"latitude": 53.5593999, "longitude": 9.8112999}, "transactions": [], "price": "\u20ac\u20ac\u20ac", "location": {"address1": "Blankeneser Bahnhofstr. 10", "address2": null, "address3": null, "city": "Hamburg", "zip_code": "22587", "country": "DE", "state": "HH", "display_address": ["Blankeneser Bahnhofstr. 10", "22587 Hamburg", "Germany"]}, "phone": "+4940868941", "display_phone": "+49 40 868941", "distance": 470.56381863654485}, {"id": "fON6Lh41hCAyoWeCsPoHxQ", "alias": "ponton-opn-bulln-hamburg", "name": "Ponton op'n Bulln", "image_url": "https://s3-media4.fl.yelpcdn.com/bphoto/KcHgCc47NnG4FvbbWT68-Q/o.jpg", "is_closed": false, "url": "https://www.yelp.com/biz/ponton-opn-bulln-hamburg?adjust_creative=hBJOknVQJ58S5goQyjmwRw&utm_campaign=yelp_api_v3&utm_medium=api_v3_business_search&utm_source=hBJOknVQJ58S5goQyjmwRw", "review_count": 32, "categories": [{"alias": "german", "title": "German"}, {"alias": "fischbroetchen", "title": "Fischbroetchen"}], "rating": 4.0, "coordinates": {"latitude": 53.55592, "longitude": 9.80532}, "transactions": [], "price": "\u20ac\u20ac", "location": {"address1": "Strandweg 30", "address2": "", "address3": "", "city": "Hamburg", "zip_code": "22587", "country": "DE", "state": "HH", "display_address": ["Strandweg 30", "22587 Hamburg", "Germany"]}, "phone": "+494086645127", "display_phone": "+49 40 86645127", "distance": 807.9658562844886}, {"id": "6D94K0B6TPd1-lwMt_eC8A", "alias": "witth\u00fcs-hamburg", "name": "Witth\u00fcs", "image_url": "https://s3-media1.fl.yelpcdn.com/bphoto/_nMjU8x-680736WfrTYQTA/o.jpg", "is_closed": false, "url": "https://www.yelp.com/biz/witth%C3%BCs-hamburg?adjust_creative=hBJOknVQJ58S5goQyjmwRw&utm_campaign=yelp_api_v3&utm_medium=api_v3_business_search&utm_source=hBJOknVQJ58S5goQyjmwRw", "review_count": 86, "categories": [{"alias": "mediterranean", "title": "Mediterranean"}], "rating": 4.0, "coordinates": {"latitude": 53.55912, "longitude": 9.822568}, "transactions": [], "price": "\u20ac\u20ac\u20ac", "location": {"address1": "Elbchaussee 499 A", "address2": "", "address3": null, "city": "Hamburg", "zip_code": "22587", "country": "DE", "state": "HH", "display_address": ["Elbchaussee 499 A", "22587 Hamburg", "Germany"]}, "phone": "+4940860173", "display_phone": "+49 40 860173", "distance": 406.747627432433}, {"id": "hTATHqbbIFeoPnEvB8mLcg", "alias": "rio-grande-blankenese-hamburg", "name": "Rio Grande Blankenese", "image_url": "https://s3-media3.fl.yelpcdn.com/bphoto/q2v2APkcYiUmsbAGKIsDQg/o.jpg", "is_closed": false, "url": "https://www.yelp.com/biz/rio-grande-blankenese-hamburg?adjust_creative=hBJOknVQJ58S5goQyjmwRw&utm_campaign=yelp_api_v3&utm_medium=api_v3_business_search&utm_source=hBJOknVQJ58S5goQyjmwRw", "review_count": 31, "categories": [{"alias": "mediterranean", "title": "Mediterranean"}, {"alias": "steak", "title": "Steakhouses"}], "rating": 4.0, "coordinates": {"latitude": 53.56179, "longitude": 9.82001}, "transactions": [], "price": "\u20ac\u20ac", "location": {"address1": "Dockenhudener Str. 2", "address2": null, "address3": null, "city": "Hamburg", "zip_code": "22587", "country": "DE", "state": "HH", "display_address": ["Dockenhudener Str. 2", "22587 Hamburg", "Germany"]}, "phone": "+494088941941", "display_phone": "+49 40 88941941", "distance": 555.3566420344927}, {"id": "-m7HfA7d4pSfam8S3z_zMQ", "alias": "rudolph-hamburg-2", "name": "Rudolph", "image_url": "https://s3-media2.fl.yelpcdn.com/bphoto/5SBBQw5nvN74N6kECASlng/o.jpg", "is_closed": false, "url": "https://www.yelp.com/biz/rudolph-hamburg-2?adjust_creative=hBJOknVQJ58S5goQyjmwRw&utm_campaign=yelp_api_v3&utm_medium=api_v3_business_search&utm_source=hBJOknVQJ58S5goQyjmwRw", "review_count": 7, "categories": [{"alias": "gastropubs", "title": "Gastropubs"}, {"alias": "german", "title": "German"}], "rating": 4.5, "coordinates": {"latitude": 53.56374, "longitude": 9.80812}, "transactions": [], "price": "\u20ac\u20ac", "location": {"address1": "Blankeneser Landstr. 29", "address2": "", "address3": "", "city": "Hamburg", "zip_code": "22587", "country": "DE", "state": "HH", "display_address": ["Blankeneser Landstr. 29", "22587 Hamburg", "Germany"]}, "phone": "+494073084484", "display_phone": "+49 40 73084484", "distance": 952.3168797116307}, {"id": "Jm_2qDr4RnqIHw2oA98qsg", "alias": "restaurant-baurs-park-hamburg", "name": "Restaurant Baurs Park", "image_url": "https://s3-media4.fl.yelpcdn.com/bphoto/5yF7st8WAEcLWjMWcZGPpQ/o.jpg", "is_closed": false, "url": "https://www.yelp.com/biz/restaurant-baurs-park-hamburg?adjust_creative=hBJOknVQJ58S5goQyjmwRw&utm_campaign=yelp_api_v3&utm_medium=api_v3_business_search&utm_source=hBJOknVQJ58S5goQyjmwRw", "review_count": 1, "categories": [{"alias": "modern_european", "title": "Modern European"}, {"alias": "german", "title": "German"}], "rating": 5.0, "coordinates": {"latitude": 53.5589, "longitude": 9.81291}, "transactions": [], "location": {"address1": "Elbchaussee 573", "address2": null, "address3": null, "city": "Hamburg", "zip_code": "22587", "country": "DE", "state": "HH", "display_address": ["Elbchaussee 573", "22587 Hamburg", "Germany"]}, "phone": "+49408666620", "display_phone": "+49 40 8666620", "distance": 353.00263633609853}, {"id": "wpBk63AEw1toamkn9OyCXg", "alias": "genusspiraten-hamburg-2", "name": "Genusspiraten", "image_url": "https://s3-media1.fl.yelpcdn.com/bphoto/5Wa3GNKLMTm7TCAOiRowQA/o.jpg", "is_closed": false, "url": "https://www.yelp.com/biz/genusspiraten-hamburg-2?adjust_creative=hBJOknVQJ58S5goQyjmwRw&utm_campaign=yelp_api_v3&utm_medium=api_v3_business_search&utm_source=hBJOknVQJ58S5goQyjmwRw", "review_count": 4, "categories": [{"alias": "northerngerman", "title": "Northern German"}], "rating": 4.0, "coordinates": {"latitude": 53.5576066, "longitude": 9.805625}, "transactions": [], "price": "\u20ac\u20ac\u20ac", "location": {"address1": "Blankeneser Hauptstr. 107", "address2": "", "address3": null, "city": "Hamburg", "zip_code": "22587", "country": "DE", "state": "HH", "display_address": ["Blankeneser Hauptstr. 107", "22587 Hamburg", "Germany"]}, "phone": "+4940861514", "display_phone": "+49 40 861514", "distance": 777.6812034576456}, {"id": "nIuV-yqeJayQjEL39De8iQ", "alias": "der-treppenkr\u00e4mer-hamburg", "name": "Der Treppenkr\u00e4mer", "image_url": "https://s3-media4.fl.yelpcdn.com/bphoto/C7lNTa8STD7gdXVbs4ibKA/o.jpg", "is_closed": false, "url": "https://www.yelp.com/biz/der-treppenkr%C3%A4mer-hamburg?adjust_creative=hBJOknVQJ58S5goQyjmwRw&utm_campaign=yelp_api_v3&utm_medium=api_v3_business_search&utm_source=hBJOknVQJ58S5goQyjmwRw", "review_count": 18, "categories": [{"alias": "cafes", "title": "Cafes"}, {"alias": "convenience", "title": "Convenience Stores"}], "rating": 4.5, "coordinates": {"latitude": 53.55794, "longitude": 9.80255}, "transactions": [], "price": "\u20ac\u20ac", "location": {"address1": "Hans-Lange-Str. 23", "address2": "", "address3": "", "city": "Hamburg", "zip_code": "22587", "country": "DE", "state": "HH", "display_address": ["Hans-Lange-Str. 23", "22587 Hamburg", "Germany"]}, "phone": "+494086628481", "display_phone": "+49 40 86628481", "distance": 983.0472171901233}, {"id": "-tsWk3GVgwQK1Tbkml8Lpg", "alias": "blankeneser-imbiss-hamburg", "name": "Blankeneser Imbiss", "image_url": "https://s3-media3.fl.yelpcdn.com/bphoto/oRn3SEWWORx8r_YIcF-3FA/o.jpg", "is_closed": false, "url": "https://www.yelp.com/biz/blankeneser-imbiss-hamburg?adjust_creative=hBJOknVQJ58S5goQyjmwRw&utm_campaign=yelp_api_v3&utm_medium=api_v3_business_search&utm_source=hBJOknVQJ58S5goQyjmwRw", "review_count": 11, "categories": [{"alias": "hotdogs", "title": "Fast Food"}, {"alias": "currysausage", "title": "Curry Sausage"}, {"alias": "kebab", "title": "Kebab"}], "rating": 4.5, "coordinates": {"latitude": 53.564, "longitude": 9.8138}, "transactions": [], "price": "\u20ac", "location": {"address1": "Bahnhof Blankenese", "address2": "Erik-Blumfeld-Platz 29", "address3": null, "city": "Hamburg", "zip_code": "22587", "country": "DE", "state": "HH", "display_address": ["Bahnhof Blankenese", "Erik-Blumfeld-Platz 29", "22587 Hamburg", "Germany"]}, "phone": "+494088170674", "display_phone": "+49 40 88170674", "distance": 796.9356141772345}, {"id": "kpnqEWbGIGYLc1I4QpxOgA", "alias": "tibet-restaurant-hamburg", "name": "Tibet Restaurant", "image_url": "https://s3-media1.fl.yelpcdn.com/bphoto/3tSVIW1V03gPxxtL72xRvQ/o.jpg", "is_closed": false, "url": "https://www.yelp.com/biz/tibet-restaurant-hamburg?adjust_creative=hBJOknVQJ58S5goQyjmwRw&utm_campaign=yelp_api_v3&utm_medium=api_v3_business_search&utm_source=hBJOknVQJ58S5goQyjmwRw", "review_count": 38, "categories": [{"alias": "himalayan", "title": "Himalayan/Nepalese"}, {"alias": "panasian", "title": "Pan Asian"}], "rating": 4.5, "coordinates": {"latitude": 53.58075, "longitude": 9.79201}, "transactions": [], "price": "\u20ac\u20ac", "location": {"address1": "S\u00fclldorfer Landstr. 230", "address2": null, "address3": null, "city": "Hamburg", "zip_code": "22589", "country": "DE", "state": "HH", "display_address": ["S\u00fclldorfer Landstr. 230", "22589 Hamburg", "Germany"]}, "phone": "+494086693761", "display_phone": "+49 40 86693761", "distance": 3114.8648134117325}, {"id": "F3WRjuwkE8d57eYGNjlZ5A", "alias": "boccone-hamburg", "name": "Boccone", "image_url": "https://s3-media3.fl.yelpcdn.com/bphoto/Qw-a9fBfktHvYlhgZnkddg/o.jpg", "is_closed": false, "url": "https://www.yelp.com/biz/boccone-hamburg?adjust_creative=hBJOknVQJ58S5goQyjmwRw&utm_campaign=yelp_api_v3&utm_medium=api_v3_business_search&utm_source=hBJOknVQJ58S5goQyjmwRw", "review_count": 5, "categories": [{"alias": "italian", "title": "Italian"}], "rating": 4.0, "coordinates": {"latitude": 53.56633, "longitude": 9.8164}, "transactions": [], "price": "\u20ac\u20ac\u20ac", "location": {"address1": "Am Klingenberg 34", "address2": "", "address3": "", "city": "Hamburg", "zip_code": "22587", "country": "DE", "state": "HH", "display_address": ["Am Klingenberg 34", "22587 Hamburg", "Germany"]}, "phone": "+494087009707", "display_phone": "+49 40 87009707", "distance": 1016.7699930763085}, {"id": "IQ8Bt6YFW5h3SiL2d-G2Qw", "alias": "fil\u00f3n-tapa-bar-hamburg-2", "name": "Fil\u00f3n Tapa-Bar", "image_url": "https://s3-media3.fl.yelpcdn.com/bphoto/R5AkAaxfpECYK7_r_PKFzQ/o.jpg", "is_closed": false, "url": "https://www.yelp.com/biz/fil%C3%B3n-tapa-bar-hamburg-2?adjust_creative=hBJOknVQJ58S5goQyjmwRw&utm_campaign=yelp_api_v3&utm_medium=api_v3_business_search&utm_source=hBJOknVQJ58S5goQyjmwRw", "review_count": 26, "categories": [{"alias": "spanish", "title": "Spanish"}, {"alias": "tapas", "title": "Tapas Bars"}], "rating": 4.0, "coordinates": {"latitude": 53.55924, "longitude": 9.8110199}, "transactions": [], "price": "\u20ac\u20ac\u20ac", "location": {"address1": "Am Kiekeberg 1a", "address2": "", "address3": "", "city": "Hamburg", "zip_code": "22587", "country": "DE", "state": "HH", "display_address": ["Am Kiekeberg 1a", "22587 Hamburg", "Germany"]}, "phone": "+494086646746", "display_phone": "+49 40 86646746", "distance": 480.1174947497526}, {"id": "GLyNMq8nSeW2O3c-Ui8YMQ", "alias": "bundts-gartenrestaurant-hamburg", "name": "Bundts Gartenrestaurant", "image_url": "https://s3-media1.fl.yelpcdn.com/bphoto/iw-S20no9KpTMPN1ekcf5Q/o.jpg", "is_closed": false, "url": "https://www.yelp.com/biz/bundts-gartenrestaurant-hamburg?adjust_creative=hBJOknVQJ58S5goQyjmwRw&utm_campaign=yelp_api_v3&utm_medium=api_v3_business_search&utm_source=hBJOknVQJ58S5goQyjmwRw", "review_count": 12, "categories": [{"alias": "hotels", "title": "Hotels"}, {"alias": "german", "title": "German"}], "rating": 3.5, "coordinates": {"latitude": 53.5206, "longitude": 9.81308}, "transactions": [], "price": "\u20ac\u20ac", "location": {"address1": "Hasselwerder Str. 85", "address2": null, "address3": null, "city": "Hamburg", "zip_code": "21129", "country": "DE", "state": "HH", "display_address": ["Hasselwerder Str. 85", "21129 Hamburg", "Germany"]}, "phone": "+49407459397", "display_phone": "+49 40 7459397", "distance": 4074.577744485504}, {"id": "nzc7-PoI6gN2nqENAxb_Mg", "alias": "goa-hamburg", "name": "Goa", "image_url": "https://s3-media2.fl.yelpcdn.com/bphoto/nEJM4fIte0UaKeoXEf4frg/o.jpg", "is_closed": false, "url": "https://www.yelp.com/biz/goa-hamburg?adjust_creative=hBJOknVQJ58S5goQyjmwRw&utm_campaign=yelp_api_v3&utm_medium=api_v3_business_search&utm_source=hBJOknVQJ58S5goQyjmwRw", "review_count": 9, "categories": [{"alias": "indpak", "title": "Indian"}], "rating": 4.0, "coordinates": {"latitude": 53.56208, "longitude": 9.81958}, "transactions": [], "price": "\u20ac\u20ac", "location": {"address1": "Dockenhudener Str. 4", "address2": "", "address3": "", "city": "Hamburg", "zip_code": "22587", "country": "DE", "state": "HH", "display_address": ["Dockenhudener Str. 4", "22587 Hamburg", "Germany"]}, "phone": "+494063731383", "display_phone": "+49 40 63731383", "distance": 555.8837728522933}, {"id": "wkupX-lPyOsboaLNbP2tCw", "alias": "echtasien-hamburg-2", "name": "Echtasien", "image_url": "https://s3-media2.fl.yelpcdn.com/bphoto/QaxTsXKQkn6DdHAygcGKOQ/o.jpg", "is_closed": false, "url": "https://www.yelp.com/biz/echtasien-hamburg-2?adjust_creative=hBJOknVQJ58S5goQyjmwRw&utm_campaign=yelp_api_v3&utm_medium=api_v3_business_search&utm_source=hBJOknVQJ58S5goQyjmwRw", "review_count": 14, "categories": [{"alias": "sushi", "title": "Sushi Bars"}, {"alias": "panasian", "title": "Pan Asian"}], "rating": 4.0, "coordinates": {"latitude": 53.5630934, "longitude": 9.811625}, "transactions": [], "price": "\u20ac\u20ac\u20ac", "location": {"address1": "Blankeneser Landstr. 1", "address2": "", "address3": "", "city": "Hamburg", "zip_code": "22587", "country": "DE", "state": "HH", "display_address": ["Blankeneser Landstr. 1", "22587 Hamburg", "Germany"]}, "phone": "+494018011932", "display_phone": "+49 40 18011932", "distance": 761.7507354848216}, {"id": "-tbsQDch3j5sYYSfDj0tZg", "alias": "blankeneser-caf\u00e9-hamburg-2", "name": "Blankeneser Caf\u00e9", "image_url": "https://s3-media2.fl.yelpcdn.com/bphoto/DErWGZcGAOsU76-TkYDjug/o.jpg", "is_closed": false, "url": "https://www.yelp.com/biz/blankeneser-caf%C3%A9-hamburg-2?adjust_creative=hBJOknVQJ58S5goQyjmwRw&utm_campaign=yelp_api_v3&utm_medium=api_v3_business_search&utm_source=hBJOknVQJ58S5goQyjmwRw", "review_count": 25, "categories": [{"alias": "cafes", "title": "Cafes"}], "rating": 4.0, "coordinates": {"latitude": 53.56294, "longitude": 9.81633}, "transactions": [], "price": "\u20ac\u20ac", "location": {"address1": "Dockenhudener Str. 30", "address2": "", "address3": "", "city": "Hamburg", "zip_code": "22587", "country": "DE", "state": "HH", "display_address": ["Dockenhudener Str. 30", "22587 Hamburg", "Germany"]}, "phone": "+494070384676", "display_phone": "+49 40 70384676", "distance": 651.0710322636176}, {"id": "vcrPyTXw554tb2LOaNnGSg", "alias": "kaj\u00fcte-s-b-12-hamburg", "name": "Kaj\u00fcte S.B. 12", "image_url": "https://s3-media1.fl.yelpcdn.com/bphoto/B3HSXHmPjR4Bhpp-9_Xskg/o.jpg", "is_closed": false, "url": "https://www.yelp.com/biz/kaj%C3%BCte-s-b-12-hamburg?adjust_creative=hBJOknVQJ58S5goQyjmwRw&utm_campaign=yelp_api_v3&utm_medium=api_v3_business_search&utm_source=hBJOknVQJ58S5goQyjmwRw", "review_count": 31, "categories": [{"alias": "fischbroetchen", "title": "Fischbroetchen"}], "rating": 4.0, "coordinates": {"latitude": 53.558722, "longitude": 9.795468}, "transactions": [], "price": "\u20ac\u20ac", "location": {"address1": "Strandweg 79", "address2": null, "address3": null, "city": "Hamburg", "zip_code": "22587", "country": "DE", "state": "HH", "display_address": ["Strandweg 79", "22587 Hamburg", "Germany"]}, "phone": "+494086648640", "display_phone": "+49 40 86648640", "distance": 1457.3816938737916}, {"id": "md5qBkhEdymCSEhpZuHAJQ", "alias": "s\u00fcllbergterrassen-das-bistro-hamburg", "name": "S\u00fcllbergterrassen - Das Bistro", "image_url": "https://s3-media3.fl.yelpcdn.com/bphoto/bG4uWQP3pu2u4HsaWjUQ1w/o.jpg", "is_closed": false, "url": "https://www.yelp.com/biz/s%C3%BCllbergterrassen-das-bistro-hamburg?adjust_creative=hBJOknVQJ58S5goQyjmwRw&utm_campaign=yelp_api_v3&utm_medium=api_v3_business_search&utm_source=hBJOknVQJ58S5goQyjmwRw", "review_count": 7, "categories": [{"alias": "international", "title": "International"}, {"alias": "german", "title": "German"}, {"alias": "bistros", "title": "Bistros"}], "rating": 4.5, "coordinates": {"latitude": 53.5597, "longitude": 9.80064}, "transactions": [], "location": {"address1": "S\u00fcllbergsterrasse 12", "address2": null, "address3": null, "city": "Hamburg", "zip_code": "22587", "country": "DE", "state": "HH", "display_address": ["S\u00fcllbergsterrasse 12", "22587 Hamburg", "Germany"]}, "phone": "+494086625277", "display_phone": "+49 40 86625277", "distance": 1140.9583094656152}, {"id": "nl5xxm4SkbxmHSKo7jlFAw", "alias": "athen-pallas-hamburg", "name": "Athen Pallas", "image_url": "https://s3-media1.fl.yelpcdn.com/bphoto/2fu60Y2HdfgevYHtFpWLEg/o.jpg", "is_closed": false, "url": "https://www.yelp.com/biz/athen-pallas-hamburg?adjust_creative=hBJOknVQJ58S5goQyjmwRw&utm_campaign=yelp_api_v3&utm_medium=api_v3_business_search&utm_source=hBJOknVQJ58S5goQyjmwRw", "review_count": 31, "categories": [{"alias": "greek", "title": "Greek"}], "rating": 4.0, "coordinates": {"latitude": 53.5667225939133, "longitude": 9.79576466315996}, "transactions": [], "price": "\u20ac\u20ac", "location": {"address1": "Rissener Landstr. 1", "address2": null, "address3": null, "city": "Hamburg", "zip_code": "22587", "country": "DE", "state": "HH", "display_address": ["Rissener Landstr. 1", "22587 Hamburg", "Germany"]}, "phone": "+4940865790", "display_phone": "+49 40 865790", "distance": 1780.1070963122609}, {"id": "zRxmdUEEh6D9PqkssHdCeQ", "alias": "peter-pane-hamburg-12", "name": "Peter Pane", "image_url": "https://s3-media2.fl.yelpcdn.com/bphoto/BDfOtQZOyqb6ZhEJFbvxEg/o.jpg", "is_closed": false, "url": "https://www.yelp.com/biz/peter-pane-hamburg-12?adjust_creative=hBJOknVQJ58S5goQyjmwRw&utm_campaign=yelp_api_v3&utm_medium=api_v3_business_search&utm_source=hBJOknVQJ58S5goQyjmwRw", "review_count": 14, "categories": [{"alias": "cocktailbars", "title": "Cocktail Bars"}, {"alias": "burgers", "title": "Burgers"}], "rating": 3.5, "coordinates": {"latitude": 53.56321, "longitude": 9.81583}, "transactions": [], "price": "\u20ac\u20ac", "location": {"address1": "Witts Allee 1 a", "address2": "", "address3": null, "city": "Hamburg", "zip_code": "22587", "country": "DE", "state": "HH", "display_address": ["Witts Allee 1 a", "22587 Hamburg", "Germany"]}, "phone": "+494087971030", "display_phone": "+49 40 87971030", "distance": 685.0558257545473}, {"id": "plbtOwVBMyXtoNlPqn0jIA", "alias": "kaffeegarten-schuldt-hamburg", "name": "Kaffeegarten Schuldt", "image_url": "https://s3-media2.fl.yelpcdn.com/bphoto/9_DCBf0cO7GA7KhOO7vr8Q/o.jpg", "is_closed": false, "url": "https://www.yelp.com/biz/kaffeegarten-schuldt-hamburg?adjust_creative=hBJOknVQJ58S5goQyjmwRw&utm_campaign=yelp_api_v3&utm_medium=api_v3_business_search&utm_source=hBJOknVQJ58S5goQyjmwRw", "review_count": 34, "categories": [{"alias": "cafes", "title": "Cafes"}], "rating": 3.5, "coordinates": {"latitude": 53.558856, "longitude": 9.801471}, "transactions": [], "price": "\u20ac\u20ac", "location": {"address1": "S\u00fcllbergstr. 30", "address2": null, "address3": null, "city": "Hamburg", "zip_code": "22587", "country": "DE", "state": "HH", "display_address": ["S\u00fcllbergstr. 30", "22587 Hamburg", "Germany"]}, "phone": "+4940862411", "display_phone": "+49 40 862411", "distance": 1067.3189907834153}, {"id": "SKr0iOJ8BcElC4uD2JqbUA", "alias": "wasabi-de-luxe-hamburg", "name": "Wasabi De Luxe", "image_url": "https://s3-media2.fl.yelpcdn.com/bphoto/pvwna-L2L8gRGHXzsIJAQw/o.jpg", "is_closed": false, "url": "https://www.yelp.com/biz/wasabi-de-luxe-hamburg?adjust_creative=hBJOknVQJ58S5goQyjmwRw&utm_campaign=yelp_api_v3&utm_medium=api_v3_business_search&utm_source=hBJOknVQJ58S5goQyjmwRw", "review_count": 15, "categories": [{"alias": "sushi", "title": "Sushi Bars"}], "rating": 4.5, "coordinates": {"latitude": 53.5759944, "longitude": 9.8214584}, "transactions": [], "price": "\u20ac\u20ac", "location": {"address1": "Simrockstr. 186", "address2": null, "address3": null, "city": "Hamburg", "zip_code": "22589", "country": "DE", "state": "HH", "display_address": ["Simrockstr. 186", "22589 Hamburg", "Germany"]}, "phone": "+494033425503", "display_phone": "+49 40 33425503", "distance": 2112.175296329063}, {"id": "aPgIAvjpe3C2mA2w4WruSQ", "alias": "seven-seas-hamburg-2", "name": "Seven Seas", "image_url": "https://s3-media3.fl.yelpcdn.com/bphoto/nOwVodQCAlXs2x00ea4t0w/o.jpg", "is_closed": false, "url": "https://www.yelp.com/biz/seven-seas-hamburg-2?adjust_creative=hBJOknVQJ58S5goQyjmwRw&utm_campaign=yelp_api_v3&utm_medium=api_v3_business_search&utm_source=hBJOknVQJ58S5goQyjmwRw", "review_count": 29, "categories": [{"alias": "french", "title": "French"}], "rating": 4.5, "coordinates": {"latitude": 53.56017, "longitude": 9.80073}, "transactions": [], "price": "\u20ac\u20ac\u20ac\u20ac", "location": {"address1": "S\u00fcllbergsterrasse 12", "address2": "", "address3": "", "city": "Hamburg", "zip_code": "22587", "country": "DE", "state": "HH", "display_address": ["S\u00fcllbergsterrasse 12", "22587 Hamburg", "Germany"]}, "phone": "+494086625214", "display_phone": "+49 40 86625214", "distance": 1141.7900103021611}, {"id": "CcwY0E2QLzOraQttSj7pJw", "alias": "linde-hamburg-5", "name": "Linde", "image_url": "https://s3-media2.fl.yelpcdn.com/bphoto/fnA99p_0OF6LgKJGRK8FZw/o.jpg", "is_closed": false, "url": "https://www.yelp.com/biz/linde-hamburg-5?adjust_creative=hBJOknVQJ58S5goQyjmwRw&utm_campaign=yelp_api_v3&utm_medium=api_v3_business_search&utm_source=hBJOknVQJ58S5goQyjmwRw", "review_count": 42, "categories": [{"alias": "mediterranean", "title": "Mediterranean"}, {"alias": "cocktailbars", "title": "Cocktail Bars"}], "rating": 3.0, "coordinates": {"latitude": 53.5622608, "longitude": 9.818189}, "transactions": [], "price": "\u20ac\u20ac", "location": {"address1": "Dockenhudener Str. 12", "address2": null, "address3": null, "city": "Hamburg", "zip_code": "22587", "country": "DE", "state": "HH", "display_address": ["Dockenhudener Str. 12", "22587 Hamburg", "Germany"]}, "phone": "+494086663801", "display_phone": "+49 40 86663801", "distance": 570.32436347815}, {"id": "z4-gIwlU7VXAm4mQOjjHBg", "alias": "elbdorf-cafe-hamburg-2", "name": "Elbdorf Cafe", "image_url": "https://s3-media1.fl.yelpcdn.com/bphoto/BDqIPOe1oKqxrhecRdDwjw/o.jpg", "is_closed": false, "url": "https://www.yelp.com/biz/elbdorf-cafe-hamburg-2?adjust_creative=hBJOknVQJ58S5goQyjmwRw&utm_campaign=yelp_api_v3&utm_medium=api_v3_business_search&utm_source=hBJOknVQJ58S5goQyjmwRw", "review_count": 3, "categories": [{"alias": "cafes", "title": "Cafes"}, {"alias": "german", "title": "German"}], "rating": 5.0, "coordinates": {"latitude": 53.5766, "longitude": 9.80227}, "transactions": [], "price": "\u20ac\u20ac", "location": {"address1": "Fruchtweg 40", "address2": null, "address3": null, "city": "Hamburg", "zip_code": "22589", "country": "DE", "state": "HH", "display_address": ["Fruchtweg 40", "22589 Hamburg", "Germany"]}, "phone": "+494087082602", "display_phone": "+49 40 87082602", "distance": 2381.195157459662}, {"id": "3-15oomSsu14SvbHglPRvw", "alias": "fischer-l\u00fc\u00fcd-hamburg", "name": "Fischer L\u00fc\u00fcd", "image_url": "https://s3-media4.fl.yelpcdn.com/bphoto/1aU5vPmerwizNKJIcfO1aw/o.jpg", "is_closed": false, "url": "https://www.yelp.com/biz/fischer-l%C3%BC%C3%BCd-hamburg?adjust_creative=hBJOknVQJ58S5goQyjmwRw&utm_campaign=yelp_api_v3&utm_medium=api_v3_business_search&utm_source=hBJOknVQJ58S5goQyjmwRw", "review_count": 1, "categories": [{"alias": "seafood", "title": "Seafood"}], "rating": 4.0, "coordinates": {"latitude": 53.55689, "longitude": 9.80497}, "transactions": [], "location": {"address1": "Strandweg 30", "address2": "", "address3": "", "city": "Hamburg", "zip_code": "22587", "country": "DE", "state": "HH", "display_address": ["Strandweg 30", "22587 Hamburg", "Germany"]}, "phone": "", "display_phone": "", "distance": 822.8572477743875}, {"id": "vXY7PdAQ9hJY3D2thSaIeg", "alias": "l\u00fchmanns-teestube-hamburg", "name": "L\u00fchmanns Teestube", "image_url": "https://s3-media1.fl.yelpcdn.com/bphoto/3AmOiZjsAoKtp-dNzjqq0A/o.jpg", "is_closed": false, "url": "https://www.yelp.com/biz/l%C3%BChmanns-teestube-hamburg?adjust_creative=hBJOknVQJ58S5goQyjmwRw&utm_campaign=yelp_api_v3&utm_medium=api_v3_business_search&utm_source=hBJOknVQJ58S5goQyjmwRw", "review_count": 108, "categories": [{"alias": "tea", "title": "Tea Rooms"}, {"alias": "cafes", "title": "Cafes"}], "rating": 3.5, "coordinates": {"latitude": 53.56374, "longitude": 9.80812}, "transactions": [], "price": "\u20ac\u20ac", "location": {"address1": "Blankeneser Landstr. 29", "address2": null, "address3": null, "city": "Hamburg", "zip_code": "22587", "country": "DE", "state": "HH", "display_address": ["Blankeneser Landstr. 29", "22587 Hamburg", "Germany"]}, "phone": "+4940863442", "display_phone": "+49 40 863442", "distance": 952.3168797116307}, {"id": "zoRBslYUQm56jVyKO6MmNA", "alias": "deck-7-hamburg", "name": "Deck 7", "image_url": "https://s3-media2.fl.yelpcdn.com/bphoto/pRTW0dM0wqGEa0DmRBmzfA/o.jpg", "is_closed": false, "url": "https://www.yelp.com/biz/deck-7-hamburg?adjust_creative=hBJOknVQJ58S5goQyjmwRw&utm_campaign=yelp_api_v3&utm_medium=api_v3_business_search&utm_source=hBJOknVQJ58S5goQyjmwRw", "review_count": 71, "categories": [{"alias": "bistros", "title": "Bistros"}], "rating": 3.5, "coordinates": {"latitude": 53.5597, "longitude": 9.80064}, "transactions": [], "price": "\u20ac\u20ac\u20ac", "location": {"address1": "S\u00fcllbergsterrasse 12", "address2": null, "address3": null, "city": "Hamburg", "zip_code": "22587", "country": "DE", "state": "HH", "display_address": ["S\u00fcllbergsterrasse 12", "22587 Hamburg", "Germany"]}, "phone": "+494086625277", "display_phone": "+49 40 86625277", "distance": 1140.9583094656152}, {"id": "sZQWwZU2gIfBQXUN9KT16w", "alias": "asiahub-hamburg", "name": "asiahub", "image_url": "https://s3-media2.fl.yelpcdn.com/bphoto/HEKRpoPpPV32h3HgteksCA/o.jpg", "is_closed": false, "url": "https://www.yelp.com/biz/asiahub-hamburg?adjust_creative=hBJOknVQJ58S5goQyjmwRw&utm_campaign=yelp_api_v3&utm_medium=api_v3_business_search&utm_source=hBJOknVQJ58S5goQyjmwRw", "review_count": 14, "categories": [{"alias": "panasian", "title": "Pan Asian"}], "rating": 3.0, "coordinates": {"latitude": 53.564196, "longitude": 9.813017}, "transactions": [], "price": "\u20ac\u20ac", "location": {"address1": "S\u00fclldorfer Kirchenweg 2", "address2": "", "address3": "", "city": "Hamburg", "zip_code": "22587", "country": "DE", "state": "HH", "display_address": ["S\u00fclldorfer Kirchenweg 2", "22587 Hamburg", "Germany"]}, "phone": "+494086693082", "display_phone": "+49 40 86693082", "distance": 834.1759705506839}, {"id": "SUxv4B7Bg83fRTkG3NY4dA", "alias": "china-stube-blankenese-hamburg", "name": "China Stube Blankenese", "image_url": "https://s3-media2.fl.yelpcdn.com/bphoto/0LFTuGOkYqmZy8NOJ8ocmA/o.jpg", "is_closed": false, "url": "https://www.yelp.com/biz/china-stube-blankenese-hamburg?adjust_creative=hBJOknVQJ58S5goQyjmwRw&utm_campaign=yelp_api_v3&utm_medium=api_v3_business_search&utm_source=hBJOknVQJ58S5goQyjmwRw", "review_count": 12, "categories": [{"alias": "chinese", "title": "Chinese"}], "rating": 4.0, "coordinates": {"latitude": 53.56383, "longitude": 9.81475}, "transactions": [], "price": "\u20ac\u20ac", "location": {"address1": "Erik-Blumenfeld-Platz 3", "address2": "", "address3": "", "city": "Hamburg", "zip_code": "22587", "country": "DE", "state": "HH", "display_address": ["Erik-Blumenfeld-Platz 3", "22587 Hamburg", "Germany"]}, "phone": "+494086662618", "display_phone": "+49 40 86662618", "distance": 763.1563651716937}, {"id": "jIwBJ-HpNLdLA9J6IqBIOw", "alias": "blankeneser-fischhuus-hamburg", "name": "Blankeneser Fischhuus", "image_url": "https://s3-media2.fl.yelpcdn.com/bphoto/L4A9pslZLTXBxGspZTT_rg/o.jpg", "is_closed": false, "url": "https://www.yelp.com/biz/blankeneser-fischhuus-hamburg?adjust_creative=hBJOknVQJ58S5goQyjmwRw&utm_campaign=yelp_api_v3&utm_medium=api_v3_business_search&utm_source=hBJOknVQJ58S5goQyjmwRw", "review_count": 3, "categories": [{"alias": "seafood", "title": "Seafood"}], "rating": 3.5, "coordinates": {"latitude": 53.56089, "longitude": 9.81168}, "transactions": [], "price": "\u20ac\u20ac", "location": {"address1": "Propst-Paulsen-Str. 5", "address2": "", "address3": "", "city": "Hamburg", "zip_code": "22587", "country": "DE", "state": "HH", "display_address": ["Propst-Paulsen-Str. 5", "22587 Hamburg", "Germany"]}, "phone": "+4940860665", "display_phone": "+49 40 860665", "distance": 569.0449552519792}, {"id": "NozZB9TyW052Qhge63N65Q", "alias": "restaurant-am-park-hamburg", "name": "Restaurant Am Park", "image_url": "https://s3-media2.fl.yelpcdn.com/bphoto/ocD6ohwvZytdnbjVWar3uA/o.jpg", "is_closed": false, "url": "https://www.yelp.com/biz/restaurant-am-park-hamburg?adjust_creative=hBJOknVQJ58S5goQyjmwRw&utm_campaign=yelp_api_v3&utm_medium=api_v3_business_search&utm_source=hBJOknVQJ58S5goQyjmwRw", "review_count": 1, "categories": [{"alias": "seafood", "title": "Seafood"}], "rating": 4.0, "coordinates": {"latitude": 53.56362, "longitude": 9.8086}, "transactions": [], "location": {"address1": "Blankeneser Landstr. 27", "address2": "", "address3": "", "city": "Hamburg", "zip_code": "22587", "country": "DE", "state": "HH", "display_address": ["Blankeneser Landstr. 27", "22587 Hamburg", "Germany"]}, "phone": "+4986628948", "display_phone": "+49 8662 8948", "distance": 924.9296130551535}, {"id": "EHHznLv3tusE0hnrKNtySw", "alias": "restaurant-blankenese-hamburg", "name": "Restaurant Blankenese", "image_url": "https://s3-media2.fl.yelpcdn.com/bphoto/rPeezMAasZ7SMpVjolYGaA/o.jpg", "is_closed": false, "url": "https://www.yelp.com/biz/restaurant-blankenese-hamburg?adjust_creative=hBJOknVQJ58S5goQyjmwRw&utm_campaign=yelp_api_v3&utm_medium=api_v3_business_search&utm_source=hBJOknVQJ58S5goQyjmwRw", "review_count": 1, "categories": [{"alias": "german", "title": "German"}], "rating": 4.0, "coordinates": {"latitude": 53.574533, "longitude": 9.8241854}, "transactions": [], "location": {"address1": "Schenefelder Landstr. 169", "address2": "", "address3": null, "city": "Hamburg", "zip_code": "22589", "country": "DE", "state": "HH", "display_address": ["Schenefelder Landstr. 169", "22589 Hamburg", "Germany"]}, "phone": "+494087000744", "display_phone": "+49 40 87000744", "distance": 1984.0438572786272}, {"id": "JCwyXvqfNtjeA6jW9s6tgg", "alias": "bistro-elbwein-hamburg-4", "name": "Bistro Elbwein", "image_url": "https://s3-media2.fl.yelpcdn.com/bphoto/A35AljPKvqtMsvjprsdA4w/o.jpg", "is_closed": false, "url": "https://www.yelp.com/biz/bistro-elbwein-hamburg-4?adjust_creative=hBJOknVQJ58S5goQyjmwRw&utm_campaign=yelp_api_v3&utm_medium=api_v3_business_search&utm_source=hBJOknVQJ58S5goQyjmwRw", "review_count": 9, "categories": [{"alias": "wine_bars", "title": "Wine Bars"}, {"alias": "german", "title": "German"}], "rating": 4.0, "coordinates": {"latitude": 53.56362, "longitude": 9.8086}, "transactions": [], "price": "\u20ac\u20ac\u20ac", "location": {"address1": "Blankeneser Landstr. 27", "address2": "", "address3": "", "city": "Hamburg", "zip_code": "22587", "country": "DE", "state": "HH", "display_address": ["Blankeneser Landstr. 27", "22587 Hamburg", "Germany"]}, "phone": "+494086628772", "display_phone": "+49 40 86628772", "distance": 924.9296130551535}, {"id": "tLqTSZGJOXObR9WaGITuGg", "alias": "restaurant-ahrberg-hamburg", "name": "Restaurant Ahrberg", "image_url": "https://s3-media1.fl.yelpcdn.com/bphoto/blN-EmSf3rIBO031ouj2kg/o.jpg", "is_closed": false, "url": "https://www.yelp.com/biz/restaurant-ahrberg-hamburg?adjust_creative=hBJOknVQJ58S5goQyjmwRw&utm_campaign=yelp_api_v3&utm_medium=api_v3_business_search&utm_source=hBJOknVQJ58S5goQyjmwRw", "review_count": 34, "categories": [{"alias": "seafood", "title": "Seafood"}], "rating": 3.5, "coordinates": {"latitude": 53.55706, "longitude": 9.80466}, "transactions": [], "price": "\u20ac\u20ac", "location": {"address1": "Strandweg 33", "address2": null, "address3": null, "city": "Hamburg", "zip_code": "22587", "country": "DE", "state": "HH", "display_address": ["Strandweg 33", "22587 Hamburg", "Germany"]}, "phone": "+4940860438", "display_phone": "+49 40 860438", "distance": 847.7411424158247}, {"id": "PAaagr3ejMNRHbuTiwqvNA", "alias": "nelsons-kaj\u00fcte-hamburg-2", "name": "Nelson's Kaj\u00fcte", "image_url": "https://s3-media3.fl.yelpcdn.com/bphoto/1tlpOwjSCzEqIrluChCN6w/o.jpg", "is_closed": false, "url": "https://www.yelp.com/biz/nelsons-kaj%C3%BCte-hamburg-2?adjust_creative=hBJOknVQJ58S5goQyjmwRw&utm_campaign=yelp_api_v3&utm_medium=api_v3_business_search&utm_source=hBJOknVQJ58S5goQyjmwRw", "review_count": 4, "categories": [{"alias": "mediterranean", "title": "Mediterranean"}, {"alias": "german", "title": "German"}], "rating": 4.0, "coordinates": {"latitude": 53.55434, "longitude": 9.82316}, "transactions": [], "location": {"address1": "Jollenhafen Blankenese", "address2": "Elbuferweg 135", "address3": "", "city": "Hamburg", "zip_code": "22587", "country": "DE", "state": "HH", "display_address": ["Jollenhafen Blankenese", "Elbuferweg 135", "22587 Hamburg", "Germany"]}, "phone": "+4940862373", "display_phone": "+49 40 862373", "distance": 485.4488340711436}, {"id": "hGr6fQxD3Nl48irHMMzFtw", "alias": "jugendcaf\u00e9-basement-hamburg", "name": "Jugendcaf\u00e9 Basement", "image_url": "https://s3-media4.fl.yelpcdn.com/bphoto/P9BVMlPcAPr_InZy30V6nA/o.jpg", "is_closed": false, "url": "https://www.yelp.com/biz/jugendcaf%C3%A9-basement-hamburg?adjust_creative=hBJOknVQJ58S5goQyjmwRw&utm_campaign=yelp_api_v3&utm_medium=api_v3_business_search&utm_source=hBJOknVQJ58S5goQyjmwRw", "review_count": 3, "categories": [{"alias": "cafes", "title": "Cafes"}, {"alias": "youth_club", "title": "Youth Club"}], "rating": 5.0, "coordinates": {"latitude": 53.57899, "longitude": 9.79768}, "transactions": [], "location": {"address1": "S\u00fclldorfer Kirchenweg 187", "address2": null, "address3": null, "city": "Hamburg", "zip_code": "22589", "country": "DE", "state": "HH", "display_address": ["S\u00fclldorfer Kirchenweg 187", "22589 Hamburg", "Germany"]}, "phone": "+494088941866", "display_phone": "+49 40 88941866", "distance": 2754.3429803437325}, {"id": "JJ9kQRcoNoCptdbo1-TZGg", "alias": "restaurant-memory-hamburg", "name": "Restaurant Memory", "image_url": "https://s3-media2.fl.yelpcdn.com/bphoto/lnQbUTt7YkZ3ZcQwudabZg/o.jpg", "is_closed": false, "url": "https://www.yelp.com/biz/restaurant-memory-hamburg?adjust_creative=hBJOknVQJ58S5goQyjmwRw&utm_campaign=yelp_api_v3&utm_medium=api_v3_business_search&utm_source=hBJOknVQJ58S5goQyjmwRw", "review_count": 14, "categories": [{"alias": "international", "title": "International"}], "rating": 4.5, "coordinates": {"latitude": 53.5808, "longitude": 9.793}, "transactions": [], "price": "\u20ac\u20ac\u20ac", "location": {"address1": "S\u00fclldorfer Landstr. 222", "address2": null, "address3": null, "city": "Hamburg", "zip_code": "22589", "country": "DE", "state": "HH", "display_address": ["S\u00fclldorfer Landstr. 222", "22589 Hamburg", "Germany"]}, "phone": "+494086626938", "display_phone": "+49 40 86626938", "distance": 3082.7680417018464}, {"id": "B8Kn9PqEqlvL4EMPvl1x8g", "alias": "roederers-hamburg", "name": "Roederer's", "image_url": "https://s3-media2.fl.yelpcdn.com/bphoto/grHMPXjgPoUgGGy90Ip15g/o.jpg", "is_closed": false, "url": "https://www.yelp.com/biz/roederers-hamburg?adjust_creative=hBJOknVQJ58S5goQyjmwRw&utm_campaign=yelp_api_v3&utm_medium=api_v3_business_search&utm_source=hBJOknVQJ58S5goQyjmwRw", "review_count": 2, "categories": [{"alias": "bars", "title": "Bars"}, {"alias": "bistros", "title": "Bistros"}, {"alias": "cafes", "title": "Cafes"}], "rating": 3.0, "coordinates": {"latitude": 53.5610199, "longitude": 9.8110304}, "transactions": [], "location": {"address1": "Blankenesener Bahnhofstr. 34", "address2": "", "address3": "", "city": "Hamburg", "zip_code": "22587", "country": "DE", "state": "HH", "display_address": ["Blankenesener Bahnhofstr. 34", "22587 Hamburg", "Germany"]}, "phone": "", "display_phone": "", "distance": 603.413775665052}, {"id": "CGTG-D1-opXU6yeHh22onQ", "alias": "hauseralm-hamburg", "name": "HauserAlm", "image_url": "https://s3-media2.fl.yelpcdn.com/bphoto/qEjjYre57KO-aR2QJij-ZQ/o.jpg", "is_closed": false, "url": "https://www.yelp.com/biz/hauseralm-hamburg?adjust_creative=hBJOknVQJ58S5goQyjmwRw&utm_campaign=yelp_api_v3&utm_medium=api_v3_business_search&utm_source=hBJOknVQJ58S5goQyjmwRw", "review_count": 7, "categories": [{"alias": "german", "title": "German"}], "rating": 3.5, "coordinates": {"latitude": 53.55973, "longitude": 9.80064}, "transactions": [], "price": "\u20ac\u20ac\u20ac", "location": {"address1": "S\u00fcllbergstr. 12", "address2": null, "address3": null, "city": "Hamburg", "zip_code": "22587", "country": "DE", "state": "HH", "display_address": ["S\u00fcllbergstr. 12", "22587 Hamburg", "Germany"]}, "phone": "+494086625233", "display_phone": "+49 40 86625233", "distance": 1141.7900103021611}, {"id": "dpNb9DdmNcPHYZJffibbTw", "alias": "blankenese-strandhof-hamburg-2", "name": "Blankenese Strandhof", "image_url": "https://s3-media1.fl.yelpcdn.com/bphoto/FQAlgB4g8roj4kQbHA9W4w/o.jpg", "is_closed": false, "url": "https://www.yelp.com/biz/blankenese-strandhof-hamburg-2?adjust_creative=hBJOknVQJ58S5goQyjmwRw&utm_campaign=yelp_api_v3&utm_medium=api_v3_business_search&utm_source=hBJOknVQJ58S5goQyjmwRw", "review_count": 21, "categories": [{"alias": "seafood", "title": "Seafood"}], "rating": 3.0, "coordinates": {"latitude": 53.55683, "longitude": 9.80562}, "transactions": [], "price": "\u20ac\u20ac\u20ac", "location": {"address1": "Strandweg 27", "address2": null, "address3": null, "city": "Hamburg", "zip_code": "22587", "country": "DE", "state": "HH", "display_address": ["Strandweg 27", "22587 Hamburg", "Germany"]}, "phone": "+4940865236", "display_phone": "+49 40 865236", "distance": 782.0752007232284}, {"id": "SvU27HpL5hWW-FX4KUFrKA", "alias": "andersen-hamburg-2", "name": "Andersen", "image_url": "https://s3-media2.fl.yelpcdn.com/bphoto/SfOCAsdlY6G2chTfjlMKoA/o.jpg", "is_closed": false, "url": "https://www.yelp.com/biz/andersen-hamburg-2?adjust_creative=hBJOknVQJ58S5goQyjmwRw&utm_campaign=yelp_api_v3&utm_medium=api_v3_business_search&utm_source=hBJOknVQJ58S5goQyjmwRw", "review_count": 1, "categories": [{"alias": "cafes", "title": "Cafes"}], "rating": 4.0, "coordinates": {"latitude": 53.5609, "longitude": 9.81132}, "transactions": [], "location": {"address1": "Blankeneser Bahnhofstr.", "address2": null, "address3": null, "city": "Hamburg", "zip_code": "22587", "country": "DE", "state": "HH", "display_address": ["Blankeneser Bahnhofstr.", "22587 Hamburg", "Germany"]}, "phone": "", "display_phone": "", "distance": 577.359993454343}, {"id": "81YEVjmCD-J3TiMoxukZEw", "alias": "caf\u00e9-stern-hamburg-3", "name": "Caf\u00e9 Stern", "image_url": "https://s3-media2.fl.yelpcdn.com/bphoto/RGBpB9WjiaNUe_U9ISlakg/o.jpg", "is_closed": false, "url": "https://www.yelp.com/biz/caf%C3%A9-stern-hamburg-3?adjust_creative=hBJOknVQJ58S5goQyjmwRw&utm_campaign=yelp_api_v3&utm_medium=api_v3_business_search&utm_source=hBJOknVQJ58S5goQyjmwRw", "review_count": 11, "categories": [{"alias": "cafes", "title": "Cafes"}, {"alias": "sportsbars", "title": "Sports Bars"}], "rating": 4.0, "coordinates": {"latitude": 53.55848, "longitude": 9.81184}, "transactions": [], "price": "\u20ac\u20ac\u20ac", "location": {"address1": "Elbchaussee 587", "address2": null, "address3": null, "city": "Hamburg", "zip_code": "22587", "country": "DE", "state": "HH", "display_address": ["Elbchaussee 587", "22587 Hamburg", "Germany"]}, "phone": "+494018047423", "display_phone": "+49 40 18047423", "distance": 389.89526183065396}, {"id": "mJfZ-9-mCHEno8w65Lgl_Q", "alias": "san-marco-hamburg-5", "name": "San Marco", "image_url": "https://s3-media4.fl.yelpcdn.com/bphoto/nxjN3Ve4hKtCKq9Iyc54fg/o.jpg", "is_closed": false, "url": "https://www.yelp.com/biz/san-marco-hamburg-5?adjust_creative=hBJOknVQJ58S5goQyjmwRw&utm_campaign=yelp_api_v3&utm_medium=api_v3_business_search&utm_source=hBJOknVQJ58S5goQyjmwRw", "review_count": 3, "categories": [{"alias": "icecream", "title": "Ice Cream & Frozen Yogurt"}, {"alias": "pizza", "title": "Pizza"}], "rating": 3.5, "coordinates": {"latitude": 53.5801, "longitude": 9.79636}, "transactions": [], "price": "\u20ac\u20ac", "location": {"address1": "S\u00fclldorfer Kirchenweg 199", "address2": null, "address3": null, "city": "Hamburg", "zip_code": "22589", "country": "DE", "state": "HH", "display_address": ["S\u00fclldorfer Kirchenweg 199", "22589 Hamburg", "Germany"]}, "phone": "+494046651550", "display_phone": "+49 40 46651550", "distance": 2915.573062685838}, {"id": "qDAChxTosQmPkLOv7PrxzA", "alias": "spiros-und-spiros-hamburg", "name": "Spiros & Spiros", "image_url": "https://s3-media2.fl.yelpcdn.com/bphoto/qu3PusRaGi3yb2NeWkwR2Q/o.jpg", "is_closed": false, "url": "https://www.yelp.com/biz/spiros-und-spiros-hamburg?adjust_creative=hBJOknVQJ58S5goQyjmwRw&utm_campaign=yelp_api_v3&utm_medium=api_v3_business_search&utm_source=hBJOknVQJ58S5goQyjmwRw", "review_count": 40, "categories": [{"alias": "greek", "title": "Greek"}], "rating": 3.5, "coordinates": {"latitude": 53.57982, "longitude": 9.80156}, "transactions": [], "price": "\u20ac\u20ac", "location": {"address1": "S\u00fclldorfer Landstr. 164", "address2": null, "address3": null, "city": "Hamburg", "zip_code": "22589", "country": "DE", "state": "HH", "display_address": ["S\u00fclldorfer Landstr. 164", "22589 Hamburg", "Germany"]}, "phone": "+49408701076", "display_phone": "+49 40 8701076", "distance": 2732.7735772384035}, {"id": "9ufmxoQ0O_ro0_2arLhN0Q", "alias": "s\u00fcllberg-biergarten-hamburg", "name": "S\u00fcllberg Biergarten", "image_url": "https://s3-media4.fl.yelpcdn.com/bphoto/N0QyvU-MwF8tP0HFfwJhoA/o.jpg", "is_closed": false, "url": "https://www.yelp.com/biz/s%C3%BCllberg-biergarten-hamburg?adjust_creative=hBJOknVQJ58S5goQyjmwRw&utm_campaign=yelp_api_v3&utm_medium=api_v3_business_search&utm_source=hBJOknVQJ58S5goQyjmwRw", "review_count": 10, "categories": [{"alias": "beergarden", "title": "Beer Garden"}], "rating": 4.0, "coordinates": {"latitude": 53.56017, "longitude": 9.80073}, "transactions": [], "price": "\u20ac\u20ac", "location": {"address1": "S\u00fcllbergsterrasse 12", "address2": null, "address3": null, "city": "Hamburg", "zip_code": "22587", "country": "DE", "state": "HH", "display_address": ["S\u00fcllbergsterrasse 12", "22587 Hamburg", "Germany"]}, "phone": "+49408662520", "display_phone": "+49 40 8662520", "distance": 1141.7900103021611}, {"id": "aUUXPa-XnbLb2Ou0hlyesw", "alias": "lilla-loungen-cafe-ida-hamburg", "name": "Lilla Loungen - Cafe Ida", "image_url": "https://s3-media4.fl.yelpcdn.com/bphoto/1QCoSbmHoGrSe2YcEApAoQ/o.jpg", "is_closed": false, "url": "https://www.yelp.com/biz/lilla-loungen-cafe-ida-hamburg?adjust_creative=hBJOknVQJ58S5goQyjmwRw&utm_campaign=yelp_api_v3&utm_medium=api_v3_business_search&utm_source=hBJOknVQJ58S5goQyjmwRw", "review_count": 1, "categories": [{"alias": "cafes", "title": "Cafes"}], "rating": 5.0, "coordinates": {"latitude": 53.5755, "longitude": 9.82279}, "transactions": [], "price": "\u20ac\u20ac", "location": {"address1": "Schenefelder Landstr. 185", "address2": null, "address3": null, "city": "Hamburg", "zip_code": "22589", "country": "DE", "state": "HH", "display_address": ["Schenefelder Landstr. 185", "22589 Hamburg", "Germany"]}, "phone": "+494074126871", "display_phone": "+49 40 74126871", "distance": 2071.024657081564}, {"id": "vhDnzqKJXzaWjjWtSoKVvg", "alias": "reggies-hamburg-5", "name": "Reggie's", "image_url": "https://s3-media2.fl.yelpcdn.com/bphoto/mIPramJ63ITSM0mXSOwnGw/o.jpg", "is_closed": false, "url": "https://www.yelp.com/biz/reggies-hamburg-5?adjust_creative=hBJOknVQJ58S5goQyjmwRw&utm_campaign=yelp_api_v3&utm_medium=api_v3_business_search&utm_source=hBJOknVQJ58S5goQyjmwRw", "review_count": 3, "categories": [{"alias": "salad", "title": "Salad"}, {"alias": "burgers", "title": "Burgers"}, {"alias": "sandwiches", "title": "Sandwiches"}], "rating": 4.5, "coordinates": {"latitude": 53.5780479740913, "longitude": 9.81364522129297}, "transactions": [], "location": {"address1": "S\u00fclldorfer Landstr. 60", "address2": "", "address3": null, "city": "Hamburg", "zip_code": "22589", "country": "DE", "state": "HH", "display_address": ["S\u00fclldorfer Landstr. 60", "22589 Hamburg", "Germany"]}, "phone": "+494086649494", "display_phone": "+49 40 86649494", "distance": 2336.2453489090135}, {"id": "1f5mNMVLMrdMCRBW6MHJ7Q", "alias": "asia-pham-hamburg", "name": "Asia Pham", "image_url": "https://s3-media2.fl.yelpcdn.com/bphoto/HwjH0ADWI2kdi9ijxlauaQ/o.jpg", "is_closed": false, "url": "https://www.yelp.com/biz/asia-pham-hamburg?adjust_creative=hBJOknVQJ58S5goQyjmwRw&utm_campaign=yelp_api_v3&utm_medium=api_v3_business_search&utm_source=hBJOknVQJ58S5goQyjmwRw", "review_count": 2, "categories": [{"alias": "fooddeliveryservices", "title": "Food Delivery Services"}, {"alias": "panasian", "title": "Pan Asian"}], "rating": 2.5, "coordinates": {"latitude": 53.5808, "longitude": 9.79512}, "transactions": [], "location": {"address1": "S\u00fclldorfer Landstr. 202", "address2": null, "address3": null, "city": "Hamburg", "zip_code": "22589", "country": "DE", "state": "HH", "display_address": ["S\u00fclldorfer Landstr. 202", "22589 Hamburg", "Germany"]}, "phone": "+494033420675", "display_phone": "+49 40 33420675", "distance": 3012.0458764278064}, {"id": "fm7Np2nLRTJypqEnxUEfJA", "alias": "taverna-elina-hamburg", "name": "Taverna Elina", "image_url": "https://s3-media4.fl.yelpcdn.com/bphoto/H5AIVAelK74kNc_tpL10CA/o.jpg", "is_closed": false, "url": "https://www.yelp.com/biz/taverna-elina-hamburg?adjust_creative=hBJOknVQJ58S5goQyjmwRw&utm_campaign=yelp_api_v3&utm_medium=api_v3_business_search&utm_source=hBJOknVQJ58S5goQyjmwRw", "review_count": 10, "categories": [{"alias": "greek", "title": "Greek"}], "rating": 3.5, "coordinates": {"latitude": 53.5212, "longitude": 9.81203}, "transactions": [], "price": "\u20ac", "location": {"address1": "Hasselwerder Str. 94", "address2": null, "address3": null, "city": "Hamburg", "zip_code": "21129", "country": "DE", "state": "HH", "display_address": ["Hasselwerder Str. 94", "21129 Hamburg", "Germany"]}, "phone": "+49407459567", "display_phone": "+49 40 7459567", "distance": 4013.534472935034}, {"id": "aJ4xM7L5Sg8oJ1ygPC9-og", "alias": "himalaya-hamburg-4", "name": "Himalaya", "image_url": "", "is_closed": false, "url": "https://www.yelp.com/biz/himalaya-hamburg-4?adjust_creative=hBJOknVQJ58S5goQyjmwRw&utm_campaign=yelp_api_v3&utm_medium=api_v3_business_search&utm_source=hBJOknVQJ58S5goQyjmwRw", "review_count": 4, "categories": [{"alias": "indpak", "title": "Indian"}], "rating": 3.0, "coordinates": {"latitude": 53.5756874, "longitude": 9.816833}, "transactions": [], "location": {"address1": "Espenreihe 15", "address2": "", "address3": "", "city": "Hamburg", "zip_code": "22589", "country": "DE", "state": "HH", "display_address": ["Espenreihe 15", "22589 Hamburg", "Germany"]}, "phone": "+494086625410", "display_phone": "+49 40 86625410", "distance": 2061.0578540915553}, {"id": "UR-xg7ZyvHTROcIeROKa2w", "alias": "china-imbi\u00df-sun-fu-hamburg-2", "name": "China-Imbi\u00df Sun Fu", "image_url": "", "is_closed": false, "url": "https://www.yelp.com/biz/china-imbi%C3%9F-sun-fu-hamburg-2?adjust_creative=hBJOknVQJ58S5goQyjmwRw&utm_campaign=yelp_api_v3&utm_medium=api_v3_business_search&utm_source=hBJOknVQJ58S5goQyjmwRw", "review_count": 8, "categories": [{"alias": "food", "title": "Food"}, {"alias": "chinese", "title": "Chinese"}], "rating": 3.5, "coordinates": {"latitude": 53.5764, "longitude": 9.82141}, "transactions": [], "price": "\u20ac\u20ac", "location": {"address1": "Simrockstr. 186", "address2": null, "address3": null, "city": "Hamburg", "zip_code": "22589", "country": "DE", "state": "HH", "display_address": ["Simrockstr. 186", "22589 Hamburg", "Germany"]}, "phone": "+4940875584", "display_phone": "+49 40 875584", "distance": 2156.5169061544816}, {"id": "DR-iXn7Oc0-HX9Tnix6kkA", "alias": "lieferservice-continental-hamburg", "name": "Lieferservice Continental", "image_url": "https://s3-media1.fl.yelpcdn.com/bphoto/86txTLe6hxKTuwq7_5hlMQ/o.jpg", "is_closed": false, "url": "https://www.yelp.com/biz/lieferservice-continental-hamburg?adjust_creative=hBJOknVQJ58S5goQyjmwRw&utm_campaign=yelp_api_v3&utm_medium=api_v3_business_search&utm_source=hBJOknVQJ58S5goQyjmwRw", "review_count": 1, "categories": [{"alias": "fooddeliveryservices", "title": "Food Delivery Services"}, {"alias": "restaurants", "title": "Restaurants"}], "rating": 2.0, "coordinates": {"latitude": 53.5786, "longitude": 9.81645}, "transactions": [], "price": "\u20ac\u20ac", "location": {"address1": "Iserbrook 15", "address2": null, "address3": null, "city": "Hamburg", "zip_code": "22589", "country": "DE", "state": "HH", "display_address": ["Iserbrook 15", "22589 Hamburg", "Germany"]}, "phone": "+494086625410", "display_phone": "+49 40 86625410", "distance": 2385.394803734275}, {"id": "uaO1YLgD11G0c5J0ZiteSQ", "alias": "taverne-zorbas-hamburg", "name": "Taverne Zorbas", "image_url": "https://s3-media2.fl.yelpcdn.com/bphoto/mTdFzzFnZqtp9e1Aovn5yQ/o.jpg", "is_closed": false, "url": "https://www.yelp.com/biz/taverne-zorbas-hamburg?adjust_creative=hBJOknVQJ58S5goQyjmwRw&utm_campaign=yelp_api_v3&utm_medium=api_v3_business_search&utm_source=hBJOknVQJ58S5goQyjmwRw", "review_count": 1, "categories": [{"alias": "greek", "title": "Greek"}], "rating": 1.0, "coordinates": {"latitude": 53.5763, "longitude": 9.81339}, "transactions": [], "location": {"address1": "Heidrehmen 23", "address2": null, "address3": null, "city": "Hamburg", "zip_code": "22589", "country": "DE", "state": "HH", "display_address": ["Heidrehmen 23", "22589 Hamburg", "Germany"]}, "phone": "+49408705734", "display_phone": "+49 40 8705734", "distance": 2145.0629046243675}, {"id": "ZEPcY-1xU8MhwXIfr6lhTA", "alias": "tchibo-hamburg-17", "name": "Tchibo", "image_url": "", "is_closed": false, "url": "https://www.yelp.com/biz/tchibo-hamburg-17?adjust_creative=hBJOknVQJ58S5goQyjmwRw&utm_campaign=yelp_api_v3&utm_medium=api_v3_business_search&utm_source=hBJOknVQJ58S5goQyjmwRw", "review_count": 2, "categories": [{"alias": "cafes", "title": "Cafes"}], "rating": 3.5, "coordinates": {"latitude": 53.55986, "longitude": 9.81152}, "transactions": [], "price": "\u20ac\u20ac", "location": {"address1": "Blankeneser Bahnhofstr. 19", "address2": null, "address3": null, "city": "Hamburg", "zip_code": "22587", "country": "DE", "state": "HH", "display_address": ["Blankeneser Bahnhofstr. 19", "22587 Hamburg", "Germany"]}, "phone": "+491805829000", "display_phone": "+49 180 5 829000", "distance": 489.90711115841157}, {"id": "0Qx6Nf-xHiSLZ-7M9Mm7cw", "alias": "enjoy-pizza-und-wok-hamburg", "name": "Enjoy Pizza & Wok", "image_url": "https://s3-media3.fl.yelpcdn.com/bphoto/d1tc4Ul1eiJsL4oKH9fw2w/o.jpg", "is_closed": false, "url": "https://www.yelp.com/biz/enjoy-pizza-und-wok-hamburg?adjust_creative=hBJOknVQJ58S5goQyjmwRw&utm_campaign=yelp_api_v3&utm_medium=api_v3_business_search&utm_source=hBJOknVQJ58S5goQyjmwRw", "review_count": 2, "categories": [{"alias": "chinese", "title": "Chinese"}], "rating": 2.0, "coordinates": {"latitude": 53.5782814, "longitude": 9.8097296}, "transactions": [], "price": "\u20ac\u20ac", "location": {"address1": "S\u00fclldorfer Landstr. 94", "address2": "", "address3": "", "city": "Hamburg", "zip_code": "22589", "country": "DE", "state": "HH", "display_address": ["S\u00fclldorfer Landstr. 94", "22589 Hamburg", "Germany"]}, "phone": "+494018072333", "display_phone": "+49 40 18072333", "distance": 2405.4547010526117}]