[{"id": "bUbwsYeSP4hd_z7j5OG_PA", "alias": "schulauer-f\u00e4hrhaus-wedel-3", "name": "Schulauer F\u00e4hrhaus", "image_url": "https://s3-media2.fl.yelpcdn.com/bphoto/xrD9IxibX1BpEO7M7QYnNg/o.jpg", "is_closed": false, "url": "https://www.yelp.com/biz/schulauer-f%C3%A4hrhaus-wedel-3?adjust_creative=hBJOknVQJ58S5goQyjmwRw&utm_campaign=yelp_api_v3&utm_medium=api_v3_business_search&utm_source=hBJOknVQJ58S5goQyjmwRw", "review_count": 81, "categories": [{"alias": "german", "title": "German"}, {"alias": "coffee", "title": "Coffee & Tea"}], "rating": 3.5, "coordinates": {"latitude": 53.5688222091212, "longitude": 9.7028583465576}, "transactions": [], "price": "\u20ac\u20ac\u20ac", "location": {"address1": "Parna\u00dfstr. 29", "address2": null, "address3": null, "city": "Wedel", "zip_code": "22880", "country": "DE", "state": "SH", "display_address": ["Parna\u00dfstr. 29", "22880 Wedel", "Germany"]}, "phone": "+49410392000", "display_phone": "+49 4103 92000", "distance": 2005.040643647779}, {"id": "NX3Djpc3OxhE74mpEzwZvw", "alias": "da-salvatore-wedel", "name": "Da Salvatore", "image_url": "https://s3-media2.fl.yelpcdn.com/bphoto/Csfr98ROJavItr6Z5e-uQw/o.jpg", "is_closed": false, "url": "https://www.yelp.com/biz/da-salvatore-wedel?adjust_creative=hBJOknVQJ58S5goQyjmwRw&utm_campaign=yelp_api_v3&utm_medium=api_v3_business_search&utm_source=hBJOknVQJ58S5goQyjmwRw", "review_count": 35, "categories": [{"alias": "italian", "title": "Italian"}], "rating": 4.0, "coordinates": {"latitude": 53.58106, "longitude": 9.70307}, "transactions": [], "price": "\u20ac\u20ac", "location": {"address1": "Rathausplatz 4", "address2": null, "address3": null, "city": "Wedel", "zip_code": "22880", "country": "DE", "state": "SH", "display_address": ["Rathausplatz 4", "22880 Wedel", "Germany"]}, "phone": "+4941033208", "display_phone": "+49 4103 3208", "distance": 3030.038642467068}, {"id": "LwUHIY5UJKGIC-eUwdcDAA", "alias": "kalkan-d\u00f6nerimbiss-wedel", "name": "Kalkan D\u00f6nerimbiss", "image_url": "https://s3-media1.fl.yelpcdn.com/bphoto/ZYe0ATAsPE99DD7sT7AZOQ/o.jpg", "is_closed": false, "url": "https://www.yelp.com/biz/kalkan-d%C3%B6nerimbiss-wedel?adjust_creative=hBJOknVQJ58S5goQyjmwRw&utm_campaign=yelp_api_v3&utm_medium=api_v3_business_search&utm_source=hBJOknVQJ58S5goQyjmwRw", "review_count": 2, "categories": [{"alias": "kebab", "title": "Kebab"}, {"alias": "turkish", "title": "Turkish"}, {"alias": "hotdogs", "title": "Fast Food"}], "rating": 5.0, "coordinates": {"latitude": 53.58176, "longitude": 9.70457}, "transactions": [], "price": "\u20ac", "location": {"address1": "Rathausplatz 1", "address2": null, "address3": null, "city": "Wedel", "zip_code": "22880", "country": "DE", "state": "SH", "display_address": ["Rathausplatz 1", "22880 Wedel", "Germany"]}, "phone": "+4941038032097", "display_phone": "+49 4103 8032097", "distance": 3047.974904553853}, {"id": "CSSuDVWpQATP73cGFYy1Bg", "alias": "sushi-masuta-wedel-2", "name": "Sushi Masuta", "image_url": "https://s3-media2.fl.yelpcdn.com/bphoto/niZ8RGrd2HirqbXBq4kpgg/o.jpg", "is_closed": false, "url": "https://www.yelp.com/biz/sushi-masuta-wedel-2?adjust_creative=hBJOknVQJ58S5goQyjmwRw&utm_campaign=yelp_api_v3&utm_medium=api_v3_business_search&utm_source=hBJOknVQJ58S5goQyjmwRw", "review_count": 2, "categories": [{"alias": "sushi", "title": "Sushi Bars"}, {"alias": "panasian", "title": "Pan Asian"}], "rating": 4.5, "coordinates": {"latitude": 53.5827, "longitude": 9.71485}, "transactions": [], "location": {"address1": "Rissenerstr. 21", "address2": "", "address3": "", "city": "Wedel", "zip_code": "22880", "country": "DE", "state": "SH", "display_address": ["Rissenerstr. 21", "22880 Wedel", "Germany"]}, "phone": "+4941039053311", "display_phone": "+49 4103 9053311", "distance": 2889.0016246086293}, {"id": "VCWhN2WSveQ7hjvH6HVm4g", "alias": "thai-und-tolerance-wedel", "name": "Thai & Tolerance", "image_url": "https://s3-media2.fl.yelpcdn.com/bphoto/tbkjnR6UydDNCbMvhNG5xg/o.jpg", "is_closed": false, "url": "https://www.yelp.com/biz/thai-und-tolerance-wedel?adjust_creative=hBJOknVQJ58S5goQyjmwRw&utm_campaign=yelp_api_v3&utm_medium=api_v3_business_search&utm_source=hBJOknVQJ58S5goQyjmwRw", "review_count": 17, "categories": [{"alias": "thai", "title": "Thai"}], "rating": 4.0, "coordinates": {"latitude": 53.582, "longitude": 9.70596}, "transactions": [], "price": "\u20ac\u20ac", "location": {"address1": "Rosengarten 9", "address2": null, "address3": null, "city": "Wedel", "zip_code": "22880", "country": "DE", "state": "SH", "display_address": ["Rosengarten 9", "22880 Wedel", "Germany"]}, "phone": "+4941039059220", "display_phone": "+49 4103 9059220", "distance": 3028.5796629615515}, {"id": "Vi6mSUWfGX-JXRgDLYcjgQ", "alias": "taverna-zum-griechen-wedel", "name": "Taverna Zum Griechen", "image_url": "https://s3-media2.fl.yelpcdn.com/bphoto/_4_Rf5W9QFSXxvIbU1F_Eg/o.jpg", "is_closed": false, "url": "https://www.yelp.com/biz/taverna-zum-griechen-wedel?adjust_creative=hBJOknVQJ58S5goQyjmwRw&utm_campaign=yelp_api_v3&utm_medium=api_v3_business_search&utm_source=hBJOknVQJ58S5goQyjmwRw", "review_count": 22, "categories": [{"alias": "greek", "title": "Greek"}], "rating": 4.5, "coordinates": {"latitude": 53.5761, "longitude": 9.71499}, "transactions": [], "price": "\u20ac\u20ac", "location": {"address1": "Feldstr. 46", "address2": null, "address3": null, "city": "Wedel", "zip_code": "22880", "country": "DE", "state": "SH", "display_address": ["Feldstr. 46", "22880 Wedel", "Germany"]}, "phone": "+49410383700", "display_phone": "+49 4103 83700", "distance": 2185.663513340405}, {"id": "lU3esDZFjrEyLWe5YT1VbQ", "alias": "taverna-plaka-wedel", "name": "taverna plaka", "image_url": "https://s3-media2.fl.yelpcdn.com/bphoto/YDhpi-z8-HQFvXuhWRK4qQ/o.jpg", "is_closed": false, "url": "https://www.yelp.com/biz/taverna-plaka-wedel?adjust_creative=hBJOknVQJ58S5goQyjmwRw&utm_campaign=yelp_api_v3&utm_medium=api_v3_business_search&utm_source=hBJOknVQJ58S5goQyjmwRw", "review_count": 10, "categories": [{"alias": "greek", "title": "Greek"}], "rating": 4.0, "coordinates": {"latitude": 53.5802, "longitude": 9.7207306}, "transactions": [], "price": "\u20ac\u20ac", "location": {"address1": "Kronskamp 60", "address2": null, "address3": null, "city": "Wedel", "zip_code": "228800", "country": "DE", "state": "SH", "display_address": ["Kronskamp 60", "228800 Wedel", "Germany"]}, "phone": "+4941037019101", "display_phone": "+49 4103 7019101", "distance": 2529.5406078073906}, {"id": "3leCdQtr0JB-NyKOjYtLBQ", "alias": "restaurant-kdw-wedel", "name": "Restaurant KDW", "image_url": "https://s3-media2.fl.yelpcdn.com/bphoto/4qFUuiBhRBBesq8plN4QcA/o.jpg", "is_closed": false, "url": "https://www.yelp.com/biz/restaurant-kdw-wedel?adjust_creative=hBJOknVQJ58S5goQyjmwRw&utm_campaign=yelp_api_v3&utm_medium=api_v3_business_search&utm_source=hBJOknVQJ58S5goQyjmwRw", "review_count": 20, "categories": [{"alias": "german", "title": "German"}, {"alias": "mediterranean", "title": "Mediterranean"}], "rating": 4.5, "coordinates": {"latitude": 53.5926252588982, "longitude": 9.74624951265866}, "transactions": [], "price": "\u20ac\u20ac\u20ac", "location": {"address1": "Egenb\u00fcttelweg 123", "address2": "", "address3": null, "city": "Wedel", "zip_code": "22880", "country": "DE", "state": "SH", "display_address": ["Egenb\u00fcttelweg 123", "22880 Wedel", "Germany"]}, "phone": "+4941039052080", "display_phone": "+49 4103 9052080", "distance": 4086.0282733914887}, {"id": "bWObTMVzB-9qnFrjIqSNTw", "alias": "h\u00e4hnchen-grill-wedel", "name": "H\u00e4hnchen-Grill", "image_url": "https://s3-media3.fl.yelpcdn.com/bphoto/9bXEuMkE0-xHE1EL6TgBBg/o.jpg", "is_closed": false, "url": "https://www.yelp.com/biz/h%C3%A4hnchen-grill-wedel?adjust_creative=hBJOknVQJ58S5goQyjmwRw&utm_campaign=yelp_api_v3&utm_medium=api_v3_business_search&utm_source=hBJOknVQJ58S5goQyjmwRw", "review_count": 13, "categories": [{"alias": "hotdogs", "title": "Fast Food"}, {"alias": "chicken_wings", "title": "Chicken Wings"}], "rating": 4.5, "coordinates": {"latitude": 53.580019, "longitude": 9.704079}, "transactions": [], "price": "\u20ac", "location": {"address1": "Bahnhofstr. 11", "address2": null, "address3": null, "city": "Wedel", "zip_code": "22880", "country": "DE", "state": "SH", "display_address": ["Bahnhofstr. 11", "22880 Wedel", "Germany"]}, "phone": "+4941034204", "display_phone": "+49 4103 4204", "distance": 2896.5207656165226}, {"id": "o_LKkr-7dBW9kMCPDqgXcA", "alias": "kleine-waldsch\u00e4nke-hamburg", "name": "Kleine Waldsch\u00e4nke", "image_url": "https://s3-media1.fl.yelpcdn.com/bphoto/036OZwC0vpCdfu8IGRmY0w/o.jpg", "is_closed": false, "url": "https://www.yelp.com/biz/kleine-waldsch%C3%A4nke-hamburg?adjust_creative=hBJOknVQJ58S5goQyjmwRw&utm_campaign=yelp_api_v3&utm_medium=api_v3_business_search&utm_source=hBJOknVQJ58S5goQyjmwRw", "review_count": 19, "categories": [{"alias": "german", "title": "German"}, {"alias": "venues", "title": "Venues & Event Spaces"}], "rating": 3.0, "coordinates": {"latitude": 53.5963, "longitude": 9.74605}, "transactions": [], "price": "\u20ac\u20ac", "location": {"address1": "Sandmoorweg 149", "address2": null, "address3": null, "city": "Hamburg", "zip_code": "22559", "country": "DE", "state": "HH", "display_address": ["Sandmoorweg 149", "22559 Hamburg", "Germany"]}, "phone": "+4940814792", "display_phone": "+49 40 814792", "distance": 4472.0168061496815}, {"id": "Uw0_5qc4Kc7JetPUJuhoCA", "alias": "mundfein-pizzawerkstatt-wedel", "name": "Mundfein Pizzawerkstatt", "image_url": "https://s3-media1.fl.yelpcdn.com/bphoto/Zzrdv4Bcr5zaPmu1ujj1Zg/o.jpg", "is_closed": false, "url": "https://www.yelp.com/biz/mundfein-pizzawerkstatt-wedel?adjust_creative=hBJOknVQJ58S5goQyjmwRw&utm_campaign=yelp_api_v3&utm_medium=api_v3_business_search&utm_source=hBJOknVQJ58S5goQyjmwRw", "review_count": 4, "categories": [{"alias": "pizza", "title": "Pizza"}], "rating": 3.0, "coordinates": {"latitude": 53.5814, "longitude": 9.70559}, "transactions": [], "price": "\u20ac\u20ac", "location": {"address1": "Rosengarten 3", "address2": null, "address3": null, "city": "Wedel", "zip_code": "22880", "country": "DE", "state": "SH", "display_address": ["Rosengarten 3", "22880 Wedel", "Germany"]}, "phone": "+4941031210820", "display_phone": "+49 4103 1210820", "distance": 2980.7169815608654}, {"id": "my5v5umN7vaOka8PkWzW9w", "alias": "das-etwas-andere-cafe-wedel", "name": "Das etwas andere Cafe", "image_url": "https://s3-media2.fl.yelpcdn.com/bphoto/Rx3ik9Ql4yxZ1qoU7TgJ6Q/o.jpg", "is_closed": false, "url": "https://www.yelp.com/biz/das-etwas-andere-cafe-wedel?adjust_creative=hBJOknVQJ58S5goQyjmwRw&utm_campaign=yelp_api_v3&utm_medium=api_v3_business_search&utm_source=hBJOknVQJ58S5goQyjmwRw", "review_count": 4, "categories": [{"alias": "cafes", "title": "Cafes"}], "rating": 5.0, "coordinates": {"latitude": 53.575112, "longitude": 9.705987}, "transactions": [], "location": {"address1": "Bahnhofstr. 58", "address2": "", "address3": "", "city": "Wedel", "zip_code": "22880", "country": "DE", "state": "SH", "display_address": ["Bahnhofstr. 58", "22880 Wedel", "Germany"]}, "phone": "+4941031881030", "display_phone": "+49 4103 1881030", "distance": 2463.5355225970184}, {"id": "VS_DgC1N0ga39vw7g2ncMw", "alias": "haci-baba-k\u00f6z-wedel", "name": "Haci Baba K\u00f6z", "image_url": "https://s3-media1.fl.yelpcdn.com/bphoto/zCC75jAyROTVZ3kyWAP4fg/o.jpg", "is_closed": false, "url": "https://www.yelp.com/biz/haci-baba-k%C3%B6z-wedel?adjust_creative=hBJOknVQJ58S5goQyjmwRw&utm_campaign=yelp_api_v3&utm_medium=api_v3_business_search&utm_source=hBJOknVQJ58S5goQyjmwRw", "review_count": 5, "categories": [{"alias": "kebab", "title": "Kebab"}, {"alias": "turkish", "title": "Turkish"}], "rating": 5.0, "coordinates": {"latitude": 53.57703, "longitude": 9.70553}, "transactions": [], "price": "\u20ac", "location": {"address1": "Bahnhofstra\u00dfe", "address2": "", "address3": null, "city": "Wedel", "zip_code": "22880", "country": "DE", "state": "SH", "display_address": ["Bahnhofstra\u00dfe", "22880 Wedel", "Germany"]}, "phone": "+4941031877927", "display_phone": "+49 4103 1877927", "distance": 2619.1094459707224}, {"id": "TPFx57tx3wiE45BBN3vwzg", "alias": "aytac-restaurant-wedel", "name": "Aytac Restaurant", "image_url": "https://s3-media1.fl.yelpcdn.com/bphoto/kZxU7sp78Y9wFuOh_KkIug/o.jpg", "is_closed": false, "url": "https://www.yelp.com/biz/aytac-restaurant-wedel?adjust_creative=hBJOknVQJ58S5goQyjmwRw&utm_campaign=yelp_api_v3&utm_medium=api_v3_business_search&utm_source=hBJOknVQJ58S5goQyjmwRw", "review_count": 17, "categories": [{"alias": "turkish", "title": "Turkish"}, {"alias": "international", "title": "International"}], "rating": 3.5, "coordinates": {"latitude": 53.57726, "longitude": 9.70501}, "transactions": [], "price": "\u20ac", "location": {"address1": "Spitzerdorfstr. 1", "address2": null, "address3": null, "city": "Wedel", "zip_code": "22880", "country": "DE", "state": "SH", "display_address": ["Spitzerdorfstr. 1", "22880 Wedel", "Germany"]}, "phone": "+4941031210535", "display_phone": "+49 4103 1210535", "distance": 2604.472206286832}, {"id": "R-U-sg8mPttKzO1Vekx1mw", "alias": "fresh-wedel", "name": "fresh!", "image_url": "https://s3-media3.fl.yelpcdn.com/bphoto/AIynZFNo1l6pse8jZhuxsw/o.jpg", "is_closed": false, "url": "https://www.yelp.com/biz/fresh-wedel?adjust_creative=hBJOknVQJ58S5goQyjmwRw&utm_campaign=yelp_api_v3&utm_medium=api_v3_business_search&utm_source=hBJOknVQJ58S5goQyjmwRw", "review_count": 2, "categories": [{"alias": "sandwiches", "title": "Sandwiches"}], "rating": 4.0, "coordinates": {"latitude": 53.5841, "longitude": 9.72323}, "transactions": [], "price": "\u20ac\u20ac", "location": {"address1": "Rissener Str. 105", "address2": "", "address3": null, "city": "Wedel", "zip_code": "22880", "country": "DE", "state": "SH", "display_address": ["Rissener Str. 105", "22880 Wedel", "Germany"]}, "phone": "+4941031894961", "display_phone": "+49 4103 1894961", "distance": 2940.676738498089}, {"id": "LW8L41e1CjrjEo4zrp7DEQ", "alias": "asia-nguyen-imbiss-wedel", "name": "Asia Nguyen Imbiss", "image_url": "https://s3-media3.fl.yelpcdn.com/bphoto/9TXMrX7ouKbYz5qkUsfq2Q/o.jpg", "is_closed": false, "url": "https://www.yelp.com/biz/asia-nguyen-imbiss-wedel?adjust_creative=hBJOknVQJ58S5goQyjmwRw&utm_campaign=yelp_api_v3&utm_medium=api_v3_business_search&utm_source=hBJOknVQJ58S5goQyjmwRw", "review_count": 13, "categories": [{"alias": "panasian", "title": "Pan Asian"}], "rating": 4.5, "coordinates": {"latitude": 53.57633, "longitude": 9.71426}, "transactions": [], "price": "\u20ac", "location": {"address1": "Feldstr. 51", "address2": "", "address3": "", "city": "Wedel", "zip_code": "22880", "country": "DE", "state": "SH", "display_address": ["Feldstr. 51", "22880 Wedel", "Germany"]}, "phone": "+4941037016717", "display_phone": "+49 4103 7016717", "distance": 2238.290242076208}, {"id": "-LtNc4nHbYh7cLK0KaPb1w", "alias": "gastst\u00e4tte-zur-doppeleiche-wedel", "name": "Gastst\u00e4tte Zur Doppeleiche", "image_url": "https://s3-media4.fl.yelpcdn.com/bphoto/ofT8BLlt0V5PilakDRLR1Q/o.jpg", "is_closed": false, "url": "https://www.yelp.com/biz/gastst%C3%A4tte-zur-doppeleiche-wedel?adjust_creative=hBJOknVQJ58S5goQyjmwRw&utm_campaign=yelp_api_v3&utm_medium=api_v3_business_search&utm_source=hBJOknVQJ58S5goQyjmwRw", "review_count": 9, "categories": [{"alias": "german", "title": "German"}], "rating": 4.0, "coordinates": {"latitude": 53.574722, "longitude": 9.706549}, "transactions": [], "price": "\u20ac\u20ac", "location": {"address1": "Bahnhofstr. 71", "address2": null, "address3": null, "city": "Wedel", "zip_code": "22880", "country": "DE", "state": "SH", "display_address": ["Bahnhofstr. 71", "22880 Wedel", "Germany"]}, "phone": "+4941037016511", "display_phone": "+49 4103 7016511", "distance": 2314.2277920791603}, {"id": "vojG69xV85NCO3EQ_3WSCQ", "alias": "croque-corner-wedel", "name": "Croque Corner", "image_url": "https://s3-media4.fl.yelpcdn.com/bphoto/0hRMTUau2Eaeo6oi5ksYrg/o.jpg", "is_closed": false, "url": "https://www.yelp.com/biz/croque-corner-wedel?adjust_creative=hBJOknVQJ58S5goQyjmwRw&utm_campaign=yelp_api_v3&utm_medium=api_v3_business_search&utm_source=hBJOknVQJ58S5goQyjmwRw", "review_count": 21, "categories": [{"alias": "bistros", "title": "Bistros"}, {"alias": "sandwiches", "title": "Sandwiches"}], "rating": 4.0, "coordinates": {"latitude": 53.5813, "longitude": 9.7071}, "transactions": [], "price": "\u20ac", "location": {"address1": "Rosengarten 14", "address2": null, "address3": null, "city": "Wedel", "zip_code": "22880", "country": "DE", "state": "SH", "display_address": ["Rosengarten 14", "22880 Wedel", "Germany"]}, "phone": "+49410313883", "display_phone": "+49 4103 13883", "distance": 2925.2095671783154}, {"id": "u3ub5f0MS4qY67Q8XF9ZoA", "alias": "sodemanns-fisch-kutter-nr-1-hamburg", "name": "Sodemann's Fisch-Kutter Nr. 1", "image_url": "https://s3-media3.fl.yelpcdn.com/bphoto/BlysP6fVPaL0eEjKvEbByw/o.jpg", "is_closed": false, "url": "https://www.yelp.com/biz/sodemanns-fisch-kutter-nr-1-hamburg?adjust_creative=hBJOknVQJ58S5goQyjmwRw&utm_campaign=yelp_api_v3&utm_medium=api_v3_business_search&utm_source=hBJOknVQJ58S5goQyjmwRw", "review_count": 3, "categories": [{"alias": "foodtrucks", "title": "Food Trucks"}, {"alias": "fischbroetchen", "title": "Fischbroetchen"}], "rating": 5.0, "coordinates": {"latitude": 53.5537490844727, "longitude": 9.99182987213135}, "transactions": [], "price": "\u20ac\u20ac", "location": {"address1": "", "address2": null, "address3": "", "city": "Hamburg", "zip_code": "", "country": "DE", "state": "HH", "display_address": ["Hamburg", "Germany"]}, "phone": "+491773606663", "display_phone": "+49 177 3606663", "distance": 17644.30518023245}, {"id": "QyMSd5swFPtn7x6jIPQKjA", "alias": "croque-bistro-wedel", "name": "Croque Bistro", "image_url": "https://s3-media2.fl.yelpcdn.com/bphoto/99uNTU-qiK6idhYei1fGrw/o.jpg", "is_closed": false, "url": "https://www.yelp.com/biz/croque-bistro-wedel?adjust_creative=hBJOknVQJ58S5goQyjmwRw&utm_campaign=yelp_api_v3&utm_medium=api_v3_business_search&utm_source=hBJOknVQJ58S5goQyjmwRw", "review_count": 19, "categories": [{"alias": "sandwiches", "title": "Sandwiches"}, {"alias": "burgers", "title": "Burgers"}, {"alias": "baguettes", "title": "Baguettes"}], "rating": 4.0, "coordinates": {"latitude": 53.58158, "longitude": 9.725}, "transactions": [], "price": "\u20ac\u20ac", "location": {"address1": "Kronskamp 90", "address2": "", "address3": "", "city": "Wedel", "zip_code": "22880", "country": "DE", "state": "SH", "display_address": ["Kronskamp 90", "22880 Wedel", "Germany"]}, "phone": "+4941037033131", "display_phone": "+49 4103 7033131", "distance": 2631.3491641293863}, {"id": "LlmHzWK9zplbcrU-zlIywA", "alias": "\u00fclker-d\u00f6nerimbiss-wedel", "name": "\u00dclker D\u00f6nerimbiss", "image_url": "https://s3-media4.fl.yelpcdn.com/bphoto/US4dw6GOxZ-Jj8p7tuP-ow/o.jpg", "is_closed": false, "url": "https://www.yelp.com/biz/%C3%BClker-d%C3%B6nerimbiss-wedel?adjust_creative=hBJOknVQJ58S5goQyjmwRw&utm_campaign=yelp_api_v3&utm_medium=api_v3_business_search&utm_source=hBJOknVQJ58S5goQyjmwRw", "review_count": 3, "categories": [{"alias": "hotdogs", "title": "Fast Food"}], "rating": 4.5, "coordinates": {"latitude": 53.5813, "longitude": 9.70499}, "transactions": [], "location": {"address1": "Rosengarten 3", "address2": null, "address3": null, "city": "Wedel", "zip_code": "22880", "country": "DE", "state": "SH", "display_address": ["Rosengarten 3", "22880 Wedel", "Germany"]}, "phone": "+4941031882630", "display_phone": "+49 4103 1882630", "distance": 2989.795195937079}, {"id": "HRpTzi8G4SEeogF2U1Mp9A", "alias": "mcdonalds-wedel", "name": "McDonald's", "image_url": "https://s3-media3.fl.yelpcdn.com/bphoto/e7xCOZ1A_iBQUKK7eR6Ijw/o.jpg", "is_closed": false, "url": "https://www.yelp.com/biz/mcdonalds-wedel?adjust_creative=hBJOknVQJ58S5goQyjmwRw&utm_campaign=yelp_api_v3&utm_medium=api_v3_business_search&utm_source=hBJOknVQJ58S5goQyjmwRw", "review_count": 13, "categories": [{"alias": "burgers", "title": "Burgers"}, {"alias": "hotdogs", "title": "Fast Food"}], "rating": 3.0, "coordinates": {"latitude": 53.58345, "longitude": 9.72432}, "transactions": [], "price": "\u20ac\u20ac", "location": {"address1": "Rissener Str. 96-98", "address2": null, "address3": null, "city": "Wedel", "zip_code": "22880", "country": "DE", "state": "SH", "display_address": ["Rissener Str. 96-98", "22880 Wedel", "Germany"]}, "phone": "+494103180983", "display_phone": "+49 4103 180983", "distance": 2863.6127327584045}, {"id": "OHj5Jtnt2T8s5_NVto6gNw", "alias": "elbistro-wedel", "name": "ElBistro", "image_url": "https://s3-media4.fl.yelpcdn.com/bphoto/WOzuFCn7EuFjIEwTbCXLZg/o.jpg", "is_closed": false, "url": "https://www.yelp.com/biz/elbistro-wedel?adjust_creative=hBJOknVQJ58S5goQyjmwRw&utm_campaign=yelp_api_v3&utm_medium=api_v3_business_search&utm_source=hBJOknVQJ58S5goQyjmwRw", "review_count": 2, "categories": [{"alias": "mexican", "title": "Mexican"}, {"alias": "breakfast_brunch", "title": "Breakfast & Brunch"}], "rating": 5.0, "coordinates": {"latitude": 53.59073, "longitude": 9.71615}, "transactions": [], "location": {"address1": "Egenb\u00fcttelweg 4", "address2": "", "address3": null, "city": "Wedel", "zip_code": "22880", "country": "DE", "state": "SH", "display_address": ["Egenb\u00fcttelweg 4", "22880 Wedel", "Germany"]}, "phone": "+4941039054003", "display_phone": "+49 4103 9054003", "distance": 3733.3444661864023}, {"id": "9g3tkNR1Iq4Fpx4YX_x9MQ", "alias": "caf\u00e9-dammanns-jork", "name": "Caf\u00e9 Dammanns", "image_url": "", "is_closed": false, "url": "https://www.yelp.com/biz/caf%C3%A9-dammanns-jork?adjust_creative=hBJOknVQJ58S5goQyjmwRw&utm_campaign=yelp_api_v3&utm_medium=api_v3_business_search&utm_source=hBJOknVQJ58S5goQyjmwRw", "review_count": 3, "categories": [{"alias": "cafes", "title": "Cafes"}], "rating": 3.0, "coordinates": {"latitude": 53.5191, "longitude": 9.73069}, "transactions": [], "location": {"address1": "Gro\u00df Hove 2", "address2": null, "address3": null, "city": "Jork", "zip_code": "21635", "country": "DE", "state": "NI", "display_address": ["Gro\u00df Hove 2", "21635 Jork", "Germany"]}, "phone": "+4941629131989", "display_phone": "+49 4162 9131989", "distance": 4304.140807466122}, {"id": "7vHVonvCl9qF7MPtSmDycQ", "alias": "fontana-wedel-2", "name": "Fontana", "image_url": "", "is_closed": false, "url": "https://www.yelp.com/biz/fontana-wedel-2?adjust_creative=hBJOknVQJ58S5goQyjmwRw&utm_campaign=yelp_api_v3&utm_medium=api_v3_business_search&utm_source=hBJOknVQJ58S5goQyjmwRw", "review_count": 13, "categories": [{"alias": "northerngerman", "title": "Northern German"}], "rating": 4.5, "coordinates": {"latitude": 53.593613, "longitude": 9.722971}, "transactions": [], "price": "\u20ac\u20ac", "location": {"address1": "Moorweg 2", "address2": null, "address3": null, "city": "Wedel", "zip_code": "22880", "country": "DE", "state": "SH", "display_address": ["Moorweg 2", "22880 Wedel", "Germany"]}, "phone": "+4941037559", "display_phone": "+49 4103 7559", "distance": 3997.004694611961}, {"id": "ZhAIUhAj09djz0hT-Aw0dQ", "alias": "i-touch-billardcafe-wedel", "name": "I touch Billardcafe", "image_url": "https://s3-media2.fl.yelpcdn.com/bphoto/9GPMS9mYTIWb2YCof-OSAw/o.jpg", "is_closed": false, "url": "https://www.yelp.com/biz/i-touch-billardcafe-wedel?adjust_creative=hBJOknVQJ58S5goQyjmwRw&utm_campaign=yelp_api_v3&utm_medium=api_v3_business_search&utm_source=hBJOknVQJ58S5goQyjmwRw", "review_count": 5, "categories": [{"alias": "poolhalls", "title": "Pool Halls"}, {"alias": "bistros", "title": "Bistros"}, {"alias": "cocktailbars", "title": "Cocktail Bars"}], "rating": 3.0, "coordinates": {"latitude": 53.5786, "longitude": 9.70413}, "transactions": [], "price": "\u20ac\u20ac", "location": {"address1": "Bahnhofstr. 24", "address2": null, "address3": null, "city": "Wedel", "zip_code": "22880", "country": "DE", "state": "SH", "display_address": ["Bahnhofstr. 24", "22880 Wedel", "Germany"]}, "phone": "+4941038089580", "display_phone": "+49 4103 8089580", "distance": 2760.9625359125084}, {"id": "UfmEONMCOsRpd--L9XR-vQ", "alias": "burger-king-wedel", "name": "Burger King", "image_url": "https://s3-media1.fl.yelpcdn.com/bphoto/4u202Ccbiws02nzpkd6Spw/o.jpg", "is_closed": false, "url": "https://www.yelp.com/biz/burger-king-wedel?adjust_creative=hBJOknVQJ58S5goQyjmwRw&utm_campaign=yelp_api_v3&utm_medium=api_v3_business_search&utm_source=hBJOknVQJ58S5goQyjmwRw", "review_count": 10, "categories": [{"alias": "burgers", "title": "Burgers"}, {"alias": "hotdogs", "title": "Fast Food"}], "rating": 3.0, "coordinates": {"latitude": 53.5839, "longitude": 9.72715}, "transactions": [], "price": "\u20ac\u20ac", "location": {"address1": "Rissener Str. 108", "address2": null, "address3": null, "city": "Wedel", "zip_code": "22880", "country": "DE", "state": "SH", "display_address": ["Rissener Str. 108", "22880 Wedel", "Germany"]}, "phone": "+4941037016906", "display_phone": "+49 4103 7016906", "distance": 2909.027752113723}, {"id": "EDwjwBmJQszxCN8MXBIRiA", "alias": "asiahaus-wedel", "name": "Asiahaus", "image_url": "https://s3-media2.fl.yelpcdn.com/bphoto/R6k-iNpgvxU0JME5mXHVVg/o.jpg", "is_closed": false, "url": "https://www.yelp.com/biz/asiahaus-wedel?adjust_creative=hBJOknVQJ58S5goQyjmwRw&utm_campaign=yelp_api_v3&utm_medium=api_v3_business_search&utm_source=hBJOknVQJ58S5goQyjmwRw", "review_count": 16, "categories": [{"alias": "chinese", "title": "Chinese"}], "rating": 2.5, "coordinates": {"latitude": 53.5791, "longitude": 9.70488}, "transactions": [], "price": "\u20ac\u20ac\u20ac", "location": {"address1": "Beim Hoophof 3a", "address2": null, "address3": null, "city": "Wedel", "zip_code": "22880", "country": "DE", "state": "SH", "display_address": ["Beim Hoophof 3a", "22880 Wedel", "Germany"]}, "phone": "+4941037018045", "display_phone": "+49 4103 7018045", "distance": 2781.7326184887515}, {"id": "UIhf9J_w3NPw_qwbA3vndA", "alias": "schocafe-wedel", "name": "Scho'cafe", "image_url": "https://s3-media1.fl.yelpcdn.com/bphoto/T9DTKgyNTIjIaSybvfGemA/o.jpg", "is_closed": false, "url": "https://www.yelp.com/biz/schocafe-wedel?adjust_creative=hBJOknVQJ58S5goQyjmwRw&utm_campaign=yelp_api_v3&utm_medium=api_v3_business_search&utm_source=hBJOknVQJ58S5goQyjmwRw", "review_count": 10, "categories": [{"alias": "cafes", "title": "Cafes"}], "rating": 5.0, "coordinates": {"latitude": 53.5814390679305, "longitude": 9.70283009111881}, "transactions": [], "price": "\u20ac\u20ac", "location": {"address1": "M\u00fchlenstr. 44", "address2": "", "address3": "", "city": "Wedel", "zip_code": "22880", "country": "DE", "state": "SH", "display_address": ["M\u00fchlenstr. 44", "22880 Wedel", "Germany"]}, "phone": "+494103x7033532", "display_phone": "+49 4103 ext. 7033532", "distance": 3074.313660444261}, {"id": "j7aGPtydE3GU6JSRzHM_kg", "alias": "fischbr\u00f6tchen-wedel", "name": "Fischbr\u00f6tchen", "image_url": "https://s3-media3.fl.yelpcdn.com/bphoto/u7CL_NO91Ofbu04gUIYtMA/o.jpg", "is_closed": false, "url": "https://www.yelp.com/biz/fischbr%C3%B6tchen-wedel?adjust_creative=hBJOknVQJ58S5goQyjmwRw&utm_campaign=yelp_api_v3&utm_medium=api_v3_business_search&utm_source=hBJOknVQJ58S5goQyjmwRw", "review_count": 1, "categories": [{"alias": "fishnchips", "title": "Fish & Chips"}], "rating": 1.0, "coordinates": {"latitude": 53.5695, "longitude": 9.70366}, "transactions": [], "location": {"address1": "Strandweg Ecke Parna\u00dfstra\u00dfe", "address2": null, "address3": null, "city": "Wedel", "zip_code": "22880", "country": "DE", "state": "SH", "display_address": ["Strandweg Ecke Parna\u00dfstra\u00dfe", "22880 Wedel", "Germany"]}, "phone": "", "display_phone": "", "distance": 2011.696579078352}, {"id": "2jzIbZsfzca5drJYk7JwbQ", "alias": "the-bao-bros-hamburg-2", "name": "The Bao Bros", "image_url": "https://s3-media1.fl.yelpcdn.com/bphoto/vUMA4Y35x3UwZk6fMJfZRw/o.jpg", "is_closed": false, "url": "https://www.yelp.com/biz/the-bao-bros-hamburg-2?adjust_creative=hBJOknVQJ58S5goQyjmwRw&utm_campaign=yelp_api_v3&utm_medium=api_v3_business_search&utm_source=hBJOknVQJ58S5goQyjmwRw", "review_count": 2, "categories": [{"alias": "foodtrucks", "title": "Food Trucks"}, {"alias": "burgers", "title": "Burgers"}], "rating": 4.0, "coordinates": {"latitude": 53.5533409118652, "longitude": 9.99246978759766}, "transactions": [], "price": "\u20ac", "location": {"address1": "", "address2": "", "address3": "", "city": "Hamburg", "zip_code": "", "country": "DE", "state": "HH", "display_address": ["Hamburg", "Germany"]}, "phone": "+4915140700076", "display_phone": "+49 1514 0700076", "distance": 17644.298580426737}, {"id": "VwHQYAFAJY4CNPEj9u-YPA", "alias": "gasthaus-k\u00f6nigreich-jork", "name": "Gasthaus K\u00f6nigreich", "image_url": "", "is_closed": false, "url": "https://www.yelp.com/biz/gasthaus-k%C3%B6nigreich-jork?adjust_creative=hBJOknVQJ58S5goQyjmwRw&utm_campaign=yelp_api_v3&utm_medium=api_v3_business_search&utm_source=hBJOknVQJ58S5goQyjmwRw", "review_count": 4, "categories": [{"alias": "hotels", "title": "Hotels"}, {"alias": "german", "title": "German"}], "rating": 3.0, "coordinates": {"latitude": 53.5205, "longitude": 9.72545}, "transactions": [], "price": "\u20ac", "location": {"address1": "Obstmarschenweg 1", "address2": null, "address3": null, "city": "Jork", "zip_code": "21635", "country": "DE", "state": "NI", "display_address": ["Obstmarschenweg 1", "21635 Jork", "Germany"]}, "phone": "+4941627675", "display_phone": "+49 4162 7675", "distance": 4141.781377128999}, {"id": "vjANxTvfh5TIXrQLqfWjBw", "alias": "caf\u00e9-am-markt-wedel", "name": "Caf\u00e9 am Markt", "image_url": "https://s3-media2.fl.yelpcdn.com/bphoto/3L5nI9pANwIF1L1FPxdwgg/o.jpg", "is_closed": false, "url": "https://www.yelp.com/biz/caf%C3%A9-am-markt-wedel?adjust_creative=hBJOknVQJ58S5goQyjmwRw&utm_campaign=yelp_api_v3&utm_medium=api_v3_business_search&utm_source=hBJOknVQJ58S5goQyjmwRw", "review_count": 3, "categories": [{"alias": "cafes", "title": "Cafes"}, {"alias": "breakfast_brunch", "title": "Breakfast & Brunch"}], "rating": 4.0, "coordinates": {"latitude": 53.5763654012364, "longitude": 9.70625131876508}, "transactions": [], "price": "\u20ac", "location": {"address1": "Bahnhofstr. 49 a", "address2": "", "address3": null, "city": "Wedel", "zip_code": "22880", "country": "DE", "state": "SH", "display_address": ["Bahnhofstr. 49 a", "22880 Wedel", "Germany"]}, "phone": "+4941037037098", "display_phone": "+49 4103 7037098", "distance": 2476.310901002004}]