[{"id": "XinjyDWdj9lD5lX4jRfKNw", "alias": "riva-hamburg", "name": "RIVA", "image_url": "https://s3-media3.fl.yelpcdn.com/bphoto/BwsVm4I_ZfmnTHWokBRi6g/o.jpg", "is_closed": false, "url": "https://www.yelp.com/biz/riva-hamburg?adjust_creative=hBJOknVQJ58S5goQyjmwRw&utm_campaign=yelp_api_v3&utm_medium=api_v3_business_search&utm_source=hBJOknVQJ58S5goQyjmwRw", "review_count": 22, "categories": [{"alias": "bars", "title": "Bars"}, {"alias": "bistros", "title": "Bistros"}], "rating": 4.5, "coordinates": {"latitude": 53.56112, "longitude": 9.81111}, "transactions": [], "price": "\u20ac\u20ac", "location": {"address1": "Blankeneser Bahnhofstr. 36", "address2": null, "address3": null, "city": "Hamburg", "zip_code": "22587", "country": "DE", "state": "HH", "display_address": ["Blankeneser Bahnhofstr. 36", "22587 Hamburg", "Germany"]}, "phone": "+494086623770", "display_phone": "+49 40 86623770", "distance": 1631.4709948869086}, {"id": "kpnqEWbGIGYLc1I4QpxOgA", "alias": "tibet-restaurant-hamburg", "name": "Tibet Restaurant", "image_url": "https://s3-media1.fl.yelpcdn.com/bphoto/3tSVIW1V03gPxxtL72xRvQ/o.jpg", "is_closed": false, "url": "https://www.yelp.com/biz/tibet-restaurant-hamburg?adjust_creative=hBJOknVQJ58S5goQyjmwRw&utm_campaign=yelp_api_v3&utm_medium=api_v3_business_search&utm_source=hBJOknVQJ58S5goQyjmwRw", "review_count": 38, "categories": [{"alias": "himalayan", "title": "Himalayan/Nepalese"}, {"alias": "panasian", "title": "Pan Asian"}], "rating": 4.5, "coordinates": {"latitude": 53.58075, "longitude": 9.79201}, "transactions": [], "price": "\u20ac\u20ac", "location": {"address1": "S\u00fclldorfer Landstr. 230", "address2": null, "address3": null, "city": "Hamburg", "zip_code": "22589", "country": "DE", "state": "HH", "display_address": ["S\u00fclldorfer Landstr. 230", "22589 Hamburg", "Germany"]}, "phone": "+494086693761", "display_phone": "+49 40 86693761", "distance": 2622.288173935853}, {"id": "qx7w7LWJk0dhxP_9QcUlJw", "alias": "gasthaus-zur-post-hamburg", "name": "Gasthaus Zur Post", "image_url": "https://s3-media4.fl.yelpcdn.com/bphoto/jQXSKKFiMHuBVm3nQpWsgw/o.jpg", "is_closed": false, "url": "https://www.yelp.com/biz/gasthaus-zur-post-hamburg?adjust_creative=hBJOknVQJ58S5goQyjmwRw&utm_campaign=yelp_api_v3&utm_medium=api_v3_business_search&utm_source=hBJOknVQJ58S5goQyjmwRw", "review_count": 24, "categories": [{"alias": "german", "title": "German"}, {"alias": "seafood", "title": "Seafood"}], "rating": 4.5, "coordinates": {"latitude": 53.5346336458307, "longitude": 9.77853611111641}, "transactions": [], "price": "\u20ac\u20ac", "location": {"address1": "Estedeich 88", "address2": "", "address3": "", "city": "Hamburg", "zip_code": "21129", "country": "DE", "state": "HH", "display_address": ["Estedeich 88", "21129 Hamburg", "Germany"]}, "phone": "+49407459409", "display_phone": "+49 40 7459409", "distance": 2590.546834029278}, {"id": "tnayDufFC496volXBPjbWg", "alias": "mama-trattoria-hamburg-5", "name": "Mama Trattoria", "image_url": "https://s3-media1.fl.yelpcdn.com/bphoto/KGz9NRqGM0RWdtx1eQAObw/o.jpg", "is_closed": false, "url": "https://www.yelp.com/biz/mama-trattoria-hamburg-5?adjust_creative=hBJOknVQJ58S5goQyjmwRw&utm_campaign=yelp_api_v3&utm_medium=api_v3_business_search&utm_source=hBJOknVQJ58S5goQyjmwRw", "review_count": 14, "categories": [{"alias": "italian", "title": "Italian"}], "rating": 3.5, "coordinates": {"latitude": 53.562122, "longitude": 9.812364}, "transactions": [], "price": "\u20ac\u20ac", "location": {"address1": "Blankeneser Bahnhofstr. 31", "address2": "", "address3": "", "city": "Hamburg", "zip_code": "22587", "country": "DE", "state": "HH", "display_address": ["Blankeneser Bahnhofstr. 31", "22587 Hamburg", "Germany"]}, "phone": "+494080007373", "display_phone": "+49 40 80007373", "distance": 1751.6534062533306}, {"id": "vcrPyTXw554tb2LOaNnGSg", "alias": "kaj\u00fcte-s-b-12-hamburg", "name": "Kaj\u00fcte S.B. 12", "image_url": "https://s3-media1.fl.yelpcdn.com/bphoto/B3HSXHmPjR4Bhpp-9_Xskg/o.jpg", "is_closed": false, "url": "https://www.yelp.com/biz/kaj%C3%BCte-s-b-12-hamburg?adjust_creative=hBJOknVQJ58S5goQyjmwRw&utm_campaign=yelp_api_v3&utm_medium=api_v3_business_search&utm_source=hBJOknVQJ58S5goQyjmwRw", "review_count": 31, "categories": [{"alias": "fischbroetchen", "title": "Fischbroetchen"}], "rating": 4.0, "coordinates": {"latitude": 53.558722, "longitude": 9.795468}, "transactions": [], "price": "\u20ac\u20ac", "location": {"address1": "Strandweg 79", "address2": null, "address3": null, "city": "Hamburg", "zip_code": "22587", "country": "DE", "state": "HH", "display_address": ["Strandweg 79", "22587 Hamburg", "Germany"]}, "phone": "+494086648640", "display_phone": "+49 40 86648640", "distance": 567.7344577568425}, {"id": "l0ytoM68XU9U4J4YNWWVNQ", "alias": "fischclub-hamburg", "name": "Fischclub", "image_url": "https://s3-media2.fl.yelpcdn.com/bphoto/oRQ5i2aDgkmoxsPioZwztg/o.jpg", "is_closed": false, "url": "https://www.yelp.com/biz/fischclub-hamburg?adjust_creative=hBJOknVQJ58S5goQyjmwRw&utm_campaign=yelp_api_v3&utm_medium=api_v3_business_search&utm_source=hBJOknVQJ58S5goQyjmwRw", "review_count": 68, "categories": [{"alias": "german", "title": "German"}, {"alias": "seafood", "title": "Seafood"}], "rating": 4.0, "coordinates": {"latitude": 53.5560298336027, "longitude": 9.80438381904816}, "transactions": [], "price": "\u20ac\u20ac\u20ac", "location": {"address1": "Strandweg 30 A", "address2": null, "address3": null, "city": "Hamburg", "zip_code": "22587", "country": "DE", "state": "HH", "display_address": ["Strandweg 30 A", "22587 Hamburg", "Germany"]}, "phone": "+4940869962", "display_phone": "+49 40 869962", "distance": 1145.5517379516305}, {"id": "pmfjBbGjE6HF23JPYRXdxw", "alias": "l\u00fctt-falkenstein-hamburg", "name": "L\u00fctt Falkenstein", "image_url": "https://s3-media3.fl.yelpcdn.com/bphoto/1cglaaLk9sntX0KRP5Z35A/o.jpg", "is_closed": false, "url": "https://www.yelp.com/biz/l%C3%BCtt-falkenstein-hamburg?adjust_creative=hBJOknVQJ58S5goQyjmwRw&utm_campaign=yelp_api_v3&utm_medium=api_v3_business_search&utm_source=hBJOknVQJ58S5goQyjmwRw", "review_count": 1, "categories": [{"alias": "bistros", "title": "Bistros"}], "rating": 5.0, "coordinates": {"latitude": 53.5622474893341, "longitude": 9.77977322366829}, "transactions": [], "location": {"address1": "Falkensteiner Ufer 54", "address2": "", "address3": "", "city": "Hamburg", "zip_code": "22587", "country": "DE", "state": "HH", "display_address": ["Falkensteiner Ufer 54", "22587 Hamburg", "Germany"]}, "phone": "+49408663023", "display_phone": "+49 40 8663023", "distance": 731.6869659775404}, {"id": "-m7HfA7d4pSfam8S3z_zMQ", "alias": "rudolph-hamburg-2", "name": "Rudolph", "image_url": "https://s3-media2.fl.yelpcdn.com/bphoto/5SBBQw5nvN74N6kECASlng/o.jpg", "is_closed": false, "url": "https://www.yelp.com/biz/rudolph-hamburg-2?adjust_creative=hBJOknVQJ58S5goQyjmwRw&utm_campaign=yelp_api_v3&utm_medium=api_v3_business_search&utm_source=hBJOknVQJ58S5goQyjmwRw", "review_count": 7, "categories": [{"alias": "gastropubs", "title": "Gastropubs"}, {"alias": "german", "title": "German"}], "rating": 4.5, "coordinates": {"latitude": 53.56374, "longitude": 9.80812}, "transactions": [], "price": "\u20ac\u20ac", "location": {"address1": "Blankeneser Landstr. 29", "address2": "", "address3": "", "city": "Hamburg", "zip_code": "22587", "country": "DE", "state": "HH", "display_address": ["Blankeneser Landstr. 29", "22587 Hamburg", "Germany"]}, "phone": "+494073084484", "display_phone": "+49 40 73084484", "distance": 1549.8002156061032}, {"id": "JiXDs1z1G_dgUcKiai92CA", "alias": "ristorante-dal-fabbro-hamburg", "name": "Ristorante Dal Fabbro", "image_url": "https://s3-media1.fl.yelpcdn.com/bphoto/hdfotRGpEWZ6ya6OgRTPDQ/o.jpg", "is_closed": false, "url": "https://www.yelp.com/biz/ristorante-dal-fabbro-hamburg?adjust_creative=hBJOknVQJ58S5goQyjmwRw&utm_campaign=yelp_api_v3&utm_medium=api_v3_business_search&utm_source=hBJOknVQJ58S5goQyjmwRw", "review_count": 41, "categories": [{"alias": "italian", "title": "Italian"}], "rating": 4.0, "coordinates": {"latitude": 53.5593999, "longitude": 9.8112999}, "transactions": [], "price": "\u20ac\u20ac\u20ac", "location": {"address1": "Blankeneser Bahnhofstr. 10", "address2": null, "address3": null, "city": "Hamburg", "zip_code": "22587", "country": "DE", "state": "HH", "display_address": ["Blankeneser Bahnhofstr. 10", "22587 Hamburg", "Germany"]}, "phone": "+4940868941", "display_phone": "+49 40 868941", "distance": 1607.6149901118936}, {"id": "nIuV-yqeJayQjEL39De8iQ", "alias": "der-treppenkr\u00e4mer-hamburg", "name": "Der Treppenkr\u00e4mer", "image_url": "https://s3-media4.fl.yelpcdn.com/bphoto/C7lNTa8STD7gdXVbs4ibKA/o.jpg", "is_closed": false, "url": "https://www.yelp.com/biz/der-treppenkr%C3%A4mer-hamburg?adjust_creative=hBJOknVQJ58S5goQyjmwRw&utm_campaign=yelp_api_v3&utm_medium=api_v3_business_search&utm_source=hBJOknVQJ58S5goQyjmwRw", "review_count": 18, "categories": [{"alias": "cafes", "title": "Cafes"}, {"alias": "convenience", "title": "Convenience Stores"}], "rating": 4.5, "coordinates": {"latitude": 53.55794, "longitude": 9.80255}, "transactions": [], "price": "\u20ac\u20ac", "location": {"address1": "Hans-Lange-Str. 23", "address2": "", "address3": "", "city": "Hamburg", "zip_code": "22587", "country": "DE", "state": "HH", "display_address": ["Hans-Lange-Str. 23", "22587 Hamburg", "Germany"]}, "phone": "+494086628481", "display_phone": "+49 40 86628481", "distance": 1016.9205899846077}, {"id": "nl5xxm4SkbxmHSKo7jlFAw", "alias": "athen-pallas-hamburg", "name": "Athen Pallas", "image_url": "https://s3-media1.fl.yelpcdn.com/bphoto/2fu60Y2HdfgevYHtFpWLEg/o.jpg", "is_closed": false, "url": "https://www.yelp.com/biz/athen-pallas-hamburg?adjust_creative=hBJOknVQJ58S5goQyjmwRw&utm_campaign=yelp_api_v3&utm_medium=api_v3_business_search&utm_source=hBJOknVQJ58S5goQyjmwRw", "review_count": 31, "categories": [{"alias": "greek", "title": "Greek"}], "rating": 4.0, "coordinates": {"latitude": 53.5667225939133, "longitude": 9.79576466315996}, "transactions": [], "price": "\u20ac\u20ac", "location": {"address1": "Rissener Landstr. 1", "address2": null, "address3": null, "city": "Hamburg", "zip_code": "22587", "country": "DE", "state": "HH", "display_address": ["Rissener Landstr. 1", "22587 Hamburg", "Germany"]}, "phone": "+4940865790", "display_phone": "+49 40 865790", "distance": 1185.5585095730387}, {"id": "fON6Lh41hCAyoWeCsPoHxQ", "alias": "ponton-opn-bulln-hamburg", "name": "Ponton op'n Bulln", "image_url": "https://s3-media4.fl.yelpcdn.com/bphoto/KcHgCc47NnG4FvbbWT68-Q/o.jpg", "is_closed": false, "url": "https://www.yelp.com/biz/ponton-opn-bulln-hamburg?adjust_creative=hBJOknVQJ58S5goQyjmwRw&utm_campaign=yelp_api_v3&utm_medium=api_v3_business_search&utm_source=hBJOknVQJ58S5goQyjmwRw", "review_count": 32, "categories": [{"alias": "german", "title": "German"}, {"alias": "fischbroetchen", "title": "Fischbroetchen"}], "rating": 4.0, "coordinates": {"latitude": 53.55592, "longitude": 9.80532}, "transactions": [], "price": "\u20ac\u20ac", "location": {"address1": "Strandweg 30", "address2": "", "address3": "", "city": "Hamburg", "zip_code": "22587", "country": "DE", "state": "HH", "display_address": ["Strandweg 30", "22587 Hamburg", "Germany"]}, "phone": "+494086645127", "display_phone": "+49 40 86645127", "distance": 1208.4557922495371}, {"id": "z4-gIwlU7VXAm4mQOjjHBg", "alias": "elbdorf-cafe-hamburg-2", "name": "Elbdorf Cafe", "image_url": "https://s3-media1.fl.yelpcdn.com/bphoto/BDqIPOe1oKqxrhecRdDwjw/o.jpg", "is_closed": false, "url": "https://www.yelp.com/biz/elbdorf-cafe-hamburg-2?adjust_creative=hBJOknVQJ58S5goQyjmwRw&utm_campaign=yelp_api_v3&utm_medium=api_v3_business_search&utm_source=hBJOknVQJ58S5goQyjmwRw", "review_count": 3, "categories": [{"alias": "cafes", "title": "Cafes"}, {"alias": "german", "title": "German"}], "rating": 5.0, "coordinates": {"latitude": 53.5766, "longitude": 9.80227}, "transactions": [], "price": "\u20ac\u20ac", "location": {"address1": "Fruchtweg 40", "address2": null, "address3": null, "city": "Hamburg", "zip_code": "22589", "country": "DE", "state": "HH", "display_address": ["Fruchtweg 40", "22589 Hamburg", "Germany"]}, "phone": "+494087082602", "display_phone": "+49 40 87082602", "distance": 2360.2211277659367}, {"id": "md5qBkhEdymCSEhpZuHAJQ", "alias": "s\u00fcllbergterrassen-das-bistro-hamburg", "name": "S\u00fcllbergterrassen - Das Bistro", "image_url": "https://s3-media3.fl.yelpcdn.com/bphoto/bG4uWQP3pu2u4HsaWjUQ1w/o.jpg", "is_closed": false, "url": "https://www.yelp.com/biz/s%C3%BCllbergterrassen-das-bistro-hamburg?adjust_creative=hBJOknVQJ58S5goQyjmwRw&utm_campaign=yelp_api_v3&utm_medium=api_v3_business_search&utm_source=hBJOknVQJ58S5goQyjmwRw", "review_count": 7, "categories": [{"alias": "international", "title": "International"}, {"alias": "german", "title": "German"}, {"alias": "bistros", "title": "Bistros"}], "rating": 4.5, "coordinates": {"latitude": 53.5597, "longitude": 9.80064}, "transactions": [], "location": {"address1": "S\u00fcllbergsterrasse 12", "address2": null, "address3": null, "city": "Hamburg", "zip_code": "22587", "country": "DE", "state": "HH", "display_address": ["S\u00fcllbergsterrasse 12", "22587 Hamburg", "Germany"]}, "phone": "+494086625277", "display_phone": "+49 40 86625277", "distance": 926.0749924638596}, {"id": "aPgIAvjpe3C2mA2w4WruSQ", "alias": "seven-seas-hamburg-2", "name": "Seven Seas", "image_url": "https://s3-media3.fl.yelpcdn.com/bphoto/nOwVodQCAlXs2x00ea4t0w/o.jpg", "is_closed": false, "url": "https://www.yelp.com/biz/seven-seas-hamburg-2?adjust_creative=hBJOknVQJ58S5goQyjmwRw&utm_campaign=yelp_api_v3&utm_medium=api_v3_business_search&utm_source=hBJOknVQJ58S5goQyjmwRw", "review_count": 29, "categories": [{"alias": "french", "title": "French"}], "rating": 4.5, "coordinates": {"latitude": 53.56017, "longitude": 9.80073}, "transactions": [], "price": "\u20ac\u20ac\u20ac\u20ac", "location": {"address1": "S\u00fcllbergsterrasse 12", "address2": "", "address3": "", "city": "Hamburg", "zip_code": "22587", "country": "DE", "state": "HH", "display_address": ["S\u00fcllbergsterrasse 12", "22587 Hamburg", "Germany"]}, "phone": "+494086625214", "display_phone": "+49 40 86625214", "distance": 927.0186302447439}, {"id": "wpBk63AEw1toamkn9OyCXg", "alias": "genusspiraten-hamburg-2", "name": "Genusspiraten", "image_url": "https://s3-media1.fl.yelpcdn.com/bphoto/5Wa3GNKLMTm7TCAOiRowQA/o.jpg", "is_closed": false, "url": "https://www.yelp.com/biz/genusspiraten-hamburg-2?adjust_creative=hBJOknVQJ58S5goQyjmwRw&utm_campaign=yelp_api_v3&utm_medium=api_v3_business_search&utm_source=hBJOknVQJ58S5goQyjmwRw", "review_count": 4, "categories": [{"alias": "northerngerman", "title": "Northern German"}], "rating": 4.0, "coordinates": {"latitude": 53.5576066, "longitude": 9.805625}, "transactions": [], "price": "\u20ac\u20ac\u20ac", "location": {"address1": "Blankeneser Hauptstr. 107", "address2": "", "address3": null, "city": "Hamburg", "zip_code": "22587", "country": "DE", "state": "HH", "display_address": ["Blankeneser Hauptstr. 107", "22587 Hamburg", "Germany"]}, "phone": "+4940861514", "display_phone": "+49 40 861514", "distance": 1218.2812845268732}, {"id": "tO8v3GHCHj1-MNwL_qoTOg", "alias": "messologi-hamburg", "name": "Messologi", "image_url": "https://s3-media1.fl.yelpcdn.com/bphoto/JMa9ktHIf0rRnhCZBqw92A/o.jpg", "is_closed": false, "url": "https://www.yelp.com/biz/messologi-hamburg?adjust_creative=hBJOknVQJ58S5goQyjmwRw&utm_campaign=yelp_api_v3&utm_medium=api_v3_business_search&utm_source=hBJOknVQJ58S5goQyjmwRw", "review_count": 4, "categories": [{"alias": "greek", "title": "Greek"}], "rating": 5.0, "coordinates": {"latitude": 53.58144, "longitude": 9.76352}, "transactions": [], "price": "\u20ac\u20ac", "location": {"address1": "Alte S\u00fclldorfer Landstr. 422", "address2": "", "address3": null, "city": "Hamburg", "zip_code": "22559", "country": "DE", "state": "HH", "display_address": ["Alte S\u00fclldorfer Landstr. 422", "22559 Hamburg", "Germany"]}, "phone": "+494046649347", "display_phone": "+49 40 46649347", "distance": 3108.8452546426693}, {"id": "2wMF98mwT2lTdaQd7cVUgA", "alias": "restaurant-hintze-jork", "name": "Restaurant Hintze", "image_url": "https://s3-media2.fl.yelpcdn.com/bphoto/On32FoJuhMUKzZ2GkHokPw/o.jpg", "is_closed": false, "url": "https://www.yelp.com/biz/restaurant-hintze-jork?adjust_creative=hBJOknVQJ58S5goQyjmwRw&utm_campaign=yelp_api_v3&utm_medium=api_v3_business_search&utm_source=hBJOknVQJ58S5goQyjmwRw", "review_count": 5, "categories": [{"alias": "german", "title": "German"}], "rating": 4.0, "coordinates": {"latitude": 53.53201, "longitude": 9.76469}, "transactions": [], "price": "\u20ac\u20ac", "location": {"address1": "Leeswig 106", "address2": null, "address3": null, "city": "Jork", "zip_code": "21635", "country": "DE", "state": "NI", "display_address": ["Leeswig 106", "21635 Jork", "Germany"]}, "phone": "+49407459386", "display_phone": "+49 40 7459386", "distance": 3186.354634862636}, {"id": "IQ8Bt6YFW5h3SiL2d-G2Qw", "alias": "fil\u00f3n-tapa-bar-hamburg-2", "name": "Fil\u00f3n Tapa-Bar", "image_url": "https://s3-media3.fl.yelpcdn.com/bphoto/R5AkAaxfpECYK7_r_PKFzQ/o.jpg", "is_closed": false, "url": "https://www.yelp.com/biz/fil%C3%B3n-tapa-bar-hamburg-2?adjust_creative=hBJOknVQJ58S5goQyjmwRw&utm_campaign=yelp_api_v3&utm_medium=api_v3_business_search&utm_source=hBJOknVQJ58S5goQyjmwRw", "review_count": 26, "categories": [{"alias": "spanish", "title": "Spanish"}, {"alias": "tapas", "title": "Tapas Bars"}], "rating": 4.0, "coordinates": {"latitude": 53.55924, "longitude": 9.8110199}, "transactions": [], "price": "\u20ac\u20ac\u20ac", "location": {"address1": "Am Kiekeberg 1a", "address2": "", "address3": "", "city": "Hamburg", "zip_code": "22587", "country": "DE", "state": "HH", "display_address": ["Am Kiekeberg 1a", "22587 Hamburg", "Germany"]}, "phone": "+494086646746", "display_phone": "+49 40 86646746", "distance": 1586.6881805659625}, {"id": "wkupX-lPyOsboaLNbP2tCw", "alias": "echtasien-hamburg-2", "name": "Echtasien", "image_url": "https://s3-media2.fl.yelpcdn.com/bphoto/QaxTsXKQkn6DdHAygcGKOQ/o.jpg", "is_closed": false, "url": "https://www.yelp.com/biz/echtasien-hamburg-2?adjust_creative=hBJOknVQJ58S5goQyjmwRw&utm_campaign=yelp_api_v3&utm_medium=api_v3_business_search&utm_source=hBJOknVQJ58S5goQyjmwRw", "review_count": 14, "categories": [{"alias": "sushi", "title": "Sushi Bars"}, {"alias": "panasian", "title": "Pan Asian"}], "rating": 4.0, "coordinates": {"latitude": 53.5630934, "longitude": 9.811625}, "transactions": [], "price": "\u20ac\u20ac\u20ac", "location": {"address1": "Blankeneser Landstr. 1", "address2": "", "address3": "", "city": "Hamburg", "zip_code": "22587", "country": "DE", "state": "HH", "display_address": ["Blankeneser Landstr. 1", "22587 Hamburg", "Germany"]}, "phone": "+494018011932", "display_phone": "+49 40 18011932", "distance": 1735.6236021492793}, {"id": "gk8jYhmGLaS-7YG-K6Bd8Q", "alias": "bistro-elbe-camp-hamburg", "name": "Bistro Elbe Camp", "image_url": "https://s3-media3.fl.yelpcdn.com/bphoto/Vo_HcQxkhEZnmvBDb_fTiA/o.jpg", "is_closed": false, "url": "https://www.yelp.com/biz/bistro-elbe-camp-hamburg?adjust_creative=hBJOknVQJ58S5goQyjmwRw&utm_campaign=yelp_api_v3&utm_medium=api_v3_business_search&utm_source=hBJOknVQJ58S5goQyjmwRw", "review_count": 1, "categories": [{"alias": "foodstands", "title": "Food Stands"}], "rating": 4.0, "coordinates": {"latitude": 53.56448, "longitude": 9.7672}, "transactions": [], "location": {"address1": "Falkensteiner Ufer 101", "address2": "", "address3": "", "city": "Hamburg", "zip_code": "22587", "country": "DE", "state": "HH", "display_address": ["Falkensteiner Ufer 101", "22587 Hamburg", "Germany"]}, "phone": "+4940812949", "display_phone": "+49 40 812949", "distance": 1521.9800642737778}, {"id": "zoRBslYUQm56jVyKO6MmNA", "alias": "deck-7-hamburg", "name": "Deck 7", "image_url": "https://s3-media2.fl.yelpcdn.com/bphoto/pRTW0dM0wqGEa0DmRBmzfA/o.jpg", "is_closed": false, "url": "https://www.yelp.com/biz/deck-7-hamburg?adjust_creative=hBJOknVQJ58S5goQyjmwRw&utm_campaign=yelp_api_v3&utm_medium=api_v3_business_search&utm_source=hBJOknVQJ58S5goQyjmwRw", "review_count": 71, "categories": [{"alias": "bistros", "title": "Bistros"}], "rating": 3.5, "coordinates": {"latitude": 53.5597, "longitude": 9.80064}, "transactions": [], "price": "\u20ac\u20ac\u20ac", "location": {"address1": "S\u00fcllbergsterrasse 12", "address2": null, "address3": null, "city": "Hamburg", "zip_code": "22587", "country": "DE", "state": "HH", "display_address": ["S\u00fcllbergsterrasse 12", "22587 Hamburg", "Germany"]}, "phone": "+494086625277", "display_phone": "+49 40 86625277", "distance": 926.0749924638596}, {"id": "mJfZ-9-mCHEno8w65Lgl_Q", "alias": "san-marco-hamburg-5", "name": "San Marco", "image_url": "https://s3-media4.fl.yelpcdn.com/bphoto/nxjN3Ve4hKtCKq9Iyc54fg/o.jpg", "is_closed": false, "url": "https://www.yelp.com/biz/san-marco-hamburg-5?adjust_creative=hBJOknVQJ58S5goQyjmwRw&utm_campaign=yelp_api_v3&utm_medium=api_v3_business_search&utm_source=hBJOknVQJ58S5goQyjmwRw", "review_count": 3, "categories": [{"alias": "icecream", "title": "Ice Cream & Frozen Yogurt"}, {"alias": "pizza", "title": "Pizza"}], "rating": 3.5, "coordinates": {"latitude": 53.5801, "longitude": 9.79636}, "transactions": [], "price": "\u20ac\u20ac", "location": {"address1": "S\u00fclldorfer Kirchenweg 199", "address2": null, "address3": null, "city": "Hamburg", "zip_code": "22589", "country": "DE", "state": "HH", "display_address": ["S\u00fclldorfer Kirchenweg 199", "22589 Hamburg", "Germany"]}, "phone": "+494046651550", "display_phone": "+49 40 46651550", "distance": 2602.237010557855}, {"id": "vXY7PdAQ9hJY3D2thSaIeg", "alias": "l\u00fchmanns-teestube-hamburg", "name": "L\u00fchmanns Teestube", "image_url": "https://s3-media1.fl.yelpcdn.com/bphoto/3AmOiZjsAoKtp-dNzjqq0A/o.jpg", "is_closed": false, "url": "https://www.yelp.com/biz/l%C3%BChmanns-teestube-hamburg?adjust_creative=hBJOknVQJ58S5goQyjmwRw&utm_campaign=yelp_api_v3&utm_medium=api_v3_business_search&utm_source=hBJOknVQJ58S5goQyjmwRw", "review_count": 108, "categories": [{"alias": "tea", "title": "Tea Rooms"}, {"alias": "cafes", "title": "Cafes"}], "rating": 3.5, "coordinates": {"latitude": 53.56374, "longitude": 9.80812}, "transactions": [], "price": "\u20ac\u20ac", "location": {"address1": "Blankeneser Landstr. 29", "address2": null, "address3": null, "city": "Hamburg", "zip_code": "22587", "country": "DE", "state": "HH", "display_address": ["Blankeneser Landstr. 29", "22587 Hamburg", "Germany"]}, "phone": "+4940863442", "display_phone": "+49 40 863442", "distance": 1549.8002156061032}, {"id": "oDMAr7VX8Hs4morkGlFZGw", "alias": "zum-falkenstein-hamburg", "name": "Zum Falkenstein", "image_url": "https://s3-media3.fl.yelpcdn.com/bphoto/4QVVSkUDrCUNc5QTKPVoVw/o.jpg", "is_closed": false, "url": "https://www.yelp.com/biz/zum-falkenstein-hamburg?adjust_creative=hBJOknVQJ58S5goQyjmwRw&utm_campaign=yelp_api_v3&utm_medium=api_v3_business_search&utm_source=hBJOknVQJ58S5goQyjmwRw", "review_count": 35, "categories": [{"alias": "german", "title": "German"}], "rating": 3.0, "coordinates": {"latitude": 53.56726, "longitude": 9.7799}, "transactions": [], "price": "\u20ac\u20ac", "location": {"address1": "K\u00f6sterbergstr. 105", "address2": null, "address3": null, "city": "Hamburg", "zip_code": "22587", "country": "DE", "state": "HH", "display_address": ["K\u00f6sterbergstr. 105", "22587 Hamburg", "Germany"]}, "phone": "+4940861342", "display_phone": "+49 40 861342", "distance": 1210.9303566848694}, {"id": "9cNYn0POHbQXrmubo-Xpvw", "alias": "grossmutters-laecheln-hamburg", "name": "Grossmutters Laecheln", "image_url": "https://s3-media2.fl.yelpcdn.com/bphoto/1IFr9LiOdGw_vnRHA2vYJQ/o.jpg", "is_closed": false, "url": "https://www.yelp.com/biz/grossmutters-laecheln-hamburg?adjust_creative=hBJOknVQJ58S5goQyjmwRw&utm_campaign=yelp_api_v3&utm_medium=api_v3_business_search&utm_source=hBJOknVQJ58S5goQyjmwRw", "review_count": 5, "categories": [{"alias": "international", "title": "International"}, {"alias": "german", "title": "German"}], "rating": 3.5, "coordinates": {"latitude": 53.58168, "longitude": 9.76465}, "transactions": [], "price": "\u20ac\u20ac", "location": {"address1": "Alte S\u00fclldorfer Landstr. 420 C", "address2": null, "address3": "", "city": "Hamburg", "zip_code": "22559", "country": "DE", "state": "HH", "display_address": ["Alte S\u00fclldorfer Landstr. 420 C", "22559 Hamburg", "Germany"]}, "phone": "+4940180243405", "display_phone": "+49 40 180243405", "distance": 3093.367459666259}, {"id": "M82FIuxPwcp7YmmKBQq_dw", "alias": "restaurant-altes-f\u00e4hrhaus-hamburg", "name": "Restaurant Altes F\u00e4hrhaus", "image_url": "https://s3-media3.fl.yelpcdn.com/bphoto/0iATsFKwDDuLZUSkafqOBQ/o.jpg", "is_closed": false, "url": "https://www.yelp.com/biz/restaurant-altes-f%C3%A4hrhaus-hamburg?adjust_creative=hBJOknVQJ58S5goQyjmwRw&utm_campaign=yelp_api_v3&utm_medium=api_v3_business_search&utm_source=hBJOknVQJ58S5goQyjmwRw", "review_count": 18, "categories": [{"alias": "cafes", "title": "Cafes"}, {"alias": "northerngerman", "title": "Northern German"}], "rating": 3.5, "coordinates": {"latitude": 53.534651, "longitude": 9.779566}, "transactions": [], "price": "\u20ac\u20ac", "location": {"address1": "Estedeich 94", "address2": "", "address3": "", "city": "Hamburg", "zip_code": "21129", "country": "DE", "state": "HH", "display_address": ["Estedeich 94", "21129 Hamburg", "Germany"]}, "phone": "+49407459132", "display_phone": "+49 40 7459132", "distance": 2574.4993773178144}, {"id": "plbtOwVBMyXtoNlPqn0jIA", "alias": "kaffeegarten-schuldt-hamburg", "name": "Kaffeegarten Schuldt", "image_url": "https://s3-media2.fl.yelpcdn.com/bphoto/9_DCBf0cO7GA7KhOO7vr8Q/o.jpg", "is_closed": false, "url": "https://www.yelp.com/biz/kaffeegarten-schuldt-hamburg?adjust_creative=hBJOknVQJ58S5goQyjmwRw&utm_campaign=yelp_api_v3&utm_medium=api_v3_business_search&utm_source=hBJOknVQJ58S5goQyjmwRw", "review_count": 34, "categories": [{"alias": "cafes", "title": "Cafes"}], "rating": 3.5, "coordinates": {"latitude": 53.558856, "longitude": 9.801471}, "transactions": [], "price": "\u20ac\u20ac", "location": {"address1": "S\u00fcllbergstr. 30", "address2": null, "address3": null, "city": "Hamburg", "zip_code": "22587", "country": "DE", "state": "HH", "display_address": ["S\u00fcllbergstr. 30", "22587 Hamburg", "Germany"]}, "phone": "+4940862411", "display_phone": "+49 40 862411", "distance": 958.1801275421475}, {"id": "JCwyXvqfNtjeA6jW9s6tgg", "alias": "bistro-elbwein-hamburg-4", "name": "Bistro Elbwein", "image_url": "https://s3-media2.fl.yelpcdn.com/bphoto/A35AljPKvqtMsvjprsdA4w/o.jpg", "is_closed": false, "url": "https://www.yelp.com/biz/bistro-elbwein-hamburg-4?adjust_creative=hBJOknVQJ58S5goQyjmwRw&utm_campaign=yelp_api_v3&utm_medium=api_v3_business_search&utm_source=hBJOknVQJ58S5goQyjmwRw", "review_count": 9, "categories": [{"alias": "wine_bars", "title": "Wine Bars"}, {"alias": "german", "title": "German"}], "rating": 4.0, "coordinates": {"latitude": 53.56362, "longitude": 9.8086}, "transactions": [], "price": "\u20ac\u20ac\u20ac", "location": {"address1": "Blankeneser Landstr. 27", "address2": "", "address3": "", "city": "Hamburg", "zip_code": "22587", "country": "DE", "state": "HH", "display_address": ["Blankeneser Landstr. 27", "22587 Hamburg", "Germany"]}, "phone": "+494086628772", "display_phone": "+49 40 86628772", "distance": 1571.998940280445}, {"id": "8avHWRsgk5z-CGajk6gNFQ", "alias": "imbiss-am-falkensteiner-ufer-hamburg", "name": "Imbiss am Falkensteiner Ufer", "image_url": "https://s3-media3.fl.yelpcdn.com/bphoto/6B9juUamE0TF6LAUAsE_tA/o.jpg", "is_closed": false, "url": "https://www.yelp.com/biz/imbiss-am-falkensteiner-ufer-hamburg?adjust_creative=hBJOknVQJ58S5goQyjmwRw&utm_campaign=yelp_api_v3&utm_medium=api_v3_business_search&utm_source=hBJOknVQJ58S5goQyjmwRw", "review_count": 5, "categories": [{"alias": "foodstands", "title": "Food Stands"}], "rating": 4.5, "coordinates": {"latitude": 53.56226, "longitude": 9.77992}, "transactions": [], "location": {"address1": "Falkensteiner Ufer 54", "address2": "", "address3": "", "city": "Hamburg", "zip_code": "22587", "country": "DE", "state": "HH", "display_address": ["Falkensteiner Ufer 54", "22587 Hamburg", "Germany"]}, "phone": "+49408663023", "display_phone": "+49 40 8663023", "distance": 1512.8193610841358}, {"id": "JJ9kQRcoNoCptdbo1-TZGg", "alias": "restaurant-memory-hamburg", "name": "Restaurant Memory", "image_url": "https://s3-media2.fl.yelpcdn.com/bphoto/lnQbUTt7YkZ3ZcQwudabZg/o.jpg", "is_closed": false, "url": "https://www.yelp.com/biz/restaurant-memory-hamburg?adjust_creative=hBJOknVQJ58S5goQyjmwRw&utm_campaign=yelp_api_v3&utm_medium=api_v3_business_search&utm_source=hBJOknVQJ58S5goQyjmwRw", "review_count": 14, "categories": [{"alias": "international", "title": "International"}], "rating": 4.5, "coordinates": {"latitude": 53.5808, "longitude": 9.793}, "transactions": [], "price": "\u20ac\u20ac\u20ac", "location": {"address1": "S\u00fclldorfer Landstr. 222", "address2": null, "address3": null, "city": "Hamburg", "zip_code": "22589", "country": "DE", "state": "HH", "display_address": ["S\u00fclldorfer Landstr. 222", "22589 Hamburg", "Germany"]}, "phone": "+494086626938", "display_phone": "+49 40 86626938", "distance": 2634.852443302666}, {"id": "B8Kn9PqEqlvL4EMPvl1x8g", "alias": "roederers-hamburg", "name": "Roederer's", "image_url": "https://s3-media2.fl.yelpcdn.com/bphoto/grHMPXjgPoUgGGy90Ip15g/o.jpg", "is_closed": false, "url": "https://www.yelp.com/biz/roederers-hamburg?adjust_creative=hBJOknVQJ58S5goQyjmwRw&utm_campaign=yelp_api_v3&utm_medium=api_v3_business_search&utm_source=hBJOknVQJ58S5goQyjmwRw", "review_count": 2, "categories": [{"alias": "bars", "title": "Bars"}, {"alias": "bistros", "title": "Bistros"}, {"alias": "cafes", "title": "Cafes"}], "rating": 3.0, "coordinates": {"latitude": 53.5610199, "longitude": 9.8110304}, "transactions": [], "location": {"address1": "Blankenesener Bahnhofstr. 34", "address2": "", "address3": "", "city": "Hamburg", "zip_code": "22587", "country": "DE", "state": "HH", "display_address": ["Blankenesener Bahnhofstr. 34", "22587 Hamburg", "Germany"]}, "phone": "", "display_phone": "", "distance": 1627.0014455505896}, {"id": "jIwBJ-HpNLdLA9J6IqBIOw", "alias": "blankeneser-fischhuus-hamburg", "name": "Blankeneser Fischhuus", "image_url": "https://s3-media2.fl.yelpcdn.com/bphoto/L4A9pslZLTXBxGspZTT_rg/o.jpg", "is_closed": false, "url": "https://www.yelp.com/biz/blankeneser-fischhuus-hamburg?adjust_creative=hBJOknVQJ58S5goQyjmwRw&utm_campaign=yelp_api_v3&utm_medium=api_v3_business_search&utm_source=hBJOknVQJ58S5goQyjmwRw", "review_count": 3, "categories": [{"alias": "seafood", "title": "Seafood"}], "rating": 3.5, "coordinates": {"latitude": 53.56089, "longitude": 9.81168}, "transactions": [], "price": "\u20ac\u20ac", "location": {"address1": "Propst-Paulsen-Str. 5", "address2": "", "address3": "", "city": "Hamburg", "zip_code": "22587", "country": "DE", "state": "HH", "display_address": ["Propst-Paulsen-Str. 5", "22587 Hamburg", "Germany"]}, "phone": "+4940860665", "display_phone": "+49 40 860665", "distance": 1668.3836859134485}, {"id": "3-15oomSsu14SvbHglPRvw", "alias": "fischer-l\u00fc\u00fcd-hamburg", "name": "Fischer L\u00fc\u00fcd", "image_url": "https://s3-media4.fl.yelpcdn.com/bphoto/1aU5vPmerwizNKJIcfO1aw/o.jpg", "is_closed": false, "url": "https://www.yelp.com/biz/fischer-l%C3%BC%C3%BCd-hamburg?adjust_creative=hBJOknVQJ58S5goQyjmwRw&utm_campaign=yelp_api_v3&utm_medium=api_v3_business_search&utm_source=hBJOknVQJ58S5goQyjmwRw", "review_count": 1, "categories": [{"alias": "seafood", "title": "Seafood"}], "rating": 4.0, "coordinates": {"latitude": 53.55689, "longitude": 9.80497}, "transactions": [], "location": {"address1": "Strandweg 30", "address2": "", "address3": "", "city": "Hamburg", "zip_code": "22587", "country": "DE", "state": "HH", "display_address": ["Strandweg 30", "22587 Hamburg", "Germany"]}, "phone": "", "display_phone": "", "distance": 1172.1581118888876}, {"id": "tLqTSZGJOXObR9WaGITuGg", "alias": "restaurant-ahrberg-hamburg", "name": "Restaurant Ahrberg", "image_url": "https://s3-media1.fl.yelpcdn.com/bphoto/blN-EmSf3rIBO031ouj2kg/o.jpg", "is_closed": false, "url": "https://www.yelp.com/biz/restaurant-ahrberg-hamburg?adjust_creative=hBJOknVQJ58S5goQyjmwRw&utm_campaign=yelp_api_v3&utm_medium=api_v3_business_search&utm_source=hBJOknVQJ58S5goQyjmwRw", "review_count": 34, "categories": [{"alias": "seafood", "title": "Seafood"}], "rating": 3.5, "coordinates": {"latitude": 53.55706, "longitude": 9.80466}, "transactions": [], "price": "\u20ac\u20ac", "location": {"address1": "Strandweg 33", "address2": null, "address3": null, "city": "Hamburg", "zip_code": "22587", "country": "DE", "state": "HH", "display_address": ["Strandweg 33", "22587 Hamburg", "Germany"]}, "phone": "+4940860438", "display_phone": "+49 40 860438", "distance": 1146.6355682657454}, {"id": "SvU27HpL5hWW-FX4KUFrKA", "alias": "andersen-hamburg-2", "name": "Andersen", "image_url": "https://s3-media2.fl.yelpcdn.com/bphoto/SfOCAsdlY6G2chTfjlMKoA/o.jpg", "is_closed": false, "url": "https://www.yelp.com/biz/andersen-hamburg-2?adjust_creative=hBJOknVQJ58S5goQyjmwRw&utm_campaign=yelp_api_v3&utm_medium=api_v3_business_search&utm_source=hBJOknVQJ58S5goQyjmwRw", "review_count": 1, "categories": [{"alias": "cafes", "title": "Cafes"}], "rating": 4.0, "coordinates": {"latitude": 53.5609, "longitude": 9.81132}, "transactions": [], "location": {"address1": "Blankeneser Bahnhofstr.", "address2": null, "address3": null, "city": "Hamburg", "zip_code": "22587", "country": "DE", "state": "HH", "display_address": ["Blankeneser Bahnhofstr.", "22587 Hamburg", "Germany"]}, "phone": "", "display_phone": "", "distance": 1642.0245963515522}, {"id": "1f5mNMVLMrdMCRBW6MHJ7Q", "alias": "asia-pham-hamburg", "name": "Asia Pham", "image_url": "https://s3-media2.fl.yelpcdn.com/bphoto/HwjH0ADWI2kdi9ijxlauaQ/o.jpg", "is_closed": false, "url": "https://www.yelp.com/biz/asia-pham-hamburg?adjust_creative=hBJOknVQJ58S5goQyjmwRw&utm_campaign=yelp_api_v3&utm_medium=api_v3_business_search&utm_source=hBJOknVQJ58S5goQyjmwRw", "review_count": 2, "categories": [{"alias": "fooddeliveryservices", "title": "Food Delivery Services"}, {"alias": "panasian", "title": "Pan Asian"}], "rating": 2.5, "coordinates": {"latitude": 53.5808, "longitude": 9.79512}, "transactions": [], "location": {"address1": "S\u00fclldorfer Landstr. 202", "address2": null, "address3": null, "city": "Hamburg", "zip_code": "22589", "country": "DE", "state": "HH", "display_address": ["S\u00fclldorfer Landstr. 202", "22589 Hamburg", "Germany"]}, "phone": "+494033420675", "display_phone": "+49 40 33420675", "distance": 2658.861886461418}, {"id": "81YEVjmCD-J3TiMoxukZEw", "alias": "caf\u00e9-stern-hamburg-3", "name": "Caf\u00e9 Stern", "image_url": "https://s3-media2.fl.yelpcdn.com/bphoto/RGBpB9WjiaNUe_U9ISlakg/o.jpg", "is_closed": false, "url": "https://www.yelp.com/biz/caf%C3%A9-stern-hamburg-3?adjust_creative=hBJOknVQJ58S5goQyjmwRw&utm_campaign=yelp_api_v3&utm_medium=api_v3_business_search&utm_source=hBJOknVQJ58S5goQyjmwRw", "review_count": 11, "categories": [{"alias": "cafes", "title": "Cafes"}, {"alias": "sportsbars", "title": "Sports Bars"}], "rating": 4.0, "coordinates": {"latitude": 53.55848, "longitude": 9.81184}, "transactions": [], "price": "\u20ac\u20ac\u20ac", "location": {"address1": "Elbchaussee 587", "address2": null, "address3": null, "city": "Hamburg", "zip_code": "22587", "country": "DE", "state": "HH", "display_address": ["Elbchaussee 587", "22587 Hamburg", "Germany"]}, "phone": "+494018047423", "display_phone": "+49 40 18047423", "distance": 1636.3102437093685}, {"id": "CGTG-D1-opXU6yeHh22onQ", "alias": "hauseralm-hamburg", "name": "HauserAlm", "image_url": "https://s3-media2.fl.yelpcdn.com/bphoto/qEjjYre57KO-aR2QJij-ZQ/o.jpg", "is_closed": false, "url": "https://www.yelp.com/biz/hauseralm-hamburg?adjust_creative=hBJOknVQJ58S5goQyjmwRw&utm_campaign=yelp_api_v3&utm_medium=api_v3_business_search&utm_source=hBJOknVQJ58S5goQyjmwRw", "review_count": 7, "categories": [{"alias": "german", "title": "German"}], "rating": 3.5, "coordinates": {"latitude": 53.55973, "longitude": 9.80064}, "transactions": [], "price": "\u20ac\u20ac\u20ac", "location": {"address1": "S\u00fcllbergstr. 12", "address2": null, "address3": null, "city": "Hamburg", "zip_code": "22587", "country": "DE", "state": "HH", "display_address": ["S\u00fcllbergstr. 12", "22587 Hamburg", "Germany"]}, "phone": "+494086625233", "display_phone": "+49 40 86625233", "distance": 927.0186302447439}, {"id": "qDAChxTosQmPkLOv7PrxzA", "alias": "spiros-und-spiros-hamburg", "name": "Spiros & Spiros", "image_url": "https://s3-media2.fl.yelpcdn.com/bphoto/qu3PusRaGi3yb2NeWkwR2Q/o.jpg", "is_closed": false, "url": "https://www.yelp.com/biz/spiros-und-spiros-hamburg?adjust_creative=hBJOknVQJ58S5goQyjmwRw&utm_campaign=yelp_api_v3&utm_medium=api_v3_business_search&utm_source=hBJOknVQJ58S5goQyjmwRw", "review_count": 40, "categories": [{"alias": "greek", "title": "Greek"}], "rating": 3.5, "coordinates": {"latitude": 53.57982, "longitude": 9.80156}, "transactions": [], "price": "\u20ac\u20ac", "location": {"address1": "S\u00fclldorfer Landstr. 164", "address2": null, "address3": null, "city": "Hamburg", "zip_code": "22589", "country": "DE", "state": "HH", "display_address": ["S\u00fclldorfer Landstr. 164", "22589 Hamburg", "Germany"]}, "phone": "+49408701076", "display_phone": "+49 40 8701076", "distance": 2677.5072705040625}, {"id": "hGr6fQxD3Nl48irHMMzFtw", "alias": "jugendcaf\u00e9-basement-hamburg", "name": "Jugendcaf\u00e9 Basement", "image_url": "https://s3-media4.fl.yelpcdn.com/bphoto/P9BVMlPcAPr_InZy30V6nA/o.jpg", "is_closed": false, "url": "https://www.yelp.com/biz/jugendcaf%C3%A9-basement-hamburg?adjust_creative=hBJOknVQJ58S5goQyjmwRw&utm_campaign=yelp_api_v3&utm_medium=api_v3_business_search&utm_source=hBJOknVQJ58S5goQyjmwRw", "review_count": 3, "categories": [{"alias": "cafes", "title": "Cafes"}, {"alias": "youth_club", "title": "Youth Club"}], "rating": 5.0, "coordinates": {"latitude": 53.57899, "longitude": 9.79768}, "transactions": [], "location": {"address1": "S\u00fclldorfer Kirchenweg 187", "address2": null, "address3": null, "city": "Hamburg", "zip_code": "22589", "country": "DE", "state": "HH", "display_address": ["S\u00fclldorfer Kirchenweg 187", "22589 Hamburg", "Germany"]}, "phone": "+494088941866", "display_phone": "+49 40 88941866", "distance": 2503.3018385795763}, {"id": "NozZB9TyW052Qhge63N65Q", "alias": "restaurant-am-park-hamburg", "name": "Restaurant Am Park", "image_url": "https://s3-media2.fl.yelpcdn.com/bphoto/ocD6ohwvZytdnbjVWar3uA/o.jpg", "is_closed": false, "url": "https://www.yelp.com/biz/restaurant-am-park-hamburg?adjust_creative=hBJOknVQJ58S5goQyjmwRw&utm_campaign=yelp_api_v3&utm_medium=api_v3_business_search&utm_source=hBJOknVQJ58S5goQyjmwRw", "review_count": 1, "categories": [{"alias": "seafood", "title": "Seafood"}], "rating": 4.0, "coordinates": {"latitude": 53.56362, "longitude": 9.8086}, "transactions": [], "location": {"address1": "Blankeneser Landstr. 27", "address2": "", "address3": "", "city": "Hamburg", "zip_code": "22587", "country": "DE", "state": "HH", "display_address": ["Blankeneser Landstr. 27", "22587 Hamburg", "Germany"]}, "phone": "+4986628948", "display_phone": "+49 8662 8948", "distance": 1571.998940280445}, {"id": "9ufmxoQ0O_ro0_2arLhN0Q", "alias": "s\u00fcllberg-biergarten-hamburg", "name": "S\u00fcllberg Biergarten", "image_url": "https://s3-media4.fl.yelpcdn.com/bphoto/N0QyvU-MwF8tP0HFfwJhoA/o.jpg", "is_closed": false, "url": "https://www.yelp.com/biz/s%C3%BCllberg-biergarten-hamburg?adjust_creative=hBJOknVQJ58S5goQyjmwRw&utm_campaign=yelp_api_v3&utm_medium=api_v3_business_search&utm_source=hBJOknVQJ58S5goQyjmwRw", "review_count": 10, "categories": [{"alias": "beergarden", "title": "Beer Garden"}], "rating": 4.0, "coordinates": {"latitude": 53.56017, "longitude": 9.80073}, "transactions": [], "price": "\u20ac\u20ac", "location": {"address1": "S\u00fcllbergsterrasse 12", "address2": null, "address3": null, "city": "Hamburg", "zip_code": "22587", "country": "DE", "state": "HH", "display_address": ["S\u00fcllbergsterrasse 12", "22587 Hamburg", "Germany"]}, "phone": "+49408662520", "display_phone": "+49 40 8662520", "distance": 927.0186302447439}, {"id": "dpNb9DdmNcPHYZJffibbTw", "alias": "blankenese-strandhof-hamburg-2", "name": "Blankenese Strandhof", "image_url": "https://s3-media1.fl.yelpcdn.com/bphoto/FQAlgB4g8roj4kQbHA9W4w/o.jpg", "is_closed": false, "url": "https://www.yelp.com/biz/blankenese-strandhof-hamburg-2?adjust_creative=hBJOknVQJ58S5goQyjmwRw&utm_campaign=yelp_api_v3&utm_medium=api_v3_business_search&utm_source=hBJOknVQJ58S5goQyjmwRw", "review_count": 21, "categories": [{"alias": "seafood", "title": "Seafood"}], "rating": 3.0, "coordinates": {"latitude": 53.55683, "longitude": 9.80562}, "transactions": [], "price": "\u20ac\u20ac\u20ac", "location": {"address1": "Strandweg 27", "address2": null, "address3": null, "city": "Hamburg", "zip_code": "22587", "country": "DE", "state": "HH", "display_address": ["Strandweg 27", "22587 Hamburg", "Germany"]}, "phone": "+4940865236", "display_phone": "+49 40 865236", "distance": 1213.2906394507759}, {"id": "fm7Np2nLRTJypqEnxUEfJA", "alias": "taverna-elina-hamburg", "name": "Taverna Elina", "image_url": "https://s3-media4.fl.yelpcdn.com/bphoto/H5AIVAelK74kNc_tpL10CA/o.jpg", "is_closed": false, "url": "https://www.yelp.com/biz/taverna-elina-hamburg?adjust_creative=hBJOknVQJ58S5goQyjmwRw&utm_campaign=yelp_api_v3&utm_medium=api_v3_business_search&utm_source=hBJOknVQJ58S5goQyjmwRw", "review_count": 10, "categories": [{"alias": "greek", "title": "Greek"}], "rating": 3.5, "coordinates": {"latitude": 53.5212, "longitude": 9.81203}, "transactions": [], "price": "\u20ac", "location": {"address1": "Hasselwerder Str. 94", "address2": null, "address3": null, "city": "Hamburg", "zip_code": "21129", "country": "DE", "state": "HH", "display_address": ["Hasselwerder Str. 94", "21129 Hamburg", "Germany"]}, "phone": "+49407459567", "display_phone": "+49 40 7459567", "distance": 4342.760875269549}, {"id": "ZEPcY-1xU8MhwXIfr6lhTA", "alias": "tchibo-hamburg-17", "name": "Tchibo", "image_url": "", "is_closed": false, "url": "https://www.yelp.com/biz/tchibo-hamburg-17?adjust_creative=hBJOknVQJ58S5goQyjmwRw&utm_campaign=yelp_api_v3&utm_medium=api_v3_business_search&utm_source=hBJOknVQJ58S5goQyjmwRw", "review_count": 2, "categories": [{"alias": "cafes", "title": "Cafes"}], "rating": 3.5, "coordinates": {"latitude": 53.55986, "longitude": 9.81152}, "transactions": [], "price": "\u20ac\u20ac", "location": {"address1": "Blankeneser Bahnhofstr. 19", "address2": null, "address3": null, "city": "Hamburg", "zip_code": "22587", "country": "DE", "state": "HH", "display_address": ["Blankeneser Bahnhofstr. 19", "22587 Hamburg", "Germany"]}, "phone": "+491805829000", "display_phone": "+49 180 5 829000", "distance": 1631.2129861224344}, {"id": "0Qx6Nf-xHiSLZ-7M9Mm7cw", "alias": "enjoy-pizza-und-wok-hamburg", "name": "Enjoy Pizza & Wok", "image_url": "https://s3-media3.fl.yelpcdn.com/bphoto/d1tc4Ul1eiJsL4oKH9fw2w/o.jpg", "is_closed": false, "url": "https://www.yelp.com/biz/enjoy-pizza-und-wok-hamburg?adjust_creative=hBJOknVQJ58S5goQyjmwRw&utm_campaign=yelp_api_v3&utm_medium=api_v3_business_search&utm_source=hBJOknVQJ58S5goQyjmwRw", "review_count": 2, "categories": [{"alias": "chinese", "title": "Chinese"}], "rating": 2.0, "coordinates": {"latitude": 53.5782814, "longitude": 9.8097296}, "transactions": [], "price": "\u20ac\u20ac", "location": {"address1": "S\u00fclldorfer Landstr. 94", "address2": "", "address3": "", "city": "Hamburg", "zip_code": "22589", "country": "DE", "state": "HH", "display_address": ["S\u00fclldorfer Landstr. 94", "22589 Hamburg", "Germany"]}, "phone": "+494018072333", "display_phone": "+49 40 18072333", "distance": 2767.874341969582}]