[{"id": "GJMSfLc1PhadJ8Th8yeu7w", "alias": "great-asia-house-reinbek", "name": "Great Asia House", "image_url": "https://s3-media4.fl.yelpcdn.com/bphoto/69fVut01cEqueFfdbp_ebw/o.jpg", "is_closed": false, "url": "https://www.yelp.com/biz/great-asia-house-reinbek?adjust_creative=hBJOknVQJ58S5goQyjmwRw&utm_campaign=yelp_api_v3&utm_medium=api_v3_business_search&utm_source=hBJOknVQJ58S5goQyjmwRw", "review_count": 11, "categories": [{"alias": "mongolian", "title": "Mongolian"}, {"alias": "chinese", "title": "Chinese"}, {"alias": "panasian", "title": "Pan Asian"}], "rating": 4.0, "coordinates": {"latitude": 53.5111209958541, "longitude": 10.2512080594897}, "transactions": [], "price": "\u20ac\u20ac", "location": {"address1": "Bergstr. 1-9", "address2": "", "address3": "", "city": "Reinbek", "zip_code": "21465", "country": "DE", "state": "SH", "display_address": ["Bergstr. 1-9", "21465 Reinbek", "Germany"]}, "phone": "+494038652100", "display_phone": "+49 40 38652100", "distance": 4843.963830038413}, {"id": "j9QQrXFns_0mtAj6EEPxUg", "alias": "bistro-lorenzino-reinbek-2", "name": "Bistro Lorenzino", "image_url": "https://s3-media4.fl.yelpcdn.com/bphoto/ylzAWXm3iZ2nms-I8by4MQ/o.jpg", "is_closed": false, "url": "https://www.yelp.com/biz/bistro-lorenzino-reinbek-2?adjust_creative=hBJOknVQJ58S5goQyjmwRw&utm_campaign=yelp_api_v3&utm_medium=api_v3_business_search&utm_source=hBJOknVQJ58S5goQyjmwRw", "review_count": 15, "categories": [{"alias": "bistros", "title": "Bistros"}, {"alias": "italian", "title": "Italian"}, {"alias": "pizza", "title": "Pizza"}], "rating": 4.0, "coordinates": {"latitude": 53.5216113, "longitude": 10.2452981}, "transactions": [], "price": "\u20ac\u20ac", "location": {"address1": "Hermann-K\u00f6rner-Str. 48 - 50", "address2": "", "address3": "", "city": "Reinbek", "zip_code": "21465", "country": "DE", "state": "SH", "display_address": ["Hermann-K\u00f6rner-Str. 48 - 50", "21465 Reinbek", "Germany"]}, "phone": "+4940797507150", "display_phone": "+49 40 797507150", "distance": 3877.9097301439288}, {"id": "xWpwRMkPP_zh11Z25vDO5Q", "alias": "zur-m\u00fchle-reinbek", "name": "Zur M\u00fchle", "image_url": "https://s3-media3.fl.yelpcdn.com/bphoto/jXfdNPFjAn4mAPBWBLaL-Q/o.jpg", "is_closed": false, "url": "https://www.yelp.com/biz/zur-m%C3%BChle-reinbek?adjust_creative=hBJOknVQJ58S5goQyjmwRw&utm_campaign=yelp_api_v3&utm_medium=api_v3_business_search&utm_source=hBJOknVQJ58S5goQyjmwRw", "review_count": 43, "categories": [{"alias": "breakfast_brunch", "title": "Breakfast & Brunch"}, {"alias": "bars", "title": "Bars"}, {"alias": "steak", "title": "Steakhouses"}], "rating": 3.5, "coordinates": {"latitude": 53.5269019595082, "longitude": 10.2600353415857}, "transactions": [], "price": "\u20ac\u20ac", "location": {"address1": "M\u00fchlenweg 1", "address2": "", "address3": "", "city": "Reinbek", "zip_code": "21465", "country": "DE", "state": "SH", "display_address": ["M\u00fchlenweg 1", "21465 Reinbek", "Germany"]}, "phone": "+494072810538", "display_phone": "+49 40 72810538", "distance": 3000.0223997371363}, {"id": "UySKD0bPtb6YhtC5Fp_9dA", "alias": "il-posto-reinbek", "name": "Il Posto", "image_url": "https://s3-media1.fl.yelpcdn.com/bphoto/_0nAdKO7ZjwAI2YGjbCNog/o.jpg", "is_closed": false, "url": "https://www.yelp.com/biz/il-posto-reinbek?adjust_creative=hBJOknVQJ58S5goQyjmwRw&utm_campaign=yelp_api_v3&utm_medium=api_v3_business_search&utm_source=hBJOknVQJ58S5goQyjmwRw", "review_count": 2, "categories": [{"alias": "pizza", "title": "Pizza"}, {"alias": "italian", "title": "Italian"}], "rating": 4.5, "coordinates": {"latitude": 53.51269, "longitude": 10.2531199}, "transactions": [], "price": "\u20ac\u20ac", "location": {"address1": "Sch\u00f6nningstedter Str. 2", "address2": null, "address3": "", "city": "Reinbek", "zip_code": "21465", "country": "DE", "state": "SH", "display_address": ["Sch\u00f6nningstedter Str. 2", "21465 Reinbek", "Germany"]}, "phone": "+494046654698", "display_phone": "+49 40 46654698", "distance": 4641.798527446319}, {"id": "l6PcEyzNyDJnCKs74Ox7GQ", "alias": "restaurant-niemanns-gasthof-reinbek", "name": "Restaurant Niemann's Gasthof", "image_url": "https://s3-media3.fl.yelpcdn.com/bphoto/WZdTCXcgl6WRGT8wxomqAw/o.jpg", "is_closed": false, "url": "https://www.yelp.com/biz/restaurant-niemanns-gasthof-reinbek?adjust_creative=hBJOknVQJ58S5goQyjmwRw&utm_campaign=yelp_api_v3&utm_medium=api_v3_business_search&utm_source=hBJOknVQJ58S5goQyjmwRw", "review_count": 21, "categories": [{"alias": "german", "title": "German"}], "rating": 3.5, "coordinates": {"latitude": 53.53, "longitude": 10.2778}, "transactions": [], "price": "\u20ac\u20ac\u20ac", "location": {"address1": "Silk 5", "address2": null, "address3": null, "city": "Reinbek", "zip_code": "21465", "country": "DE", "state": "SH", "display_address": ["Silk 5", "21465 Reinbek", "Germany"]}, "phone": "+4941042391", "display_phone": "+49 4104 2391", "distance": 2629.0638017384413}, {"id": "Be6vXJcIpF4-MrEtYj0OnQ", "alias": "helena-reinbek", "name": "Helena", "image_url": "https://s3-media1.fl.yelpcdn.com/bphoto/W0YpWSIDNMTsC8_N51CJCw/o.jpg", "is_closed": false, "url": "https://www.yelp.com/biz/helena-reinbek?adjust_creative=hBJOknVQJ58S5goQyjmwRw&utm_campaign=yelp_api_v3&utm_medium=api_v3_business_search&utm_source=hBJOknVQJ58S5goQyjmwRw", "review_count": 23, "categories": [{"alias": "greek", "title": "Greek"}], "rating": 4.5, "coordinates": {"latitude": 53.512, "longitude": 10.2508}, "transactions": [], "price": "\u20ac\u20ac", "location": {"address1": "Am Rosenplatz  5", "address2": null, "address3": null, "city": "Reinbek", "zip_code": "21465", "country": "DE", "state": "SH", "display_address": ["Am Rosenplatz  5", "21465 Reinbek", "Germany"]}, "phone": "+49407228824", "display_phone": "+49 40 7228824", "distance": 4756.790247306547}, {"id": "qcFFOWpkEkG3ITFD8BlJmw", "alias": "china-restaurant-westsee-palast-wohltorf", "name": "China-Restaurant Westsee Palast", "image_url": "https://s3-media3.fl.yelpcdn.com/bphoto/50P8TIzmFR2J2zlzheGI9Q/o.jpg", "is_closed": false, "url": "https://www.yelp.com/biz/china-restaurant-westsee-palast-wohltorf?adjust_creative=hBJOknVQJ58S5goQyjmwRw&utm_campaign=yelp_api_v3&utm_medium=api_v3_business_search&utm_source=hBJOknVQJ58S5goQyjmwRw", "review_count": 14, "categories": [{"alias": "chinese", "title": "Chinese"}], "rating": 4.0, "coordinates": {"latitude": 53.5203, "longitude": 10.2763}, "transactions": [], "price": "\u20ac\u20ac", "location": {"address1": "Kastanienallee 1", "address2": null, "address3": null, "city": "Wohltorf", "zip_code": "21521", "country": "DE", "state": "SH", "display_address": ["Kastanienallee 1", "21521 Wohltorf", "Germany"]}, "phone": "+4941045202", "display_phone": "+49 4104 5202", "distance": 3681.1308527305296}, {"id": "3u574SDNjwdASl_386l5Mg", "alias": "da-lauretta-reinbek", "name": "Da Lauretta", "image_url": "", "is_closed": false, "url": "https://www.yelp.com/biz/da-lauretta-reinbek?adjust_creative=hBJOknVQJ58S5goQyjmwRw&utm_campaign=yelp_api_v3&utm_medium=api_v3_business_search&utm_source=hBJOknVQJ58S5goQyjmwRw", "review_count": 10, "categories": [{"alias": "italian", "title": "Italian"}], "rating": 3.0, "coordinates": {"latitude": 53.5104, "longitude": 10.2512}, "transactions": [], "price": "\u20ac\u20ac", "location": {"address1": "Hamburger Str. 2", "address2": null, "address3": null, "city": "Reinbek", "zip_code": "21465", "country": "DE", "state": "SH", "display_address": ["Hamburger Str. 2", "21465 Reinbek", "Germany"]}, "phone": "+494078073367", "display_phone": "+49 40 78073367", "distance": 4921.591710738224}, {"id": "u3ub5f0MS4qY67Q8XF9ZoA", "alias": "sodemanns-fisch-kutter-nr-1-hamburg", "name": "Sodemann's Fisch-Kutter Nr. 1", "image_url": "https://s3-media3.fl.yelpcdn.com/bphoto/BlysP6fVPaL0eEjKvEbByw/o.jpg", "is_closed": false, "url": "https://www.yelp.com/biz/sodemanns-fisch-kutter-nr-1-hamburg?adjust_creative=hBJOknVQJ58S5goQyjmwRw&utm_campaign=yelp_api_v3&utm_medium=api_v3_business_search&utm_source=hBJOknVQJ58S5goQyjmwRw", "review_count": 3, "categories": [{"alias": "foodtrucks", "title": "Food Trucks"}, {"alias": "fischbroetchen", "title": "Fischbroetchen"}], "rating": 5.0, "coordinates": {"latitude": 53.5537490844727, "longitude": 9.99182987213135}, "transactions": [], "price": "\u20ac\u20ac", "location": {"address1": "", "address2": null, "address3": "", "city": "Hamburg", "zip_code": "", "country": "DE", "state": "HH", "display_address": ["Hamburg", "Germany"]}, "phone": "+491773606663", "display_phone": "+49 177 3606663", "distance": 18265.238834549717}, {"id": "ZoWqPEXDg4bWWo5ZgVj62A", "alias": "take-home-reinbek", "name": "Take Home", "image_url": "", "is_closed": false, "url": "https://www.yelp.com/biz/take-home-reinbek?adjust_creative=hBJOknVQJ58S5goQyjmwRw&utm_campaign=yelp_api_v3&utm_medium=api_v3_business_search&utm_source=hBJOknVQJ58S5goQyjmwRw", "review_count": 3, "categories": [{"alias": "restaurants", "title": "Restaurants"}], "rating": 3.0, "coordinates": {"latitude": 53.5526, "longitude": 10.2507}, "transactions": [], "location": {"address1": "M\u00f6llner Landstr. 4", "address2": null, "address3": null, "city": "Reinbek", "zip_code": "21465", "country": "DE", "state": "SH", "display_address": ["M\u00f6llner Landstr. 4", "21465 Reinbek", "Germany"]}, "phone": "+494081975888", "display_phone": "+49 40 81975888", "distance": 1286.8854799383776}, {"id": "DqwNoshewJ0Xi90cnmvt5Q", "alias": "ristorante-la-stella-reinbek", "name": "Ristorante La Stella", "image_url": "https://s3-media2.fl.yelpcdn.com/bphoto/Gbv9caQYgdbV_cIgUSCPuA/o.jpg", "is_closed": false, "url": "https://www.yelp.com/biz/ristorante-la-stella-reinbek?adjust_creative=hBJOknVQJ58S5goQyjmwRw&utm_campaign=yelp_api_v3&utm_medium=api_v3_business_search&utm_source=hBJOknVQJ58S5goQyjmwRw", "review_count": 11, "categories": [{"alias": "italian", "title": "Italian"}], "rating": 3.5, "coordinates": {"latitude": 53.5115, "longitude": 10.2516}, "transactions": [], "price": "\u20ac\u20ac\u20ac", "location": {"address1": "Am Rosenplatz 2", "address2": null, "address3": null, "city": "Reinbek", "zip_code": "21465", "country": "DE", "state": "SH", "display_address": ["Am Rosenplatz 2", "21465 Reinbek", "Germany"]}, "phone": "+49407229902", "display_phone": "+49 40 7229902", "distance": 4796.576155186319}, {"id": "7GylVDv9_w5jVAflo42zsQ", "alias": "pierro-reinbek", "name": "Pierro", "image_url": "https://s3-media2.fl.yelpcdn.com/bphoto/nfYJ365A5iCOlKp3fGyeIA/o.jpg", "is_closed": false, "url": "https://www.yelp.com/biz/pierro-reinbek?adjust_creative=hBJOknVQJ58S5goQyjmwRw&utm_campaign=yelp_api_v3&utm_medium=api_v3_business_search&utm_source=hBJOknVQJ58S5goQyjmwRw", "review_count": 13, "categories": [{"alias": "bistros", "title": "Bistros"}, {"alias": "pizza", "title": "Pizza"}, {"alias": "sandwiches", "title": "Sandwiches"}], "rating": 4.0, "coordinates": {"latitude": 53.5159, "longitude": 10.2475}, "transactions": [], "price": "\u20ac", "location": {"address1": "Schulstr. 36", "address2": null, "address3": null, "city": "Reinbek", "zip_code": "21465", "country": "DE", "state": "SH", "display_address": ["Schulstr. 36", "21465 Reinbek", "Germany"]}, "phone": "+494022623126", "display_phone": "+49 40 22623126", "distance": 4409.84598876178}, {"id": "EI4g_NGuRAqEDO0rWRIBkQ", "alias": "fifty-fifty-reinbek", "name": "Fifty Fifty", "image_url": "", "is_closed": false, "url": "https://www.yelp.com/biz/fifty-fifty-reinbek?adjust_creative=hBJOknVQJ58S5goQyjmwRw&utm_campaign=yelp_api_v3&utm_medium=api_v3_business_search&utm_source=hBJOknVQJ58S5goQyjmwRw", "review_count": 5, "categories": [{"alias": "pizza", "title": "Pizza"}], "rating": 2.5, "coordinates": {"latitude": 53.51599, "longitude": 10.24695}, "transactions": [], "price": "\u20ac\u20ac", "location": {"address1": "Schulstr. 33", "address2": null, "address3": null, "city": "Reinbek", "zip_code": "21465", "country": "DE", "state": "SH", "display_address": ["Schulstr. 33", "21465 Reinbek", "Germany"]}, "phone": "+49407229999", "display_phone": "+49 40 7229999", "distance": 4411.672234508117}, {"id": "SSmt7U3dGAV6o0_8WTF-yQ", "alias": "kleiner-rasthof-reinbek", "name": "Kleiner Rasthof", "image_url": "", "is_closed": false, "url": "https://www.yelp.com/biz/kleiner-rasthof-reinbek?adjust_creative=hBJOknVQJ58S5goQyjmwRw&utm_campaign=yelp_api_v3&utm_medium=api_v3_business_search&utm_source=hBJOknVQJ58S5goQyjmwRw", "review_count": 1, "categories": [{"alias": "restaurants", "title": "Restaurants"}], "rating": 2.0, "coordinates": {"latitude": 53.5306, "longitude": 10.2518}, "transactions": [], "location": {"address1": "Dorfstr. 36", "address2": null, "address3": null, "city": "Reinbek", "zip_code": "21465", "country": "DE", "state": "SH", "display_address": ["Dorfstr. 36", "21465 Reinbek", "Germany"]}, "phone": "+494073597973", "display_phone": "+49 40 73597973", "distance": 2790.6625821671146}, {"id": "j9CSlwrurexEeVwEKGMonQ", "alias": "feuer-und-flamme-reinbek-2", "name": "Feuer & Flamme", "image_url": "", "is_closed": false, "url": "https://www.yelp.com/biz/feuer-und-flamme-reinbek-2?adjust_creative=hBJOknVQJ58S5goQyjmwRw&utm_campaign=yelp_api_v3&utm_medium=api_v3_business_search&utm_source=hBJOknVQJ58S5goQyjmwRw", "review_count": 6, "categories": [{"alias": "pizza", "title": "Pizza"}, {"alias": "italian", "title": "Italian"}], "rating": 4.0, "coordinates": {"latitude": 53.5176, "longitude": 10.247}, "transactions": [], "price": "\u20ac\u20ac", "location": {"address1": "Schulstr. 56", "address2": null, "address3": null, "city": "Reinbek", "zip_code": "21465", "country": "DE", "state": "SH", "display_address": ["Schulstr. 56", "21465 Reinbek", "Germany"]}, "phone": "+49407228041", "display_phone": "+49 40 7228041", "distance": 4244.319180727997}, {"id": "APvIA_7ssxgC0atmQEFMcg", "alias": "burgerkultour-food-truck-hamburg-2", "name": "BurgerKultour Food Truck", "image_url": "https://s3-media4.fl.yelpcdn.com/bphoto/KoAuwalMnlAO8139MmdYBQ/o.jpg", "is_closed": false, "url": "https://www.yelp.com/biz/burgerkultour-food-truck-hamburg-2?adjust_creative=hBJOknVQJ58S5goQyjmwRw&utm_campaign=yelp_api_v3&utm_medium=api_v3_business_search&utm_source=hBJOknVQJ58S5goQyjmwRw", "review_count": 3, "categories": [{"alias": "foodtrucks", "title": "Food Trucks"}, {"alias": "burgers", "title": "Burgers"}], "rating": 4.5, "coordinates": {"latitude": 53.57154, "longitude": 9.95575}, "transactions": [], "price": "\u20ac\u20ac", "location": {"address1": "", "address2": "", "address3": "", "city": "Hamburg", "zip_code": "20259", "country": "DE", "state": "HH", "display_address": ["20259 Hamburg", "Germany"]}, "phone": "+4917626055122", "display_phone": "+49 176 26055122", "distance": 20817.871344572206}, {"id": "cGIKCcR0wZszz8VldC2-7g", "alias": "currywerk-hamburg", "name": "curryWERK", "image_url": "https://s3-media4.fl.yelpcdn.com/bphoto/j_ZPQAB6JrAru84VDuLiRA/o.jpg", "is_closed": false, "url": "https://www.yelp.com/biz/currywerk-hamburg?adjust_creative=hBJOknVQJ58S5goQyjmwRw&utm_campaign=yelp_api_v3&utm_medium=api_v3_business_search&utm_source=hBJOknVQJ58S5goQyjmwRw", "review_count": 1, "categories": [{"alias": "foodtrucks", "title": "Food Trucks"}, {"alias": "currysausage", "title": "Curry Sausage"}], "rating": 4.0, "coordinates": {"latitude": 53.5498886108398, "longitude": 9.94732189178467}, "transactions": [], "price": "\u20ac\u20ac", "location": {"address1": "", "address2": "", "address3": "", "city": "Hamburg", "zip_code": "22767", "country": "DE", "state": "HH", "display_address": ["22767 Hamburg", "Germany"]}, "phone": "+4917632443433", "display_phone": "+49 176 32443433", "distance": 21643.57086708343}]