[{"id": "hT3eXmaoDzyyZS412fK7nQ", "alias": "patac\u00f3n-pisao-hamburg", "name": "Patac\u00f3n Pisao", "image_url": "https://s3-media3.fl.yelpcdn.com/bphoto/nJGXofeGzevr5E3FSIQKGQ/o.jpg", "is_closed": false, "url": "https://www.yelp.com/biz/patac%C3%B3n-pisao-hamburg?adjust_creative=hBJOknVQJ58S5goQyjmwRw&utm_campaign=yelp_api_v3&utm_medium=api_v3_business_search&utm_source=hBJOknVQJ58S5goQyjmwRw", "review_count": 20, "categories": [{"alias": "latin", "title": "Latin American"}], "rating": 4.5, "coordinates": {"latitude": 53.5708912, "longitude": 9.9858544}, "transactions": [], "price": "\u20ac\u20ac", "location": {"address1": "Schl\u00fcterstr. 79", "address2": null, "address3": null, "city": "Hamburg", "zip_code": "20146", "country": "DE", "state": "HH", "display_address": ["Schl\u00fcterstr. 79", "20146 Hamburg", "Germany"]}, "phone": "+494038664011", "display_phone": "+49 40 38664011", "distance": 397.695524778908}, {"id": "wBfW7hhpUrUUQXLa0xo1dA", "alias": "la-madrague-hamburg", "name": "La Madrague", "image_url": "https://s3-media3.fl.yelpcdn.com/bphoto/OtvDWPWPiG4gPJt0ff-KXQ/o.jpg", "is_closed": false, "url": "https://www.yelp.com/biz/la-madrague-hamburg?adjust_creative=hBJOknVQJ58S5goQyjmwRw&utm_campaign=yelp_api_v3&utm_medium=api_v3_business_search&utm_source=hBJOknVQJ58S5goQyjmwRw", "review_count": 22, "categories": [{"alias": "african", "title": "African"}], "rating": 4.5, "coordinates": {"latitude": 53.5718699, "longitude": 9.98598}, "transactions": [], "price": "\u20ac\u20ac", "location": {"address1": "Hallerplatz 10", "address2": null, "address3": null, "city": "Hamburg", "zip_code": "20146", "country": "DE", "state": "HH", "display_address": ["Hallerplatz 10", "20146 Hamburg", "Germany"]}, "phone": "+4940451924", "display_phone": "+49 40 451924", "distance": 444.21785646347513}, {"id": "2Y6c3FgNAsGLWZCthowbGg", "alias": "suzy-wong-hamburg", "name": "Suzy Wong", "image_url": "https://s3-media1.fl.yelpcdn.com/bphoto/8mGgxikcJANqKnSfXFVhfQ/o.jpg", "is_closed": false, "url": "https://www.yelp.com/biz/suzy-wong-hamburg?adjust_creative=hBJOknVQJ58S5goQyjmwRw&utm_campaign=yelp_api_v3&utm_medium=api_v3_business_search&utm_source=hBJOknVQJ58S5goQyjmwRw", "review_count": 53, "categories": [{"alias": "chinese", "title": "Chinese"}], "rating": 4.5, "coordinates": {"latitude": 53.57023, "longitude": 9.99548}, "transactions": [], "price": "\u20ac\u20ac", "location": {"address1": "Mittelweg 141", "address2": "", "address3": null, "city": "Hamburg", "zip_code": "20148", "country": "DE", "state": "HH", "display_address": ["Mittelweg 141", "20148 Hamburg", "Germany"]}, "phone": "+4940454112", "display_phone": "+49 40 454112", "distance": 288.34182427262425}, {"id": "RY1Hw5RHZiFDUl_pfT9Dpg", "alias": "das-speisekabinett-hamburg", "name": "Das Speisekabinett", "image_url": "https://s3-media1.fl.yelpcdn.com/bphoto/Fj5CfDTf55e9kfcpk2mTZw/o.jpg", "is_closed": false, "url": "https://www.yelp.com/biz/das-speisekabinett-hamburg?adjust_creative=hBJOknVQJ58S5goQyjmwRw&utm_campaign=yelp_api_v3&utm_medium=api_v3_business_search&utm_source=hBJOknVQJ58S5goQyjmwRw", "review_count": 3, "categories": [{"alias": "german", "title": "German"}], "rating": 4.5, "coordinates": {"latitude": 53.564, "longitude": 9.98622}, "transactions": [], "price": "\u20ac", "location": {"address1": "Moorweidenstr. 36", "address2": null, "address3": null, "city": "Hamburg", "zip_code": "20149", "country": "DE", "state": "HH", "display_address": ["Moorweidenstr. 36", "20149 Hamburg", "Germany"]}, "phone": "+494041497080", "display_phone": "+49 40 41497080", "distance": 679.3250627228452}, {"id": "jkRjz98q09lDgBLMPvwkAQ", "alias": "suliko-hamburg", "name": "Suliko", "image_url": "https://s3-media2.fl.yelpcdn.com/bphoto/3P2Sv__tmWO9rjIzhheCUQ/o.jpg", "is_closed": false, "url": "https://www.yelp.com/biz/suliko-hamburg?adjust_creative=hBJOknVQJ58S5goQyjmwRw&utm_campaign=yelp_api_v3&utm_medium=api_v3_business_search&utm_source=hBJOknVQJ58S5goQyjmwRw", "review_count": 4, "categories": [{"alias": "georgian", "title": "Georgian"}], "rating": 5.0, "coordinates": {"latitude": 53.56768, "longitude": 9.9954}, "transactions": [], "location": {"address1": "Mittelweg 24", "address2": "", "address3": null, "city": "Hamburg", "zip_code": "20148", "country": "DE", "state": "HH", "display_address": ["Mittelweg 24", "20148 Hamburg", "Germany"]}, "phone": "+494049201953", "display_phone": "+49 40 49201953", "distance": 329.2613390735178}, {"id": "XqpZdHONY8qr92oPJa2cdg", "alias": "brodersen-hamburg", "name": "Brodersen", "image_url": "https://s3-media2.fl.yelpcdn.com/bphoto/pyq_8QrQSd7TlOnub2-KPw/o.jpg", "is_closed": false, "url": "https://www.yelp.com/biz/brodersen-hamburg?adjust_creative=hBJOknVQJ58S5goQyjmwRw&utm_campaign=yelp_api_v3&utm_medium=api_v3_business_search&utm_source=hBJOknVQJ58S5goQyjmwRw", "review_count": 76, "categories": [{"alias": "german", "title": "German"}], "rating": 4.0, "coordinates": {"latitude": 53.5664408922478, "longitude": 9.98878997684722}, "transactions": [], "price": "\u20ac\u20ac", "location": {"address1": "Rothenbaumchaussee 46", "address2": "", "address3": null, "city": "Hamburg", "zip_code": "20148", "country": "DE", "state": "HH", "display_address": ["Rothenbaumchaussee 46", "20148 Hamburg", "Germany"]}, "phone": "+4940458119", "display_phone": "+49 40 458119", "distance": 359.8538073710729}, {"id": "b7IwaD4E0h6k2SNZG2z1dw", "alias": "k\u00fcchenfreunde-hamburg", "name": "K\u00fcchenfreunde", "image_url": "https://s3-media2.fl.yelpcdn.com/bphoto/ZoqlceKYa_ULmWi-MLTaTg/o.jpg", "is_closed": false, "url": "https://www.yelp.com/biz/k%C3%BCchenfreunde-hamburg?adjust_creative=hBJOknVQJ58S5goQyjmwRw&utm_campaign=yelp_api_v3&utm_medium=api_v3_business_search&utm_source=hBJOknVQJ58S5goQyjmwRw", "review_count": 23, "categories": [{"alias": "german", "title": "German"}], "rating": 4.5, "coordinates": {"latitude": 53.57059, "longitude": 9.98511}, "transactions": [], "price": "\u20ac\u20ac", "location": {"address1": "Grindelhof 64", "address2": "", "address3": "", "city": "Hamburg", "zip_code": "20146", "country": "DE", "state": "HH", "display_address": ["Grindelhof 64", "20146 Hamburg", "Germany"]}, "phone": "+494045000838", "display_phone": "+49 40 45000838", "distance": 430.30493243464}, {"id": "0_pFMp1hN076LQXGf9j26w", "alias": "restaurant-pinakas-hamburg", "name": "Restaurant Pinakas", "image_url": "https://s3-media3.fl.yelpcdn.com/bphoto/74YZLR_uOEG6Gm6O1wmZwg/o.jpg", "is_closed": false, "url": "https://www.yelp.com/biz/restaurant-pinakas-hamburg?adjust_creative=hBJOknVQJ58S5goQyjmwRw&utm_campaign=yelp_api_v3&utm_medium=api_v3_business_search&utm_source=hBJOknVQJ58S5goQyjmwRw", "review_count": 36, "categories": [{"alias": "greek", "title": "Greek"}], "rating": 4.0, "coordinates": {"latitude": 53.57059, "longitude": 9.98511}, "transactions": [], "price": "\u20ac\u20ac", "location": {"address1": "Grindelhof 64", "address2": "", "address3": "", "city": "Hamburg", "zip_code": "20146", "country": "DE", "state": "HH", "display_address": ["Grindelhof 64", "20146 Hamburg", "Germany"]}, "phone": "+494018102375", "display_phone": "+49 40 18102375", "distance": 430.30493243464}, {"id": "GsurUUp9bqSamCteiUpQ4Q", "alias": "theos-hamburg", "name": "Theo's", "image_url": "https://s3-media1.fl.yelpcdn.com/bphoto/NOUWtSvGSqXZH1jZZY_PYg/o.jpg", "is_closed": false, "url": "https://www.yelp.com/biz/theos-hamburg?adjust_creative=hBJOknVQJ58S5goQyjmwRw&utm_campaign=yelp_api_v3&utm_medium=api_v3_business_search&utm_source=hBJOknVQJ58S5goQyjmwRw", "review_count": 21, "categories": [{"alias": "bars", "title": "Bars"}, {"alias": "steak", "title": "Steakhouses"}], "rating": 5.0, "coordinates": {"latitude": 53.563342795287, "longitude": 9.99001556004941}, "transactions": [], "price": "\u20ac\u20ac\u20ac\u20ac", "location": {"address1": "Grand Elys\u00e9e", "address2": "Rothenbaumchaussee 10", "address3": "", "city": "Hamburg", "zip_code": "20148", "country": "DE", "state": "HH", "display_address": ["Grand Elys\u00e9e", "Rothenbaumchaussee 10", "20148 Hamburg", "Germany"]}, "phone": "+494041412855", "display_phone": "+49 40 41412855", "distance": 670.1217033978214}, {"id": "FNTK2TF7HmeQUPLXxadN-g", "alias": "butchers-hamburg", "name": "Butcher's", "image_url": "https://s3-media3.fl.yelpcdn.com/bphoto/qG_HcNE_Ij0IFTrF9FThpA/o.jpg", "is_closed": false, "url": "https://www.yelp.com/biz/butchers-hamburg?adjust_creative=hBJOknVQJ58S5goQyjmwRw&utm_campaign=yelp_api_v3&utm_medium=api_v3_business_search&utm_source=hBJOknVQJ58S5goQyjmwRw", "review_count": 114, "categories": [{"alias": "steak", "title": "Steakhouses"}], "rating": 4.5, "coordinates": {"latitude": 53.57058, "longitude": 9.99721}, "transactions": [], "price": "\u20ac\u20ac\u20ac\u20ac", "location": {"address1": "Milchstr. 19", "address2": null, "address3": null, "city": "Hamburg", "zip_code": "20148", "country": "DE", "state": "HH", "display_address": ["Milchstr. 19", "20148 Hamburg", "Germany"]}, "phone": "+4940446082", "display_phone": "+49 40 446082", "distance": 418.26447277824843}, {"id": "lvCy1iA9tp-OA2Y4czl_-w", "alias": "salon-wechsel-dich-hamburg", "name": "Salon Wechsel Dich", "image_url": "https://s3-media3.fl.yelpcdn.com/bphoto/Fs8xA0oZwyUiBLOcCwwcAg/o.jpg", "is_closed": false, "url": "https://www.yelp.com/biz/salon-wechsel-dich-hamburg?adjust_creative=hBJOknVQJ58S5goQyjmwRw&utm_campaign=yelp_api_v3&utm_medium=api_v3_business_search&utm_source=hBJOknVQJ58S5goQyjmwRw", "review_count": 24, "categories": [{"alias": "cafes", "title": "Cafes"}], "rating": 4.5, "coordinates": {"latitude": 53.5704, "longitude": 9.98505}, "transactions": [], "price": "\u20ac\u20ac", "location": {"address1": "Grindelhof 62", "address2": null, "address3": null, "city": "Hamburg", "zip_code": "20146", "country": "DE", "state": "HH", "display_address": ["Grindelhof 62", "20146 Hamburg", "Germany"]}, "phone": "+494032039889", "display_phone": "+49 40 32039889", "distance": 427.66281339211577}, {"id": "ordWXxpxFdt5O5qs7w1kDw", "alias": "osteria-da-francesco-hamburg", "name": "Osteria da Francesco", "image_url": "https://s3-media3.fl.yelpcdn.com/bphoto/gj3tAVfyjZdvZBHOxZNLCw/o.jpg", "is_closed": false, "url": "https://www.yelp.com/biz/osteria-da-francesco-hamburg?adjust_creative=hBJOknVQJ58S5goQyjmwRw&utm_campaign=yelp_api_v3&utm_medium=api_v3_business_search&utm_source=hBJOknVQJ58S5goQyjmwRw", "review_count": 7, "categories": [{"alias": "italian", "title": "Italian"}], "rating": 4.5, "coordinates": {"latitude": 53.57065, "longitude": 9.99639}, "transactions": [], "price": "\u20ac\u20ac\u20ac", "location": {"address1": "Milchstr. 3 - 4", "address2": "", "address3": "", "city": "Hamburg", "zip_code": "20148", "country": "DE", "state": "HH", "display_address": ["Milchstr. 3 - 4", "20148 Hamburg", "Germany"]}, "phone": "+494025304380", "display_phone": "+49 40 25304380", "distance": 359.75407965424677}, {"id": "xLtc8ieVNYyjnCI06Ob79A", "alias": "sushi-l\u00f4-hamburg-2", "name": "Sushi L\u00f4", "image_url": "https://s3-media4.fl.yelpcdn.com/bphoto/-d0xIH3e8D17YuiebUIJAQ/o.jpg", "is_closed": false, "url": "https://www.yelp.com/biz/sushi-l%C3%B4-hamburg-2?adjust_creative=hBJOknVQJ58S5goQyjmwRw&utm_campaign=yelp_api_v3&utm_medium=api_v3_business_search&utm_source=hBJOknVQJ58S5goQyjmwRw", "review_count": 56, "categories": [{"alias": "sushi", "title": "Sushi Bars"}], "rating": 4.0, "coordinates": {"latitude": 53.57141, "longitude": 9.98824}, "transactions": [], "price": "\u20ac\u20ac", "location": {"address1": "Rothenbaumchaussee 105", "address2": "", "address3": "", "city": "Hamburg", "zip_code": "20148", "country": "DE", "state": "HH", "display_address": ["Rothenbaumchaussee 105", "20148 Hamburg", "Germany"]}, "phone": "+494041498804", "display_phone": "+49 40 41498804", "distance": 303.0271639442526}, {"id": "gQ09amxaKzDenTb6w1jsOA", "alias": "ristorante-torcello-hamburg", "name": "Ristorante Torcello", "image_url": "https://s3-media2.fl.yelpcdn.com/bphoto/X6HOttn21bcEggByQnOiQg/o.jpg", "is_closed": false, "url": "https://www.yelp.com/biz/ristorante-torcello-hamburg?adjust_creative=hBJOknVQJ58S5goQyjmwRw&utm_campaign=yelp_api_v3&utm_medium=api_v3_business_search&utm_source=hBJOknVQJ58S5goQyjmwRw", "review_count": 42, "categories": [{"alias": "italian", "title": "Italian"}], "rating": 4.5, "coordinates": {"latitude": 53.567148, "longitude": 9.995398}, "transactions": [], "price": "\u20ac\u20ac\u20ac", "location": {"address1": "Mittelweg 19", "address2": "", "address3": "", "city": "Hamburg", "zip_code": "20148", "country": "DE", "state": "HH", "display_address": ["Mittelweg 19", "20148 Hamburg", "Germany"]}, "phone": "+494044191860", "display_phone": "+49 40 44191860", "distance": 355.1364585647848}, {"id": "GMgXnnABJQ7toaUtgWkgTQ", "alias": "gurke-hamburg", "name": "Gurke", "image_url": "https://s3-media4.fl.yelpcdn.com/bphoto/g601CwnTo3s8naH3UcXtWQ/o.jpg", "is_closed": false, "url": "https://www.yelp.com/biz/gurke-hamburg?adjust_creative=hBJOknVQJ58S5goQyjmwRw&utm_campaign=yelp_api_v3&utm_medium=api_v3_business_search&utm_source=hBJOknVQJ58S5goQyjmwRw", "review_count": 28, "categories": [{"alias": "german", "title": "German"}], "rating": 3.5, "coordinates": {"latitude": 53.56882, "longitude": 9.9948599}, "transactions": [], "price": "\u20ac\u20ac", "location": {"address1": "Mittelweg 32", "address2": null, "address3": null, "city": "Hamburg", "zip_code": "20148", "country": "DE", "state": "HH", "display_address": ["Mittelweg 32", "20148 Hamburg", "Germany"]}, "phone": "+494041624898", "display_phone": "+49 40 41624898", "distance": 225.23296443837552}, {"id": "FOtSLCPpZ5VGBGgg6QUVZw", "alias": "valentinas-backsalon-hamburg", "name": "Valentinas BackSalon", "image_url": "https://s3-media4.fl.yelpcdn.com/bphoto/5KHdTr58WLV4NqR0vSOUYA/o.jpg", "is_closed": false, "url": "https://www.yelp.com/biz/valentinas-backsalon-hamburg?adjust_creative=hBJOknVQJ58S5goQyjmwRw&utm_campaign=yelp_api_v3&utm_medium=api_v3_business_search&utm_source=hBJOknVQJ58S5goQyjmwRw", "review_count": 7, "categories": [{"alias": "themedcafes", "title": "Themed Cafes"}], "rating": 5.0, "coordinates": {"latitude": 53.57081, "longitude": 9.98584}, "transactions": [], "price": "\u20ac", "location": {"address1": "Schl\u00fcterstr. 79", "address2": "", "address3": null, "city": "Hamburg", "zip_code": "20146", "country": "DE", "state": "HH", "display_address": ["Schl\u00fcterstr. 79", "20146 Hamburg", "Germany"]}, "phone": "+4917670891505", "display_phone": "+49 176 70891505", "distance": 399.9544023262052}, {"id": "W_jvF2Nk3xEdDcpsER__QA", "alias": "jerusalem-hamburg", "name": "Jerusalem", "image_url": "https://s3-media4.fl.yelpcdn.com/bphoto/P0dRGK5SRoVr3EjfuLKu8g/o.jpg", "is_closed": false, "url": "https://www.yelp.com/biz/jerusalem-hamburg?adjust_creative=hBJOknVQJ58S5goQyjmwRw&utm_campaign=yelp_api_v3&utm_medium=api_v3_business_search&utm_source=hBJOknVQJ58S5goQyjmwRw", "review_count": 6, "categories": [{"alias": "mediterranean", "title": "Mediterranean"}], "rating": 3.5, "coordinates": {"latitude": 53.57006, "longitude": 9.98551}, "transactions": [], "price": "\u20ac\u20ac", "location": {"address1": "Hamburger Kammerspiele", "address2": "Hartungstr. 9 - 11", "address3": "", "city": "Hamburg", "zip_code": "20146", "country": "DE", "state": "HH", "display_address": ["Hamburger Kammerspiele", "Hartungstr. 9 - 11", "20146 Hamburg", "Germany"]}, "phone": "+494041496977", "display_phone": "+49 40 41496977", "distance": 397.301105342226}, {"id": "-qFOysYddm16XGuSTggVHA", "alias": "piazza-romana-hamburg", "name": "Piazza Romana", "image_url": "https://s3-media3.fl.yelpcdn.com/bphoto/y_eCRUKpcwKM6d7b9O-h8Q/o.jpg", "is_closed": false, "url": "https://www.yelp.com/biz/piazza-romana-hamburg?adjust_creative=hBJOknVQJ58S5goQyjmwRw&utm_campaign=yelp_api_v3&utm_medium=api_v3_business_search&utm_source=hBJOknVQJ58S5goQyjmwRw", "review_count": 7, "categories": [{"alias": "italian", "title": "Italian"}, {"alias": "mediterranean", "title": "Mediterranean"}], "rating": 5.0, "coordinates": {"latitude": 53.56349, "longitude": 9.98991}, "transactions": [], "price": "\u20ac\u20ac\u20ac", "location": {"address1": "Grand Elys\u00e9e", "address2": "Rothenbaumchaussee 10", "address3": null, "city": "Hamburg", "zip_code": "20148", "country": "DE", "state": "HH", "display_address": ["Grand Elys\u00e9e", "Rothenbaumchaussee 10", "20148 Hamburg", "Germany"]}, "phone": "+494041412734", "display_phone": "+49 40 41412734", "distance": 663.5100449742574}, {"id": "g9PLNBNAIe9CRNYYYuT2Mw", "alias": "swedish-cream-hamburg", "name": "Swedish Cream", "image_url": "https://s3-media3.fl.yelpcdn.com/bphoto/gHr_Lm3DLOCh0sQMaNCyIg/o.jpg", "is_closed": false, "url": "https://www.yelp.com/biz/swedish-cream-hamburg?adjust_creative=hBJOknVQJ58S5goQyjmwRw&utm_campaign=yelp_api_v3&utm_medium=api_v3_business_search&utm_source=hBJOknVQJ58S5goQyjmwRw", "review_count": 43, "categories": [{"alias": "cafes", "title": "Cafes"}], "rating": 4.5, "coordinates": {"latitude": 53.57228, "longitude": 9.98933}, "transactions": [], "price": "\u20ac\u20ac", "location": {"address1": "Rothenbaumchaussee 78", "address2": "", "address3": "", "city": "Hamburg", "zip_code": "20148", "country": "DE", "state": "HH", "display_address": ["Rothenbaumchaussee 78", "20148 Hamburg", "Germany"]}, "phone": "+494041355403", "display_phone": "+49 40 41355403", "distance": 324.67389814025756}, {"id": "R22M1LDH_Kton1J-daLwwg", "alias": "henriks-hamburg-3", "name": "Henriks", "image_url": "https://s3-media2.fl.yelpcdn.com/bphoto/T6_MPXx8Z6SsjK0Ro7ihZQ/o.jpg", "is_closed": false, "url": "https://www.yelp.com/biz/henriks-hamburg-3?adjust_creative=hBJOknVQJ58S5goQyjmwRw&utm_campaign=yelp_api_v3&utm_medium=api_v3_business_search&utm_source=hBJOknVQJ58S5goQyjmwRw", "review_count": 42, "categories": [{"alias": "international", "title": "International"}], "rating": 4.0, "coordinates": {"latitude": 53.5631127445064, "longitude": 9.9917556269836}, "transactions": [], "price": "\u20ac\u20ac\u20ac", "location": {"address1": "Tesdorpfstr. 8", "address2": null, "address3": null, "city": "Hamburg", "zip_code": "20148", "country": "DE", "state": "HH", "display_address": ["Tesdorpfstr. 8", "20148 Hamburg", "Germany"]}, "phone": "+4940288084280", "display_phone": "+49 40 288084280", "distance": 691.3332184048659}, {"id": "Cvhtl3yxgKP_Ohjqo__VrA", "alias": "tarantella-hamburg", "name": "Tarantella", "image_url": "https://s3-media4.fl.yelpcdn.com/bphoto/DmYQ1VYqbKD8ktBvJu_Qzg/o.jpg", "is_closed": false, "url": "https://www.yelp.com/biz/tarantella-hamburg?adjust_creative=hBJOknVQJ58S5goQyjmwRw&utm_campaign=yelp_api_v3&utm_medium=api_v3_business_search&utm_source=hBJOknVQJ58S5goQyjmwRw", "review_count": 128, "categories": [{"alias": "wine_bars", "title": "Wine Bars"}, {"alias": "international", "title": "International"}], "rating": 4.0, "coordinates": {"latitude": 53.558626, "longitude": 9.989949}, "transactions": [], "price": "\u20ac\u20ac\u20ac", "location": {"address1": "Stephansplatz 10", "address2": null, "address3": null, "city": "Hamburg", "zip_code": "20354", "country": "DE", "state": "HH", "display_address": ["Stephansplatz 10", "20354 Hamburg", "Germany"]}, "phone": "+494065067790", "display_phone": "+49 40 65067790", "distance": 1192.6678084489731}, {"id": "gRM8I0j9Qqff90A21w6hOA", "alias": "dat-backhus-hamburg-7", "name": "Dat Backhus", "image_url": "https://s3-media4.fl.yelpcdn.com/bphoto/V-ZQxuX7iYKr0mtjMBCvtg/o.jpg", "is_closed": false, "url": "https://www.yelp.com/biz/dat-backhus-hamburg-7?adjust_creative=hBJOknVQJ58S5goQyjmwRw&utm_campaign=yelp_api_v3&utm_medium=api_v3_business_search&utm_source=hBJOknVQJ58S5goQyjmwRw", "review_count": 3, "categories": [{"alias": "bakeries", "title": "Bakeries"}, {"alias": "cafes", "title": "Cafes"}], "rating": 4.5, "coordinates": {"latitude": 53.56768, "longitude": 9.98804}, "transactions": [], "price": "\u20ac", "location": {"address1": "Rothenbaumchaussee 49", "address2": null, "address3": null, "city": "Hamburg", "zip_code": "20148", "country": "DE", "state": "HH", "display_address": ["Rothenbaumchaussee 49", "20148 Hamburg", "Germany"]}, "phone": "+49404106045", "display_phone": "+49 40 4106045", "distance": 278.1646858264638}, {"id": "8juZfNOLr9Z-Mz49P21mAg", "alias": "caf\u00e9-dell-arte-hamburg-2", "name": "Caf\u00e9 Dell' Arte", "image_url": "https://s3-media2.fl.yelpcdn.com/bphoto/tc36byZOcwG4st1tPcaRmA/o.jpg", "is_closed": false, "url": "https://www.yelp.com/biz/caf%C3%A9-dell-arte-hamburg-2?adjust_creative=hBJOknVQJ58S5goQyjmwRw&utm_campaign=yelp_api_v3&utm_medium=api_v3_business_search&utm_source=hBJOknVQJ58S5goQyjmwRw", "review_count": 4, "categories": [{"alias": "cafes", "title": "Cafes"}, {"alias": "canteen", "title": "Canteen"}], "rating": 4.5, "coordinates": {"latitude": 53.562995, "longitude": 9.988405}, "transactions": [], "price": "\u20ac", "location": {"address1": "Edmund-Siemers-Allee 1", "address2": "", "address3": "", "city": "Hamburg", "zip_code": "20146", "country": "DE", "state": "HH", "display_address": ["Edmund-Siemers-Allee 1", "20146 Hamburg", "Germany"]}, "phone": "+494041308263", "display_phone": "+49 40 41308263", "distance": 728.6248051299054}, {"id": "lF1cq_TNtT851IWMVy4PVg", "alias": "portonovo-hamburg", "name": "Portonovo", "image_url": "https://s3-media4.fl.yelpcdn.com/bphoto/G5Ja4PGZ2W1Pnbx_NT_N4g/o.jpg", "is_closed": false, "url": "https://www.yelp.com/biz/portonovo-hamburg?adjust_creative=hBJOknVQJ58S5goQyjmwRw&utm_campaign=yelp_api_v3&utm_medium=api_v3_business_search&utm_source=hBJOknVQJ58S5goQyjmwRw", "review_count": 69, "categories": [{"alias": "italian", "title": "Italian"}], "rating": 4.0, "coordinates": {"latitude": 53.55929, "longitude": 9.99639}, "transactions": [], "price": "\u20ac\u20ac\u20ac", "location": {"address1": "Alsterufer 2", "address2": null, "address3": null, "city": "Hamburg", "zip_code": "20354", "country": "DE", "state": "HH", "display_address": ["Alsterufer 2", "20354 Hamburg", "Germany"]}, "phone": "+494041356616", "display_phone": "+49 40 41356616", "distance": 1172.990898388136}, {"id": "mSd42de0m8jfflbWilJzuw", "alias": "liebling-hamburg", "name": "Liebling", "image_url": "https://s3-media2.fl.yelpcdn.com/bphoto/yfsbo9O_uVm4rn9I6kWjdw/o.jpg", "is_closed": false, "url": "https://www.yelp.com/biz/liebling-hamburg?adjust_creative=hBJOknVQJ58S5goQyjmwRw&utm_campaign=yelp_api_v3&utm_medium=api_v3_business_search&utm_source=hBJOknVQJ58S5goQyjmwRw", "review_count": 20, "categories": [{"alias": "bistros", "title": "Bistros"}], "rating": 4.5, "coordinates": {"latitude": 53.57031, "longitude": 9.98587}, "transactions": [], "price": "\u20ac\u20ac", "location": {"address1": "Hartungstr. 18", "address2": "", "address3": "", "city": "Hamburg", "zip_code": "20146", "country": "DE", "state": "HH", "display_address": ["Hartungstr. 18", "20146 Hamburg", "Germany"]}, "phone": "+494027865979", "display_phone": "+49 40 27865979", "distance": 392.21629746614013}, {"id": "AxmfG89-Qum3-4MPX3AptQ", "alias": "gong-hamburg", "name": "Gong", "image_url": "https://s3-media3.fl.yelpcdn.com/bphoto/4IduHJnv2ClgVUiQ5mdNvA/o.jpg", "is_closed": false, "url": "https://www.yelp.com/biz/gong-hamburg?adjust_creative=hBJOknVQJ58S5goQyjmwRw&utm_campaign=yelp_api_v3&utm_medium=api_v3_business_search&utm_source=hBJOknVQJ58S5goQyjmwRw", "review_count": 24, "categories": [{"alias": "sushi", "title": "Sushi Bars"}], "rating": 4.0, "coordinates": {"latitude": 53.565463, "longitude": 9.995413}, "transactions": [], "price": "\u20ac\u20ac\u20ac", "location": {"address1": "Mittelweg 172", "address2": "", "address3": null, "city": "Hamburg", "zip_code": "20148", "country": "DE", "state": "HH", "display_address": ["Mittelweg 172", "20148 Hamburg", "Germany"]}, "phone": "+494068876798", "display_phone": "+49 40 68876798", "distance": 516.1111916808221}, {"id": "wWJ5Gnrf0h4tM2JQgxz1sQ", "alias": "cucina-d-elisa-hamburg", "name": "Cucina d'Elisa", "image_url": "https://s3-media4.fl.yelpcdn.com/bphoto/QEIMMfCOcWqXp0HZZeOWzg/o.jpg", "is_closed": false, "url": "https://www.yelp.com/biz/cucina-d-elisa-hamburg?adjust_creative=hBJOknVQJ58S5goQyjmwRw&utm_campaign=yelp_api_v3&utm_medium=api_v3_business_search&utm_source=hBJOknVQJ58S5goQyjmwRw", "review_count": 51, "categories": [{"alias": "italian", "title": "Italian"}], "rating": 4.0, "coordinates": {"latitude": 53.57116, "longitude": 9.9884351}, "transactions": [], "price": "\u20ac\u20ac", "location": {"address1": "Rothenbaumchaussee 101", "address2": "", "address3": "", "city": "Hamburg", "zip_code": "20148", "country": "DE", "state": "HH", "display_address": ["Rothenbaumchaussee 101", "20148 Hamburg", "Germany"]}, "phone": "+4940451072", "display_phone": "+49 40 451072", "distance": 287.37028478815176}, {"id": "gvN1SNC-o0fkJFyDsAObuA", "alias": "le-parc-hamburg", "name": "Le Parc", "image_url": "https://s3-media3.fl.yelpcdn.com/bphoto/OItskk6ZoMOmuuCOHUy13Q/o.jpg", "is_closed": false, "url": "https://www.yelp.com/biz/le-parc-hamburg?adjust_creative=hBJOknVQJ58S5goQyjmwRw&utm_campaign=yelp_api_v3&utm_medium=api_v3_business_search&utm_source=hBJOknVQJ58S5goQyjmwRw", "review_count": 2, "categories": [{"alias": "breakfast_brunch", "title": "Breakfast & Brunch"}], "rating": 5.0, "coordinates": {"latitude": 53.5637, "longitude": 9.99001}, "transactions": [], "price": "\u20ac\u20ac", "location": {"address1": "Rothenbaumchaussee 10", "address2": "", "address3": null, "city": "Hamburg", "zip_code": "20148", "country": "DE", "state": "HH", "display_address": ["Rothenbaumchaussee 10", "20148 Hamburg", "Germany"]}, "phone": "+494041412722", "display_phone": "+49 40 41412722", "distance": 630.7731283158815}, {"id": "DBJKy2mQ_-jMJKfSwSVWjQ", "alias": "rindocks-hamburg", "name": "Rindocks", "image_url": "https://s3-media2.fl.yelpcdn.com/bphoto/jIN7BGJMWTBy6bzlLr2Y3Q/o.jpg", "is_closed": false, "url": "https://www.yelp.com/biz/rindocks-hamburg?adjust_creative=hBJOknVQJ58S5goQyjmwRw&utm_campaign=yelp_api_v3&utm_medium=api_v3_business_search&utm_source=hBJOknVQJ58S5goQyjmwRw", "review_count": 5, "categories": [{"alias": "steak", "title": "Steakhouses"}], "rating": 4.5, "coordinates": {"latitude": 53.566336, "longitude": 9.9887607}, "transactions": [], "location": {"address1": "Rothenbaumchaussee 1 A", "address2": "", "address3": null, "city": "Hamburg", "zip_code": "20148", "country": "DE", "state": "HH", "display_address": ["Rothenbaumchaussee 1 A", "20148 Hamburg", "Germany"]}, "phone": "+494041497610", "display_phone": "+49 40 41497610", "distance": 371.1384131358414}, {"id": "ASrkFHinp2xAaDIkc4raAA", "alias": "rindocks-hamburg-2", "name": "Rindocks", "image_url": "", "is_closed": false, "url": "https://www.yelp.com/biz/rindocks-hamburg-2?adjust_creative=hBJOknVQJ58S5goQyjmwRw&utm_campaign=yelp_api_v3&utm_medium=api_v3_business_search&utm_source=hBJOknVQJ58S5goQyjmwRw", "review_count": 3, "categories": [{"alias": "steak", "title": "Steakhouses"}], "rating": 4.5, "coordinates": {"latitude": 53.56647, "longitude": 9.98809}, "transactions": [], "location": {"address1": "Johnsallee 64", "address2": "", "address3": null, "city": "Hamburg", "zip_code": "20146", "country": "DE", "state": "HH", "display_address": ["Johnsallee 64", "20146 Hamburg", "Germany"]}, "phone": "+494041497610", "display_phone": "+49 40 41497610", "distance": 376.8629229085886}, {"id": "af8cGWSlGRpPkj9rFZ94tw", "alias": "block-house-hamburg", "name": "Block House", "image_url": "https://s3-media4.fl.yelpcdn.com/bphoto/xpMDi7NaYea8kS1ENfLNmQ/o.jpg", "is_closed": false, "url": "https://www.yelp.com/biz/block-house-hamburg?adjust_creative=hBJOknVQJ58S5goQyjmwRw&utm_campaign=yelp_api_v3&utm_medium=api_v3_business_search&utm_source=hBJOknVQJ58S5goQyjmwRw", "review_count": 80, "categories": [{"alias": "steak", "title": "Steakhouses"}], "rating": 4.0, "coordinates": {"latitude": 53.5718162, "longitude": 9.9947468}, "transactions": [], "price": "\u20ac\u20ac", "location": {"address1": "Mittelweg 122", "address2": null, "address3": null, "city": "Hamburg", "zip_code": "20148", "country": "DE", "state": "HH", "display_address": ["Mittelweg 122", "20148 Hamburg", "Germany"]}, "phone": "+4940443130", "display_phone": "+49 40 443130", "distance": 360.0223696194674}, {"id": "lWb5EWO3b54UcxZKRogyrw", "alias": "scaccia-pensieri-hamburg", "name": "Scaccia Pensieri", "image_url": "https://s3-media1.fl.yelpcdn.com/bphoto/BCP0qf1LlBA36z42jeVYmg/o.jpg", "is_closed": false, "url": "https://www.yelp.com/biz/scaccia-pensieri-hamburg?adjust_creative=hBJOknVQJ58S5goQyjmwRw&utm_campaign=yelp_api_v3&utm_medium=api_v3_business_search&utm_source=hBJOknVQJ58S5goQyjmwRw", "review_count": 2, "categories": [{"alias": "restaurants", "title": "Restaurants"}], "rating": 4.0, "coordinates": {"latitude": 53.5676, "longitude": 9.99461}, "transactions": [], "price": "\u20ac\u20ac", "location": {"address1": "Mittelweg 24", "address2": null, "address3": null, "city": "Hamburg", "zip_code": "20148", "country": "DE", "state": "HH", "display_address": ["Mittelweg 24", "20148 Hamburg", "Germany"]}, "phone": "+494087601340", "display_phone": "+49 40 87601340", "distance": 292.28897416940873}, {"id": "FbBym6OFN3aYxvMSEYjqxw", "alias": "basil-und-mars-hamburg", "name": "Basil & Mars", "image_url": "https://s3-media2.fl.yelpcdn.com/bphoto/RqrR6GKLy96ZxO_ufO-J3g/o.jpg", "is_closed": false, "url": "https://www.yelp.com/biz/basil-und-mars-hamburg?adjust_creative=hBJOknVQJ58S5goQyjmwRw&utm_campaign=yelp_api_v3&utm_medium=api_v3_business_search&utm_source=hBJOknVQJ58S5goQyjmwRw", "review_count": 15, "categories": [{"alias": "bistros", "title": "Bistros"}], "rating": 3.5, "coordinates": {"latitude": 53.55919, "longitude": 9.99513}, "transactions": [], "price": "\u20ac\u20ac\u20ac", "location": {"address1": "Alsterufer 1", "address2": "", "address3": null, "city": "Hamburg", "zip_code": "20354", "country": "DE", "state": "HH", "display_address": ["Alsterufer 1", "20354 Hamburg", "Germany"]}, "phone": "+494041353535", "display_phone": "+49 40 41353535", "distance": 1137.857561013632}, {"id": "PdFtFABFlHnw2tFO7g-GMQ", "alias": "boulevard-caf\u00e9-hamburg-4", "name": "Boulevard Caf\u00e9", "image_url": "https://s3-media2.fl.yelpcdn.com/bphoto/TSVc_cLZJc4_xlbTmqPw2A/o.jpg", "is_closed": false, "url": "https://www.yelp.com/biz/boulevard-caf%C3%A9-hamburg-4?adjust_creative=hBJOknVQJ58S5goQyjmwRw&utm_campaign=yelp_api_v3&utm_medium=api_v3_business_search&utm_source=hBJOknVQJ58S5goQyjmwRw", "review_count": 1, "categories": [{"alias": "breakfast_brunch", "title": "Breakfast & Brunch"}, {"alias": "cafes", "title": "Cafes"}], "rating": 4.0, "coordinates": {"latitude": 53.5637, "longitude": 9.99001}, "transactions": [], "price": "\u20ac\u20ac", "location": {"address1": "Grand Elys\u00e9e", "address2": "Rothenbaumchaussee 10", "address3": null, "city": "Hamburg", "zip_code": "20148", "country": "DE", "state": "HH", "display_address": ["Grand Elys\u00e9e", "Rothenbaumchaussee 10", "20148 Hamburg", "Germany"]}, "phone": "+494041412710", "display_phone": "+49 40 41412710", "distance": 630.7731283158815}, {"id": "okzOR3ucSiLP3QcaTimx0w", "alias": "bolero-hamburg", "name": "Bolero", "image_url": "https://s3-media2.fl.yelpcdn.com/bphoto/cR-8OgO96sRLa-KuzVz4hA/o.jpg", "is_closed": false, "url": "https://www.yelp.com/biz/bolero-hamburg?adjust_creative=hBJOknVQJ58S5goQyjmwRw&utm_campaign=yelp_api_v3&utm_medium=api_v3_business_search&utm_source=hBJOknVQJ58S5goQyjmwRw", "review_count": 101, "categories": [{"alias": "bars", "title": "Bars"}, {"alias": "mexican", "title": "Mexican"}], "rating": 3.0, "coordinates": {"latitude": 53.57228, "longitude": 9.98933}, "transactions": [], "price": "\u20ac\u20ac", "location": {"address1": "Rothenbaumchaussee 78", "address2": "", "address3": "", "city": "Hamburg", "zip_code": "20148", "country": "DE", "state": "HH", "display_address": ["Rothenbaumchaussee 78", "20148 Hamburg", "Germany"]}, "phone": "+494041497700", "display_phone": "+49 40 41497700", "distance": 324.67389814025756}, {"id": "EWmT7-Nwgm_wxz3V2OCkZQ", "alias": "mama-hamburg-3", "name": "Mama", "image_url": "https://s3-media4.fl.yelpcdn.com/bphoto/BniyMiyaMBRvLvc5pP6ldg/o.jpg", "is_closed": false, "url": "https://www.yelp.com/biz/mama-hamburg-3?adjust_creative=hBJOknVQJ58S5goQyjmwRw&utm_campaign=yelp_api_v3&utm_medium=api_v3_business_search&utm_source=hBJOknVQJ58S5goQyjmwRw", "review_count": 91, "categories": [{"alias": "italian", "title": "Italian"}], "rating": 3.0, "coordinates": {"latitude": 53.57064, "longitude": 9.99534}, "transactions": [], "price": "\u20ac\u20ac", "location": {"address1": "Mittelweg 138", "address2": null, "address3": null, "city": "Hamburg", "zip_code": "20148", "country": "DE", "state": "HH", "display_address": ["Mittelweg 138", "20148 Hamburg", "Germany"]}, "phone": "+494053779799", "display_phone": "+49 40 53779799", "distance": 316.40563563144696}, {"id": "IyHKXVYgVjF3uHl_x8BTug", "alias": "vapiano-hamburg-3", "name": "Vapiano", "image_url": "https://s3-media1.fl.yelpcdn.com/bphoto/l4Rsk1fYbzj01HPZaMs_rw/o.jpg", "is_closed": false, "url": "https://www.yelp.com/biz/vapiano-hamburg-3?adjust_creative=hBJOknVQJ58S5goQyjmwRw&utm_campaign=yelp_api_v3&utm_medium=api_v3_business_search&utm_source=hBJOknVQJ58S5goQyjmwRw", "review_count": 241, "categories": [{"alias": "italian", "title": "Italian"}], "rating": 3.0, "coordinates": {"latitude": 53.57141, "longitude": 9.98912}, "transactions": [], "price": "\u20ac\u20ac", "location": {"address1": "Rothenbaumchaussee 76", "address2": null, "address3": null, "city": "Hamburg", "zip_code": "20148", "country": "DE", "state": "HH", "display_address": ["Rothenbaumchaussee 76", "20148 Hamburg", "Germany"]}, "phone": "+494036111780", "display_phone": "+49 40 36111780", "distance": 269.42823948433477}, {"id": "Vi3oEqNkFv35LTcDQTbqDQ", "alias": "zala-hamburg-9", "name": "Zala", "image_url": "https://s3-media4.fl.yelpcdn.com/bphoto/09kD1Gms3h4yhBYa_NTSkg/o.jpg", "is_closed": false, "url": "https://www.yelp.com/biz/zala-hamburg-9?adjust_creative=hBJOknVQJ58S5goQyjmwRw&utm_campaign=yelp_api_v3&utm_medium=api_v3_business_search&utm_source=hBJOknVQJ58S5goQyjmwRw", "review_count": 117, "categories": [{"alias": "indpak", "title": "Indian"}], "rating": 3.0, "coordinates": {"latitude": 53.57163, "longitude": 9.98833}, "transactions": [], "price": "\u20ac\u20ac", "location": {"address1": "Rothenbaumchaussee 109", "address2": null, "address3": null, "city": "Hamburg", "zip_code": "20148", "country": "DE", "state": "HH", "display_address": ["Rothenbaumchaussee 109", "20148 Hamburg", "Germany"]}, "phone": "+494041338887", "display_phone": "+49 40 41338887", "distance": 325.58956250577876}, {"id": "Pyji-ufSPZKXFRqShhWaDw", "alias": "filini-hamburg", "name": "Filini", "image_url": "https://s3-media1.fl.yelpcdn.com/bphoto/OijqCfEumZewQbBBdRItEw/o.jpg", "is_closed": false, "url": "https://www.yelp.com/biz/filini-hamburg?adjust_creative=hBJOknVQJ58S5goQyjmwRw&utm_campaign=yelp_api_v3&utm_medium=api_v3_business_search&utm_source=hBJOknVQJ58S5goQyjmwRw", "review_count": 33, "categories": [{"alias": "italian", "title": "Italian"}, {"alias": "cocktailbars", "title": "Cocktail Bars"}], "rating": 3.5, "coordinates": {"latitude": 53.56142, "longitude": 9.98766}, "transactions": [], "price": "\u20ac\u20ac\u20ac", "location": {"address1": "Radisson Blu Hotel", "address2": "Marseiller Str. 2", "address3": "", "city": "Hamburg", "zip_code": "20355", "country": "DE", "state": "HH", "display_address": ["Radisson Blu Hotel", "Marseiller Str. 2", "20355 Hamburg", "Germany"]}, "phone": "+494035023475", "display_phone": "+49 40 35023475", "distance": 908.582975978876}, {"id": "Y-cMLFrDqshw6iVOxqk5xQ", "alias": "funk-eck-hamburg", "name": "Funk-Eck", "image_url": "https://s3-media2.fl.yelpcdn.com/bphoto/VFCeuwuiAFRozfbZKIn5KA/o.jpg", "is_closed": false, "url": "https://www.yelp.com/biz/funk-eck-hamburg?adjust_creative=hBJOknVQJ58S5goQyjmwRw&utm_campaign=yelp_api_v3&utm_medium=api_v3_business_search&utm_source=hBJOknVQJ58S5goQyjmwRw", "review_count": 30, "categories": [{"alias": "cafes", "title": "Cafes"}, {"alias": "german", "title": "German"}, {"alias": "breakfast_brunch", "title": "Breakfast & Brunch"}], "rating": 3.5, "coordinates": {"latitude": 53.574139, "longitude": 9.9884933}, "transactions": [], "price": "\u20ac\u20ac", "location": {"address1": "Rothenbaumchaussee 137", "address2": null, "address3": null, "city": "Hamburg", "zip_code": "20149", "country": "DE", "state": "HH", "display_address": ["Rothenbaumchaussee 137", "20149 Hamburg", "Germany"]}, "phone": "+4940444174", "display_phone": "+49 40 444174", "distance": 565.9476021891575}, {"id": "OviSwyOKXVeKrfxVJiKa7A", "alias": "die-brasserie-flum-hamburg", "name": "Die Brasserie Flum", "image_url": "https://s3-media1.fl.yelpcdn.com/bphoto/wwh64lVGEp6NmujI68jyyg/o.jpg", "is_closed": false, "url": "https://www.yelp.com/biz/die-brasserie-flum-hamburg?adjust_creative=hBJOknVQJ58S5goQyjmwRw&utm_campaign=yelp_api_v3&utm_medium=api_v3_business_search&utm_source=hBJOknVQJ58S5goQyjmwRw", "review_count": 15, "categories": [{"alias": "french", "title": "French"}], "rating": 4.0, "coordinates": {"latitude": 53.56349, "longitude": 9.98991}, "transactions": [], "price": "\u20ac\u20ac\u20ac\u20ac", "location": {"address1": "Grand Elys\u00e9e", "address2": "Rothenbaumchaussee 10", "address3": null, "city": "Hamburg", "zip_code": "20148", "country": "DE", "state": "HH", "display_address": ["Grand Elys\u00e9e", "Rothenbaumchaussee 10", "20148 Hamburg", "Germany"]}, "phone": "+494041412723", "display_phone": "+49 40 41412723", "distance": 663.5100449742574}, {"id": "aq4Sd6kEb9b2b2o2dV1wyg", "alias": "la-monella-hamburg", "name": "La Monella", "image_url": "https://s3-media2.fl.yelpcdn.com/bphoto/jTKkO3fAkDRJfQXJwacGcQ/o.jpg", "is_closed": false, "url": "https://www.yelp.com/biz/la-monella-hamburg?adjust_creative=hBJOknVQJ58S5goQyjmwRw&utm_campaign=yelp_api_v3&utm_medium=api_v3_business_search&utm_source=hBJOknVQJ58S5goQyjmwRw", "review_count": 85, "categories": [{"alias": "italian", "title": "Italian"}, {"alias": "vegetarian", "title": "Vegetarian"}, {"alias": "german", "title": "German"}], "rating": 4.5, "coordinates": {"latitude": 53.571963, "longitude": 9.986189}, "transactions": [], "price": "\u20ac\u20ac\u20ac", "location": {"address1": "Hallerplatz 12", "address2": "", "address3": "", "city": "Hamburg", "zip_code": "20146", "country": "DE", "state": "HH", "display_address": ["Hallerplatz 12", "20146 Hamburg", "Germany"]}, "phone": "+4940456162", "display_phone": "+49 40 456162", "distance": 450.28105078898284}, {"id": "Mi7etCsNQSmJ7IGDkFFhnQ", "alias": "food-kontor-hamburg", "name": "Food Kontor", "image_url": "https://s3-media2.fl.yelpcdn.com/bphoto/7MgNGgc5eRISiRH6RICvkA/o.jpg", "is_closed": false, "url": "https://www.yelp.com/biz/food-kontor-hamburg?adjust_creative=hBJOknVQJ58S5goQyjmwRw&utm_campaign=yelp_api_v3&utm_medium=api_v3_business_search&utm_source=hBJOknVQJ58S5goQyjmwRw", "review_count": 3, "categories": [{"alias": "german", "title": "German"}, {"alias": "delicatessen", "title": "Delicatessen"}], "rating": 3.0, "coordinates": {"latitude": 53.5679588, "longitude": 9.9953098}, "transactions": [], "location": {"address1": "Mittelweg  25a", "address2": "", "address3": "", "city": "Hamburg", "zip_code": "20148", "country": "DE", "state": "HH", "display_address": ["Mittelweg  25a", "20148 Hamburg", "Germany"]}, "phone": "+494032846807", "display_phone": "+49 40 32846807", "distance": 314.13925816402576}, {"id": "qD1CGQH7gj_wQf4hLSJPmw", "alias": "anna-sgroi-hamburg", "name": "Anna Sgroi", "image_url": "https://s3-media2.fl.yelpcdn.com/bphoto/f6mwvW1g8eB9VxMxE7Zp9Q/o.jpg", "is_closed": false, "url": "https://www.yelp.com/biz/anna-sgroi-hamburg?adjust_creative=hBJOknVQJ58S5goQyjmwRw&utm_campaign=yelp_api_v3&utm_medium=api_v3_business_search&utm_source=hBJOknVQJ58S5goQyjmwRw", "review_count": 31, "categories": [{"alias": "italian", "title": "Italian"}], "rating": 3.5, "coordinates": {"latitude": 53.5709286, "longitude": 9.9973699}, "transactions": [], "price": "\u20ac\u20ac\u20ac\u20ac", "location": {"address1": "Milchstr. 7", "address2": "", "address3": "", "city": "Hamburg", "zip_code": "20148", "country": "DE", "state": "HH", "display_address": ["Milchstr. 7", "20148 Hamburg", "Germany"]}, "phone": "+494028003930", "display_phone": "+49 40 28003930", "distance": 440.7115848988367}, {"id": "UFYR4zi1VQs8BKUESZABag", "alias": "juracaf\u00e9-unipark-hamburg-2", "name": "Juracaf\u00e9 Unipark", "image_url": "https://s3-media1.fl.yelpcdn.com/bphoto/teE8gyDX_qtSnOa7urthcQ/o.jpg", "is_closed": false, "url": "https://www.yelp.com/biz/juracaf%C3%A9-unipark-hamburg-2?adjust_creative=hBJOknVQJ58S5goQyjmwRw&utm_campaign=yelp_api_v3&utm_medium=api_v3_business_search&utm_source=hBJOknVQJ58S5goQyjmwRw", "review_count": 7, "categories": [{"alias": "cafes", "title": "Cafes"}], "rating": 4.0, "coordinates": {"latitude": 53.56692, "longitude": 9.98677}, "transactions": [], "price": "\u20ac\u20ac", "location": {"address1": "Schl\u00fcterstr. 28", "address2": null, "address3": null, "city": "Hamburg", "zip_code": "20146", "country": "DE", "state": "HH", "display_address": ["Schl\u00fcterstr. 28", "20146 Hamburg", "Germany"]}, "phone": "+494041539850", "display_phone": "+49 40 41539850", "distance": 370.07942594367677}, {"id": "-OYxmJaQGBDjYhdfiFcP3w", "alias": "brians-steak-und-lobster-hamburg", "name": "Brian's Steak & Lobster", "image_url": "https://s3-media2.fl.yelpcdn.com/bphoto/BuXll-GNimd8Wkn5KpoRwg/o.jpg", "is_closed": false, "url": "https://www.yelp.com/biz/brians-steak-und-lobster-hamburg?adjust_creative=hBJOknVQJ58S5goQyjmwRw&utm_campaign=yelp_api_v3&utm_medium=api_v3_business_search&utm_source=hBJOknVQJ58S5goQyjmwRw", "review_count": 26, "categories": [{"alias": "steak", "title": "Steakhouses"}, {"alias": "seafood", "title": "Seafood"}], "rating": 3.5, "coordinates": {"latitude": 53.5702780643514, "longitude": 9.99659565353397}, "transactions": [], "price": "\u20ac\u20ac\u20ac", "location": {"address1": "Milchstr. 25", "address2": "", "address3": "", "city": "Hamburg", "zip_code": "20148", "country": "DE", "state": "HH", "display_address": ["Milchstr. 25", "20148 Hamburg", "Germany"]}, "phone": "+494057016737", "display_phone": "+49 40 57016737", "distance": 367.49122309859956}, {"id": "9Hjnm86lBVYe8r3rxkIyRw", "alias": "ristorante-gran-sasso-hamburg", "name": "Ristorante Gran Sasso", "image_url": "https://s3-media3.fl.yelpcdn.com/bphoto/SzMifl12rNowDgL5KcoTZw/o.jpg", "is_closed": false, "url": "https://www.yelp.com/biz/ristorante-gran-sasso-hamburg?adjust_creative=hBJOknVQJ58S5goQyjmwRw&utm_campaign=yelp_api_v3&utm_medium=api_v3_business_search&utm_source=hBJOknVQJ58S5goQyjmwRw", "review_count": 13, "categories": [{"alias": "italian", "title": "Italian"}], "rating": 3.5, "coordinates": {"latitude": 53.5651228575172, "longitude": 9.98691308577765}, "transactions": [], "price": "\u20ac\u20ac", "location": {"address1": "Schl\u00fcterstr. 12", "address2": null, "address3": null, "city": "Hamburg", "zip_code": "20146", "country": "DE", "state": "HH", "display_address": ["Schl\u00fcterstr. 12", "20146 Hamburg", "Germany"]}, "phone": "+4940446743", "display_phone": "+49 40 446743", "distance": 548.4899374121721}, {"id": "7Y9PDFuCisfawbNPHYVIjA", "alias": "la-tana-hamburg-2", "name": "La Tana", "image_url": "https://s3-media4.fl.yelpcdn.com/bphoto/ondOjLkVkWPfaDQanc-u7A/o.jpg", "is_closed": false, "url": "https://www.yelp.com/biz/la-tana-hamburg-2?adjust_creative=hBJOknVQJ58S5goQyjmwRw&utm_campaign=yelp_api_v3&utm_medium=api_v3_business_search&utm_source=hBJOknVQJ58S5goQyjmwRw", "review_count": 18, "categories": [{"alias": "italian", "title": "Italian"}], "rating": 4.0, "coordinates": {"latitude": 53.57047, "longitude": 9.99616}, "transactions": [], "price": "\u20ac\u20ac\u20ac", "location": {"address1": "Milchstr. 26", "address2": "", "address3": "", "city": "Hamburg", "zip_code": "20148", "country": "DE", "state": "HH", "display_address": ["Milchstr. 26", "20148 Hamburg", "Germany"]}, "phone": "+4940444385", "display_phone": "+49 40 444385", "distance": 347.573852978951}, {"id": "Zy34SwyZetJQQWfw1Vqovg", "alias": "dinner-tiffanys-hamburg", "name": "Dinner @ Tiffany's", "image_url": "https://s3-media3.fl.yelpcdn.com/bphoto/mZAUduPWR7P7AdIqoW99hw/o.jpg", "is_closed": false, "url": "https://www.yelp.com/biz/dinner-tiffanys-hamburg?adjust_creative=hBJOknVQJ58S5goQyjmwRw&utm_campaign=yelp_api_v3&utm_medium=api_v3_business_search&utm_source=hBJOknVQJ58S5goQyjmwRw", "review_count": 7, "categories": [{"alias": "german", "title": "German"}], "rating": 3.5, "coordinates": {"latitude": 53.5649, "longitude": 9.99453}, "transactions": [], "price": "\u20ac\u20ac\u20ac", "location": {"address1": "Mittelweg 175", "address2": null, "address3": null, "city": "Hamburg", "zip_code": "20148", "country": "DE", "state": "HH", "display_address": ["Mittelweg 175", "20148 Hamburg", "Germany"]}, "phone": "+494036111750", "display_phone": "+49 40 36111750", "distance": 536.9611911420767}, {"id": "Fn4n1wgLbUQZNMJ83kdscA", "alias": "schl\u00fcters-pizza-und-more-hamburg", "name": "Schl\u00fcters - Pizza & More", "image_url": "https://s3-media2.fl.yelpcdn.com/bphoto/ntoHoypl_ZaAkBecIdMZSw/o.jpg", "is_closed": false, "url": "https://www.yelp.com/biz/schl%C3%BCters-pizza-und-more-hamburg?adjust_creative=hBJOknVQJ58S5goQyjmwRw&utm_campaign=yelp_api_v3&utm_medium=api_v3_business_search&utm_source=hBJOknVQJ58S5goQyjmwRw", "review_count": 3, "categories": [{"alias": "pizza", "title": "Pizza"}, {"alias": "cafes", "title": "Cafes"}], "rating": 4.0, "coordinates": {"latitude": 53.56586, "longitude": 9.98531}, "transactions": [], "location": {"address1": "Von-Melle-Park 2", "address2": "", "address3": null, "city": "Hamburg", "zip_code": "20146", "country": "DE", "state": "HH", "display_address": ["Von-Melle-Park 2", "20146 Hamburg", "Germany"]}, "phone": "+494041902171", "display_phone": "+49 40 41902171", "distance": 533.7891124637723}, {"id": "Jis3EjsdBQbf6ddOf8Lhqg", "alias": "x-bar-hamburg", "name": "X Bar", "image_url": "https://s3-media1.fl.yelpcdn.com/bphoto/0C65C6_VU4RERg8xBY-DQA/o.jpg", "is_closed": false, "url": "https://www.yelp.com/biz/x-bar-hamburg?adjust_creative=hBJOknVQJ58S5goQyjmwRw&utm_campaign=yelp_api_v3&utm_medium=api_v3_business_search&utm_source=hBJOknVQJ58S5goQyjmwRw", "review_count": 6, "categories": [{"alias": "sushi", "title": "Sushi Bars"}], "rating": 4.0, "coordinates": {"latitude": 53.5704, "longitude": 9.9952}, "transactions": [], "price": "\u20ac\u20ac\u20ac", "location": {"address1": "Mittelweg 43 a", "address2": "", "address3": null, "city": "Hamburg", "zip_code": "20148", "country": "DE", "state": "HH", "display_address": ["Mittelweg 43 a", "20148 Hamburg", "Germany"]}, "phone": "+494086686934", "display_phone": "+49 40 86686934", "distance": 285.93510617360727}, {"id": "zGgRAKx-o2sR3ff8h17c_Q", "alias": "flowers-hamburg", "name": "Flower's", "image_url": "https://s3-media2.fl.yelpcdn.com/bphoto/WvB3RFoxiV4YlO0B4oUZrQ/o.jpg", "is_closed": false, "url": "https://www.yelp.com/biz/flowers-hamburg?adjust_creative=hBJOknVQJ58S5goQyjmwRw&utm_campaign=yelp_api_v3&utm_medium=api_v3_business_search&utm_source=hBJOknVQJ58S5goQyjmwRw", "review_count": 1, "categories": [{"alias": "cafes", "title": "Cafes"}], "rating": 4.0, "coordinates": {"latitude": 53.5596205333968, "longitude": 9.98968833965282}, "transactions": [], "price": "\u20ac", "location": {"address1": "Planten un Blomen", "address2": "Eingang Stephansplatz", "address3": "", "city": "Hamburg", "zip_code": "20355", "country": "DE", "state": "HH", "display_address": ["Planten un Blomen", "Eingang Stephansplatz", "20355 Hamburg", "Germany"]}, "phone": "", "display_phone": "", "distance": 1083.9268157165498}, {"id": "LMdAEJ3NqqnBykzjM-y94Q", "alias": "palazzo-hamburg-2", "name": "Palazzo", "image_url": "https://s3-media2.fl.yelpcdn.com/bphoto/Lp45um7gNVAhJx_NKWI55g/o.jpg", "is_closed": false, "url": "https://www.yelp.com/biz/palazzo-hamburg-2?adjust_creative=hBJOknVQJ58S5goQyjmwRw&utm_campaign=yelp_api_v3&utm_medium=api_v3_business_search&utm_source=hBJOknVQJ58S5goQyjmwRw", "review_count": 36, "categories": [{"alias": "italian", "title": "Italian"}], "rating": 4.0, "coordinates": {"latitude": 53.577296, "longitude": 9.988498}, "transactions": [], "price": "\u20ac\u20ac\u20ac", "location": {"address1": "Rothenbaumchaussee 185", "address2": null, "address3": null, "city": "Hamburg", "zip_code": "20149", "country": "DE", "state": "HH", "display_address": ["Rothenbaumchaussee 185", "20149 Hamburg", "Germany"]}, "phone": "+49404102277", "display_phone": "+49 40 4102277", "distance": 905.186973670412}, {"id": "KwA0K6CHXsqX0G6rGstTzA", "alias": "latte-macchiato-hamburg", "name": "Latte Macchiato", "image_url": "https://s3-media2.fl.yelpcdn.com/bphoto/KzJVa3o0eovGemlo_GEabg/o.jpg", "is_closed": false, "url": "https://www.yelp.com/biz/latte-macchiato-hamburg?adjust_creative=hBJOknVQJ58S5goQyjmwRw&utm_campaign=yelp_api_v3&utm_medium=api_v3_business_search&utm_source=hBJOknVQJ58S5goQyjmwRw", "review_count": 1, "categories": [{"alias": "cafes", "title": "Cafes"}], "rating": 3.0, "coordinates": {"latitude": 53.5681, "longitude": 9.99562}, "transactions": [], "location": {"address1": "Mittelweg 27", "address2": null, "address3": null, "city": "Hamburg", "zip_code": "20148", "country": "DE", "state": "HH", "display_address": ["Mittelweg 27", "20148 Hamburg", "Germany"]}, "phone": "", "display_phone": "", "distance": 317.9691343552982}, {"id": "VzTTFFMxROYzuFBIg2hieg", "alias": "bodega-castellana-hamburg", "name": "Bodega Castellana", "image_url": "", "is_closed": false, "url": "https://www.yelp.com/biz/bodega-castellana-hamburg?adjust_creative=hBJOknVQJ58S5goQyjmwRw&utm_campaign=yelp_api_v3&utm_medium=api_v3_business_search&utm_source=hBJOknVQJ58S5goQyjmwRw", "review_count": 3, "categories": [{"alias": "spanish", "title": "Spanish"}], "rating": 4.5, "coordinates": {"latitude": 53.5708, "longitude": 9.98569}, "transactions": [], "location": {"address1": "Schl\u00fcterstr. 79", "address2": null, "address3": null, "city": "Hamburg", "zip_code": "20146", "country": "DE", "state": "HH", "display_address": ["Schl\u00fcterstr. 79", "20146 Hamburg", "Germany"]}, "phone": "+49408452322", "display_phone": "+49 40 8452322", "distance": 403.2459259389518}, {"id": "fGX9YVT33uIP5XS6Vl4l3w", "alias": "caf\u00e9-canela-hamburg", "name": "Caf\u00e9 Canela", "image_url": "https://s3-media3.fl.yelpcdn.com/bphoto/OzZzt6u4fhNy6ATxD2Q17A/o.jpg", "is_closed": false, "url": "https://www.yelp.com/biz/caf%C3%A9-canela-hamburg?adjust_creative=hBJOknVQJ58S5goQyjmwRw&utm_campaign=yelp_api_v3&utm_medium=api_v3_business_search&utm_source=hBJOknVQJ58S5goQyjmwRw", "review_count": 4, "categories": [{"alias": "cafes", "title": "Cafes"}], "rating": 3.5, "coordinates": {"latitude": 53.5628, "longitude": 9.98889}, "transactions": [], "location": {"address1": "ESA Ost", "address2": "Edmund-Siemers-Allee 1", "address3": "", "city": "Hamburg", "zip_code": "20146", "country": "DE", "state": "HH", "display_address": ["ESA Ost", "Edmund-Siemers-Allee 1", "20146 Hamburg", "Germany"]}, "phone": "", "display_phone": "", "distance": 742.1565319841039}, {"id": "SkIlFsdXxjqjv3NTWBVCXQ", "alias": "harbecks-henkelmann-hamburg", "name": "Harbeck's Henkelmann", "image_url": "https://s3-media3.fl.yelpcdn.com/bphoto/pakb1AojbZXAqFiAcOXh6w/o.jpg", "is_closed": false, "url": "https://www.yelp.com/biz/harbecks-henkelmann-hamburg?adjust_creative=hBJOknVQJ58S5goQyjmwRw&utm_campaign=yelp_api_v3&utm_medium=api_v3_business_search&utm_source=hBJOknVQJ58S5goQyjmwRw", "review_count": 5, "categories": [{"alias": "cafes", "title": "Cafes"}], "rating": 3.0, "coordinates": {"latitude": 53.56871, "longitude": 9.99506}, "transactions": [], "location": {"address1": "Mittelweg 31", "address2": "", "address3": null, "city": "Hamburg", "zip_code": "20148", "country": "DE", "state": "HH", "display_address": ["Mittelweg 31", "20148 Hamburg", "Germany"]}, "phone": "+494041622485", "display_phone": "+49 40 41622485", "distance": 259.5437388352237}, {"id": "m7vEr7WCOeRIvyo_4xl3kg", "alias": "nem-hamburg", "name": "Nem", "image_url": "https://s3-media2.fl.yelpcdn.com/bphoto/rfunn9XAT2mgrjsGDpe-Qw/o.jpg", "is_closed": false, "url": "https://www.yelp.com/biz/nem-hamburg?adjust_creative=hBJOknVQJ58S5goQyjmwRw&utm_campaign=yelp_api_v3&utm_medium=api_v3_business_search&utm_source=hBJOknVQJ58S5goQyjmwRw", "review_count": 21, "categories": [{"alias": "hotdogs", "title": "Fast Food"}, {"alias": "panasian", "title": "Pan Asian"}], "rating": 3.0, "coordinates": {"latitude": 53.5607785574811, "longitude": 9.98978991061449}, "transactions": [], "price": "\u20ac\u20ac", "location": {"address1": "Dag-Hammarskj\u00f6ld-Platz 15", "address2": "", "address3": "", "city": "Hamburg", "zip_code": "20354", "country": "DE", "state": "HH", "display_address": ["Dag-Hammarskj\u00f6ld-Platz 15", "20354 Hamburg", "Germany"]}, "phone": "", "display_phone": "", "distance": 955.1295511273123}, {"id": "BrcMeqBxWaTLcU7iYRBQ9w", "alias": "smox-bbq-hamburg", "name": "Smox BBQ", "image_url": "https://s3-media2.fl.yelpcdn.com/bphoto/I_c7ISG437MoxnhKh6gwkw/o.jpg", "is_closed": false, "url": "https://www.yelp.com/biz/smox-bbq-hamburg?adjust_creative=hBJOknVQJ58S5goQyjmwRw&utm_campaign=yelp_api_v3&utm_medium=api_v3_business_search&utm_source=hBJOknVQJ58S5goQyjmwRw", "review_count": 18, "categories": [{"alias": "hotdogs", "title": "Fast Food"}, {"alias": "bbq", "title": "Barbeque"}, {"alias": "burgers", "title": "Burgers"}], "rating": 2.5, "coordinates": {"latitude": 53.560788, "longitude": 9.989851}, "transactions": [], "price": "\u20ac", "location": {"address1": "Dag-Hammarskj\u00f6ld-Platz 15", "address2": "", "address3": "", "city": "Hamburg", "zip_code": "20354", "country": "DE", "state": "HH", "display_address": ["Dag-Hammarskj\u00f6ld-Platz 15", "20354 Hamburg", "Germany"]}, "phone": "", "display_phone": "", "distance": 953.6808902028987}, {"id": "bgXKEFvXZ7btPSmzuTQYOg", "alias": "campus-suite-hamburg-14", "name": "Campus Suite", "image_url": "https://s3-media3.fl.yelpcdn.com/bphoto/VESDOfrjTfpUAnQLnrF1XA/o.jpg", "is_closed": false, "url": "https://www.yelp.com/biz/campus-suite-hamburg-14?adjust_creative=hBJOknVQJ58S5goQyjmwRw&utm_campaign=yelp_api_v3&utm_medium=api_v3_business_search&utm_source=hBJOknVQJ58S5goQyjmwRw", "review_count": 2, "categories": [{"alias": "cafes", "title": "Cafes"}], "rating": 3.0, "coordinates": {"latitude": 53.567170525528, "longitude": 9.98814594341139}, "transactions": [], "price": "\u20ac", "location": {"address1": "Rothenbaumchaussee 47", "address2": null, "address3": null, "city": "Hamburg", "zip_code": "20148", "country": "DE", "state": "HH", "display_address": ["Rothenbaumchaussee 47", "20148 Hamburg", "Germany"]}, "phone": "", "display_phone": "", "distance": 315.9031602080811}, {"id": "XVTKL4URBAkgu12MfV3vtA", "alias": "twenty-six-hamburg", "name": "Twenty Six", "image_url": "https://s3-media3.fl.yelpcdn.com/bphoto/GWXU-zuzjAeoY1mudlJjdQ/o.jpg", "is_closed": false, "url": "https://www.yelp.com/biz/twenty-six-hamburg?adjust_creative=hBJOknVQJ58S5goQyjmwRw&utm_campaign=yelp_api_v3&utm_medium=api_v3_business_search&utm_source=hBJOknVQJ58S5goQyjmwRw", "review_count": 10, "categories": [{"alias": "international", "title": "International"}, {"alias": "cafes", "title": "Cafes"}, {"alias": "bars", "title": "Bars"}], "rating": 3.5, "coordinates": {"latitude": 53.5680113, "longitude": 9.9953401}, "transactions": [], "price": "\u20ac\u20ac\u20ac", "location": {"address1": "Mittelweg 26", "address2": "", "address3": "", "city": "Hamburg", "zip_code": "20148", "country": "DE", "state": "HH", "display_address": ["Mittelweg 26", "20148 Hamburg", "Germany"]}, "phone": "+494055893773", "display_phone": "+49 40 55893773", "distance": 305.9452210826524}, {"id": "4ZlNj1pxqjWYelxwJdbAnw", "alias": "oyster-bar-hamburg", "name": "Oyster Bar", "image_url": "https://s3-media2.fl.yelpcdn.com/bphoto/XQNpZEEV44MjGX_UTHv5jg/o.jpg", "is_closed": false, "url": "https://www.yelp.com/biz/oyster-bar-hamburg?adjust_creative=hBJOknVQJ58S5goQyjmwRw&utm_campaign=yelp_api_v3&utm_medium=api_v3_business_search&utm_source=hBJOknVQJ58S5goQyjmwRw", "review_count": 3, "categories": [{"alias": "french", "title": "French"}, {"alias": "german", "title": "German"}, {"alias": "irish", "title": "Irish"}], "rating": 4.0, "coordinates": {"latitude": 53.5637, "longitude": 9.99001}, "transactions": [], "location": {"address1": "Grand Elys\u00e9e", "address2": "Rothenbaumchaussee 10", "address3": null, "city": "Hamburg", "zip_code": "20148", "country": "DE", "state": "HH", "display_address": ["Grand Elys\u00e9e", "Rothenbaumchaussee 10", "20148 Hamburg", "Germany"]}, "phone": "+494041412723", "display_phone": "+49 40 41412723", "distance": 630.7731283158815}, {"id": "GTxaya_pfAKMOMlbZp0jEQ", "alias": "die-gute-botschaft-hamburg", "name": "Die Gute Botschaft", "image_url": "https://s3-media1.fl.yelpcdn.com/bphoto/L2x_cs182BpD8zT8wmNhVA/o.jpg", "is_closed": false, "url": "https://www.yelp.com/biz/die-gute-botschaft-hamburg?adjust_creative=hBJOknVQJ58S5goQyjmwRw&utm_campaign=yelp_api_v3&utm_medium=api_v3_business_search&utm_source=hBJOknVQJ58S5goQyjmwRw", "review_count": 8, "categories": [{"alias": "international", "title": "International"}, {"alias": "coffee", "title": "Coffee & Tea"}, {"alias": "japanese", "title": "Japanese"}], "rating": 3.0, "coordinates": {"latitude": 53.559221, "longitude": 9.995421}, "transactions": [], "price": "\u20ac\u20ac", "location": {"address1": "Alsterufer 3", "address2": "", "address3": null, "city": "Hamburg", "zip_code": "20354", "country": "DE", "state": "HH", "display_address": ["Alsterufer 3", "20354 Hamburg", "Germany"]}, "phone": "+494028410014", "display_phone": "+49 40 28410014", "distance": 1156.327027182742}, {"id": "7WcpDpiJN3jwKovtKeJGTg", "alias": "schuberts-am-mittelweg-hamburg", "name": "Schuberts am Mittelweg", "image_url": "", "is_closed": false, "url": "https://www.yelp.com/biz/schuberts-am-mittelweg-hamburg?adjust_creative=hBJOknVQJ58S5goQyjmwRw&utm_campaign=yelp_api_v3&utm_medium=api_v3_business_search&utm_source=hBJOknVQJ58S5goQyjmwRw", "review_count": 1, "categories": [{"alias": "wine_bars", "title": "Wine Bars"}, {"alias": "german", "title": "German"}, {"alias": "mediterranean", "title": "Mediterranean"}], "rating": 1.0, "coordinates": {"latitude": 53.56766, "longitude": 9.99499}, "transactions": [], "location": {"address1": "Mittelweg 24", "address2": "", "address3": "", "city": "Hamburg", "zip_code": "20148", "country": "DE", "state": "HH", "display_address": ["Mittelweg 24", "20148 Hamburg", "Germany"]}, "phone": "+494087601340", "display_phone": "+49 40 87601340", "distance": 307.61456525128006}, {"id": "mB_bIcvDh2iUn_eAwo75aA", "alias": "la-bottega-hamburg", "name": "La Bottega", "image_url": "https://s3-media4.fl.yelpcdn.com/bphoto/1VljGeAkTqaNkfPslrycDw/o.jpg", "is_closed": false, "url": "https://www.yelp.com/biz/la-bottega-hamburg?adjust_creative=hBJOknVQJ58S5goQyjmwRw&utm_campaign=yelp_api_v3&utm_medium=api_v3_business_search&utm_source=hBJOknVQJ58S5goQyjmwRw", "review_count": 30, "categories": [{"alias": "italian", "title": "Italian"}], "rating": 3.0, "coordinates": {"latitude": 53.5676759405129, "longitude": 9.99544702470303}, "transactions": [], "price": "\u20ac\u20ac\u20ac", "location": {"address1": "Mittelweg 24", "address2": "", "address3": "", "city": "Hamburg", "zip_code": "20148", "country": "DE", "state": "HH", "display_address": ["Mittelweg 24", "20148 Hamburg", "Germany"]}, "phone": "+494041496311", "display_phone": "+49 40 41496311", "distance": 331.2422327124016}, {"id": "z8tavSnQYSgL3ChKTkaquw", "alias": "cafe-allegro-hamburg", "name": "Cafe Allegro", "image_url": "https://s3-media1.fl.yelpcdn.com/bphoto/AR6op_10rpSYNvTo2MEY6Q/o.jpg", "is_closed": false, "url": "https://www.yelp.com/biz/cafe-allegro-hamburg?adjust_creative=hBJOknVQJ58S5goQyjmwRw&utm_campaign=yelp_api_v3&utm_medium=api_v3_business_search&utm_source=hBJOknVQJ58S5goQyjmwRw", "review_count": 1, "categories": [{"alias": "cafes", "title": "Cafes"}, {"alias": "coffee", "title": "Coffee & Tea"}], "rating": 4.0, "coordinates": {"latitude": 53.5713, "longitude": 9.99409}, "transactions": [], "location": {"address1": "Mittelweg 42", "address2": null, "address3": null, "city": "Hamburg", "zip_code": "20148", "country": "DE", "state": "HH", "display_address": ["Mittelweg 42", "20148 Hamburg", "Germany"]}, "phone": "", "display_phone": "", "distance": 288.17304551918795}, {"id": "I2MVLBKrLaJ1WwrX1CLXhA", "alias": "blizzeria-hamburg", "name": "Blizzeria", "image_url": "https://s3-media2.fl.yelpcdn.com/bphoto/Zjh3q2YJehvz9In2z1xrwQ/o.jpg", "is_closed": false, "url": "https://www.yelp.com/biz/blizzeria-hamburg?adjust_creative=hBJOknVQJ58S5goQyjmwRw&utm_campaign=yelp_api_v3&utm_medium=api_v3_business_search&utm_source=hBJOknVQJ58S5goQyjmwRw", "review_count": 18, "categories": [{"alias": "pizza", "title": "Pizza"}], "rating": 3.0, "coordinates": {"latitude": 53.5712562574211, "longitude": 9.98605994137045}, "transactions": [], "price": "\u20ac\u20ac", "location": {"address1": "Schl\u00fcterstr. 86", "address2": null, "address3": null, "city": "Hamburg", "zip_code": "20146", "country": "DE", "state": "HH", "display_address": ["Schl\u00fcterstr. 86", "20146 Hamburg", "Germany"]}, "phone": "+494041624939", "display_phone": "+49 40 41624939", "distance": 405.51691711379414}, {"id": "rIcFAqPPy_KnZlSOgyL-bQ", "alias": "ristorantes-pizzeria-da-mario-hamburg", "name": "Ristorantes Pizzeria DA MARIO", "image_url": "https://s3-media1.fl.yelpcdn.com/bphoto/FyxtecUbodvxBknZAxM--Q/o.jpg", "is_closed": false, "url": "https://www.yelp.com/biz/ristorantes-pizzeria-da-mario-hamburg?adjust_creative=hBJOknVQJ58S5goQyjmwRw&utm_campaign=yelp_api_v3&utm_medium=api_v3_business_search&utm_source=hBJOknVQJ58S5goQyjmwRw", "review_count": 19, "categories": [{"alias": "italian", "title": "Italian"}], "rating": 3.0, "coordinates": {"latitude": 53.57045, "longitude": 9.9959399}, "transactions": [], "price": "\u20ac\u20ac", "location": {"address1": "Milchstr. 28", "address2": null, "address3": null, "city": "Hamburg", "zip_code": "20148", "country": "DE", "state": "HH", "display_address": ["Milchstr. 28", "20148 Hamburg", "Germany"]}, "phone": "+4940449918", "display_phone": "+49 40 449918", "distance": 332.8789499370319}, {"id": "-hm05C_zUo6QLL936ajBnQ", "alias": "mensa-philosophenturm-hamburg", "name": "Mensa Philosophenturm", "image_url": "https://s3-media3.fl.yelpcdn.com/bphoto/IUGMkzFC_MYcAtRXuDshog/o.jpg", "is_closed": false, "url": "https://www.yelp.com/biz/mensa-philosophenturm-hamburg?adjust_creative=hBJOknVQJ58S5goQyjmwRw&utm_campaign=yelp_api_v3&utm_medium=api_v3_business_search&utm_source=hBJOknVQJ58S5goQyjmwRw", "review_count": 33, "categories": [{"alias": "canteen", "title": "Canteen"}], "rating": 3.0, "coordinates": {"latitude": 53.5670900063256, "longitude": 9.98519807614113}, "transactions": [], "price": "\u20ac", "location": {"address1": "Von-Melle-Park 6", "address2": "", "address3": "", "city": "Hamburg", "zip_code": "20146", "country": "DE", "state": "HH", "display_address": ["Von-Melle-Park 6", "20146 Hamburg", "Germany"]}, "phone": "+494041352140", "display_phone": "+49 40 41352140", "distance": 471.4969784582783}, {"id": "YBJtUYtlBdEL6A9aJAt7mQ", "alias": "okzident-hamburg-2", "name": "Okzident", "image_url": "https://s3-media3.fl.yelpcdn.com/bphoto/iA8XDMl3FM0UtamY7i2VAw/o.jpg", "is_closed": false, "url": "https://www.yelp.com/biz/okzident-hamburg-2?adjust_creative=hBJOknVQJ58S5goQyjmwRw&utm_campaign=yelp_api_v3&utm_medium=api_v3_business_search&utm_source=hBJOknVQJ58S5goQyjmwRw", "review_count": 5, "categories": [{"alias": "oriental", "title": "Oriental"}, {"alias": "international", "title": "International"}], "rating": 2.5, "coordinates": {"latitude": 53.56855, "longitude": 9.98901}, "transactions": [], "location": {"address1": "Rothenbaumchaussee 64", "address2": "", "address3": "Museum f\u00fcr V\u00f6lkerkunde", "city": "Hamburg", "zip_code": "20148", "country": "DE", "state": "HH", "display_address": ["Rothenbaumchaussee 64", "Museum f\u00fcr V\u00f6lkerkunde", "20148 Hamburg", "Germany"]}, "phone": "+494043091362", "display_phone": "+49 40 43091362", "distance": 160.98579999526535}, {"id": "ClOM2ijORZkuBgC3xfpLHQ", "alias": "mr-clou-hamburg-9", "name": "Mr. Clou", "image_url": "https://s3-media1.fl.yelpcdn.com/bphoto/SpIMPHGICrnkqY63tUxLVQ/o.jpg", "is_closed": false, "url": "https://www.yelp.com/biz/mr-clou-hamburg-9?adjust_creative=hBJOknVQJ58S5goQyjmwRw&utm_campaign=yelp_api_v3&utm_medium=api_v3_business_search&utm_source=hBJOknVQJ58S5goQyjmwRw", "review_count": 8, "categories": [{"alias": "juicebars", "title": "Juice Bars & Smoothies"}, {"alias": "hotdogs", "title": "Fast Food"}], "rating": 3.0, "coordinates": {"latitude": 53.5606557, "longitude": 9.989312}, "transactions": [], "price": "\u20ac\u20ac", "location": {"address1": "Dag-Hammarskj\u00f6ld-Platz 15", "address2": "", "address3": "", "city": "Hamburg", "zip_code": "20354", "country": "DE", "state": "HH", "display_address": ["Dag-Hammarskj\u00f6ld-Platz 15", "20354 Hamburg", "Germany"]}, "phone": "+494041429800", "display_phone": "+49 40 41429800", "distance": 947.562400163351}, {"id": "n-DpMRprUFgRq790MfHa2w", "alias": "alanya-kebap-hamburg", "name": "Alanya Kebap", "image_url": "https://s3-media3.fl.yelpcdn.com/bphoto/15zImolealwoLmxyIm6YJA/o.jpg", "is_closed": false, "url": "https://www.yelp.com/biz/alanya-kebap-hamburg?adjust_creative=hBJOknVQJ58S5goQyjmwRw&utm_campaign=yelp_api_v3&utm_medium=api_v3_business_search&utm_source=hBJOknVQJ58S5goQyjmwRw", "review_count": 5, "categories": [{"alias": "kebab", "title": "Kebab"}], "rating": 2.0, "coordinates": {"latitude": 53.5608, "longitude": 9.98949}, "transactions": [], "location": {"address1": "Bahnhof Dammtor", "address2": "Dag-Hammarskj\u00f6ld-Platz 15", "address3": null, "city": "Hamburg", "zip_code": "20355", "country": "DE", "state": "HH", "display_address": ["Bahnhof Dammtor", "Dag-Hammarskj\u00f6ld-Platz 15", "20355 Hamburg", "Germany"]}, "phone": "", "display_phone": "", "distance": 954.9896627102256}, {"id": "I99cn5ZxTwve5xOUcJOgWg", "alias": "asiahung-hamburg-17", "name": "Asiahung", "image_url": "https://s3-media1.fl.yelpcdn.com/bphoto/uwDVal_iwnFgyGFd5roAkA/o.jpg", "is_closed": false, "url": "https://www.yelp.com/biz/asiahung-hamburg-17?adjust_creative=hBJOknVQJ58S5goQyjmwRw&utm_campaign=yelp_api_v3&utm_medium=api_v3_business_search&utm_source=hBJOknVQJ58S5goQyjmwRw", "review_count": 13, "categories": [{"alias": "hotdogs", "title": "Fast Food"}, {"alias": "panasian", "title": "Pan Asian"}], "rating": 3.0, "coordinates": {"latitude": 53.5607745361234, "longitude": 9.98979615118435}, "transactions": [], "price": "\u20ac", "location": {"address1": "Dag-Hammarskj\u00f6ld-Platz 15", "address2": "", "address3": "", "city": "Hamburg", "zip_code": "20354", "country": "DE", "state": "HH", "display_address": ["Dag-Hammarskj\u00f6ld-Platz 15", "20354 Hamburg", "Germany"]}, "phone": "", "display_phone": "", "distance": 955.5323666631213}, {"id": "b93kReeHusXS84U6_NKQYA", "alias": "mcdonalds-hamburg-31", "name": "McDonald's", "image_url": "https://s3-media2.fl.yelpcdn.com/bphoto/Odzytt5Qh8Y18S-n8zQnGw/o.jpg", "is_closed": false, "url": "https://www.yelp.com/biz/mcdonalds-hamburg-31?adjust_creative=hBJOknVQJ58S5goQyjmwRw&utm_campaign=yelp_api_v3&utm_medium=api_v3_business_search&utm_source=hBJOknVQJ58S5goQyjmwRw", "review_count": 23, "categories": [{"alias": "hotdogs", "title": "Fast Food"}, {"alias": "burgers", "title": "Burgers"}], "rating": 2.5, "coordinates": {"latitude": 53.561054178053, "longitude": 9.98959581346128}, "transactions": [], "price": "\u20ac", "location": {"address1": "Theodor-Heuss-Platz 3", "address2": "", "address3": null, "city": "Hamburg", "zip_code": "20354", "country": "DE", "state": "HH", "display_address": ["Theodor-Heuss-Platz 3", "20354 Hamburg", "Germany"]}, "phone": "+494044140367", "display_phone": "+49 40 44140367", "distance": 926.0881698607993}, {"id": "0tMjB4TpHSNWdUMyfVEJsQ", "alias": "mensa-studierendenhaus-hamburg", "name": "Mensa Studierendenhaus", "image_url": "https://s3-media3.fl.yelpcdn.com/bphoto/6bmAAnD4I1aKBZTKsvU6eA/o.jpg", "is_closed": false, "url": "https://www.yelp.com/biz/mensa-studierendenhaus-hamburg?adjust_creative=hBJOknVQJ58S5goQyjmwRw&utm_campaign=yelp_api_v3&utm_medium=api_v3_business_search&utm_source=hBJOknVQJ58S5goQyjmwRw", "review_count": 13, "categories": [{"alias": "canteen", "title": "Canteen"}], "rating": 3.0, "coordinates": {"latitude": 53.565872717443, "longitude": 9.9862984886291}, "transactions": [], "price": "\u20ac", "location": {"address1": "Von-Melle-Park 2", "address2": "", "address3": "", "city": "Hamburg", "zip_code": "20146", "country": "DE", "state": "HH", "display_address": ["Von-Melle-Park 2", "20146 Hamburg", "Germany"]}, "phone": "+494041902210", "display_phone": "+49 40 41902210", "distance": 504.867867107819}]