[{"id": "Bq9idVAdK5WF4mhPLbmERA", "alias": "schmilinsky-ristorante-hamburg-2", "name": "Schmilinsky Ristorante", "image_url": "https://s3-media4.fl.yelpcdn.com/bphoto/Zio4Vq7Xcio5tJGKULMhSg/o.jpg", "is_closed": false, "url": "https://www.yelp.com/biz/schmilinsky-ristorante-hamburg-2?adjust_creative=hBJOknVQJ58S5goQyjmwRw&utm_campaign=yelp_api_v3&utm_medium=api_v3_business_search&utm_source=hBJOknVQJ58S5goQyjmwRw", "review_count": 32, "categories": [{"alias": "italian", "title": "Italian"}, {"alias": "wine_bars", "title": "Wine Bars"}], "rating": 4.5, "coordinates": {"latitude": 53.5596, "longitude": 10.012}, "transactions": [], "price": "\u20ac\u20ac", "location": {"address1": "Schmilinskystr. 11", "address2": null, "address3": null, "city": "Hamburg", "zip_code": "20099", "country": "DE", "state": "HH", "display_address": ["Schmilinskystr. 11", "20099 Hamburg", "Germany"]}, "phone": "+494028804852", "display_phone": "+49 40 28804852", "distance": 1130.176538803762}, {"id": "p0U0OTu9LvEXYIrNMEzj_A", "alias": "alster-cliff-hamburg", "name": "Alster Cliff", "image_url": "https://s3-media4.fl.yelpcdn.com/bphoto/Y99WKc6TR59_O2u1_uUEAw/o.jpg", "is_closed": false, "url": "https://www.yelp.com/biz/alster-cliff-hamburg?adjust_creative=hBJOknVQJ58S5goQyjmwRw&utm_campaign=yelp_api_v3&utm_medium=api_v3_business_search&utm_source=hBJOknVQJ58S5goQyjmwRw", "review_count": 185, "categories": [{"alias": "cafes", "title": "Cafes"}], "rating": 2.5, "coordinates": {"latitude": 53.57399, "longitude": 10.00215}, "transactions": [], "price": "\u20ac\u20ac\u20ac", "location": {"address1": "F\u00e4hrdamm 13", "address2": null, "address3": null, "city": "Hamburg", "zip_code": "20148", "country": "DE", "state": "HH", "display_address": ["F\u00e4hrdamm 13", "20148 Hamburg", "Germany"]}, "phone": "+4940442719", "display_phone": "+49 40 442719", "distance": 607.6988379903252}, {"id": "wAyBwXDgVhyllXlrFMfGzw", "alias": "barca-hamburg-2", "name": "Barca", "image_url": "https://s3-media4.fl.yelpcdn.com/bphoto/0G8tpBiXnuV9zlb2fMdnCg/o.jpg", "is_closed": false, "url": "https://www.yelp.com/biz/barca-hamburg-2?adjust_creative=hBJOknVQJ58S5goQyjmwRw&utm_campaign=yelp_api_v3&utm_medium=api_v3_business_search&utm_source=hBJOknVQJ58S5goQyjmwRw", "review_count": 41, "categories": [{"alias": "cafes", "title": "Cafes"}], "rating": 4.0, "coordinates": {"latitude": 53.558548, "longitude": 10.005425}, "transactions": [], "price": "\u20ac\u20ac", "location": {"address1": "An Der Alster 67 a", "address2": "", "address3": "", "city": "Hamburg", "zip_code": "20099", "country": "DE", "state": "HH", "display_address": ["An Der Alster 67 a", "20099 Hamburg", "Germany"]}, "phone": "+494024859736", "display_phone": "+49 40 24859736", "distance": 1185.7675329934514}, {"id": "cXqYsMWCRNOSUEcxPtTuew", "alias": "peace-hot-dogs-hamburg", "name": "Peace Hot Dogs", "image_url": "https://s3-media4.fl.yelpcdn.com/bphoto/TQEttW8lRX1f_GFFVyGUNw/o.jpg", "is_closed": false, "url": "https://www.yelp.com/biz/peace-hot-dogs-hamburg?adjust_creative=hBJOknVQJ58S5goQyjmwRw&utm_campaign=yelp_api_v3&utm_medium=api_v3_business_search&utm_source=hBJOknVQJ58S5goQyjmwRw", "review_count": 1, "categories": [{"alias": "hotdog", "title": "Hot Dogs"}], "rating": 5.0, "coordinates": {"latitude": 53.5584599, "longitude": 10.01246}, "transactions": [], "location": {"address1": "Lange Reihe 87", "address2": null, "address3": "", "city": "Hamburg", "zip_code": "20099", "country": "DE", "state": "HH", "display_address": ["Lange Reihe 87", "20099 Hamburg", "Germany"]}, "phone": "+491627285941", "display_phone": "+49 162 7285941", "distance": 1253.4635630356865}, {"id": "52QxFrFICSW-iHj5Oh4WMA", "alias": "bodos-bootssteg-hamburg", "name": "Bodo's Bootssteg", "image_url": "https://s3-media3.fl.yelpcdn.com/bphoto/vTrUFQtGTyzC0lObIGc60A/o.jpg", "is_closed": false, "url": "https://www.yelp.com/biz/bodos-bootssteg-hamburg?adjust_creative=hBJOknVQJ58S5goQyjmwRw&utm_campaign=yelp_api_v3&utm_medium=api_v3_business_search&utm_source=hBJOknVQJ58S5goQyjmwRw", "review_count": 54, "categories": [{"alias": "boatcharters", "title": "Boat Charters"}, {"alias": "tapasmallplates", "title": "Tapas/Small Plates"}], "rating": 3.0, "coordinates": {"latitude": 53.567243684257, "longitude": 10.001700970177}, "transactions": [], "price": "\u20ac\u20ac\u20ac", "location": {"address1": "Harvestehuder Weg 1 B", "address2": "", "address3": "F\u00e4hranleger Rabenstra\u00dfe", "city": "Hamburg", "zip_code": "20148", "country": "DE", "state": "HH", "display_address": ["Harvestehuder Weg 1 B", "F\u00e4hranleger Rabenstra\u00dfe", "20148 Hamburg", "Germany"]}, "phone": "+49404103525", "display_phone": "+49 40 4103525", "distance": 376.9134729459971}, {"id": "BoMj_0dfjHrGwmr7oK6zCQ", "alias": "heritage-hamburg", "name": "Heritage", "image_url": "https://s3-media4.fl.yelpcdn.com/bphoto/FncWQzooGqWLo8x-84hfKg/o.jpg", "is_closed": false, "url": "https://www.yelp.com/biz/heritage-hamburg?adjust_creative=hBJOknVQJ58S5goQyjmwRw&utm_campaign=yelp_api_v3&utm_medium=api_v3_business_search&utm_source=hBJOknVQJ58S5goQyjmwRw", "review_count": 14, "categories": [{"alias": "international", "title": "International"}], "rating": 4.0, "coordinates": {"latitude": 53.5582931, "longitude": 10.007192}, "transactions": [], "price": "\u20ac\u20ac\u20ac\u20ac", "location": {"address1": "An der Alster 51 - 56", "address2": "", "address3": "", "city": "Hamburg", "zip_code": "20099", "country": "DE", "state": "HH", "display_address": ["An der Alster 51 - 56", "20099 Hamburg", "Germany"]}, "phone": "+494021001070", "display_phone": "+49 40 21001070", "distance": 1173.89172016529}, {"id": "LsHq8TJU3-rZqikI7Cn7xA", "alias": "paledo-hamburg-2", "name": "Paledo", "image_url": "https://s3-media3.fl.yelpcdn.com/bphoto/f14YULY-xhs83lEDfVgNHw/o.jpg", "is_closed": false, "url": "https://www.yelp.com/biz/paledo-hamburg-2?adjust_creative=hBJOknVQJ58S5goQyjmwRw&utm_campaign=yelp_api_v3&utm_medium=api_v3_business_search&utm_source=hBJOknVQJ58S5goQyjmwRw", "review_count": 5, "categories": [{"alias": "gluten_free", "title": "Gluten-Free"}], "rating": 4.0, "coordinates": {"latitude": 53.5799499741106, "longitude": 10.0124901160598}, "transactions": [], "price": "\u20ac\u20ac", "location": {"address1": "M\u00fchlenkamp 1", "address2": "", "address3": null, "city": "Hamburg", "zip_code": "22303", "country": "DE", "state": "HH", "display_address": ["M\u00fchlenkamp 1", "22303 Hamburg", "Germany"]}, "phone": "+494069454466", "display_phone": "+49 40 69454466", "distance": 1262.178990588591}, {"id": "vRrOfTMGSi7BFXjd7Ys8vw", "alias": "kouros-hamburg", "name": "Kouros", "image_url": "https://s3-media4.fl.yelpcdn.com/bphoto/fA6hZBQ5Ir7ZwHzUzqQaCw/o.jpg", "is_closed": false, "url": "https://www.yelp.com/biz/kouros-hamburg?adjust_creative=hBJOknVQJ58S5goQyjmwRw&utm_campaign=yelp_api_v3&utm_medium=api_v3_business_search&utm_source=hBJOknVQJ58S5goQyjmwRw", "review_count": 72, "categories": [{"alias": "greek", "title": "Greek"}], "rating": 4.5, "coordinates": {"latitude": 53.559824, "longitude": 10.01107}, "transactions": [], "price": "\u20ac\u20ac\u20ac", "location": {"address1": "An der Alster 25", "address2": null, "address3": null, "city": "Hamburg", "zip_code": "20099", "country": "DE", "state": "HH", "display_address": ["An der Alster 25", "20099 Hamburg", "Germany"]}, "phone": "+4940244540", "display_phone": "+49 40 244540", "distance": 1087.5762771795664}, {"id": "38WGulILfVT3J5OS66Yo_g", "alias": "unter-deck-hamburg", "name": "Unter Deck", "image_url": "https://s3-media1.fl.yelpcdn.com/bphoto/RESkxq2XHlcLBFxklvAtLg/o.jpg", "is_closed": false, "url": "https://www.yelp.com/biz/unter-deck-hamburg?adjust_creative=hBJOknVQJ58S5goQyjmwRw&utm_campaign=yelp_api_v3&utm_medium=api_v3_business_search&utm_source=hBJOknVQJ58S5goQyjmwRw", "review_count": 45, "categories": [{"alias": "german", "title": "German"}], "rating": 4.5, "coordinates": {"latitude": 53.5605136747722, "longitude": 10.0127055566834}, "transactions": [], "price": "\u20ac\u20ac\u20ac", "location": {"address1": "An der Alster 14", "address2": "", "address3": "", "city": "Hamburg", "zip_code": "20099", "country": "DE", "state": "HH", "display_address": ["An der Alster 14", "20099 Hamburg", "Germany"]}, "phone": "+4940284440", "display_phone": "+49 40 284440", "distance": 1052.4382562852381}, {"id": "FMNrFftlD6WfQU7J2gy_WA", "alias": "made-in-italy-hamburg", "name": "Made in Italy", "image_url": "https://s3-media2.fl.yelpcdn.com/bphoto/_SQZ19atXScWSEwbDf8tFQ/o.jpg", "is_closed": false, "url": "https://www.yelp.com/biz/made-in-italy-hamburg?adjust_creative=hBJOknVQJ58S5goQyjmwRw&utm_campaign=yelp_api_v3&utm_medium=api_v3_business_search&utm_source=hBJOknVQJ58S5goQyjmwRw", "review_count": 16, "categories": [{"alias": "italian", "title": "Italian"}], "rating": 5.0, "coordinates": {"latitude": 53.5792985, "longitude": 10.0087166}, "transactions": [], "price": "\u20ac\u20ac\u20ac", "location": {"address1": "Sierichstr. 22", "address2": null, "address3": null, "city": "Hamburg", "zip_code": "22301", "country": "DE", "state": "HH", "display_address": ["Sierichstr. 22", "22301 Hamburg", "Germany"]}, "phone": "+4940222701", "display_phone": "+49 40 222701", "distance": 1133.8841984021558}, {"id": "syNNIZrpMDVePCIJAWOdRQ", "alias": "kleinod-hamburg-2", "name": "Kleinod", "image_url": "https://s3-media4.fl.yelpcdn.com/bphoto/HxFNEIE8a1j5e0MdNgMaGg/o.jpg", "is_closed": false, "url": "https://www.yelp.com/biz/kleinod-hamburg-2?adjust_creative=hBJOknVQJ58S5goQyjmwRw&utm_campaign=yelp_api_v3&utm_medium=api_v3_business_search&utm_source=hBJOknVQJ58S5goQyjmwRw", "review_count": 5, "categories": [{"alias": "german", "title": "German"}, {"alias": "wine_bars", "title": "Wine Bars"}], "rating": 5.0, "coordinates": {"latitude": 53.5593, "longitude": 10.01253}, "transactions": [], "location": {"address1": "Schmilinskystr. 19", "address2": "", "address3": null, "city": "Hamburg", "zip_code": "20099", "country": "DE", "state": "HH", "display_address": ["Schmilinskystr. 19", "20099 Hamburg", "Germany"]}, "phone": "+494046009797", "display_phone": "+49 40 46009797", "distance": 1173.3809393821944}, {"id": "8PRJy1G1LizfIuMa3ARqyA", "alias": "le-bon-hamburg-2", "name": "Le Bon", "image_url": "https://s3-media3.fl.yelpcdn.com/bphoto/sOAo9uOdUQcGO9SujREVMg/o.jpg", "is_closed": false, "url": "https://www.yelp.com/biz/le-bon-hamburg-2?adjust_creative=hBJOknVQJ58S5goQyjmwRw&utm_campaign=yelp_api_v3&utm_medium=api_v3_business_search&utm_source=hBJOknVQJ58S5goQyjmwRw", "review_count": 9, "categories": [{"alias": "french", "title": "French"}, {"alias": "brasseries", "title": "Brasseries"}, {"alias": "wine_bars", "title": "Wine Bars"}], "rating": 4.0, "coordinates": {"latitude": 53.55881, "longitude": 10.0116099}, "transactions": [], "price": "\u20ac\u20ac\u20ac", "location": {"address1": "Koppel 76", "address2": "", "address3": "", "city": "Hamburg", "zip_code": "20099", "country": "DE", "state": "HH", "display_address": ["Koppel 76", "20099 Hamburg", "Germany"]}, "phone": "+494035735166", "display_phone": "+49 40 35735166", "distance": 1221.6235518133446}, {"id": "FNi6ItF-O5zF2FwBM4-qbA", "alias": "kaj\u00fcte-hamburg-3", "name": "Kaj\u00fcte", "image_url": "https://s3-media2.fl.yelpcdn.com/bphoto/qwsK-pywD4StorcXeLcDvA/o.jpg", "is_closed": false, "url": "https://www.yelp.com/biz/kaj%C3%BCte-hamburg-3?adjust_creative=hBJOknVQJ58S5goQyjmwRw&utm_campaign=yelp_api_v3&utm_medium=api_v3_business_search&utm_source=hBJOknVQJ58S5goQyjmwRw", "review_count": 52, "categories": [{"alias": "german", "title": "German"}, {"alias": "seafood", "title": "Seafood"}, {"alias": "mediterranean", "title": "Mediterranean"}], "rating": 3.5, "coordinates": {"latitude": 53.5610487193049, "longitude": 10.0125492400179}, "transactions": [], "price": "\u20ac\u20ac", "location": {"address1": "An der Alster 10 A", "address2": "", "address3": "", "city": "Hamburg", "zip_code": "20099", "country": "DE", "state": "HH", "display_address": ["An der Alster 10 A", "20099 Hamburg", "Germany"]}, "phone": "+4940243037", "display_phone": "+49 40 243037", "distance": 993.8483599466728}, {"id": "S3nCmgSpJmsThVwAcf9Opw", "alias": "caf\u00e9-hansa-steg-hamburg-2", "name": "Caf\u00e9 Hansa Steg", "image_url": "https://s3-media2.fl.yelpcdn.com/bphoto/n0ndWRR8Wtuzhn_gqNxZjg/o.jpg", "is_closed": false, "url": "https://www.yelp.com/biz/caf%C3%A9-hansa-steg-hamburg-2?adjust_creative=hBJOknVQJ58S5goQyjmwRw&utm_campaign=yelp_api_v3&utm_medium=api_v3_business_search&utm_source=hBJOknVQJ58S5goQyjmwRw", "review_count": 22, "categories": [{"alias": "restaurants", "title": "Restaurants"}], "rating": 2.5, "coordinates": {"latitude": 53.57027, "longitude": 10.01042}, "transactions": [], "price": "\u20ac\u20ac\u20ac", "location": {"address1": "Sch\u00f6ne Aussicht 20A", "address2": null, "address3": null, "city": "Hamburg", "zip_code": "22085", "country": "DE", "state": "HH", "display_address": ["Sch\u00f6ne Aussicht 20A", "22085 Hamburg", "Germany"]}, "phone": "+49402200030", "display_phone": "+49 40 2200030", "distance": 228.70742608024025}, {"id": "DAX0Tm1QtSM1OTVJxmumjQ", "alias": "caf\u00e9-koppel-hamburg-2", "name": "Caf\u00e9 Koppel", "image_url": "https://s3-media4.fl.yelpcdn.com/bphoto/_k8Kps7hw8_OAlcsJfxmgg/o.jpg", "is_closed": false, "url": "https://www.yelp.com/biz/caf%C3%A9-koppel-hamburg-2?adjust_creative=hBJOknVQJ58S5goQyjmwRw&utm_campaign=yelp_api_v3&utm_medium=api_v3_business_search&utm_source=hBJOknVQJ58S5goQyjmwRw", "review_count": 78, "categories": [{"alias": "cafes", "title": "Cafes"}], "rating": 3.5, "coordinates": {"latitude": 53.558427, "longitude": 10.011508}, "transactions": [], "price": "\u20ac\u20ac", "location": {"address1": "Koppel 66", "address2": null, "address3": null, "city": "Hamburg", "zip_code": "20099", "country": "DE", "state": "HH", "display_address": ["Koppel 66", "20099 Hamburg", "Germany"]}, "phone": "+4940249235", "display_phone": "+49 40 249235", "distance": 1244.8183185285518}, {"id": "A0lEtb7antn6hv8CKemLJw", "alias": "caf\u00e9-pr\u00fcsse-hamburg", "name": "Caf\u00e9 Pr\u00fcsse", "image_url": "https://s3-media4.fl.yelpcdn.com/bphoto/F9mOpjAxn0PWm0kA1gGrpQ/o.jpg", "is_closed": false, "url": "https://www.yelp.com/biz/caf%C3%A9-pr%C3%BCsse-hamburg?adjust_creative=hBJOknVQJ58S5goQyjmwRw&utm_campaign=yelp_api_v3&utm_medium=api_v3_business_search&utm_source=hBJOknVQJ58S5goQyjmwRw", "review_count": 29, "categories": [{"alias": "cafes", "title": "Cafes"}], "rating": 3.0, "coordinates": {"latitude": 53.55931, "longitude": 10.00752}, "transactions": [], "price": "\u20ac\u20ac", "location": {"address1": "An der Alster 47 a", "address2": null, "address3": null, "city": "Hamburg", "zip_code": "20099", "country": "DE", "state": "HH", "display_address": ["An der Alster 47 a", "20099 Hamburg", "Germany"]}, "phone": "+4940246058", "display_phone": "+49 40 246058", "distance": 1093.0307582433138}, {"id": "qvQarxB95EbT04HGfY1UzA", "alias": "ristorante-portici-hamburg", "name": "Ristorante Portici", "image_url": "https://s3-media3.fl.yelpcdn.com/bphoto/NihKeiFH6hxW8mxk4Dpbhw/o.jpg", "is_closed": false, "url": "https://www.yelp.com/biz/ristorante-portici-hamburg?adjust_creative=hBJOknVQJ58S5goQyjmwRw&utm_campaign=yelp_api_v3&utm_medium=api_v3_business_search&utm_source=hBJOknVQJ58S5goQyjmwRw", "review_count": 55, "categories": [{"alias": "italian", "title": "Italian"}], "rating": 3.0, "coordinates": {"latitude": 53.57965, "longitude": 10.01261}, "transactions": [], "price": "\u20ac\u20ac", "location": {"address1": "K\u00f6rnerstr. 2", "address2": null, "address3": null, "city": "Hamburg", "zip_code": "22301", "country": "DE", "state": "HH", "display_address": ["K\u00f6rnerstr. 2", "22301 Hamburg", "Germany"]}, "phone": "+494075119656", "display_phone": "+49 40 75119656", "distance": 1238.2930042723815}, {"id": "2jFikAjNj_lPgb5aGkmCgQ", "alias": "asia-wok-hamburg-8", "name": "Asia Wok", "image_url": "https://s3-media2.fl.yelpcdn.com/bphoto/jPAEVqqjf2roUtJlnAs1Vw/o.jpg", "is_closed": false, "url": "https://www.yelp.com/biz/asia-wok-hamburg-8?adjust_creative=hBJOknVQJ58S5goQyjmwRw&utm_campaign=yelp_api_v3&utm_medium=api_v3_business_search&utm_source=hBJOknVQJ58S5goQyjmwRw", "review_count": 26, "categories": [{"alias": "panasian", "title": "Pan Asian"}], "rating": 3.5, "coordinates": {"latitude": 53.5797, "longitude": 10.0084}, "transactions": [], "price": "\u20ac\u20ac", "location": {"address1": "Sierichstr. 30", "address2": null, "address3": null, "city": "Hamburg", "zip_code": "22301", "country": "DE", "state": "HH", "display_address": ["Sierichstr. 30", "22301 Hamburg", "Germany"]}, "phone": "+494027808086", "display_phone": "+49 40 27808086", "distance": 1175.5526866790965}]