[{"id": "u81B_ybiRK1NTWq-lQOTPw", "alias": "diggi-smalls-hamburg", "name": "Diggi Smalls", "image_url": "https://s3-media2.fl.yelpcdn.com/bphoto/TDVgtjEbwyRon16AFuXFJw/o.jpg", "is_closed": false, "url": "https://www.yelp.com/biz/diggi-smalls-hamburg?adjust_creative=hBJOknVQJ58S5goQyjmwRw&utm_campaign=yelp_api_v3&utm_medium=api_v3_business_search&utm_source=hBJOknVQJ58S5goQyjmwRw", "review_count": 18, "categories": [{"alias": "oriental", "title": "Oriental"}], "rating": 4.5, "coordinates": {"latitude": 53.56958, "longitude": 9.97959}, "transactions": [], "price": "\u20ac\u20ac", "location": {"address1": "Grindelallee 148", "address2": "", "address3": null, "city": "Hamburg", "zip_code": "20146", "country": "DE", "state": "HH", "display_address": ["Grindelallee 148", "20146 Hamburg", "Germany"]}, "phone": "+4917660474543", "display_phone": "+49 176 60474543", "distance": 233.3509152679347}, {"id": "-8xSkDrq6b0jp4xa-O0Viw", "alias": "so-na-mu-hamburg", "name": "So Na Mu", "image_url": "https://s3-media3.fl.yelpcdn.com/bphoto/pIRvIsGAJzLIesit1CWYjQ/o.jpg", "is_closed": false, "url": "https://www.yelp.com/biz/so-na-mu-hamburg?adjust_creative=hBJOknVQJ58S5goQyjmwRw&utm_campaign=yelp_api_v3&utm_medium=api_v3_business_search&utm_source=hBJOknVQJ58S5goQyjmwRw", "review_count": 68, "categories": [{"alias": "korean", "title": "Korean"}], "rating": 4.0, "coordinates": {"latitude": 53.5678, "longitude": 9.980124}, "transactions": [], "price": "\u20ac\u20ac", "location": {"address1": "Grindelallee 89", "address2": null, "address3": null, "city": "Hamburg", "zip_code": "20146", "country": "DE", "state": "HH", "display_address": ["Grindelallee 89", "20146 Hamburg", "Germany"]}, "phone": "+494041308884", "display_phone": "+49 40 41308884", "distance": 318.9735359035548}, {"id": "2ueMTWEKS6rvsOQdagvu8g", "alias": "maharani-hamburg", "name": "Maharani", "image_url": "https://s3-media4.fl.yelpcdn.com/bphoto/K_3UYwXbSZ1J4WIkQEyggw/o.jpg", "is_closed": false, "url": "https://www.yelp.com/biz/maharani-hamburg?adjust_creative=hBJOknVQJ58S5goQyjmwRw&utm_campaign=yelp_api_v3&utm_medium=api_v3_business_search&utm_source=hBJOknVQJ58S5goQyjmwRw", "review_count": 81, "categories": [{"alias": "indpak", "title": "Indian"}], "rating": 4.5, "coordinates": {"latitude": 53.57276, "longitude": 9.97907}, "transactions": [], "price": "\u20ac\u20ac", "location": {"address1": "Hallerstr. 1", "address2": "", "address3": "", "city": "Hamburg", "zip_code": "20146", "country": "DE", "state": "HH", "display_address": ["Hallerstr. 1", "20146 Hamburg", "Germany"]}, "phone": "+494042949691", "display_phone": "+49 40 42949691", "distance": 467.72896572403346}, {"id": "55jHAyWMxY9_LoPfAMMEBg", "alias": "arrabbiata-orient-bistro-hamburg", "name": "Arrabbiata - orient bistro", "image_url": "https://s3-media2.fl.yelpcdn.com/bphoto/HBkH43eoZ7fSXbV-4rLFfw/o.jpg", "is_closed": false, "url": "https://www.yelp.com/biz/arrabbiata-orient-bistro-hamburg?adjust_creative=hBJOknVQJ58S5goQyjmwRw&utm_campaign=yelp_api_v3&utm_medium=api_v3_business_search&utm_source=hBJOknVQJ58S5goQyjmwRw", "review_count": 42, "categories": [{"alias": "oriental", "title": "Oriental"}], "rating": 4.5, "coordinates": {"latitude": 53.5689054, "longitude": 9.9799778}, "transactions": [], "price": "\u20ac", "location": {"address1": "Grindelallee 134", "address2": "", "address3": "", "city": "Hamburg", "zip_code": "20146", "country": "DE", "state": "HH", "display_address": ["Grindelallee 134", "20146 Hamburg", "Germany"]}, "phone": "+494041623326", "display_phone": "+49 40 41623326", "distance": 258.5894413015192}, {"id": "usVa1X2FT0N58Z7xBcK8CQ", "alias": "b\u00e9kaa-hamburg-2", "name": "B\u00e9kaa", "image_url": "https://s3-media2.fl.yelpcdn.com/bphoto/ZfpOG5uL6uwZ8E872cFbuw/o.jpg", "is_closed": false, "url": "https://www.yelp.com/biz/b%C3%A9kaa-hamburg-2?adjust_creative=hBJOknVQJ58S5goQyjmwRw&utm_campaign=yelp_api_v3&utm_medium=api_v3_business_search&utm_source=hBJOknVQJ58S5goQyjmwRw", "review_count": 93, "categories": [{"alias": "lebanese", "title": "Lebanese"}], "rating": 4.5, "coordinates": {"latitude": 53.5650199, "longitude": 9.9776}, "transactions": [], "price": "\u20ac\u20ac", "location": {"address1": "Rentzelstr. 50", "address2": "", "address3": "", "city": "Hamburg", "zip_code": "20146", "country": "DE", "state": "HH", "display_address": ["Rentzelstr. 50", "20146 Hamburg", "Germany"]}, "phone": "+4940454975", "display_phone": "+49 40 454975", "distance": 499.18718622195354}, {"id": "odBDWtiKiQMtVC9Eb7i_zg", "alias": "dai-nam-hamburg", "name": "Dai Nam", "image_url": "https://s3-media1.fl.yelpcdn.com/bphoto/iu19G75SfwJugNEkwrUBaA/o.jpg", "is_closed": false, "url": "https://www.yelp.com/biz/dai-nam-hamburg?adjust_creative=hBJOknVQJ58S5goQyjmwRw&utm_campaign=yelp_api_v3&utm_medium=api_v3_business_search&utm_source=hBJOknVQJ58S5goQyjmwRw", "review_count": 16, "categories": [{"alias": "vietnamese", "title": "Vietnamese"}], "rating": 4.5, "coordinates": {"latitude": 53.5723, "longitude": 9.978}, "transactions": [], "price": "\u20ac\u20ac", "location": {"address1": "Beim Schlump 1", "address2": null, "address3": null, "city": "Hamburg", "zip_code": "20144", "country": "DE", "state": "HH", "display_address": ["Beim Schlump 1", "20144 Hamburg", "Germany"]}, "phone": "+494018989379", "display_phone": "+49 40 18989379", "distance": 339.43374429871795}, {"id": "oTPtt5hJOqs4SbFMWj03EA", "alias": "hindukusch-ghischtallei-hamburg", "name": "Hindukusch Ghischtallei", "image_url": "https://s3-media3.fl.yelpcdn.com/bphoto/1OWcxLAGuD7xfSPsqpMUSA/o.jpg", "is_closed": false, "url": "https://www.yelp.com/biz/hindukusch-ghischtallei-hamburg?adjust_creative=hBJOknVQJ58S5goQyjmwRw&utm_campaign=yelp_api_v3&utm_medium=api_v3_business_search&utm_source=hBJOknVQJ58S5goQyjmwRw", "review_count": 67, "categories": [{"alias": "afghani", "title": "Afghan"}], "rating": 4.5, "coordinates": {"latitude": 53.5678368427341, "longitude": 9.98160408075197}, "transactions": [], "price": "\u20ac", "location": {"address1": "Grindelhof 15", "address2": null, "address3": null, "city": "Hamburg", "zip_code": "20146", "country": "DE", "state": "HH", "display_address": ["Grindelhof 15", "20146 Hamburg", "Germany"]}, "phone": "+4940418164", "display_phone": "+49 40 418164", "distance": 401.0666702984115}, {"id": "hKcWp4OfS4Ggs4akB4FazA", "alias": "ufer-hamburg-4", "name": "Ufer", "image_url": "https://s3-media2.fl.yelpcdn.com/bphoto/yiRQS3z4W4cu8fGrx8rtZg/o.jpg", "is_closed": false, "url": "https://www.yelp.com/biz/ufer-hamburg-4?adjust_creative=hBJOknVQJ58S5goQyjmwRw&utm_campaign=yelp_api_v3&utm_medium=api_v3_business_search&utm_source=hBJOknVQJ58S5goQyjmwRw", "review_count": 59, "categories": [{"alias": "german", "title": "German"}, {"alias": "wine_bars", "title": "Wine Bars"}, {"alias": "cafes", "title": "Cafes"}], "rating": 4.5, "coordinates": {"latitude": 53.5784513759813, "longitude": 9.9745480560469}, "transactions": [], "price": "\u20ac\u20ac", "location": {"address1": "Bismarckstr. 151", "address2": "", "address3": "", "city": "Hamburg", "zip_code": "20253", "country": "DE", "state": "HH", "display_address": ["Bismarckstr. 151", "20253 Hamburg", "Germany"]}, "phone": "+494055891343", "display_phone": "+49 40 55891343", "distance": 1006.8967591152715}, {"id": "iO72nlCUUTigMJzPDOHT5w", "alias": "xe\u00f4m-hamburg-2", "name": "Xe\u00f4m", "image_url": "https://s3-media2.fl.yelpcdn.com/bphoto/dUsn3dSewIJBlQ-pLV2INw/o.jpg", "is_closed": false, "url": "https://www.yelp.com/biz/xe%C3%B4m-hamburg-2?adjust_creative=hBJOknVQJ58S5goQyjmwRw&utm_campaign=yelp_api_v3&utm_medium=api_v3_business_search&utm_source=hBJOknVQJ58S5goQyjmwRw", "review_count": 100, "categories": [{"alias": "vietnamese", "title": "Vietnamese"}], "rating": 4.5, "coordinates": {"latitude": 53.559304, "longitude": 9.975204}, "transactions": [], "price": "\u20ac\u20ac", "location": {"address1": "Karolinenstr. 25", "address2": "", "address3": "", "city": "Hamburg", "zip_code": "20357", "country": "DE", "state": "HH", "display_address": ["Karolinenstr. 25", "20357 Hamburg", "Germany"]}, "phone": "+494018138263", "display_phone": "+49 40 18138263", "distance": 1129.701607621589}, {"id": "P5N-xyzNtisUnpMsCobMaQ", "alias": "mathilde-hamburg", "name": "Mathilde", "image_url": "https://s3-media2.fl.yelpcdn.com/bphoto/9c5D2QnTGYp6gFq01dtNWw/o.jpg", "is_closed": false, "url": "https://www.yelp.com/biz/mathilde-hamburg?adjust_creative=hBJOknVQJ58S5goQyjmwRw&utm_campaign=yelp_api_v3&utm_medium=api_v3_business_search&utm_source=hBJOknVQJ58S5goQyjmwRw", "review_count": 78, "categories": [{"alias": "cafes", "title": "Cafes"}], "rating": 4.5, "coordinates": {"latitude": 53.57166, "longitude": 9.9766999}, "transactions": [], "price": "\u20ac\u20ac", "location": {"address1": "Bogenstr. 5", "address2": null, "address3": null, "city": "Hamburg", "zip_code": "20144", "country": "DE", "state": "HH", "display_address": ["Bogenstr. 5", "20144 Hamburg", "Germany"]}, "phone": "+494041495384", "display_phone": "+49 40 41495384", "distance": 244.45372929772353}, {"id": "xFwpDa9hOqFIVdCXr3EDjg", "alias": "falafel-haus-hamburg", "name": "Falafel Haus", "image_url": "https://s3-media2.fl.yelpcdn.com/bphoto/vD41YrSDf9dss4S-UnkgRg/o.jpg", "is_closed": false, "url": "https://www.yelp.com/biz/falafel-haus-hamburg?adjust_creative=hBJOknVQJ58S5goQyjmwRw&utm_campaign=yelp_api_v3&utm_medium=api_v3_business_search&utm_source=hBJOknVQJ58S5goQyjmwRw", "review_count": 22, "categories": [{"alias": "mideastern", "title": "Middle Eastern"}], "rating": 4.5, "coordinates": {"latitude": 53.566115580051, "longitude": 9.98238057130372}, "transactions": [], "price": "\u20ac", "location": {"address1": "Grindelallee 44", "address2": "", "address3": "", "city": "Hamburg", "zip_code": "20146", "country": "DE", "state": "HH", "display_address": ["Grindelallee 44", "20146 Hamburg", "Germany"]}, "phone": "", "display_phone": "", "distance": 552.7011857064548}, {"id": "4mb5yTIDa0J5lE7EO5TU6g", "alias": "asia-lounge-hamburg", "name": "Asia Lounge", "image_url": "https://s3-media2.fl.yelpcdn.com/bphoto/ic1wWYNT7n9SuuU3hdTcPQ/o.jpg", "is_closed": false, "url": "https://www.yelp.com/biz/asia-lounge-hamburg?adjust_creative=hBJOknVQJ58S5goQyjmwRw&utm_campaign=yelp_api_v3&utm_medium=api_v3_business_search&utm_source=hBJOknVQJ58S5goQyjmwRw", "review_count": 43, "categories": [{"alias": "panasian", "title": "Pan Asian"}], "rating": 4.0, "coordinates": {"latitude": 53.56946, "longitude": 9.97967}, "transactions": [], "price": "\u20ac", "location": {"address1": "Grindelallee 146", "address2": null, "address3": null, "city": "Hamburg", "zip_code": "20146", "country": "DE", "state": "HH", "display_address": ["Grindelallee 146", "20146 Hamburg", "Germany"]}, "phone": "+494098260000", "display_phone": "+49 40 98260000", "distance": 247.3718197403039}, {"id": "DjsF_oRkhVQQbZeDPWDFFw", "alias": "hanging-out-hamburg-3", "name": "Hanging Out", "image_url": "https://s3-media2.fl.yelpcdn.com/bphoto/21qlJn4fXyYbEfxt4CkLDg/o.jpg", "is_closed": false, "url": "https://www.yelp.com/biz/hanging-out-hamburg-3?adjust_creative=hBJOknVQJ58S5goQyjmwRw&utm_campaign=yelp_api_v3&utm_medium=api_v3_business_search&utm_source=hBJOknVQJ58S5goQyjmwRw", "review_count": 1, "categories": [{"alias": "cafes", "title": "Cafes"}], "rating": 5.0, "coordinates": {"latitude": 53.5681117, "longitude": 9.9813964}, "transactions": [], "location": {"address1": "Bornstr. 18", "address2": null, "address3": "", "city": "Hamburg", "zip_code": "20146", "country": "DE", "state": "HH", "display_address": ["Bornstr. 18", "20146 Hamburg", "Germany"]}, "phone": "+4917662409068", "display_phone": "+49 176 62409068", "distance": 375.74717542869627}, {"id": "V77qVscgxQ2UUBx5RhzWaw", "alias": "grindelberger-hamburg", "name": "Grindelberger", "image_url": "https://s3-media1.fl.yelpcdn.com/bphoto/K8ttzU7qnhB0OCCpyHhRoQ/o.jpg", "is_closed": false, "url": "https://www.yelp.com/biz/grindelberger-hamburg?adjust_creative=hBJOknVQJ58S5goQyjmwRw&utm_campaign=yelp_api_v3&utm_medium=api_v3_business_search&utm_source=hBJOknVQJ58S5goQyjmwRw", "review_count": 5, "categories": [{"alias": "burgers", "title": "Burgers"}, {"alias": "pizza", "title": "Pizza"}, {"alias": "steak", "title": "Steakhouses"}], "rating": 5.0, "coordinates": {"latitude": 53.5775275596491, "longitude": 9.97688145648934}, "transactions": [], "location": {"address1": "Grindelberg 81 - 83", "address2": "", "address3": null, "city": "Hamburg", "zip_code": "20144", "country": "DE", "state": "HH", "display_address": ["Grindelberg 81 - 83", "20144 Hamburg", "Germany"]}, "phone": "", "display_phone": "", "distance": 899.6933173077049}, {"id": "escJjofqfa11ZGW_IQeTMQ", "alias": "orexis-by-jorgo-hamburg", "name": "orexis by Jorgo", "image_url": "https://s3-media2.fl.yelpcdn.com/bphoto/ngIZqJPFSQ6H4Hl9WiW7eg/o.jpg", "is_closed": false, "url": "https://www.yelp.com/biz/orexis-by-jorgo-hamburg?adjust_creative=hBJOknVQJ58S5goQyjmwRw&utm_campaign=yelp_api_v3&utm_medium=api_v3_business_search&utm_source=hBJOknVQJ58S5goQyjmwRw", "review_count": 33, "categories": [{"alias": "greek", "title": "Greek"}], "rating": 4.5, "coordinates": {"latitude": 53.57076, "longitude": 9.97125}, "transactions": [], "price": "\u20ac\u20ac", "location": {"address1": "Gustav-Falke-Str. 30", "address2": "", "address3": null, "city": "Hamburg", "zip_code": "20144", "country": "DE", "state": "HH", "display_address": ["Gustav-Falke-Str. 30", "20144 Hamburg", "Germany"]}, "phone": "+4940418935", "display_phone": "+49 40 418935", "distance": 357.05131584079436}, {"id": "wdbpGLMljtPesAspUMePWA", "alias": "thang-long-hamburg-4", "name": "Thang Long", "image_url": "https://s3-media3.fl.yelpcdn.com/bphoto/TCXM7ErUV3_08rOd5v2ZBA/o.jpg", "is_closed": false, "url": "https://www.yelp.com/biz/thang-long-hamburg-4?adjust_creative=hBJOknVQJ58S5goQyjmwRw&utm_campaign=yelp_api_v3&utm_medium=api_v3_business_search&utm_source=hBJOknVQJ58S5goQyjmwRw", "review_count": 89, "categories": [{"alias": "vietnamese", "title": "Vietnamese"}], "rating": 4.0, "coordinates": {"latitude": 53.5679, "longitude": 9.98005}, "transactions": [], "price": "\u20ac\u20ac", "location": {"address1": "Grindelallee 91", "address2": "", "address3": "", "city": "Hamburg", "zip_code": "20146", "country": "DE", "state": "HH", "display_address": ["Grindelallee 91", "20146 Hamburg", "Germany"]}, "phone": "+494068876621", "display_phone": "+49 40 68876621", "distance": 296.8559298940885}, {"id": "ObE8tNAibi11mHCnqtu9Uw", "alias": "milchbar-hamburg-2", "name": "Milchbar", "image_url": "https://s3-media4.fl.yelpcdn.com/bphoto/Ci3qMN6c5j97N25El6wE_A/o.jpg", "is_closed": false, "url": "https://www.yelp.com/biz/milchbar-hamburg-2?adjust_creative=hBJOknVQJ58S5goQyjmwRw&utm_campaign=yelp_api_v3&utm_medium=api_v3_business_search&utm_source=hBJOknVQJ58S5goQyjmwRw", "review_count": 1, "categories": [{"alias": "desserts", "title": "Desserts"}, {"alias": "cafes", "title": "Cafes"}], "rating": 4.0, "coordinates": {"latitude": 53.5682436680063, "longitude": 9.98163902965568}, "transactions": [], "location": {"address1": "Bornstr. 18", "address2": "", "address3": null, "city": "Hamburg", "zip_code": "20146", "country": "DE", "state": "HH", "display_address": ["Bornstr. 18", "20146 Hamburg", "Germany"]}, "phone": "+494055897532", "display_phone": "+49 40 55897532", "distance": 385.17284165930874}, {"id": "PMGBFSHLx5y5JRsFuGV6fg", "alias": "campus-d\u00f6ner-hamburg", "name": "Campus D\u00f6ner", "image_url": "https://s3-media2.fl.yelpcdn.com/bphoto/8_ytfY9KGRo69_Wslz8AWA/o.jpg", "is_closed": false, "url": "https://www.yelp.com/biz/campus-d%C3%B6ner-hamburg?adjust_creative=hBJOknVQJ58S5goQyjmwRw&utm_campaign=yelp_api_v3&utm_medium=api_v3_business_search&utm_source=hBJOknVQJ58S5goQyjmwRw", "review_count": 24, "categories": [{"alias": "kebab", "title": "Kebab"}], "rating": 4.0, "coordinates": {"latitude": 53.5669712793989, "longitude": 9.9812775850296}, "transactions": [], "price": "\u20ac", "location": {"address1": "Grindelallee 88", "address2": "", "address3": "", "city": "Hamburg", "zip_code": "20146", "country": "DE", "state": "HH", "display_address": ["Grindelallee 88", "20146 Hamburg", "Germany"]}, "phone": "+494039106210", "display_phone": "+49 40 39106210", "distance": 435.4135539560083}, {"id": "JhKAgKjSuhzATNByqHTANw", "alias": "kaalia-hamburg", "name": "Kaalia", "image_url": "https://s3-media1.fl.yelpcdn.com/bphoto/W4aVIgnUwPu4WhvVM5xqQA/o.jpg", "is_closed": false, "url": "https://www.yelp.com/biz/kaalia-hamburg?adjust_creative=hBJOknVQJ58S5goQyjmwRw&utm_campaign=yelp_api_v3&utm_medium=api_v3_business_search&utm_source=hBJOknVQJ58S5goQyjmwRw", "review_count": 7, "categories": [{"alias": "bistros", "title": "Bistros"}], "rating": 5.0, "coordinates": {"latitude": 53.56623, "longitude": 9.98003}, "transactions": [], "price": "\u20ac\u20ac", "location": {"address1": "Rentzelstr. 13", "address2": "", "address3": "", "city": "Hamburg", "zip_code": "20146", "country": "DE", "state": "HH", "display_address": ["Rentzelstr. 13", "20146 Hamburg", "Germany"]}, "phone": "+4915733120817", "display_phone": "+49 1573 3120817", "distance": 440.5492567086088}, {"id": "1F1qeAGTy9bTexDqbjKUvQ", "alias": "rucola-e-parma-hamburg", "name": "Rucola e Parma", "image_url": "https://s3-media3.fl.yelpcdn.com/bphoto/uWLXwSeH5lheeB8_jn8q-g/o.jpg", "is_closed": false, "url": "https://www.yelp.com/biz/rucola-e-parma-hamburg?adjust_creative=hBJOknVQJ58S5goQyjmwRw&utm_campaign=yelp_api_v3&utm_medium=api_v3_business_search&utm_source=hBJOknVQJ58S5goQyjmwRw", "review_count": 24, "categories": [{"alias": "italian", "title": "Italian"}], "rating": 4.5, "coordinates": {"latitude": 53.57007, "longitude": 9.97537}, "transactions": [], "price": "\u20ac\u20ac", "location": {"address1": "Beim Schlump 27", "address2": "", "address3": "", "city": "Hamburg", "zip_code": "20144", "country": "DE", "state": "HH", "display_address": ["Beim Schlump 27", "20144 Hamburg", "Germany"]}, "phone": "+494045069988", "display_phone": "+49 40 45069988", "distance": 119.60321154322568}, {"id": "XQ4wQ5Yzr38AIy8poxa5xA", "alias": "ycksushilounge-hamburg", "name": "Ycksushilounge", "image_url": "https://s3-media3.fl.yelpcdn.com/bphoto/h6R8wu5s9bshpp_WqwgVMA/o.jpg", "is_closed": false, "url": "https://www.yelp.com/biz/ycksushilounge-hamburg?adjust_creative=hBJOknVQJ58S5goQyjmwRw&utm_campaign=yelp_api_v3&utm_medium=api_v3_business_search&utm_source=hBJOknVQJ58S5goQyjmwRw", "review_count": 1, "categories": [{"alias": "japanese", "title": "Japanese"}], "rating": 5.0, "coordinates": {"latitude": 53.565023, "longitude": 9.981192}, "transactions": [], "location": {"address1": "Bundesstr. 24", "address2": null, "address3": "", "city": "Hamburg", "zip_code": "20148", "country": "DE", "state": "HH", "display_address": ["Bundesstr. 24", "20148 Hamburg", "Germany"]}, "phone": "+494055634231", "display_phone": "+49 40 55634231", "distance": 591.0390590973793}, {"id": "_pbeMqhzNnIxR3VT38zzdQ", "alias": "kim-long-hamburg-2", "name": "Kim Long", "image_url": "https://s3-media3.fl.yelpcdn.com/bphoto/o97uyYL1oRzLImgCz3Sh0g/o.jpg", "is_closed": false, "url": "https://www.yelp.com/biz/kim-long-hamburg-2?adjust_creative=hBJOknVQJ58S5goQyjmwRw&utm_campaign=yelp_api_v3&utm_medium=api_v3_business_search&utm_source=hBJOknVQJ58S5goQyjmwRw", "review_count": 6, "categories": [{"alias": "chinese", "title": "Chinese"}], "rating": 4.0, "coordinates": {"latitude": 53.56492, "longitude": 9.97753}, "transactions": [], "price": "\u20ac\u20ac\u20ac\u20ac", "location": {"address1": "Rentzelstr. 52", "address2": "", "address3": "", "city": "Hamburg", "zip_code": "20146", "country": "DE", "state": "HH", "display_address": ["Rentzelstr. 52", "20146 Hamburg", "Germany"]}, "phone": "+494083983073", "display_phone": "+49 40 83983073", "distance": 514.2348157183003}, {"id": "A6E4PXnh0a6eUrFpdusW_A", "alias": "imbiss-am-grindel-hamburg", "name": "Imbiss am Grindel", "image_url": "https://s3-media1.fl.yelpcdn.com/bphoto/52mtpBnxjuLoWEt-NB8S4Q/o.jpg", "is_closed": false, "url": "https://www.yelp.com/biz/imbiss-am-grindel-hamburg?adjust_creative=hBJOknVQJ58S5goQyjmwRw&utm_campaign=yelp_api_v3&utm_medium=api_v3_business_search&utm_source=hBJOknVQJ58S5goQyjmwRw", "review_count": 22, "categories": [{"alias": "foodstands", "title": "Food Stands"}], "rating": 4.0, "coordinates": {"latitude": 53.5721586680924, "longitude": 9.97917776262649}, "transactions": [], "price": "\u20ac", "location": {"address1": "Grindelallee 188", "address2": "", "address3": "", "city": "Hamburg", "zip_code": "20144", "country": "DE", "state": "HH", "display_address": ["Grindelallee 188", "20144 Hamburg", "Germany"]}, "phone": "+494041350435", "display_phone": "+49 40 41350435", "distance": 361.02523224091993}, {"id": "5MwlB28Gs3ZzxlwWA2RGag", "alias": "curry-grindel-hamburg", "name": "Curry Grindel", "image_url": "https://s3-media3.fl.yelpcdn.com/bphoto/skt9h-nKuTVVw0Ah_B19Cw/o.jpg", "is_closed": false, "url": "https://www.yelp.com/biz/curry-grindel-hamburg?adjust_creative=hBJOknVQJ58S5goQyjmwRw&utm_campaign=yelp_api_v3&utm_medium=api_v3_business_search&utm_source=hBJOknVQJ58S5goQyjmwRw", "review_count": 138, "categories": [{"alias": "currysausage", "title": "Curry Sausage"}, {"alias": "hotdogs", "title": "Fast Food"}], "rating": 4.0, "coordinates": {"latitude": 53.566893, "longitude": 9.980414}, "transactions": [], "price": "\u20ac\u20ac", "location": {"address1": "Rentzelstr. 2", "address2": "", "address3": "", "city": "Hamburg", "zip_code": "20146", "country": "DE", "state": "HH", "display_address": ["Rentzelstr. 2", "20146 Hamburg", "Germany"]}, "phone": "+494041338581", "display_phone": "+49 40 41338581", "distance": 399.04336338808537}, {"id": "DUD-AUE4N5qbKMo6DBocLQ", "alias": "delta-bistro-hamburg", "name": "Delta Bistro", "image_url": "https://s3-media4.fl.yelpcdn.com/bphoto/cWSRvODjsQ--s1hsR_vXCA/o.jpg", "is_closed": false, "url": "https://www.yelp.com/biz/delta-bistro-hamburg?adjust_creative=hBJOknVQJ58S5goQyjmwRw&utm_campaign=yelp_api_v3&utm_medium=api_v3_business_search&utm_source=hBJOknVQJ58S5goQyjmwRw", "review_count": 137, "categories": [{"alias": "bistros", "title": "Bistros"}], "rating": 4.5, "coordinates": {"latitude": 53.562, "longitude": 9.970557}, "transactions": [], "price": "\u20ac\u20ac\u20ac", "location": {"address1": "Lagerstr. 11", "address2": null, "address3": null, "city": "Hamburg", "zip_code": "20357", "country": "DE", "state": "HH", "display_address": ["Lagerstr. 11", "20357 Hamburg", "Germany"]}, "phone": "+49404316136", "display_phone": "+49 40 4316136", "distance": 907.2829361361822}, {"id": "X6z20azUalqp2VBMP1ZU6g", "alias": "terzetto-hamburg-2", "name": "Terzetto", "image_url": "https://s3-media1.fl.yelpcdn.com/bphoto/TD1mQeMXzEB1EvvrOJIZDQ/o.jpg", "is_closed": false, "url": "https://www.yelp.com/biz/terzetto-hamburg-2?adjust_creative=hBJOknVQJ58S5goQyjmwRw&utm_campaign=yelp_api_v3&utm_medium=api_v3_business_search&utm_source=hBJOknVQJ58S5goQyjmwRw", "review_count": 64, "categories": [{"alias": "italian", "title": "Italian"}, {"alias": "wine_bars", "title": "Wine Bars"}], "rating": 4.5, "coordinates": {"latitude": 53.5657364, "longitude": 9.979304}, "transactions": [], "price": "\u20ac\u20ac", "location": {"address1": "Bundesstr. 31", "address2": "", "address3": "", "city": "Hamburg", "zip_code": "20146", "country": "DE", "state": "HH", "display_address": ["Bundesstr. 31", "20146 Hamburg", "Germany"]}, "phone": "+4940442891", "display_phone": "+49 40 442891", "distance": 461.6513335431723}, {"id": "hVw0zSRTyOzFi3WGRLooUA", "alias": "balz-und-balz-hamburg", "name": "Balz und Balz", "image_url": "https://s3-media2.fl.yelpcdn.com/bphoto/AdX9shvpC8_DC-Kfhpvn_A/o.jpg", "is_closed": false, "url": "https://www.yelp.com/biz/balz-und-balz-hamburg?adjust_creative=hBJOknVQJ58S5goQyjmwRw&utm_campaign=yelp_api_v3&utm_medium=api_v3_business_search&utm_source=hBJOknVQJ58S5goQyjmwRw", "review_count": 15, "categories": [{"alias": "cafes", "title": "Cafes"}], "rating": 4.5, "coordinates": {"latitude": 53.5795110586246, "longitude": 9.97655689716339}, "transactions": [], "price": "\u20ac", "location": {"address1": "Lehmweg 6", "address2": "", "address3": "", "city": "Hamburg", "zip_code": "20251", "country": "DE", "state": "HH", "display_address": ["Lehmweg 6", "20251 Hamburg", "Germany"]}, "phone": "+494060438833", "display_phone": "+49 40 60438833", "distance": 1119.3117090716366}, {"id": "S0iyHqWxJuKS1XpnpYZDsw", "alias": "hadleys-caf\u00e9-bar-hamburg-3", "name": "Hadley's Caf\u00e9 Bar", "image_url": "https://s3-media1.fl.yelpcdn.com/bphoto/9a-_Sc2NpA0rBJraVuaqZQ/o.jpg", "is_closed": false, "url": "https://www.yelp.com/biz/hadleys-caf%C3%A9-bar-hamburg-3?adjust_creative=hBJOknVQJ58S5goQyjmwRw&utm_campaign=yelp_api_v3&utm_medium=api_v3_business_search&utm_source=hBJOknVQJ58S5goQyjmwRw", "review_count": 96, "categories": [{"alias": "bars", "title": "Bars"}, {"alias": "cafes", "title": "Cafes"}], "rating": 3.5, "coordinates": {"latitude": 53.570575898216, "longitude": 9.9771439338684}, "transactions": [], "price": "\u20ac\u20ac", "location": {"address1": "Beim Schlump 84 a", "address2": null, "address3": null, "city": "Hamburg", "zip_code": "20144", "country": "DE", "state": "HH", "display_address": ["Beim Schlump 84 a", "20144 Hamburg", "Germany"]}, "phone": "+49404505075", "display_phone": "+49 40 4505075", "distance": 141.00851774627805}, {"id": "ulGzADfVgeBesptFewL46g", "alias": "kumpir-k\u00f6nig-hamburg-2", "name": "Kumpir K\u00f6nig", "image_url": "https://s3-media3.fl.yelpcdn.com/bphoto/wWDOq11dfjYwVO4yNF_h_g/o.jpg", "is_closed": false, "url": "https://www.yelp.com/biz/kumpir-k%C3%B6nig-hamburg-2?adjust_creative=hBJOknVQJ58S5goQyjmwRw&utm_campaign=yelp_api_v3&utm_medium=api_v3_business_search&utm_source=hBJOknVQJ58S5goQyjmwRw", "review_count": 54, "categories": [{"alias": "potatoes", "title": "Potatoes"}, {"alias": "salad", "title": "Salad"}], "rating": 3.5, "coordinates": {"latitude": 53.5672778437459, "longitude": 9.98137641734961}, "transactions": [], "price": "\u20ac", "location": {"address1": "Grindelhof 8", "address2": "", "address3": "", "city": "Hamburg", "zip_code": "20146", "country": "DE", "state": "HH", "display_address": ["Grindelhof 8", "20146 Hamburg", "Germany"]}, "phone": "+494041353241", "display_phone": "+49 40 41353241", "distance": 420.0235205177431}, {"id": "Xa9NCe1WUgJXye3oYUWd2w", "alias": "caf\u00e9-backwahn-hamburg-2", "name": "Caf\u00e9 Backwahn", "image_url": "https://s3-media2.fl.yelpcdn.com/bphoto/I_MUV6loGIUJEZQlU8TLFA/o.jpg", "is_closed": false, "url": "https://www.yelp.com/biz/caf%C3%A9-backwahn-hamburg-2?adjust_creative=hBJOknVQJ58S5goQyjmwRw&utm_campaign=yelp_api_v3&utm_medium=api_v3_business_search&utm_source=hBJOknVQJ58S5goQyjmwRw", "review_count": 62, "categories": [{"alias": "cafes", "title": "Cafes"}], "rating": 4.0, "coordinates": {"latitude": 53.56958, "longitude": 9.97959}, "transactions": [], "price": "\u20ac\u20ac", "location": {"address1": "Grindelallee 148", "address2": null, "address3": null, "city": "Hamburg", "zip_code": "20146", "country": "DE", "state": "HH", "display_address": ["Grindelallee 148", "20146 Hamburg", "Germany"]}, "phone": "+49404106141", "display_phone": "+49 40 4106141", "distance": 233.3509152679347}, {"id": "rC23Eqdm2lOrJdbtmtWowg", "alias": "balutschi-hamburg", "name": "Balutschi", "image_url": "https://s3-media4.fl.yelpcdn.com/bphoto/mP7jkFGBUBkPfpEgjfW0lg/o.jpg", "is_closed": false, "url": "https://www.yelp.com/biz/balutschi-hamburg?adjust_creative=hBJOknVQJ58S5goQyjmwRw&utm_campaign=yelp_api_v3&utm_medium=api_v3_business_search&utm_source=hBJOknVQJ58S5goQyjmwRw", "review_count": 65, "categories": [{"alias": "pakistani", "title": "Pakistani"}], "rating": 4.0, "coordinates": {"latitude": 53.56573, "longitude": 9.98225}, "transactions": [], "price": "\u20ac\u20ac", "location": {"address1": "Grindelallee 31", "address2": null, "address3": null, "city": "Hamburg", "zip_code": "20146", "country": "DE", "state": "HH", "display_address": ["Grindelallee 31", "20146 Hamburg", "Germany"]}, "phone": "+4940452479", "display_phone": "+49 40 452479", "distance": 571.5918560725752}, {"id": "UPuh64tJNNta2plZVvZjMA", "alias": "hopi-hamburg", "name": "Hopi", "image_url": "https://s3-media2.fl.yelpcdn.com/bphoto/SCPn9xILgAE3DeFdONSwPQ/o.jpg", "is_closed": false, "url": "https://www.yelp.com/biz/hopi-hamburg?adjust_creative=hBJOknVQJ58S5goQyjmwRw&utm_campaign=yelp_api_v3&utm_medium=api_v3_business_search&utm_source=hBJOknVQJ58S5goQyjmwRw", "review_count": 102, "categories": [{"alias": "steak", "title": "Steakhouses"}], "rating": 4.0, "coordinates": {"latitude": 53.57778, "longitude": 9.97809}, "transactions": [], "price": "\u20ac\u20ac", "location": {"address1": "Oberstr. 3", "address2": null, "address3": null, "city": "Hamburg", "zip_code": "20144", "country": "DE", "state": "HH", "display_address": ["Oberstr. 3", "20144 Hamburg", "Germany"]}, "phone": "+49404200940", "display_phone": "+49 40 4200940", "distance": 939.9073280228637}, {"id": "vIGH1fiPnzFdlu_sGaBcmA", "alias": "my-pok\u00e9-hamburg", "name": "My Pok\u00e9", "image_url": "https://s3-media1.fl.yelpcdn.com/bphoto/W2SiCZua5-MZSgqIOvMzUw/o.jpg", "is_closed": false, "url": "https://www.yelp.com/biz/my-pok%C3%A9-hamburg?adjust_creative=hBJOknVQJ58S5goQyjmwRw&utm_campaign=yelp_api_v3&utm_medium=api_v3_business_search&utm_source=hBJOknVQJ58S5goQyjmwRw", "review_count": 1, "categories": [{"alias": "hawaiian", "title": "Hawaiian"}], "rating": 5.0, "coordinates": {"latitude": 53.5799, "longitude": 9.97508}, "transactions": [], "location": {"address1": "Hoheluftchaussee 20", "address2": null, "address3": "", "city": "Hamburg", "zip_code": "20253", "country": "DE", "state": "HH", "display_address": ["Hoheluftchaussee 20", "20253 Hamburg", "Germany"]}, "phone": "+494052303236", "display_phone": "+49 40 52303236", "distance": 1154.8711657444237}, {"id": "Gwz7mvJJ_agIQVuL0AEldQ", "alias": "cafeteria66-hamburg", "name": "Cafeteria66", "image_url": "https://s3-media3.fl.yelpcdn.com/bphoto/o10xKr1gzyz0mtIzqR7xjg/o.jpg", "is_closed": false, "url": "https://www.yelp.com/biz/cafeteria66-hamburg?adjust_creative=hBJOknVQJ58S5goQyjmwRw&utm_campaign=yelp_api_v3&utm_medium=api_v3_business_search&utm_source=hBJOknVQJ58S5goQyjmwRw", "review_count": 5, "categories": [{"alias": "cafeteria", "title": "Cafeteria"}], "rating": 4.0, "coordinates": {"latitude": 53.5749567374642, "longitude": 9.9789930016052}, "transactions": [], "price": "\u20ac", "location": {"address1": "Grindelberg 66", "address2": "", "address3": null, "city": "Hamburg", "zip_code": "20144", "country": "DE", "state": "HH", "display_address": ["Grindelberg 66", "20144 Hamburg", "Germany"]}, "phone": "+49404229402", "display_phone": "+49 40 4229402", "distance": 640.3405386043257}, {"id": "56ji4Ys7MKUwvd8Bx6PKMA", "alias": "meat-market-hamburg", "name": "Meat Market", "image_url": "https://s3-media2.fl.yelpcdn.com/bphoto/fwOz21HwER3txyaYpLehjw/o.jpg", "is_closed": false, "url": "https://www.yelp.com/biz/meat-market-hamburg?adjust_creative=hBJOknVQJ58S5goQyjmwRw&utm_campaign=yelp_api_v3&utm_medium=api_v3_business_search&utm_source=hBJOknVQJ58S5goQyjmwRw", "review_count": 15, "categories": [{"alias": "meats", "title": "Meat Shops"}, {"alias": "steak", "title": "Steakhouses"}], "rating": 4.5, "coordinates": {"latitude": 53.580079, "longitude": 9.97451}, "transactions": [], "price": "\u20ac\u20ac\u20ac", "location": {"address1": "Hoheluftchaussee 30", "address2": "", "address3": null, "city": "Hamburg", "zip_code": "20253", "country": "DE", "state": "HH", "display_address": ["Hoheluftchaussee 30", "20253 Hamburg", "Germany"]}, "phone": "+494042939444", "display_phone": "+49 40 42939444", "distance": 1187.2391362534913}, {"id": "nKC1f9OfL7ocoiraNOJrQA", "alias": "trastevere-uno-hamburg", "name": "Trastevere Uno", "image_url": "https://s3-media3.fl.yelpcdn.com/bphoto/4oiBoq3HHemOysGGIUcZ0Q/o.jpg", "is_closed": false, "url": "https://www.yelp.com/biz/trastevere-uno-hamburg?adjust_creative=hBJOknVQJ58S5goQyjmwRw&utm_campaign=yelp_api_v3&utm_medium=api_v3_business_search&utm_source=hBJOknVQJ58S5goQyjmwRw", "review_count": 8, "categories": [{"alias": "italian", "title": "Italian"}], "rating": 5.0, "coordinates": {"latitude": 53.56829, "longitude": 9.98137}, "transactions": [], "price": "\u20ac\u20ac\u20ac", "location": {"address1": "Bornstr. 20", "address2": null, "address3": null, "city": "Hamburg", "zip_code": "20146", "country": "DE", "state": "HH", "display_address": ["Bornstr. 20", "20146 Hamburg", "Germany"]}, "phone": "+4940456411", "display_phone": "+49 40 456411", "distance": 357.08622623140354}, {"id": "8kajAjfOe80lmJpWSXIDHg", "alias": "dwaraka-hamburg", "name": "Dwaraka", "image_url": "https://s3-media3.fl.yelpcdn.com/bphoto/gX3ApBNOVjGRTrqAyf2mmw/o.jpg", "is_closed": false, "url": "https://www.yelp.com/biz/dwaraka-hamburg?adjust_creative=hBJOknVQJ58S5goQyjmwRw&utm_campaign=yelp_api_v3&utm_medium=api_v3_business_search&utm_source=hBJOknVQJ58S5goQyjmwRw", "review_count": 34, "categories": [{"alias": "indpak", "title": "Indian"}], "rating": 4.0, "coordinates": {"latitude": 53.5652216600553, "longitude": 9.97775729062039}, "transactions": [], "price": "\u20ac\u20ac", "location": {"address1": "Rentzelstr. 38", "address2": "", "address3": "", "city": "Hamburg", "zip_code": "20146", "country": "DE", "state": "HH", "display_address": ["Rentzelstr. 38", "20146 Hamburg", "Germany"]}, "phone": "+4940453237", "display_phone": "+49 40 453237", "distance": 481.4418582610631}, {"id": "CxLiEt55FW3CNjOIDNuaQg", "alias": "variable-hamburg-2", "name": "Variable", "image_url": "https://s3-media2.fl.yelpcdn.com/bphoto/OJp-lNajUGlfPxfajAZAyA/o.jpg", "is_closed": false, "url": "https://www.yelp.com/biz/variable-hamburg-2?adjust_creative=hBJOknVQJ58S5goQyjmwRw&utm_campaign=yelp_api_v3&utm_medium=api_v3_business_search&utm_source=hBJOknVQJ58S5goQyjmwRw", "review_count": 30, "categories": [{"alias": "bars", "title": "Bars"}, {"alias": "cafes", "title": "Cafes"}], "rating": 4.0, "coordinates": {"latitude": 53.55916, "longitude": 9.97518}, "transactions": [], "price": "\u20ac\u20ac", "location": {"address1": "Karolinenstr. 23", "address2": null, "address3": null, "city": "Hamburg", "zip_code": "20357", "country": "DE", "state": "HH", "display_address": ["Karolinenstr. 23", "20357 Hamburg", "Germany"]}, "phone": "+49404305326", "display_phone": "+49 40 4305326", "distance": 1145.4124725950317}, {"id": "NpLa9Q1CrWCUC2YDb6WQvQ", "alias": "qrito-hamburg", "name": "Qrito", "image_url": "https://s3-media3.fl.yelpcdn.com/bphoto/1H8_nTcCFfjwQEKdrpA9Gw/o.jpg", "is_closed": false, "url": "https://www.yelp.com/biz/qrito-hamburg?adjust_creative=hBJOknVQJ58S5goQyjmwRw&utm_campaign=yelp_api_v3&utm_medium=api_v3_business_search&utm_source=hBJOknVQJ58S5goQyjmwRw", "review_count": 96, "categories": [{"alias": "mexican", "title": "Mexican"}], "rating": 3.5, "coordinates": {"latitude": 53.56725, "longitude": 9.97998}, "transactions": [], "price": "\u20ac\u20ac", "location": {"address1": "Grindelallee 79", "address2": null, "address3": null, "city": "Hamburg", "zip_code": "20146", "country": "DE", "state": "HH", "display_address": ["Grindelallee 79", "20146 Hamburg", "Germany"]}, "phone": "+494044405273", "display_phone": "+49 40 44405273", "distance": 350.73666259305895}, {"id": "IPO-_x2dwZFbCyS3tdfsaA", "alias": "sternchance-hamburg", "name": "Sternchance", "image_url": "https://s3-media1.fl.yelpcdn.com/bphoto/D5wgq44I3hmAzCZf8RCvNQ/o.jpg", "is_closed": false, "url": "https://www.yelp.com/biz/sternchance-hamburg?adjust_creative=hBJOknVQJ58S5goQyjmwRw&utm_campaign=yelp_api_v3&utm_medium=api_v3_business_search&utm_source=hBJOknVQJ58S5goQyjmwRw", "review_count": 51, "categories": [{"alias": "cafes", "title": "Cafes"}, {"alias": "breakfast_brunch", "title": "Breakfast & Brunch"}], "rating": 4.0, "coordinates": {"latitude": 53.56464, "longitude": 9.9755}, "transactions": [], "price": "\u20ac\u20ac", "location": {"address1": "Schr\u00f6derstiftstr. 7", "address2": null, "address3": null, "city": "Hamburg", "zip_code": "20146", "country": "DE", "state": "HH", "display_address": ["Schr\u00f6derstiftstr. 7", "20146 Hamburg", "Germany"]}, "phone": "+49404301168", "display_phone": "+49 40 4301168", "distance": 553.2791662916878}, {"id": "uo1dTeJ-eMLAsq1ZBM4s3Q", "alias": "maui-pok\u00e9-guys-hamburg", "name": "Maui Pok\u00e9 Guys", "image_url": "https://s3-media3.fl.yelpcdn.com/bphoto/O449K4e5Ca9DcjjDxoGqvg/o.jpg", "is_closed": false, "url": "https://www.yelp.com/biz/maui-pok%C3%A9-guys-hamburg?adjust_creative=hBJOknVQJ58S5goQyjmwRw&utm_campaign=yelp_api_v3&utm_medium=api_v3_business_search&utm_source=hBJOknVQJ58S5goQyjmwRw", "review_count": 5, "categories": [{"alias": "hawaiian", "title": "Hawaiian"}], "rating": 4.5, "coordinates": {"latitude": 53.5598570745324, "longitude": 9.97524625508524}, "transactions": [], "location": {"address1": "Karolinenstr. 30", "address2": "", "address3": null, "city": "Hamburg", "zip_code": "20357", "country": "DE", "state": "HH", "display_address": ["Karolinenstr. 30", "20357 Hamburg", "Germany"]}, "phone": "+494030742687", "display_phone": "+49 40 30742687", "distance": 1068.143327661943}, {"id": "vLIFZZ3eLyu_q9yMshbfDg", "alias": "caf\u00e9-fele-hamburg", "name": "Caf\u00e9 Fele", "image_url": "https://s3-media3.fl.yelpcdn.com/bphoto/7P3-RYWxfYpn1G0nQlGG2Q/o.jpg", "is_closed": false, "url": "https://www.yelp.com/biz/caf%C3%A9-fele-hamburg?adjust_creative=hBJOknVQJ58S5goQyjmwRw&utm_campaign=yelp_api_v3&utm_medium=api_v3_business_search&utm_source=hBJOknVQJ58S5goQyjmwRw", "review_count": 12, "categories": [{"alias": "italian", "title": "Italian"}, {"alias": "cafes", "title": "Cafes"}], "rating": 5.0, "coordinates": {"latitude": 53.5787585310578, "longitude": 9.97406295578386}, "transactions": [], "price": "\u20ac\u20ac", "location": {"address1": "Bismarckstr. 128", "address2": "", "address3": "", "city": "Hamburg", "zip_code": "20253", "country": "DE", "state": "HH", "display_address": ["Bismarckstr. 128", "20253 Hamburg", "Germany"]}, "phone": "+494042101373", "display_phone": "+49 40 42101373", "distance": 1044.6439417892745}, {"id": "TZ36re0pwLxbeFZv_kgKiA", "alias": "dieze-hamburg", "name": "Dieze", "image_url": "https://s3-media3.fl.yelpcdn.com/bphoto/7wrAUr1ZAElcpbSV8iWg_w/o.jpg", "is_closed": false, "url": "https://www.yelp.com/biz/dieze-hamburg?adjust_creative=hBJOknVQJ58S5goQyjmwRw&utm_campaign=yelp_api_v3&utm_medium=api_v3_business_search&utm_source=hBJOknVQJ58S5goQyjmwRw", "review_count": 8, "categories": [{"alias": "cafes", "title": "Cafes"}], "rating": 4.0, "coordinates": {"latitude": 53.57089, "longitude": 9.98054}, "transactions": [], "price": "\u20ac", "location": {"address1": "Heinrich-Barth-Str. 15", "address2": "", "address3": "", "city": "Hamburg", "zip_code": "20146", "country": "DE", "state": "HH", "display_address": ["Heinrich-Barth-Str. 15", "20146 Hamburg", "Germany"]}, "phone": "", "display_phone": "", "distance": 328.86027722412564}, {"id": "Rhedu3XA3ItOVZgN4Xr6XA", "alias": "mandelmehl-und-zuckerei-hamburg", "name": "Mandelmehl und Zuckerei", "image_url": "https://s3-media2.fl.yelpcdn.com/bphoto/XBXe9BR34mwpMVlvUasFMQ/o.jpg", "is_closed": false, "url": "https://www.yelp.com/biz/mandelmehl-und-zuckerei-hamburg?adjust_creative=hBJOknVQJ58S5goQyjmwRw&utm_campaign=yelp_api_v3&utm_medium=api_v3_business_search&utm_source=hBJOknVQJ58S5goQyjmwRw", "review_count": 7, "categories": [{"alias": "cafes", "title": "Cafes"}, {"alias": "bakeries", "title": "Bakeries"}, {"alias": "macarons", "title": "Macarons"}], "rating": 4.0, "coordinates": {"latitude": 53.5696124, "longitude": 9.9824053}, "transactions": [], "price": "\u20ac\u20ac", "location": {"address1": "Rappstr. 16", "address2": "Zugang Souterrain \u00fcber Dillstra\u00dfe", "address3": "", "city": "Hamburg", "zip_code": "20146", "country": "DE", "state": "HH", "display_address": ["Rappstr. 16", "Zugang Souterrain \u00fcber Dillstra\u00dfe", "20146 Hamburg", "Germany"]}, "phone": "+494041355343", "display_phone": "+49 40 41355343", "distance": 412.1671408902222}, {"id": "lKmFCpB_nOoQALVHckpe1Q", "alias": "mensa-geomatikum-hamburg", "name": "Mensa Geomatikum", "image_url": "", "is_closed": false, "url": "https://www.yelp.com/biz/mensa-geomatikum-hamburg?adjust_creative=hBJOknVQJ58S5goQyjmwRw&utm_campaign=yelp_api_v3&utm_medium=api_v3_business_search&utm_source=hBJOknVQJ58S5goQyjmwRw", "review_count": 4, "categories": [{"alias": "canteen", "title": "Canteen"}], "rating": 4.0, "coordinates": {"latitude": 53.568286, "longitude": 9.974492}, "transactions": [], "location": {"address1": "Bundesstr. 55", "address2": "", "address3": "", "city": "Hamburg", "zip_code": "20146", "country": "DE", "state": "HH", "display_address": ["Bundesstr. 55", "20146 Hamburg", "Germany"]}, "phone": "+49404500605", "display_phone": "+49 40 4500605", "distance": 191.7069369141128}, {"id": "DlMkImBdhH7RK73y09xPFg", "alias": "vu2-hamburg", "name": "Vu2", "image_url": "https://s3-media4.fl.yelpcdn.com/bphoto/ymOAUsFyiUK-D88Xo3EpbQ/o.jpg", "is_closed": false, "url": "https://www.yelp.com/biz/vu2-hamburg?adjust_creative=hBJOknVQJ58S5goQyjmwRw&utm_campaign=yelp_api_v3&utm_medium=api_v3_business_search&utm_source=hBJOknVQJ58S5goQyjmwRw", "review_count": 1, "categories": [{"alias": "foodstands", "title": "Food Stands"}], "rating": 4.0, "coordinates": {"latitude": 53.558833, "longitude": 9.975068}, "transactions": [], "location": {"address1": "Karolinenstr. 18", "address2": "", "address3": null, "city": "Hamburg", "zip_code": "20357", "country": "DE", "state": "HH", "display_address": ["Karolinenstr. 18", "20357 Hamburg", "Germany"]}, "phone": "", "display_phone": "", "distance": 1180.311477651519}, {"id": "_LT2nOZL4ligxQFAlMAy_A", "alias": "chinaman-sushi-co-hamburg", "name": "Chinaman Sushi + co", "image_url": "https://s3-media4.fl.yelpcdn.com/bphoto/MfU1cOAdAz1aqiFsVkmGpQ/o.jpg", "is_closed": false, "url": "https://www.yelp.com/biz/chinaman-sushi-co-hamburg?adjust_creative=hBJOknVQJ58S5goQyjmwRw&utm_campaign=yelp_api_v3&utm_medium=api_v3_business_search&utm_source=hBJOknVQJ58S5goQyjmwRw", "review_count": 34, "categories": [{"alias": "panasian", "title": "Pan Asian"}], "rating": 3.5, "coordinates": {"latitude": 53.56983, "longitude": 9.97475}, "transactions": [], "price": "\u20ac\u20ac", "location": {"address1": "Beim Schlump 30", "address2": null, "address3": null, "city": "Hamburg", "zip_code": "20144", "country": "DE", "state": "HH", "display_address": ["Beim Schlump 30", "20144 Hamburg", "Germany"]}, "phone": "+4940458212", "display_phone": "+49 40 458212", "distance": 103.35907100372205}, {"id": "9LbcCE63KVimXxbJSexsdg", "alias": "mr-dam-hamburg-4", "name": "Mr Dam", "image_url": "https://s3-media3.fl.yelpcdn.com/bphoto/F7U-qewXfkQlH3Uo7d4SQQ/o.jpg", "is_closed": false, "url": "https://www.yelp.com/biz/mr-dam-hamburg-4?adjust_creative=hBJOknVQJ58S5goQyjmwRw&utm_campaign=yelp_api_v3&utm_medium=api_v3_business_search&utm_source=hBJOknVQJ58S5goQyjmwRw", "review_count": 8, "categories": [{"alias": "thai", "title": "Thai"}], "rating": 4.5, "coordinates": {"latitude": 53.55925, "longitude": 9.97523}, "transactions": [], "price": "\u20ac\u20ac", "location": {"address1": "Karolinenstr. 24", "address2": "", "address3": "", "city": "Hamburg", "zip_code": "20357", "country": "DE", "state": "HH", "display_address": ["Karolinenstr. 24", "20357 Hamburg", "Germany"]}, "phone": "", "display_phone": "", "distance": 1128.191316896477}, {"id": "5TjilN9cOWAfKsRr8uRjeA", "alias": "la-mirabelle-hamburg", "name": "La Mirabelle", "image_url": "https://s3-media2.fl.yelpcdn.com/bphoto/znDprjYPsZVzdpI6xveCVg/o.jpg", "is_closed": false, "url": "https://www.yelp.com/biz/la-mirabelle-hamburg?adjust_creative=hBJOknVQJ58S5goQyjmwRw&utm_campaign=yelp_api_v3&utm_medium=api_v3_business_search&utm_source=hBJOknVQJ58S5goQyjmwRw", "review_count": 81, "categories": [{"alias": "french", "title": "French"}], "rating": 4.5, "coordinates": {"latitude": 53.5650338196784, "longitude": 9.98034142350768}, "transactions": [], "price": "\u20ac\u20ac\u20ac", "location": {"address1": "Bundesstr. 15", "address2": null, "address3": null, "city": "Hamburg", "zip_code": "20146", "country": "DE", "state": "HH", "display_address": ["Bundesstr. 15", "20146 Hamburg", "Germany"]}, "phone": "+49404107585", "display_phone": "+49 40 4107585", "distance": 562.8092670487966}, {"id": "MZX1LxTIMQBuDvoulfYEuw", "alias": "zwanzig-quadratmeter-hamburg", "name": "Zwanzig Quadratmeter", "image_url": "https://s3-media2.fl.yelpcdn.com/bphoto/2TxZ7XrCyPCQzGYgX2ncHQ/o.jpg", "is_closed": false, "url": "https://www.yelp.com/biz/zwanzig-quadratmeter-hamburg?adjust_creative=hBJOknVQJ58S5goQyjmwRw&utm_campaign=yelp_api_v3&utm_medium=api_v3_business_search&utm_source=hBJOknVQJ58S5goQyjmwRw", "review_count": 3, "categories": [{"alias": "cafes", "title": "Cafes"}], "rating": 3.5, "coordinates": {"latitude": 53.5594619968613, "longitude": 9.97324001044035}, "transactions": [], "price": "\u20ac\u20ac", "location": {"address1": "Glash\u00fcttenstr. 85 A", "address2": "", "address3": "", "city": "Hamburg", "zip_code": "20357", "country": "DE", "state": "HH", "display_address": ["Glash\u00fcttenstr. 85 A", "20357 Hamburg", "Germany"]}, "phone": "+4917662024640", "display_phone": "+49 176 62024640", "distance": 1127.0619653625456}, {"id": "Y58qS21ppv4YH7XhRc1pcA", "alias": "m\u00f6venpick-restaurant-hamburg-3", "name": "M\u00f6venpick Restaurant", "image_url": "https://s3-media4.fl.yelpcdn.com/bphoto/U8waXQglNui4OxQZIgqoOQ/o.jpg", "is_closed": false, "url": "https://www.yelp.com/biz/m%C3%B6venpick-restaurant-hamburg-3?adjust_creative=hBJOknVQJ58S5goQyjmwRw&utm_campaign=yelp_api_v3&utm_medium=api_v3_business_search&utm_source=hBJOknVQJ58S5goQyjmwRw", "review_count": 12, "categories": [{"alias": "international", "title": "International"}, {"alias": "breakfast_brunch", "title": "Breakfast & Brunch"}], "rating": 4.5, "coordinates": {"latitude": 53.5646162840744, "longitude": 9.97078277170658}, "transactions": [], "price": "\u20ac\u20ac", "location": {"address1": "M\u00f6venpick Hotel", "address2": "Sternschanze 6", "address3": "", "city": "Hamburg", "zip_code": "20357", "country": "DE", "state": "HH", "display_address": ["M\u00f6venpick Hotel", "Sternschanze 6", "20357 Hamburg", "Germany"]}, "phone": "+49403344113340", "display_phone": "+49 40 3344113340", "distance": 644.3049897564968}, {"id": "OCeRH_NSKX_IFByv4Q01BQ", "alias": "belmondo-hamburg-2", "name": "Belmondo", "image_url": "https://s3-media3.fl.yelpcdn.com/bphoto/YL6elQvCT2_DpToTZh6ixA/o.jpg", "is_closed": false, "url": "https://www.yelp.com/biz/belmondo-hamburg-2?adjust_creative=hBJOknVQJ58S5goQyjmwRw&utm_campaign=yelp_api_v3&utm_medium=api_v3_business_search&utm_source=hBJOknVQJ58S5goQyjmwRw", "review_count": 13, "categories": [{"alias": "pizza", "title": "Pizza"}, {"alias": "italian", "title": "Italian"}], "rating": 4.5, "coordinates": {"latitude": 53.5661296418214, "longitude": 9.97922443187491}, "transactions": [], "price": "\u20ac\u20ac", "location": {"address1": "Bundesstr. 40", "address2": "", "address3": "", "city": "Hamburg", "zip_code": "20146", "country": "DE", "state": "HH", "display_address": ["Bundesstr. 40", "20146 Hamburg", "Germany"]}, "phone": "+494041498728", "display_phone": "+49 40 41498728", "distance": 420.4742272039886}, {"id": "JHEJnQU0KAAuBxVmP-IxZQ", "alias": "balutschistan-hamburg", "name": "Balutschistan", "image_url": "https://s3-media2.fl.yelpcdn.com/bphoto/J_vP6WAsBC__fz84qtWzEg/o.jpg", "is_closed": false, "url": "https://www.yelp.com/biz/balutschistan-hamburg?adjust_creative=hBJOknVQJ58S5goQyjmwRw&utm_campaign=yelp_api_v3&utm_medium=api_v3_business_search&utm_source=hBJOknVQJ58S5goQyjmwRw", "review_count": 85, "categories": [{"alias": "indpak", "title": "Indian"}, {"alias": "pakistani", "title": "Pakistani"}], "rating": 3.5, "coordinates": {"latitude": 53.568101675986, "longitude": 9.979875859399}, "transactions": [], "price": "\u20ac\u20ac", "location": {"address1": "Grindelallee 91", "address2": "", "address3": "", "city": "Hamburg", "zip_code": "20146", "country": "DE", "state": "HH", "display_address": ["Grindelallee 91", "20146 Hamburg", "Germany"]}, "phone": "+494041280246", "display_phone": "+49 40 41280246", "distance": 286.8621900408637}, {"id": "lHQC_K6CHaYFKzC2NG066A", "alias": "traumkuh-hamburg", "name": "Traumkuh", "image_url": "https://s3-media1.fl.yelpcdn.com/bphoto/AFJz1EFDDc3gWQFDlYukuA/o.jpg", "is_closed": false, "url": "https://www.yelp.com/biz/traumkuh-hamburg?adjust_creative=hBJOknVQJ58S5goQyjmwRw&utm_campaign=yelp_api_v3&utm_medium=api_v3_business_search&utm_source=hBJOknVQJ58S5goQyjmwRw", "review_count": 22, "categories": [{"alias": "burgers", "title": "Burgers"}], "rating": 3.0, "coordinates": {"latitude": 53.5694836, "longitude": 9.9799385}, "transactions": [], "price": "\u20ac\u20ac", "location": {"address1": "Grindelallee 146", "address2": "", "address3": null, "city": "Hamburg", "zip_code": "20146", "country": "DE", "state": "HH", "display_address": ["Grindelallee 146", "20146 Hamburg", "Germany"]}, "phone": "", "display_phone": "", "distance": 248.9022905077508}, {"id": "VMOz9FZ3sCBUpwLAj1hJEA", "alias": "roxie-hamburg-3", "name": "Roxie", "image_url": "https://s3-media2.fl.yelpcdn.com/bphoto/W3QiEPdseXOJNgujXLXlIQ/o.jpg", "is_closed": false, "url": "https://www.yelp.com/biz/roxie-hamburg-3?adjust_creative=hBJOknVQJ58S5goQyjmwRw&utm_campaign=yelp_api_v3&utm_medium=api_v3_business_search&utm_source=hBJOknVQJ58S5goQyjmwRw", "review_count": 82, "categories": [{"alias": "international", "title": "International"}, {"alias": "bistros", "title": "Bistros"}, {"alias": "cocktailbars", "title": "Cocktail Bars"}], "rating": 3.5, "coordinates": {"latitude": 53.5668385, "longitude": 9.9803422}, "transactions": [], "price": "\u20ac", "location": {"address1": "Rentzelstr. 6", "address2": null, "address3": null, "city": "Hamburg", "zip_code": "20146", "country": "DE", "state": "HH", "display_address": ["Rentzelstr. 6", "20146 Hamburg", "Germany"]}, "phone": "+4940451770", "display_phone": "+49 40 451770", "distance": 400.09976387548295}, {"id": "nfn8p7LgVfmerGQL8w71NA", "alias": "caf\u00e9-da-gama-hamburg-2", "name": "Caf\u00e9 da Gama", "image_url": "https://s3-media1.fl.yelpcdn.com/bphoto/iQID8N3XodCJY4CHh8UDlQ/o.jpg", "is_closed": false, "url": "https://www.yelp.com/biz/caf%C3%A9-da-gama-hamburg-2?adjust_creative=hBJOknVQJ58S5goQyjmwRw&utm_campaign=yelp_api_v3&utm_medium=api_v3_business_search&utm_source=hBJOknVQJ58S5goQyjmwRw", "review_count": 11, "categories": [{"alias": "portuguese", "title": "Portuguese"}, {"alias": "sandwiches", "title": "Sandwiches"}, {"alias": "desserts", "title": "Desserts"}], "rating": 3.5, "coordinates": {"latitude": 53.56745, "longitude": 9.98154}, "transactions": [], "price": "\u20ac\u20ac", "location": {"address1": "Grindelhof 10", "address2": "", "address3": "", "city": "Hamburg", "zip_code": "20146", "country": "DE", "state": "HH", "display_address": ["Grindelhof 10", "20146 Hamburg", "Germany"]}, "phone": "+494041172819", "display_phone": "+49 40 41172819", "distance": 395.968349955076}, {"id": "NgWE7_yTIiNA3FMY-XqGEA", "alias": "koch-kontor-hamburg", "name": "Koch Kontor", "image_url": "https://s3-media2.fl.yelpcdn.com/bphoto/leQOrWrie1aCNZkCKVVreQ/o.jpg", "is_closed": false, "url": "https://www.yelp.com/biz/koch-kontor-hamburg?adjust_creative=hBJOknVQJ58S5goQyjmwRw&utm_campaign=yelp_api_v3&utm_medium=api_v3_business_search&utm_source=hBJOknVQJ58S5goQyjmwRw", "review_count": 36, "categories": [{"alias": "bookstores", "title": "Bookstores"}, {"alias": "bistros", "title": "Bistros"}], "rating": 4.5, "coordinates": {"latitude": 53.55952, "longitude": 9.97522}, "transactions": [], "price": "\u20ac\u20ac", "location": {"address1": "Karolinenstr. 27", "address2": null, "address3": null, "city": "Hamburg", "zip_code": "20357", "country": "DE", "state": "HH", "display_address": ["Karolinenstr. 27", "20357 Hamburg", "Germany"]}, "phone": "+494043216036", "display_phone": "+49 40 43216036", "distance": 1098.0520763278005}, {"id": "1UosveImfu0O9_AJpt7j1w", "alias": "cafe-nuestro-hamburg", "name": "Cafe Nuestro", "image_url": "https://s3-media1.fl.yelpcdn.com/bphoto/XTKz0OLtTNOFOAsmzZXddw/o.jpg", "is_closed": false, "url": "https://www.yelp.com/biz/cafe-nuestro-hamburg?adjust_creative=hBJOknVQJ58S5goQyjmwRw&utm_campaign=yelp_api_v3&utm_medium=api_v3_business_search&utm_source=hBJOknVQJ58S5goQyjmwRw", "review_count": 21, "categories": [{"alias": "mediterranean", "title": "Mediterranean"}], "rating": 4.0, "coordinates": {"latitude": 53.5711, "longitude": 9.98146}, "transactions": [], "price": "\u20ac\u20ac\u20ac", "location": {"address1": "Rutschbahn 17", "address2": "", "address3": "", "city": "Hamburg", "zip_code": "20146", "country": "DE", "state": "HH", "display_address": ["Rutschbahn 17", "20146 Hamburg", "Germany"]}, "phone": "+494021996900", "display_phone": "+49 40 21996900", "distance": 400.1338914680968}, {"id": "MCX7fE69i3tzsPaEUHgfTQ", "alias": "peking-enten-haus-hamburg-2", "name": "Peking-Enten-Haus", "image_url": "https://s3-media3.fl.yelpcdn.com/bphoto/5h2YLmctarvkrH1wmJ4QNg/o.jpg", "is_closed": false, "url": "https://www.yelp.com/biz/peking-enten-haus-hamburg-2?adjust_creative=hBJOknVQJ58S5goQyjmwRw&utm_campaign=yelp_api_v3&utm_medium=api_v3_business_search&utm_source=hBJOknVQJ58S5goQyjmwRw", "review_count": 3, "categories": [{"alias": "chinese", "title": "Chinese"}], "rating": 3.0, "coordinates": {"latitude": 53.566, "longitude": 9.97713}, "transactions": [], "location": {"address1": "Laufgraben 18", "address2": "", "address3": null, "city": "Hamburg", "zip_code": "20146", "country": "DE", "state": "HH", "display_address": ["Laufgraben 18", "20146 Hamburg", "Germany"]}, "phone": "+4940458096", "display_phone": "+49 40 458096", "distance": 381.0281535655208}, {"id": "EstRRIFUer3TPTGsEOdzYw", "alias": "caf\u00e9-klatsch-hamburg-2", "name": "Caf\u00e9 Klatsch", "image_url": "https://s3-media2.fl.yelpcdn.com/bphoto/rHTPX5VQU8IXOZNXHr1Oog/o.jpg", "is_closed": false, "url": "https://www.yelp.com/biz/caf%C3%A9-klatsch-hamburg-2?adjust_creative=hBJOknVQJ58S5goQyjmwRw&utm_campaign=yelp_api_v3&utm_medium=api_v3_business_search&utm_source=hBJOknVQJ58S5goQyjmwRw", "review_count": 74, "categories": [{"alias": "breakfast_brunch", "title": "Breakfast & Brunch"}, {"alias": "cafes", "title": "Cafes"}], "rating": 3.5, "coordinates": {"latitude": 53.5587, "longitude": 9.97273}, "transactions": [], "price": "\u20ac\u20ac", "location": {"address1": "Glash\u00fcttenstr. 17", "address2": null, "address3": null, "city": "Hamburg", "zip_code": "20357", "country": "DE", "state": "HH", "display_address": ["Glash\u00fcttenstr. 17", "20357 Hamburg", "Germany"]}, "phone": "+49404390443", "display_phone": "+49 40 4390443", "distance": 1214.10306836546}, {"id": "u3ub5f0MS4qY67Q8XF9ZoA", "alias": "sodemanns-fisch-kutter-nr-1-hamburg", "name": "Sodemann's Fisch-Kutter Nr. 1", "image_url": "https://s3-media3.fl.yelpcdn.com/bphoto/BlysP6fVPaL0eEjKvEbByw/o.jpg", "is_closed": false, "url": "https://www.yelp.com/biz/sodemanns-fisch-kutter-nr-1-hamburg?adjust_creative=hBJOknVQJ58S5goQyjmwRw&utm_campaign=yelp_api_v3&utm_medium=api_v3_business_search&utm_source=hBJOknVQJ58S5goQyjmwRw", "review_count": 3, "categories": [{"alias": "foodtrucks", "title": "Food Trucks"}, {"alias": "fischbroetchen", "title": "Fischbroetchen"}], "rating": 5.0, "coordinates": {"latitude": 53.5537490844727, "longitude": 9.99182987213135}, "transactions": [], "price": "\u20ac\u20ac", "location": {"address1": "", "address2": null, "address3": "", "city": "Hamburg", "zip_code": "", "country": "DE", "state": "HH", "display_address": ["Hamburg", "Germany"]}, "phone": "+491773606663", "display_phone": "+49 177 3606663", "distance": 2346.6953170817014}, {"id": "8xYa3g3OBUHeg0aYtO96Pw", "alias": "cai-kitchen-hamburg", "name": "Cai Kitchen", "image_url": "https://s3-media2.fl.yelpcdn.com/bphoto/V0UblluESiaIY5majGWD3A/o.jpg", "is_closed": false, "url": "https://www.yelp.com/biz/cai-kitchen-hamburg?adjust_creative=hBJOknVQJ58S5goQyjmwRw&utm_campaign=yelp_api_v3&utm_medium=api_v3_business_search&utm_source=hBJOknVQJ58S5goQyjmwRw", "review_count": 1, "categories": [{"alias": "chinese", "title": "Chinese"}, {"alias": "vegan", "title": "Vegan"}], "rating": 5.0, "coordinates": {"latitude": 53.559501, "longitude": 9.972988}, "transactions": [], "location": {"address1": "Glash\u00fcttenstr.  85 A", "address2": "", "address3": null, "city": "Hamburg", "zip_code": "20357", "country": "DE", "state": "HH", "display_address": ["Glash\u00fcttenstr.  85 A", "20357 Hamburg", "Germany"]}, "phone": "+494030926561", "display_phone": "+49 40 30926561", "distance": 1125.776816764982}, {"id": "88Ek_bz9C3bx_voHK9qsxw", "alias": "gopalam-hamburg", "name": "Gopalam", "image_url": "https://s3-media4.fl.yelpcdn.com/bphoto/fKu3p9XA_s8gGV4YqC5nIg/o.jpg", "is_closed": false, "url": "https://www.yelp.com/biz/gopalam-hamburg?adjust_creative=hBJOknVQJ58S5goQyjmwRw&utm_campaign=yelp_api_v3&utm_medium=api_v3_business_search&utm_source=hBJOknVQJ58S5goQyjmwRw", "review_count": 55, "categories": [{"alias": "vegetarian", "title": "Vegetarian"}, {"alias": "indpak", "title": "Indian"}], "rating": 3.5, "coordinates": {"latitude": 53.5707898121772, "longitude": 9.97815144541625}, "transactions": [], "price": "\u20ac", "location": {"address1": "Grindelallee 159", "address2": null, "address3": null, "city": "Hamburg", "zip_code": "20146", "country": "DE", "state": "HH", "display_address": ["Grindelallee 159", "20146 Hamburg", "Germany"]}, "phone": "+49404504048", "display_phone": "+49 40 4504048", "distance": 198.5057489737965}, {"id": "mJ9R4ZdrbQEBqTOzTVhZvw", "alias": "tai-pho-hamburg", "name": "Tai Pho", "image_url": "https://s3-media1.fl.yelpcdn.com/bphoto/GNe5OJTtv03YzVeot5xhZg/o.jpg", "is_closed": false, "url": "https://www.yelp.com/biz/tai-pho-hamburg?adjust_creative=hBJOknVQJ58S5goQyjmwRw&utm_campaign=yelp_api_v3&utm_medium=api_v3_business_search&utm_source=hBJOknVQJ58S5goQyjmwRw", "review_count": 1, "categories": [{"alias": "thai", "title": "Thai"}], "rating": 3.0, "coordinates": {"latitude": 53.567537, "longitude": 9.980281}, "transactions": [], "location": {"address1": "Grindelallee 83", "address2": "", "address3": null, "city": "Hamburg", "zip_code": "20146", "country": "DE", "state": "HH", "display_address": ["Grindelallee 83", "20146 Hamburg", "Germany"]}, "phone": "+494082243909", "display_phone": "+49 40 82243909", "distance": 343.2284854251111}, {"id": "2FZAp0aGQkc3awPCj3X17g", "alias": "akdeniz-schnell-imbiss-hamburg", "name": "Akdeniz Schnell Imbiss", "image_url": "https://s3-media3.fl.yelpcdn.com/bphoto/P6OSW1VrpbyvCBIT8u2HMw/o.jpg", "is_closed": false, "url": "https://www.yelp.com/biz/akdeniz-schnell-imbiss-hamburg?adjust_creative=hBJOknVQJ58S5goQyjmwRw&utm_campaign=yelp_api_v3&utm_medium=api_v3_business_search&utm_source=hBJOknVQJ58S5goQyjmwRw", "review_count": 14, "categories": [{"alias": "foodstands", "title": "Food Stands"}, {"alias": "kebab", "title": "Kebab"}], "rating": 4.0, "coordinates": {"latitude": 53.56768, "longitude": 9.98006}, "transactions": [], "price": "\u20ac\u20ac\u20ac", "location": {"address1": "Grindelallee 87", "address2": "", "address3": "", "city": "Hamburg", "zip_code": "20146", "country": "DE", "state": "HH", "display_address": ["Grindelallee 87", "20146 Hamburg", "Germany"]}, "phone": "+494041339458", "display_phone": "+49 40 41339458", "distance": 323.4529645636215}, {"id": "yaN71-m814AbrwWBsZNQ9A", "alias": "caf\u00e9-seepavillon-hamburg", "name": "Caf\u00e9 Seepavillon", "image_url": "https://s3-media2.fl.yelpcdn.com/bphoto/lHfSk551UOO4nKhxf-7sow/o.jpg", "is_closed": false, "url": "https://www.yelp.com/biz/caf%C3%A9-seepavillon-hamburg?adjust_creative=hBJOknVQJ58S5goQyjmwRw&utm_campaign=yelp_api_v3&utm_medium=api_v3_business_search&utm_source=hBJOknVQJ58S5goQyjmwRw", "review_count": 3, "categories": [{"alias": "cafes", "title": "Cafes"}, {"alias": "beergarden", "title": "Beer Garden"}], "rating": 4.5, "coordinates": {"latitude": 53.562224, "longitude": 9.981674}, "transactions": [], "price": "\u20ac", "location": {"address1": "St. Petersburger Str. 28", "address2": "", "address3": "", "city": "Hamburg", "zip_code": "20355", "country": "DE", "state": "HH", "display_address": ["St. Petersburger Str. 28", "20355 Hamburg", "Germany"]}, "phone": "+494033370328", "display_phone": "+49 40 33370328", "distance": 881.6357647120894}, {"id": "Uxw4wGI55kwmlpFqBHfSlQ", "alias": "happy-waffel-hamburg-2", "name": "Happy Waffel", "image_url": "https://s3-media3.fl.yelpcdn.com/bphoto/6JQkwhktJx_LcwfwA67i-Q/o.jpg", "is_closed": false, "url": "https://www.yelp.com/biz/happy-waffel-hamburg-2?adjust_creative=hBJOknVQJ58S5goQyjmwRw&utm_campaign=yelp_api_v3&utm_medium=api_v3_business_search&utm_source=hBJOknVQJ58S5goQyjmwRw", "review_count": 6, "categories": [{"alias": "waffles", "title": "Waffles"}], "rating": 3.5, "coordinates": {"latitude": 53.56754, "longitude": 9.9803}, "transactions": [], "price": "\u20ac\u20ac", "location": {"address1": "Grindelallee 83", "address2": "", "address3": "", "city": "Hamburg", "zip_code": "20146", "country": "DE", "state": "HH", "display_address": ["Grindelallee 83", "20146 Hamburg", "Germany"]}, "phone": "+494036841125", "display_phone": "+49 40 36841125", "distance": 343.6442035717673}, {"id": "LbheAJu1S0hF6mpzbAwoKw", "alias": "restaurant-baku-hamburg", "name": "Restaurant Baku", "image_url": "https://s3-media2.fl.yelpcdn.com/bphoto/QuLeQkLAHTba0oaso9dCjg/o.jpg", "is_closed": false, "url": "https://www.yelp.com/biz/restaurant-baku-hamburg?adjust_creative=hBJOknVQJ58S5goQyjmwRw&utm_campaign=yelp_api_v3&utm_medium=api_v3_business_search&utm_source=hBJOknVQJ58S5goQyjmwRw", "review_count": 33, "categories": [{"alias": "russian", "title": "Russian"}, {"alias": "international", "title": "International"}], "rating": 4.0, "coordinates": {"latitude": 53.57292, "longitude": 9.9791399}, "transactions": [], "price": "\u20ac\u20ac", "location": {"address1": "Hallerstr. 1 A", "address2": null, "address3": null, "city": "Hamburg", "zip_code": "20146", "country": "DE", "state": "HH", "display_address": ["Hallerstr. 1 A", "20146 Hamburg", "Germany"]}, "phone": "+494042107760", "display_phone": "+49 40 42107760", "distance": 433.53733318942375}, {"id": "JO7Q8FJY6eWHRrk6SJJyYw", "alias": "karlsons-hamburg-2", "name": "Karlsons", "image_url": "https://s3-media3.fl.yelpcdn.com/bphoto/R2BX5SGGYQhJCmakoIoMkg/o.jpg", "is_closed": false, "url": "https://www.yelp.com/biz/karlsons-hamburg-2?adjust_creative=hBJOknVQJ58S5goQyjmwRw&utm_campaign=yelp_api_v3&utm_medium=api_v3_business_search&utm_source=hBJOknVQJ58S5goQyjmwRw", "review_count": 7, "categories": [{"alias": "breakfast_brunch", "title": "Breakfast & Brunch"}, {"alias": "scandinavian", "title": "Scandinavian"}], "rating": 3.5, "coordinates": {"latitude": 53.5712, "longitude": 9.9808}, "transactions": [], "price": "\u20ac\u20ac", "location": {"address1": "Rutschbahn 15 a", "address2": "", "address3": null, "city": "Hamburg", "zip_code": "20146", "country": "DE", "state": "HH", "display_address": ["Rutschbahn 15 a", "20146 Hamburg", "Germany"]}, "phone": "+494018160903", "display_phone": "+49 40 18160903", "distance": 362.57291882279594}, {"id": "Nvv6jRIfOWhi2Cc6WSxVKA", "alias": "bistro-abaton-hamburg", "name": "Bistro Abaton", "image_url": "https://s3-media4.fl.yelpcdn.com/bphoto/q3cQporzYaA6KbGKo4BOrg/o.jpg", "is_closed": false, "url": "https://www.yelp.com/biz/bistro-abaton-hamburg?adjust_creative=hBJOknVQJ58S5goQyjmwRw&utm_campaign=yelp_api_v3&utm_medium=api_v3_business_search&utm_source=hBJOknVQJ58S5goQyjmwRw", "review_count": 92, "categories": [{"alias": "modern_european", "title": "Modern European"}, {"alias": "cafes", "title": "Cafes"}], "rating": 3.5, "coordinates": {"latitude": 53.5676533, "longitude": 9.98212759206547}, "transactions": [], "price": "\u20ac\u20ac", "location": {"address1": "Grindelhof 14 A", "address2": null, "address3": null, "city": "Hamburg", "zip_code": "20146", "country": "DE", "state": "HH", "display_address": ["Grindelhof 14 A", "20146 Hamburg", "Germany"]}, "phone": "+4940457771", "display_phone": "+49 40 457771", "distance": 441.12151691702365}, {"id": "oGzCbZ6qNVWw1CjxNfCo3g", "alias": "gobinda-hamburg-2", "name": "Gobinda", "image_url": "https://s3-media3.fl.yelpcdn.com/bphoto/VDlYrOTRIYJ7QZYG_q6ZJA/o.jpg", "is_closed": false, "url": "https://www.yelp.com/biz/gobinda-hamburg-2?adjust_creative=hBJOknVQJ58S5goQyjmwRw&utm_campaign=yelp_api_v3&utm_medium=api_v3_business_search&utm_source=hBJOknVQJ58S5goQyjmwRw", "review_count": 17, "categories": [{"alias": "indpak", "title": "Indian"}], "rating": 4.0, "coordinates": {"latitude": 53.569528052871, "longitude": 9.97964106750542}, "transactions": [], "price": "\u20ac\u20ac", "location": {"address1": "Grindelallee 148", "address2": null, "address3": null, "city": "Hamburg", "zip_code": "20146", "country": "DE", "state": "HH", "display_address": ["Grindelallee 148", "20146 Hamburg", "Germany"]}, "phone": "+494041343380", "display_phone": "+49 40 41343380", "distance": 229.4045296729314}, {"id": "IaNKrFAmymKQZxY73hH-oQ", "alias": "dominos-hamburg-10", "name": "Domino's", "image_url": "https://s3-media3.fl.yelpcdn.com/bphoto/X4FKC52ox6_vBMZFWbVw7A/o.jpg", "is_closed": false, "url": "https://www.yelp.com/biz/dominos-hamburg-10?adjust_creative=hBJOknVQJ58S5goQyjmwRw&utm_campaign=yelp_api_v3&utm_medium=api_v3_business_search&utm_source=hBJOknVQJ58S5goQyjmwRw", "review_count": 3, "categories": [{"alias": "pizza", "title": "Pizza"}], "rating": 2.5, "coordinates": {"latitude": 53.5717, "longitude": 9.97884}, "transactions": [], "location": {"address1": "Grindelallee 182", "address2": "", "address3": null, "city": "Hamburg", "zip_code": "20144", "country": "DE", "state": "HH", "display_address": ["Grindelallee 182", "20144 Hamburg", "Germany"]}, "phone": "+4940450697069", "display_phone": "+49 40 450697069", "distance": 309.488386122937}, {"id": "FbuMUN6gVcTOOtWPoNp4ag", "alias": "chinesischer-imbiss-lu-hamburg", "name": "Chinesischer Imbiss Lu", "image_url": "https://s3-media4.fl.yelpcdn.com/bphoto/uElqeEfcHF7OYbJSnkLdtA/o.jpg", "is_closed": false, "url": "https://www.yelp.com/biz/chinesischer-imbiss-lu-hamburg?adjust_creative=hBJOknVQJ58S5goQyjmwRw&utm_campaign=yelp_api_v3&utm_medium=api_v3_business_search&utm_source=hBJOknVQJ58S5goQyjmwRw", "review_count": 2, "categories": [{"alias": "chinese", "title": "Chinese"}], "rating": 4.5, "coordinates": {"latitude": 53.5588, "longitude": 9.97528}, "transactions": [], "price": "\u20ac", "location": {"address1": "Karolinenstr. 18", "address2": null, "address3": null, "city": "Hamburg", "zip_code": "20357", "country": "DE", "state": "HH", "display_address": ["Karolinenstr. 18", "20357 Hamburg", "Germany"]}, "phone": "+494043276399", "display_phone": "+49 40 43276399", "distance": 1185.3993129140886}, {"id": "nRrZOEiV07jVyWBun-ZiOw", "alias": "ratsherrn-klause-hamburg", "name": "Ratsherrn Klause", "image_url": "https://s3-media1.fl.yelpcdn.com/bphoto/p7aqRXQ8udnvaTAQd6DHRA/o.jpg", "is_closed": false, "url": "https://www.yelp.com/biz/ratsherrn-klause-hamburg?adjust_creative=hBJOknVQJ58S5goQyjmwRw&utm_campaign=yelp_api_v3&utm_medium=api_v3_business_search&utm_source=hBJOknVQJ58S5goQyjmwRw", "review_count": 5, "categories": [{"alias": "sportsbars", "title": "Sports Bars"}, {"alias": "beergarden", "title": "Beer Garden"}], "rating": 4.0, "coordinates": {"latitude": 53.564673, "longitude": 9.976627}, "transactions": [], "price": "\u20ac", "location": {"address1": "Schr\u00f6derstiftstr. 9", "address2": null, "address3": null, "city": "Hamburg", "zip_code": "20146", "country": "DE", "state": "HH", "display_address": ["Schr\u00f6derstiftstr. 9", "20146 Hamburg", "Germany"]}, "phone": "+494041339818", "display_phone": "+49 40 41339818", "distance": 531.7539066110558}, {"id": "cnLmlT-p3-S8O2Mpq_Ozfg", "alias": "nigiri-sushi-und-more-hamburg", "name": "nigiri sushi & more", "image_url": "https://s3-media2.fl.yelpcdn.com/bphoto/BU2kyDBnSahS7p3vOHAO0w/o.jpg", "is_closed": false, "url": "https://www.yelp.com/biz/nigiri-sushi-und-more-hamburg?adjust_creative=hBJOknVQJ58S5goQyjmwRw&utm_campaign=yelp_api_v3&utm_medium=api_v3_business_search&utm_source=hBJOknVQJ58S5goQyjmwRw", "review_count": 6, "categories": [{"alias": "sushi", "title": "Sushi Bars"}], "rating": 4.0, "coordinates": {"latitude": 53.5672962, "longitude": 9.9813441}, "transactions": [], "price": "\u20ac\u20ac", "location": {"address1": "Grindelhof 2-6", "address2": "", "address3": "", "city": "Hamburg", "zip_code": "20146", "country": "DE", "state": "HH", "display_address": ["Grindelhof 2-6", "20146 Hamburg", "Germany"]}, "phone": "+494041498488", "display_phone": "+49 40 41498488", "distance": 417.1044045442059}, {"id": "jK8b4aHrYvrN38H7r2hlkQ", "alias": "arkadasch-hamburg", "name": "Arkadasch", "image_url": "https://s3-media2.fl.yelpcdn.com/bphoto/NdStNW8CE0kcnSLBBTMiKA/o.jpg", "is_closed": false, "url": "https://www.yelp.com/biz/arkadasch-hamburg?adjust_creative=hBJOknVQJ58S5goQyjmwRw&utm_campaign=yelp_api_v3&utm_medium=api_v3_business_search&utm_source=hBJOknVQJ58S5goQyjmwRw", "review_count": 101, "categories": [{"alias": "turkish", "title": "Turkish"}], "rating": 3.0, "coordinates": {"latitude": 53.56811, "longitude": 9.98214}, "transactions": [], "price": "\u20ac", "location": {"address1": "Grindelhof 17", "address2": null, "address3": null, "city": "Hamburg", "zip_code": "20146", "country": "DE", "state": "HH", "display_address": ["Grindelhof 17", "20146 Hamburg", "Germany"]}, "phone": "+494041125941", "display_phone": "+49 40 41125941", "distance": 410.17017179596775}, {"id": "ZC_7XmV0by7hw6j4bRpeWg", "alias": "br\u00fccke-hamburg-2", "name": "Br\u00fccke", "image_url": "https://s3-media3.fl.yelpcdn.com/bphoto/-f7hq7Ul0CGFXO1JD4WPdQ/o.jpg", "is_closed": false, "url": "https://www.yelp.com/biz/br%C3%BCcke-hamburg-2?adjust_creative=hBJOknVQJ58S5goQyjmwRw&utm_campaign=yelp_api_v3&utm_medium=api_v3_business_search&utm_source=hBJOknVQJ58S5goQyjmwRw", "review_count": 36, "categories": [{"alias": "german", "title": "German"}], "rating": 4.0, "coordinates": {"latitude": 53.5789293825857, "longitude": 9.97844217150731}, "transactions": [], "price": "\u20ac\u20ac\u20ac", "location": {"address1": "Innocentiastr. 82", "address2": null, "address3": null, "city": "Hamburg", "zip_code": "20144", "country": "DE", "state": "HH", "display_address": ["Innocentiastr. 82", "20144 Hamburg", "Germany"]}, "phone": "+49404225525", "display_phone": "+49 40 4225525", "distance": 1064.9635058747997}, {"id": "KrlfygRCW_2nZJ_238v1jA", "alias": "goldburger-l\u00fcneburg", "name": "Goldburger", "image_url": "https://s3-media3.fl.yelpcdn.com/bphoto/oWJwH3J1qgS4nmv-HCJqqw/o.jpg", "is_closed": false, "url": "https://www.yelp.com/biz/goldburger-l%C3%BCneburg?adjust_creative=hBJOknVQJ58S5goQyjmwRw&utm_campaign=yelp_api_v3&utm_medium=api_v3_business_search&utm_source=hBJOknVQJ58S5goQyjmwRw", "review_count": 2, "categories": [{"alias": "foodtrucks", "title": "Food Trucks"}, {"alias": "burgers", "title": "Burgers"}], "rating": 3.5, "coordinates": {"latitude": 53.5659480186922, "longitude": 9.97467811530374}, "transactions": [], "location": {"address1": "Hindenburgstr. 23", "address2": "", "address3": "", "city": "L\u00fcneburg", "zip_code": "21335", "country": "DE", "state": "HH", "display_address": ["Hindenburgstr. 23", "21335 L\u00fcneburg", "Germany"]}, "phone": "+491707532319", "display_phone": "+49 170 7532319", "distance": 401.39137538038796}, {"id": "49Gr20HxwV9LA6DEXHAGLw", "alias": "block-house-hamburg-7", "name": "Block House", "image_url": "https://s3-media4.fl.yelpcdn.com/bphoto/PiKDlKLVwq7G5YS_Tg70Kw/o.jpg", "is_closed": false, "url": "https://www.yelp.com/biz/block-house-hamburg-7?adjust_creative=hBJOknVQJ58S5goQyjmwRw&utm_campaign=yelp_api_v3&utm_medium=api_v3_business_search&utm_source=hBJOknVQJ58S5goQyjmwRw", "review_count": 94, "categories": [{"alias": "steak", "title": "Steakhouses"}], "rating": 3.5, "coordinates": {"latitude": 53.5791567926094, "longitude": 9.97569217768387}, "transactions": [], "price": "\u20ac\u20ac\u20ac", "location": {"address1": "Hoheluftchaussee 2", "address2": null, "address3": null, "city": "Hamburg", "zip_code": "20253", "country": "DE", "state": "HH", "display_address": ["Hoheluftchaussee 2", "20253 Hamburg", "Germany"]}, "phone": "+4940459022", "display_phone": "+49 40 459022", "distance": 1080.0871692807204}, {"id": "tynN6rxmOZHcKIE-wSv6jg", "alias": "chris-kocht\u00fcte-hamburg", "name": "Chris' Kocht\u00fcte", "image_url": "https://s3-media4.fl.yelpcdn.com/bphoto/mDef-o7qwOutonx_u1td6Q/o.jpg", "is_closed": false, "url": "https://www.yelp.com/biz/chris-kocht%C3%BCte-hamburg?adjust_creative=hBJOknVQJ58S5goQyjmwRw&utm_campaign=yelp_api_v3&utm_medium=api_v3_business_search&utm_source=hBJOknVQJ58S5goQyjmwRw", "review_count": 2, "categories": [{"alias": "foodstands", "title": "Food Stands"}], "rating": 5.0, "coordinates": {"latitude": 53.57841, "longitude": 9.97589}, "transactions": [], "price": "\u20ac", "location": {"address1": "U-Bahn Hoheluftbr\u00fccke", "address2": "", "address3": "", "city": "Hamburg", "zip_code": "20253", "country": "DE", "state": "HH", "display_address": ["U-Bahn Hoheluftbr\u00fccke", "20253 Hamburg", "Germany"]}, "phone": "+4915757075080", "display_phone": "+49 1575 7075080", "distance": 933.4738726721857}, {"id": "mdBJ0FvEVhd6k756wMyHqQ", "alias": "china-thai-bistro-hamburg", "name": "China Thai Bistro", "image_url": "https://s3-media3.fl.yelpcdn.com/bphoto/zzzlsXV4TC34hdG6-ivz1w/o.jpg", "is_closed": false, "url": "https://www.yelp.com/biz/china-thai-bistro-hamburg?adjust_creative=hBJOknVQJ58S5goQyjmwRw&utm_campaign=yelp_api_v3&utm_medium=api_v3_business_search&utm_source=hBJOknVQJ58S5goQyjmwRw", "review_count": 18, "categories": [{"alias": "thai", "title": "Thai"}, {"alias": "chinese", "title": "Chinese"}], "rating": 3.0, "coordinates": {"latitude": 53.5717233819319, "longitude": 9.97749575649299}, "transactions": [], "price": "\u20ac", "location": {"address1": "Beim Schlump 5", "address2": "", "address3": "", "city": "Hamburg", "zip_code": "20144", "country": "DE", "state": "HH", "display_address": ["Beim Schlump 5", "20144 Hamburg", "Germany"]}, "phone": "+494041355653", "display_phone": "+49 40 41355653", "distance": 267.79191526989763}, {"id": "DKPi2qyc-EzpDxSoteQ2IA", "alias": "caf\u00e9-pastelaria-hamburg-2", "name": "Caf\u00e9 Pastelaria", "image_url": "https://s3-media1.fl.yelpcdn.com/bphoto/3lvkQIxjoCPzwv1VNn8KbQ/o.jpg", "is_closed": false, "url": "https://www.yelp.com/biz/caf%C3%A9-pastelaria-hamburg-2?adjust_creative=hBJOknVQJ58S5goQyjmwRw&utm_campaign=yelp_api_v3&utm_medium=api_v3_business_search&utm_source=hBJOknVQJ58S5goQyjmwRw", "review_count": 3, "categories": [{"alias": "coffee", "title": "Coffee & Tea"}, {"alias": "cafes", "title": "Cafes"}, {"alias": "portuguese", "title": "Portuguese"}], "rating": 4.0, "coordinates": {"latitude": 53.5708356375107, "longitude": 9.97890241485399}, "transactions": [], "price": "\u20ac", "location": {"address1": "Grindelallee 168", "address2": "", "address3": "", "city": "Hamburg", "zip_code": "20144", "country": "DE", "state": "HH", "display_address": ["Grindelallee 168", "20144 Hamburg", "Germany"]}, "phone": "+494045000246", "display_phone": "+49 40 45000246", "distance": 237.4637844305997}, {"id": "89ku9V1cCbLygJ9Ol57Ukw", "alias": "hagelstein-hamburg", "name": "Hagelstein", "image_url": "https://s3-media2.fl.yelpcdn.com/bphoto/cdGI_wFyhmlQ_WnEyd0dTg/o.jpg", "is_closed": false, "url": "https://www.yelp.com/biz/hagelstein-hamburg?adjust_creative=hBJOknVQJ58S5goQyjmwRw&utm_campaign=yelp_api_v3&utm_medium=api_v3_business_search&utm_source=hBJOknVQJ58S5goQyjmwRw", "review_count": 16, "categories": [{"alias": "bakeries", "title": "Bakeries"}, {"alias": "cafes", "title": "Cafes"}], "rating": 4.0, "coordinates": {"latitude": 53.5773921586011, "longitude": 9.97096461671403}, "transactions": [], "price": "\u20ac\u20ac", "location": {"address1": "Bismarckstr. 98", "address2": "", "address3": "", "city": "Hamburg", "zip_code": "20253", "country": "DE", "state": "HH", "display_address": ["Bismarckstr. 98", "20253 Hamburg", "Germany"]}, "phone": "+49404206313", "display_phone": "+49 40 4206313", "distance": 947.9026205763098}, {"id": "n_Yio-a9VzssOtDbgezpRA", "alias": "subu-sushi-burrito-hamburg-3", "name": "Subu Sushi Burrito", "image_url": "https://s3-media3.fl.yelpcdn.com/bphoto/x2oh5mzvkzvrXjswE_MjXQ/o.jpg", "is_closed": false, "url": "https://www.yelp.com/biz/subu-sushi-burrito-hamburg-3?adjust_creative=hBJOknVQJ58S5goQyjmwRw&utm_campaign=yelp_api_v3&utm_medium=api_v3_business_search&utm_source=hBJOknVQJ58S5goQyjmwRw", "review_count": 3, "categories": [{"alias": "foodtrucks", "title": "Food Trucks"}, {"alias": "sushi", "title": "Sushi Bars"}], "rating": 5.0, "coordinates": {"latitude": 53.5526819869811, "longitude": 10.0010880455375}, "transactions": [], "price": "\u20ac", "location": {"address1": "", "address2": "", "address3": "", "city": "Hamburg", "zip_code": "", "country": "DE", "state": "HH", "display_address": ["Hamburg", "Germany"]}, "phone": "+4917670834316", "display_phone": "+49 176 70834316", "distance": 2486.7435564818843}, {"id": "cEfKAP2twi45gI-kUEL5nw", "alias": "imbiss-asia-viet-hamburg", "name": "Imbiss Asia-Viet", "image_url": "https://s3-media4.fl.yelpcdn.com/bphoto/jyBGzaHsxMZ0Z3ffAs1CmA/o.jpg", "is_closed": false, "url": "https://www.yelp.com/biz/imbiss-asia-viet-hamburg?adjust_creative=hBJOknVQJ58S5goQyjmwRw&utm_campaign=yelp_api_v3&utm_medium=api_v3_business_search&utm_source=hBJOknVQJ58S5goQyjmwRw", "review_count": 5, "categories": [{"alias": "vietnamese", "title": "Vietnamese"}, {"alias": "panasian", "title": "Pan Asian"}], "rating": 4.0, "coordinates": {"latitude": 53.56492, "longitude": 9.97753}, "transactions": [], "price": "\u20ac", "location": {"address1": "Rentzelstr. 52", "address2": "", "address3": "", "city": "Hamburg", "zip_code": "20146", "country": "DE", "state": "HH", "display_address": ["Rentzelstr. 52", "20146 Hamburg", "Germany"]}, "phone": "+494041330921", "display_phone": "+49 40 41330921", "distance": 514.2348157183003}, {"id": "VrRnN03NA-wk_hBG7JaXIQ", "alias": "cupn-go-hamburg-4", "name": "Cup'n Go", "image_url": "https://s3-media1.fl.yelpcdn.com/bphoto/HC5BFbs_5WWQrWNTlGXGyg/o.jpg", "is_closed": false, "url": "https://www.yelp.com/biz/cupn-go-hamburg-4?adjust_creative=hBJOknVQJ58S5goQyjmwRw&utm_campaign=yelp_api_v3&utm_medium=api_v3_business_search&utm_source=hBJOknVQJ58S5goQyjmwRw", "review_count": 1, "categories": [{"alias": "hotdogs", "title": "Fast Food"}], "rating": 4.0, "coordinates": {"latitude": 53.567511486368, "longitude": 9.98119060730942}, "transactions": [], "price": "\u20ac", "location": {"address1": "Grindelhof 1", "address2": "", "address3": "", "city": "Hamburg", "zip_code": "20146", "country": "DE", "state": "HH", "display_address": ["Grindelhof 1", "20146 Hamburg", "Germany"]}, "phone": "+494069084689", "display_phone": "+49 40 69084689", "distance": 395.31240249969295}, {"id": "ySg_n6ImHCCuhqxxWAYHyg", "alias": "balzac-coffee-hamburg-17", "name": "Balzac Coffee", "image_url": "https://s3-media2.fl.yelpcdn.com/bphoto/0w30PmwCsHjr9jfQ9NjWEA/o.jpg", "is_closed": false, "url": "https://www.yelp.com/biz/balzac-coffee-hamburg-17?adjust_creative=hBJOknVQJ58S5goQyjmwRw&utm_campaign=yelp_api_v3&utm_medium=api_v3_business_search&utm_source=hBJOknVQJ58S5goQyjmwRw", "review_count": 30, "categories": [{"alias": "coffee", "title": "Coffee & Tea"}, {"alias": "cafes", "title": "Cafes"}], "rating": 3.0, "coordinates": {"latitude": 53.567973, "longitude": 9.981651}, "transactions": [], "price": "\u20ac\u20ac", "location": {"address1": "Grindelhof 15", "address2": "", "address3": "", "city": "Hamburg", "zip_code": "20146", "country": "DE", "state": "HH", "display_address": ["Grindelhof 15", "20146 Hamburg", "Germany"]}, "phone": "+494041495435", "display_phone": "+49 40 41495435", "distance": 393.42438271626617}, {"id": "wKPWvejuic8UFQmz-kfQBQ", "alias": "belachan-express-hamburg", "name": "Belachan Express", "image_url": "https://s3-media3.fl.yelpcdn.com/bphoto/YETPnyRAZ-6hlwjseLKLYw/o.jpg", "is_closed": false, "url": "https://www.yelp.com/biz/belachan-express-hamburg?adjust_creative=hBJOknVQJ58S5goQyjmwRw&utm_campaign=yelp_api_v3&utm_medium=api_v3_business_search&utm_source=hBJOknVQJ58S5goQyjmwRw", "review_count": 73, "categories": [{"alias": "thai", "title": "Thai"}], "rating": 3.5, "coordinates": {"latitude": 53.579214, "longitude": 9.974732}, "transactions": [], "price": "\u20ac\u20ac", "location": {"address1": "Hoheluftchaussee 15", "address2": null, "address3": null, "city": "Hamburg", "zip_code": "20253", "country": "DE", "state": "HH", "display_address": ["Hoheluftchaussee 15", "20253 Hamburg", "Germany"]}, "phone": "+494041405785", "display_phone": "+49 40 41405785", "distance": 1090.128445512498}, {"id": "nEDGFQ1mTwWT7ad4jwvO4A", "alias": "little-snack-s-und-more-hamburg", "name": "little Snack\u00b4s & more", "image_url": "", "is_closed": false, "url": "https://www.yelp.com/biz/little-snack-s-und-more-hamburg?adjust_creative=hBJOknVQJ58S5goQyjmwRw&utm_campaign=yelp_api_v3&utm_medium=api_v3_business_search&utm_source=hBJOknVQJ58S5goQyjmwRw", "review_count": 2, "categories": [{"alias": "bistros", "title": "Bistros"}, {"alias": "food", "title": "Food"}], "rating": 4.0, "coordinates": {"latitude": 53.57158, "longitude": 9.9788599}, "transactions": [], "price": "\u20ac", "location": {"address1": "Grindelallee 180", "address2": "", "address3": "", "city": "Hamburg", "zip_code": "20144", "country": "DE", "state": "HH", "display_address": ["Grindelallee 180", "20144 Hamburg", "Germany"]}, "phone": "", "display_phone": "", "distance": 299.1163003262305}, {"id": "LFd3NtFtEsUjGoipcyzxMA", "alias": "restaurant-rosenhof-hamburg", "name": "Restaurant Rosenhof", "image_url": "https://s3-media3.fl.yelpcdn.com/bphoto/W7xJrJaTYNbWYizEV9zfqA/o.jpg", "is_closed": false, "url": "https://www.yelp.com/biz/restaurant-rosenhof-hamburg?adjust_creative=hBJOknVQJ58S5goQyjmwRw&utm_campaign=yelp_api_v3&utm_medium=api_v3_business_search&utm_source=hBJOknVQJ58S5goQyjmwRw", "review_count": 7, "categories": [{"alias": "bistros", "title": "Bistros"}, {"alias": "german", "title": "German"}], "rating": 2.5, "coordinates": {"latitude": 53.5632867001817, "longitude": 9.98091481626034}, "transactions": [], "price": "\u20ac\u20ac", "location": {"address1": "Tiergartenstr. 10", "address2": null, "address3": null, "city": "Hamburg", "zip_code": "20355", "country": "DE", "state": "HH", "display_address": ["Tiergartenstr. 10", "20355 Hamburg", "Germany"]}, "phone": "+4940343787", "display_phone": "+49 40 343787", "distance": 753.3139122302492}, {"id": "K0tAAr1BmVLqWrf9y-W3Dw", "alias": "med-kebab-hamburg", "name": "Med Kebab", "image_url": "https://s3-media1.fl.yelpcdn.com/bphoto/XBNUwjexT05L-nSTZCpQpw/o.jpg", "is_closed": false, "url": "https://www.yelp.com/biz/med-kebab-hamburg?adjust_creative=hBJOknVQJ58S5goQyjmwRw&utm_campaign=yelp_api_v3&utm_medium=api_v3_business_search&utm_source=hBJOknVQJ58S5goQyjmwRw", "review_count": 5, "categories": [{"alias": "kebab", "title": "Kebab"}], "rating": 3.5, "coordinates": {"latitude": 53.56716, "longitude": 9.98121}, "transactions": [], "price": "\u20ac", "location": {"address1": "Grindelhof 2 - 6", "address2": "", "address3": "", "city": "Hamburg", "zip_code": "20146", "country": "DE", "state": "HH", "display_address": ["Grindelhof 2 - 6", "20146 Hamburg", "Germany"]}, "phone": "", "display_phone": "", "distance": 424.39578727845424}, {"id": "TYFhUhudnUrOfKYG3ML2HA", "alias": "olive-tree-hamburg", "name": "Olive Tree", "image_url": "https://s3-media3.fl.yelpcdn.com/bphoto/bBUSCg8FNCj5l0AMPy3UfQ/o.jpg", "is_closed": false, "url": "https://www.yelp.com/biz/olive-tree-hamburg?adjust_creative=hBJOknVQJ58S5goQyjmwRw&utm_campaign=yelp_api_v3&utm_medium=api_v3_business_search&utm_source=hBJOknVQJ58S5goQyjmwRw", "review_count": 1, "categories": [{"alias": "restaurants", "title": "Restaurants"}], "rating": 3.0, "coordinates": {"latitude": 53.5644, "longitude": 9.97715}, "transactions": [], "location": {"address1": "Schr\u00f6derstiftstr. 3", "address2": null, "address3": null, "city": "Hamburg", "zip_code": "20146", "country": "DE", "state": "HH", "display_address": ["Schr\u00f6derstiftstr. 3", "20146 Hamburg", "Germany"]}, "phone": "+4940450690", "display_phone": "+49 40 450690", "distance": 564.973261943928}, {"id": "D_alDQXVl72ZqDvF1tutjQ", "alias": "levante-hamburg", "name": "LEVANTE", "image_url": "https://s3-media2.fl.yelpcdn.com/bphoto/iqiWnxa8zUXGMvPsVW9Ieg/o.jpg", "is_closed": false, "url": "https://www.yelp.com/biz/levante-hamburg?adjust_creative=hBJOknVQJ58S5goQyjmwRw&utm_campaign=yelp_api_v3&utm_medium=api_v3_business_search&utm_source=hBJOknVQJ58S5goQyjmwRw", "review_count": 11, "categories": [{"alias": "cafes", "title": "Cafes"}], "rating": 3.0, "coordinates": {"latitude": 53.566893, "longitude": 9.981546}, "transactions": [], "price": "\u20ac\u20ac", "location": {"address1": "Grindelallee 80", "address2": "", "address3": "", "city": "Hamburg", "zip_code": "20146", "country": "DE", "state": "HH", "display_address": ["Grindelallee 80", "20146 Hamburg", "Germany"]}, "phone": "", "display_phone": "", "distance": 459.02837745615983}, {"id": "2jzIbZsfzca5drJYk7JwbQ", "alias": "the-bao-bros-hamburg-2", "name": "The Bao Bros", "image_url": "https://s3-media1.fl.yelpcdn.com/bphoto/vUMA4Y35x3UwZk6fMJfZRw/o.jpg", "is_closed": false, "url": "https://www.yelp.com/biz/the-bao-bros-hamburg-2?adjust_creative=hBJOknVQJ58S5goQyjmwRw&utm_campaign=yelp_api_v3&utm_medium=api_v3_business_search&utm_source=hBJOknVQJ58S5goQyjmwRw", "review_count": 2, "categories": [{"alias": "foodtrucks", "title": "Food Trucks"}, {"alias": "burgers", "title": "Burgers"}], "rating": 4.0, "coordinates": {"latitude": 53.5533409118652, "longitude": 9.99246978759766}, "transactions": [], "price": "\u20ac", "location": {"address1": "", "address2": "", "address3": "", "city": "Hamburg", "zip_code": "", "country": "DE", "state": "HH", "display_address": ["Hamburg", "Germany"]}, "phone": "+4915140700076", "display_phone": "+49 1514 0700076", "distance": 2346.692061765065}, {"id": "eI10g-iye5zzIHrgaZ3osA", "alias": "croque-h\u00fctte-hamburg-2", "name": "Croque H\u00fctte", "image_url": "https://s3-media3.fl.yelpcdn.com/bphoto/IZ3gzUyD3Ukx92MbQXtpvw/o.jpg", "is_closed": false, "url": "https://www.yelp.com/biz/croque-h%C3%BCtte-hamburg-2?adjust_creative=hBJOknVQJ58S5goQyjmwRw&utm_campaign=yelp_api_v3&utm_medium=api_v3_business_search&utm_source=hBJOknVQJ58S5goQyjmwRw", "review_count": 7, "categories": [{"alias": "pizza", "title": "Pizza"}, {"alias": "hotdogs", "title": "Fast Food"}], "rating": 4.0, "coordinates": {"latitude": 53.5663191, "longitude": 9.980155}, "transactions": [], "price": "\u20ac", "location": {"address1": "Rentzelstr. 11", "address2": "", "address3": "", "city": "Hamburg", "zip_code": "20146", "country": "DE", "state": "HH", "display_address": ["Rentzelstr. 11", "20146 Hamburg", "Germany"]}, "phone": "+494045000991", "display_phone": "+49 40 45000991", "distance": 436.1954144167804}, {"id": "APvIA_7ssxgC0atmQEFMcg", "alias": "burgerkultour-food-truck-hamburg-2", "name": "BurgerKultour Food Truck", "image_url": "https://s3-media4.fl.yelpcdn.com/bphoto/KoAuwalMnlAO8139MmdYBQ/o.jpg", "is_closed": false, "url": "https://www.yelp.com/biz/burgerkultour-food-truck-hamburg-2?adjust_creative=hBJOknVQJ58S5goQyjmwRw&utm_campaign=yelp_api_v3&utm_medium=api_v3_business_search&utm_source=hBJOknVQJ58S5goQyjmwRw", "review_count": 3, "categories": [{"alias": "foodtrucks", "title": "Food Trucks"}, {"alias": "burgers", "title": "Burgers"}], "rating": 4.5, "coordinates": {"latitude": 53.57154, "longitude": 9.95575}, "transactions": [], "price": "\u20ac\u20ac", "location": {"address1": "", "address2": "", "address3": "", "city": "Hamburg", "zip_code": "20259", "country": "DE", "state": "HH", "display_address": ["20259 Hamburg", "Germany"]}, "phone": "+4917626055122", "display_phone": "+49 176 26055122", "distance": 1318.538606937074}, {"id": "lZfSq1_AuovlkqVF_wDAUA", "alias": "subway-hamburg-11", "name": "Subway", "image_url": "https://s3-media2.fl.yelpcdn.com/bphoto/ho8ktECaX2xlsHVYJa8iDA/o.jpg", "is_closed": false, "url": "https://www.yelp.com/biz/subway-hamburg-11?adjust_creative=hBJOknVQJ58S5goQyjmwRw&utm_campaign=yelp_api_v3&utm_medium=api_v3_business_search&utm_source=hBJOknVQJ58S5goQyjmwRw", "review_count": 25, "categories": [{"alias": "hotdogs", "title": "Fast Food"}, {"alias": "sandwiches", "title": "Sandwiches"}], "rating": 3.0, "coordinates": {"latitude": 53.5798853451015, "longitude": 9.97469344047545}, "transactions": [], "price": "\u20ac\u20ac", "location": {"address1": "Hoheluftchaussee 28", "address2": null, "address3": null, "city": "Hamburg", "zip_code": "20253", "country": "DE", "state": "HH", "display_address": ["Hoheluftchaussee 28", "20253 Hamburg", "Germany"]}, "phone": "+494079692124", "display_phone": "+49 40 79692124", "distance": 1164.7233714748627}, {"id": "KKJsTEpUPI33yUFb-5RXIA", "alias": "caf\u00e9-portugal-hamburg-2", "name": "Caf\u00e9 Portugal", "image_url": "https://s3-media2.fl.yelpcdn.com/bphoto/URn_BsIdwQ0YJpZTZc_wEw/o.jpg", "is_closed": false, "url": "https://www.yelp.com/biz/caf%C3%A9-portugal-hamburg-2?adjust_creative=hBJOknVQJ58S5goQyjmwRw&utm_campaign=yelp_api_v3&utm_medium=api_v3_business_search&utm_source=hBJOknVQJ58S5goQyjmwRw", "review_count": 1, "categories": [{"alias": "cafes", "title": "Cafes"}, {"alias": "coffee", "title": "Coffee & Tea"}], "rating": 3.0, "coordinates": {"latitude": 53.5663, "longitude": 9.98016}, "transactions": [], "price": "\u20ac", "location": {"address1": "Rentzelstr. 11", "address2": null, "address3": null, "city": "Hamburg", "zip_code": "20146", "country": "DE", "state": "HH", "display_address": ["Rentzelstr. 11", "20146 Hamburg", "Germany"]}, "phone": "", "display_phone": "", "distance": 438.08955010378594}, {"id": "anvDytNNC13UOdpaMzJXow", "alias": "am-schlump-hamburg-2", "name": "Am Schlump", "image_url": "https://s3-media2.fl.yelpcdn.com/bphoto/s-5dUxsazVKVhQ8A73XBPw/o.jpg", "is_closed": false, "url": "https://www.yelp.com/biz/am-schlump-hamburg-2?adjust_creative=hBJOknVQJ58S5goQyjmwRw&utm_campaign=yelp_api_v3&utm_medium=api_v3_business_search&utm_source=hBJOknVQJ58S5goQyjmwRw", "review_count": 5, "categories": [{"alias": "pizza", "title": "Pizza"}], "rating": 3.5, "coordinates": {"latitude": 53.5687332088298, "longitude": 9.97267875820398}, "transactions": [], "location": {"address1": "Beim Schlump 53", "address2": "", "address3": "", "city": "Hamburg", "zip_code": "20144", "country": "DE", "state": "HH", "display_address": ["Beim Schlump 53", "20144 Hamburg", "Germany"]}, "phone": "+494064561461", "display_phone": "+49 40 64561461", "distance": 243.81151568745466}, {"id": "oX_6ceMrlqD58LSvWZqnCQ", "alias": "restaurant-donostia-hamburg", "name": "Restaurant Donostia", "image_url": "https://s3-media2.fl.yelpcdn.com/bphoto/yjOpPhVBeh63ZwgmwL1HZw/o.jpg", "is_closed": false, "url": "https://www.yelp.com/biz/restaurant-donostia-hamburg?adjust_creative=hBJOknVQJ58S5goQyjmwRw&utm_campaign=yelp_api_v3&utm_medium=api_v3_business_search&utm_source=hBJOknVQJ58S5goQyjmwRw", "review_count": 2, "categories": [{"alias": "spanish", "title": "Spanish"}], "rating": 3.0, "coordinates": {"latitude": 53.5655, "longitude": 9.98034}, "transactions": [], "price": "\u20ac\u20ac", "location": {"address1": "Bundesstr. 30", "address2": null, "address3": null, "city": "Hamburg", "zip_code": "20146", "country": "DE", "state": "HH", "display_address": ["Bundesstr. 30", "20146 Hamburg", "Germany"]}, "phone": "+494044140418", "display_phone": "+49 40 44140418", "distance": 518.1779200372833}, {"id": "E91N5QGQfyYOlnNdxjHpRw", "alias": "caf\u00e9-seeterrassen-hamburg-2", "name": "Caf\u00e9 Seeterrassen", "image_url": "https://s3-media2.fl.yelpcdn.com/bphoto/lpK4Y0EWDAavssWRrlZGTA/o.jpg", "is_closed": false, "url": "https://www.yelp.com/biz/caf%C3%A9-seeterrassen-hamburg-2?adjust_creative=hBJOknVQJ58S5goQyjmwRw&utm_campaign=yelp_api_v3&utm_medium=api_v3_business_search&utm_source=hBJOknVQJ58S5goQyjmwRw", "review_count": 38, "categories": [{"alias": "cafes", "title": "Cafes"}, {"alias": "venues", "title": "Venues & Event Spaces"}], "rating": 2.5, "coordinates": {"latitude": 53.5615357516941, "longitude": 9.98223156284325}, "transactions": [], "price": "\u20ac\u20ac", "location": {"address1": "St. Petersburger Str. 22", "address2": "", "address3": null, "city": "Hamburg", "zip_code": "20355", "country": "DE", "state": "HH", "display_address": ["St. Petersburger Str. 22", "20355 Hamburg", "Germany"]}, "phone": "+4940353608", "display_phone": "+49 40 353608", "distance": 966.5424817185656}, {"id": "SeodQIjOcsrznD7rwIB-Jw", "alias": "the-big-balmy-hamburg-2", "name": "The Big Balmy", "image_url": "https://s3-media2.fl.yelpcdn.com/bphoto/KWUCQvGDONs_iDxlKXzgvQ/o.jpg", "is_closed": false, "url": "https://www.yelp.com/biz/the-big-balmy-hamburg-2?adjust_creative=hBJOknVQJ58S5goQyjmwRw&utm_campaign=yelp_api_v3&utm_medium=api_v3_business_search&utm_source=hBJOknVQJ58S5goQyjmwRw", "review_count": 27, "categories": [{"alias": "burgers", "title": "Burgers"}, {"alias": "foodtrucks", "title": "Food Trucks"}], "rating": 3.5, "coordinates": {"latitude": 53.537786, "longitude": 10.028218}, "transactions": [], "price": "\u20ac\u20ac", "location": {"address1": "", "address2": null, "address3": null, "city": "Hamburg", "zip_code": "", "country": "DE", "state": "HH", "display_address": ["Hamburg", "Germany"]}, "phone": "+494069278630", "display_phone": "+49 40 69278630", "distance": 4920.9435899244345}, {"id": "Cl8YTp5A6YZG3NLNtNrm1g", "alias": "raum-2-hamburg", "name": "Raum 2", "image_url": "", "is_closed": false, "url": "https://www.yelp.com/biz/raum-2-hamburg?adjust_creative=hBJOknVQJ58S5goQyjmwRw&utm_campaign=yelp_api_v3&utm_medium=api_v3_business_search&utm_source=hBJOknVQJ58S5goQyjmwRw", "review_count": 2, "categories": [{"alias": "cafes", "title": "Cafes"}], "rating": 2.0, "coordinates": {"latitude": 53.5769, "longitude": 9.9702}, "transactions": [], "location": {"address1": "Bismarckstr. 90", "address2": null, "address3": null, "city": "Hamburg", "zip_code": "20144", "country": "DE", "state": "HH", "display_address": ["Bismarckstr. 90", "20144 Hamburg", "Germany"]}, "phone": "", "display_phone": "", "distance": 917.6464971240085}, {"id": "J4D68OIdwwd-LpzJre9Iyg", "alias": "osaka-sushi-hamburg-2", "name": "Osaka Sushi", "image_url": "https://s3-media4.fl.yelpcdn.com/bphoto/pc3ZZ7vcx7J9rPfHhdNndA/o.jpg", "is_closed": false, "url": "https://www.yelp.com/biz/osaka-sushi-hamburg-2?adjust_creative=hBJOknVQJ58S5goQyjmwRw&utm_campaign=yelp_api_v3&utm_medium=api_v3_business_search&utm_source=hBJOknVQJ58S5goQyjmwRw", "review_count": 24, "categories": [{"alias": "sushi", "title": "Sushi Bars"}], "rating": 3.0, "coordinates": {"latitude": 53.5799522139455, "longitude": 9.97468390242341}, "transactions": [], "price": "\u20ac\u20ac", "location": {"address1": "Hoheluftchaussee 28", "address2": "", "address3": "", "city": "Hamburg", "zip_code": "20253", "country": "DE", "state": "HH", "display_address": ["Hoheluftchaussee 28", "20253 Hamburg", "Germany"]}, "phone": "+494025493514", "display_phone": "+49 40 25493514", "distance": 1172.1854515721125}, {"id": "cGIKCcR0wZszz8VldC2-7g", "alias": "currywerk-hamburg", "name": "curryWERK", "image_url": "https://s3-media4.fl.yelpcdn.com/bphoto/j_ZPQAB6JrAru84VDuLiRA/o.jpg", "is_closed": false, "url": "https://www.yelp.com/biz/currywerk-hamburg?adjust_creative=hBJOknVQJ58S5goQyjmwRw&utm_campaign=yelp_api_v3&utm_medium=api_v3_business_search&utm_source=hBJOknVQJ58S5goQyjmwRw", "review_count": 1, "categories": [{"alias": "foodtrucks", "title": "Food Trucks"}, {"alias": "currysausage", "title": "Curry Sausage"}], "rating": 4.0, "coordinates": {"latitude": 53.5498886108398, "longitude": 9.94732189178467}, "transactions": [], "price": "\u20ac\u20ac", "location": {"address1": "", "address2": "", "address3": "", "city": "Hamburg", "zip_code": "22767", "country": "DE", "state": "HH", "display_address": ["22767 Hamburg", "Germany"]}, "phone": "+4917632443433", "display_phone": "+49 176 32443433", "distance": 3184.339222980082}]