[{"id": "yDh-WmtvX1e7z4izeCQ4fg", "alias": "momo-ramen-hamburg", "name": "MOMO Ramen", "image_url": "https://s3-media4.fl.yelpcdn.com/bphoto/idGYShdR0VKXV05Q22vElQ/o.jpg", "is_closed": false, "url": "https://www.yelp.com/biz/momo-ramen-hamburg?adjust_creative=hBJOknVQJ58S5goQyjmwRw&utm_campaign=yelp_api_v3&utm_medium=api_v3_business_search&utm_source=hBJOknVQJ58S5goQyjmwRw", "review_count": 30, "categories": [{"alias": "ramen", "title": "Ramen"}], "rating": 4.5, "coordinates": {"latitude": 53.5662499, "longitude": 9.96338}, "transactions": [], "price": "\u20ac\u20ac", "location": {"address1": "Margaretenstr. 58", "address2": "", "address3": null, "city": "Hamburg", "zip_code": "20357", "country": "DE", "state": "HH", "display_address": ["Margaretenstr. 58", "20357 Hamburg", "Germany"]}, "phone": "", "display_phone": "", "distance": 404.9443849190129}, {"id": "4Emwlf6UYH03ybZRgzDHIQ", "alias": "caf\u00e953-hamburg-2", "name": "Caf\u00e953", "image_url": "https://s3-media4.fl.yelpcdn.com/bphoto/kKVf6WmPMs1W5oJofMScZQ/o.jpg", "is_closed": false, "url": "https://www.yelp.com/biz/caf%C3%A953-hamburg-2?adjust_creative=hBJOknVQJ58S5goQyjmwRw&utm_campaign=yelp_api_v3&utm_medium=api_v3_business_search&utm_source=hBJOknVQJ58S5goQyjmwRw", "review_count": 4, "categories": [{"alias": "breakfast_brunch", "title": "Breakfast & Brunch"}, {"alias": "german", "title": "German"}, {"alias": "mediterranean", "title": "Mediterranean"}], "rating": 5.0, "coordinates": {"latitude": 53.56776, "longitude": 9.9643}, "transactions": [], "price": "\u20ac", "location": {"address1": "Weidenallee 53", "address2": null, "address3": "", "city": "Hamburg", "zip_code": "20357", "country": "DE", "state": "HH", "display_address": ["Weidenallee 53", "20357 Hamburg", "Germany"]}, "phone": "+494063731122", "display_phone": "+49 40 63731122", "distance": 271.87375353976716}, {"id": "Wj-n0X3-ZQnNyORQiVtrAQ", "alias": "salibaba-hamburg", "name": "Salibaba", "image_url": "https://s3-media2.fl.yelpcdn.com/bphoto/inopSnBSdxuZl3P6MndfLQ/o.jpg", "is_closed": false, "url": "https://www.yelp.com/biz/salibaba-hamburg?adjust_creative=hBJOknVQJ58S5goQyjmwRw&utm_campaign=yelp_api_v3&utm_medium=api_v3_business_search&utm_source=hBJOknVQJ58S5goQyjmwRw", "review_count": 12, "categories": [{"alias": "syrian", "title": "Syrian"}], "rating": 4.5, "coordinates": {"latitude": 53.573283, "longitude": 9.9602125}, "transactions": [], "price": "\u20ac", "location": {"address1": "Eppendorfer Weg 91", "address2": "", "address3": null, "city": "Hamburg", "zip_code": "20259", "country": "DE", "state": "HH", "display_address": ["Eppendorfer Weg 91", "20259 Hamburg", "Germany"]}, "phone": "+494063946681", "display_phone": "+49 40 63946681", "distance": 416.7752435196616}, {"id": "w5dsFtdJwQHxRYXnCVuE5w", "alias": "ramen-bar-zipang-hamburg", "name": "Ramen Bar Zipang", "image_url": "https://s3-media2.fl.yelpcdn.com/bphoto/f8Lteply2jVlKcn3BvFBkw/o.jpg", "is_closed": false, "url": "https://www.yelp.com/biz/ramen-bar-zipang-hamburg?adjust_creative=hBJOknVQJ58S5goQyjmwRw&utm_campaign=yelp_api_v3&utm_medium=api_v3_business_search&utm_source=hBJOknVQJ58S5goQyjmwRw", "review_count": 56, "categories": [{"alias": "ramen", "title": "Ramen"}], "rating": 4.0, "coordinates": {"latitude": 53.572614, "longitude": 9.960054}, "transactions": [], "price": "\u20ac\u20ac", "location": {"address1": "Eppendorfer Weg 62", "address2": null, "address3": "", "city": "Hamburg", "zip_code": "20259", "country": "DE", "state": "HH", "display_address": ["Eppendorfer Weg 62", "20259 Hamburg", "Germany"]}, "phone": "+494030703777", "display_phone": "+49 40 30703777", "distance": 347.1505720836627}, {"id": "MQm8xm2wzdCqq-K3ddVkog", "alias": "marend-hamburg-3", "name": "Marend", "image_url": "https://s3-media1.fl.yelpcdn.com/bphoto/Oe0HItw9qwPige83EiZITw/o.jpg", "is_closed": false, "url": "https://www.yelp.com/biz/marend-hamburg-3?adjust_creative=hBJOknVQJ58S5goQyjmwRw&utm_campaign=yelp_api_v3&utm_medium=api_v3_business_search&utm_source=hBJOknVQJ58S5goQyjmwRw", "review_count": 2, "categories": [{"alias": "austrian", "title": "Austrian"}], "rating": 5.0, "coordinates": {"latitude": 53.57217, "longitude": 9.96029}, "transactions": [], "location": {"address1": "Von-der-Tann-Str. 5", "address2": "", "address3": null, "city": "Hamburg", "zip_code": "20259", "country": "DE", "state": "HH", "display_address": ["Von-der-Tann-Str. 5", "20259 Hamburg", "Germany"]}, "phone": "+494053307870", "display_phone": "+49 40 53307870", "distance": 300.83993223639555}, {"id": "6JlUnhL0kFeGTWm9bXTU4Q", "alias": "speisekammer-hamburg", "name": "Speisekammer", "image_url": "https://s3-media2.fl.yelpcdn.com/bphoto/xxsSL37xzNRBn6PLT2PSXA/o.jpg", "is_closed": false, "url": "https://www.yelp.com/biz/speisekammer-hamburg?adjust_creative=hBJOknVQJ58S5goQyjmwRw&utm_campaign=yelp_api_v3&utm_medium=api_v3_business_search&utm_source=hBJOknVQJ58S5goQyjmwRw", "review_count": 74, "categories": [{"alias": "cafes", "title": "Cafes"}, {"alias": "breakfast_brunch", "title": "Breakfast & Brunch"}], "rating": 4.5, "coordinates": {"latitude": 53.57202, "longitude": 9.9595}, "transactions": [], "price": "\u20ac\u20ac", "location": {"address1": "Weidenstieg 5 a", "address2": "", "address3": "", "city": "Hamburg", "zip_code": "20259", "country": "DE", "state": "HH", "display_address": ["Weidenstieg 5 a", "20259 Hamburg", "Germany"]}, "phone": "+494040188124", "display_phone": "+49 40 40188124", "distance": 299.9188634110834}, {"id": "cNZgkCbGMi-d8jvsNzqvAQ", "alias": "br\u00fcdigams-hamburg", "name": "Br\u00fcdigams", "image_url": "https://s3-media2.fl.yelpcdn.com/bphoto/RVrma60ccNurDJdnveuVkQ/o.jpg", "is_closed": false, "url": "https://www.yelp.com/biz/br%C3%BCdigams-hamburg?adjust_creative=hBJOknVQJ58S5goQyjmwRw&utm_campaign=yelp_api_v3&utm_medium=api_v3_business_search&utm_source=hBJOknVQJ58S5goQyjmwRw", "review_count": 94, "categories": [{"alias": "german", "title": "German"}], "rating": 4.5, "coordinates": {"latitude": 53.5747188, "longitude": 9.9622696}, "transactions": [], "price": "\u20ac\u20ac\u20ac", "location": {"address1": "Eppendorfer Weg 98", "address2": "", "address3": "", "city": "Hamburg", "zip_code": "20259", "country": "DE", "state": "HH", "display_address": ["Eppendorfer Weg 98", "20259 Hamburg", "Germany"]}, "phone": "+494057012999", "display_phone": "+49 40 57012999", "distance": 577.9904845396424}, {"id": "fiX7N0wxIVO0-tH927WhjQ", "alias": "yin-yang-hamburg", "name": "Yin Yang", "image_url": "https://s3-media1.fl.yelpcdn.com/bphoto/zJ0QOoaFrI_0PKnOJRXndA/o.jpg", "is_closed": false, "url": "https://www.yelp.com/biz/yin-yang-hamburg?adjust_creative=hBJOknVQJ58S5goQyjmwRw&utm_campaign=yelp_api_v3&utm_medium=api_v3_business_search&utm_source=hBJOknVQJ58S5goQyjmwRw", "review_count": 11, "categories": [{"alias": "vietnamese", "title": "Vietnamese"}, {"alias": "sushi", "title": "Sushi Bars"}], "rating": 4.5, "coordinates": {"latitude": 53.57359, "longitude": 9.96174}, "transactions": [], "price": "\u20ac\u20ac", "location": {"address1": "Osterstr. 5", "address2": "", "address3": null, "city": "Hamburg", "zip_code": "20259", "country": "DE", "state": "HH", "display_address": ["Osterstr. 5", "20259 Hamburg", "Germany"]}, "phone": "+494030386788", "display_phone": "+49 40 30386788", "distance": 434.2896604452621}, {"id": "dHS7J31qNK1CRYFp7r5zJA", "alias": "bistro-tati-hamburg", "name": "Bistro Tati", "image_url": "https://s3-media1.fl.yelpcdn.com/bphoto/49DmoTUVh-S7IJRSAINCcA/o.jpg", "is_closed": false, "url": "https://www.yelp.com/biz/bistro-tati-hamburg?adjust_creative=hBJOknVQJ58S5goQyjmwRw&utm_campaign=yelp_api_v3&utm_medium=api_v3_business_search&utm_source=hBJOknVQJ58S5goQyjmwRw", "review_count": 61, "categories": [{"alias": "creperies", "title": "Creperies"}, {"alias": "bistros", "title": "Bistros"}, {"alias": "french", "title": "French"}], "rating": 4.5, "coordinates": {"latitude": 53.5680014, "longitude": 9.9597807}, "transactions": [], "price": "\u20ac\u20ac", "location": {"address1": "Bellealliancestr. 35", "address2": "", "address3": "", "city": "Hamburg", "zip_code": "20259", "country": "DE", "state": "HH", "display_address": ["Bellealliancestr. 35", "20259 Hamburg", "Germany"]}, "phone": "+494018017611", "display_phone": "+49 40 18017611", "distance": 194.10501581814077}, {"id": "AXuVRMmFBu7cn-w2_mgJ-g", "alias": "blackline-hamburg", "name": "blackline", "image_url": "https://s3-media2.fl.yelpcdn.com/bphoto/JsK0op74vTZfK2Oubi2NWw/o.jpg", "is_closed": false, "url": "https://www.yelp.com/biz/blackline-hamburg?adjust_creative=hBJOknVQJ58S5goQyjmwRw&utm_campaign=yelp_api_v3&utm_medium=api_v3_business_search&utm_source=hBJOknVQJ58S5goQyjmwRw", "review_count": 66, "categories": [{"alias": "coffee", "title": "Coffee & Tea"}, {"alias": "cafes", "title": "Cafes"}], "rating": 4.5, "coordinates": {"latitude": 53.5716891673212, "longitude": 9.95855792230772}, "transactions": [], "price": "\u20ac\u20ac", "location": {"address1": "Eppendorfer Weg 67", "address2": "", "address3": "", "city": "Hamburg", "zip_code": "20259", "country": "DE", "state": "HH", "display_address": ["Eppendorfer Weg 67", "20259 Hamburg", "Germany"]}, "phone": "+494064880078", "display_phone": "+49 40 64880078", "distance": 288.2509352641906}, {"id": "rELu3Z6M85W1qxUwFAKBNw", "alias": "freischwimmer-hamburg-3", "name": "Freischwimmer", "image_url": "https://s3-media2.fl.yelpcdn.com/bphoto/14Gbz5-_KXRsDT0ihYvy8w/o.jpg", "is_closed": false, "url": "https://www.yelp.com/biz/freischwimmer-hamburg-3?adjust_creative=hBJOknVQJ58S5goQyjmwRw&utm_campaign=yelp_api_v3&utm_medium=api_v3_business_search&utm_source=hBJOknVQJ58S5goQyjmwRw", "review_count": 68, "categories": [{"alias": "modern_european", "title": "Modern European"}, {"alias": "bowling", "title": "Bowling"}, {"alias": "beergarden", "title": "Beer Garden"}], "rating": 4.0, "coordinates": {"latitude": 53.5692556007359, "longitude": 9.96322360740965}, "transactions": [], "price": "\u20ac\u20ac", "location": {"address1": "Fruchtallee 1", "address2": "", "address3": "", "city": "Hamburg", "zip_code": "20259", "country": "DE", "state": "HH", "display_address": ["Fruchtallee 1", "20259 Hamburg", "Germany"]}, "phone": "+494041459980", "display_phone": "+49 40 41459980", "distance": 146.33905121407307}, {"id": "3_VR_A6uszfkvrqsJnVhhQ", "alias": "gl\u00fcck-und-selig-hamburg", "name": "Gl\u00fcck Und Selig", "image_url": "https://s3-media3.fl.yelpcdn.com/bphoto/ANXjPzbS89gj96b0nZHTnQ/o.jpg", "is_closed": false, "url": "https://www.yelp.com/biz/gl%C3%BCck-und-selig-hamburg?adjust_creative=hBJOknVQJ58S5goQyjmwRw&utm_campaign=yelp_api_v3&utm_medium=api_v3_business_search&utm_source=hBJOknVQJ58S5goQyjmwRw", "review_count": 152, "categories": [{"alias": "cafes", "title": "Cafes"}, {"alias": "breakfast_brunch", "title": "Breakfast & Brunch"}], "rating": 4.5, "coordinates": {"latitude": 53.579781, "longitude": 9.95596}, "transactions": [], "price": "\u20ac\u20ac", "location": {"address1": "Heu\u00dfweg 97", "address2": "", "address3": "", "city": "Hamburg", "zip_code": "20255", "country": "DE", "state": "HH", "display_address": ["Heu\u00dfweg 97", "20255 Hamburg", "Germany"]}, "phone": "+494032518975", "display_phone": "+49 40 32518975", "distance": 1184.535199115236}, {"id": "7RYpzMNN6cs6NrtmDAJifw", "alias": "schabis-fischimbiss-hamburg", "name": "Schabi's Fischimbiss", "image_url": "https://s3-media3.fl.yelpcdn.com/bphoto/LsPqqtTaqKYMLpjlO1FjPw/o.jpg", "is_closed": false, "url": "https://www.yelp.com/biz/schabis-fischimbiss-hamburg?adjust_creative=hBJOknVQJ58S5goQyjmwRw&utm_campaign=yelp_api_v3&utm_medium=api_v3_business_search&utm_source=hBJOknVQJ58S5goQyjmwRw", "review_count": 109, "categories": [{"alias": "fishnchips", "title": "Fish & Chips"}, {"alias": "hotdogs", "title": "Fast Food"}, {"alias": "seafood", "title": "Seafood"}], "rating": 4.5, "coordinates": {"latitude": 53.5614324, "longitude": 9.9626384}, "transactions": [], "price": "\u20ac\u20ac", "location": {"address1": "Schulterblatt 60", "address2": null, "address3": null, "city": "Hamburg", "zip_code": "20357", "country": "DE", "state": "HH", "display_address": ["Schulterblatt 60", "20357 Hamburg", "Germany"]}, "phone": "+494043290940", "display_phone": "+49 40 43290940", "distance": 910.7250435674857}, {"id": "yYNbgA0m6Rlgr69hmCSOBg", "alias": "most-wanted-burger-hamburg", "name": "Most Wanted Burger", "image_url": "https://s3-media4.fl.yelpcdn.com/bphoto/79016wTEArn5fHsYUaQD_A/o.jpg", "is_closed": false, "url": "https://www.yelp.com/biz/most-wanted-burger-hamburg?adjust_creative=hBJOknVQJ58S5goQyjmwRw&utm_campaign=yelp_api_v3&utm_medium=api_v3_business_search&utm_source=hBJOknVQJ58S5goQyjmwRw", "review_count": 90, "categories": [{"alias": "burgers", "title": "Burgers"}], "rating": 4.0, "coordinates": {"latitude": 53.5745618467317, "longitude": 9.95893646031618}, "transactions": [], "price": "\u20ac\u20ac", "location": {"address1": "Osterstr. 31", "address2": "", "address3": "", "city": "Hamburg", "zip_code": "20259", "country": "DE", "state": "HH", "display_address": ["Osterstr. 31", "20259 Hamburg", "Germany"]}, "phone": "+494028473163", "display_phone": "+49 40 28473163", "distance": 572.720137075095}, {"id": "UmWk_A1cqff4AMmyATFZJw", "alias": "mazza-hamburg", "name": "Mazza", "image_url": "https://s3-media4.fl.yelpcdn.com/bphoto/m1rswbofyeoGdL03l0wAiw/o.jpg", "is_closed": false, "url": "https://www.yelp.com/biz/mazza-hamburg?adjust_creative=hBJOknVQJ58S5goQyjmwRw&utm_campaign=yelp_api_v3&utm_medium=api_v3_business_search&utm_source=hBJOknVQJ58S5goQyjmwRw", "review_count": 121, "categories": [{"alias": "mideastern", "title": "Middle Eastern"}], "rating": 4.0, "coordinates": {"latitude": 53.56991, "longitude": 9.96669}, "transactions": [], "price": "\u20ac\u20ac\u20ac", "location": {"address1": "Moorkamp 5", "address2": "", "address3": "", "city": "Hamburg", "zip_code": "20357", "country": "DE", "state": "HH", "display_address": ["Moorkamp 5", "20357 Hamburg", "Germany"]}, "phone": "+494028419191", "display_phone": "+49 40 28419191", "distance": 358.01647624909657}, {"id": "w3SwnThP__RHJTyALCLGUw", "alias": "emily-hamburg", "name": "Emily", "image_url": "https://s3-media2.fl.yelpcdn.com/bphoto/tged5XA6LFE9Q9XB4qWkNw/o.jpg", "is_closed": false, "url": "https://www.yelp.com/biz/emily-hamburg?adjust_creative=hBJOknVQJ58S5goQyjmwRw&utm_campaign=yelp_api_v3&utm_medium=api_v3_business_search&utm_source=hBJOknVQJ58S5goQyjmwRw", "review_count": 13, "categories": [{"alias": "modern_european", "title": "Modern European"}], "rating": 4.5, "coordinates": {"latitude": 53.5756552254512, "longitude": 9.95521456225067}, "transactions": [], "price": "\u20ac\u20ac", "location": {"address1": "Emilienstr. 22", "address2": "", "address3": null, "city": "Hamburg", "zip_code": "20259", "country": "DE", "state": "HH", "display_address": ["Emilienstr. 22", "20259 Hamburg", "Germany"]}, "phone": "+494064797791", "display_phone": "+49 40 64797791", "distance": 779.3875080916331}, {"id": "x_zUTaIWMIRrj1rZVCaSHQ", "alias": "euro-vita-feinkost-hamburg", "name": "Euro Vita Feinkost", "image_url": "https://s3-media4.fl.yelpcdn.com/bphoto/DJEKSR7smzjIr9AJzjgv_Q/o.jpg", "is_closed": false, "url": "https://www.yelp.com/biz/euro-vita-feinkost-hamburg?adjust_creative=hBJOknVQJ58S5goQyjmwRw&utm_campaign=yelp_api_v3&utm_medium=api_v3_business_search&utm_source=hBJOknVQJ58S5goQyjmwRw", "review_count": 22, "categories": [{"alias": "seafood", "title": "Seafood"}, {"alias": "seafoodmarkets", "title": "Seafood Markets"}], "rating": 4.5, "coordinates": {"latitude": 53.57391, "longitude": 9.96082}, "transactions": [], "price": "\u20ac\u20ac", "location": {"address1": "Osterstr. 13", "address2": "", "address3": "", "city": "Hamburg", "zip_code": "20259", "country": "DE", "state": "HH", "display_address": ["Osterstr. 13", "20259 Hamburg", "Germany"]}, "phone": "+4940497340", "display_phone": "+49 40 497340", "distance": 476.0907536409804}, {"id": "BJxhu9qLy0dL9cfDFEeeaQ", "alias": "helden-und-co-hamburg", "name": "Helden&Co", "image_url": "https://s3-media1.fl.yelpcdn.com/bphoto/gpgMlkYTr0jER_L5YqM5WA/o.jpg", "is_closed": false, "url": "https://www.yelp.com/biz/helden-und-co-hamburg?adjust_creative=hBJOknVQJ58S5goQyjmwRw&utm_campaign=yelp_api_v3&utm_medium=api_v3_business_search&utm_source=hBJOknVQJ58S5goQyjmwRw", "review_count": 17, "categories": [{"alias": "burgers", "title": "Burgers"}], "rating": 4.0, "coordinates": {"latitude": 53.5662499, "longitude": 9.96338}, "transactions": [], "price": "\u20ac\u20ac", "location": {"address1": "Margaretenstr. 58", "address2": null, "address3": "", "city": "Hamburg", "zip_code": "20357", "country": "DE", "state": "HH", "display_address": ["Margaretenstr. 58", "20357 Hamburg", "Germany"]}, "phone": "+494046653444", "display_phone": "+49 40 46653444", "distance": 404.9443849190129}, {"id": "boCyvaRzFKgonCPZFTz2Ng", "alias": "esszimmer-feinekost-hamburg-2", "name": "Esszimmer-FeineKost", "image_url": "https://s3-media2.fl.yelpcdn.com/bphoto/7--6gtSRh-5A3UFBPm2dyg/o.jpg", "is_closed": false, "url": "https://www.yelp.com/biz/esszimmer-feinekost-hamburg-2?adjust_creative=hBJOknVQJ58S5goQyjmwRw&utm_campaign=yelp_api_v3&utm_medium=api_v3_business_search&utm_source=hBJOknVQJ58S5goQyjmwRw", "review_count": 63, "categories": [{"alias": "delicatessen", "title": "Delicatessen"}, {"alias": "breakfast_brunch", "title": "Breakfast & Brunch"}], "rating": 4.5, "coordinates": {"latitude": 53.5719, "longitude": 9.95861}, "transactions": [], "price": "\u20ac\u20ac", "location": {"address1": "Eppendorfer Weg 73", "address2": null, "address3": null, "city": "Hamburg", "zip_code": "20259", "country": "DE", "state": "HH", "display_address": ["Eppendorfer Weg 73", "20259 Hamburg", "Germany"]}, "phone": "+494089006900", "display_phone": "+49 40 89006900", "distance": 305.87309203271076}, {"id": "KaRHpCza9nPmZNRYtJPBWA", "alias": "hardys-hamburg", "name": "Hardy's", "image_url": "https://s3-media1.fl.yelpcdn.com/bphoto/AisnqUEYcVWnH6qS74GTeQ/o.jpg", "is_closed": false, "url": "https://www.yelp.com/biz/hardys-hamburg?adjust_creative=hBJOknVQJ58S5goQyjmwRw&utm_campaign=yelp_api_v3&utm_medium=api_v3_business_search&utm_source=hBJOknVQJ58S5goQyjmwRw", "review_count": 14, "categories": [{"alias": "divebars", "title": "Dive Bars"}, {"alias": "international", "title": "International"}], "rating": 4.0, "coordinates": {"latitude": 53.57444, "longitude": 9.96366}, "transactions": [], "price": "\u20ac\u20ac", "location": {"address1": "Tresckowstr. 14", "address2": null, "address3": null, "city": "Hamburg", "zip_code": "20259", "country": "DE", "state": "HH", "display_address": ["Tresckowstr. 14", "20259 Hamburg", "Germany"]}, "phone": "+4940494600", "display_phone": "+49 40 494600", "distance": 562.6935307734425}, {"id": "yGsV9h3SIb7qmpFu04fRzw", "alias": "thai-gourmet-imbiss-hamburg", "name": "Thai-Gourmet-Imbiss", "image_url": "https://s3-media1.fl.yelpcdn.com/bphoto/9H9NIRkv__rz7ixOzLiNJA/o.jpg", "is_closed": false, "url": "https://www.yelp.com/biz/thai-gourmet-imbiss-hamburg?adjust_creative=hBJOknVQJ58S5goQyjmwRw&utm_campaign=yelp_api_v3&utm_medium=api_v3_business_search&utm_source=hBJOknVQJ58S5goQyjmwRw", "review_count": 35, "categories": [{"alias": "thai", "title": "Thai"}], "rating": 4.5, "coordinates": {"latitude": 53.5745, "longitude": 9.9613}, "transactions": [], "price": "\u20ac\u20ac", "location": {"address1": "Eppendorfer Weg 107", "address2": "", "address3": "", "city": "Hamburg", "zip_code": "20259", "country": "DE", "state": "HH", "display_address": ["Eppendorfer Weg 107", "20259 Hamburg", "Germany"]}, "phone": "+4940407675", "display_phone": "+49 40 407675", "distance": 548.4292966482568}, {"id": "RN3PqjvHqsPrpFpzVfgTOw", "alias": "eclair-au-caf\u00e9-hamburg-2", "name": "Eclair au Caf\u00e9", "image_url": "https://s3-media3.fl.yelpcdn.com/bphoto/_hbCnI2WnWm8V-5dTi-xAg/o.jpg", "is_closed": false, "url": "https://www.yelp.com/biz/eclair-au-caf%C3%A9-hamburg-2?adjust_creative=hBJOknVQJ58S5goQyjmwRw&utm_campaign=yelp_api_v3&utm_medium=api_v3_business_search&utm_source=hBJOknVQJ58S5goQyjmwRw", "review_count": 34, "categories": [{"alias": "french", "title": "French"}, {"alias": "cafes", "title": "Cafes"}], "rating": 3.5, "coordinates": {"latitude": 53.5683391051921, "longitude": 9.95627576899585}, "transactions": [], "price": "\u20ac\u20ac", "location": {"address1": "Eppendorfer Weg 1", "address2": "", "address3": "", "city": "Hamburg", "zip_code": "20259", "country": "DE", "state": "HH", "display_address": ["Eppendorfer Weg 1", "20259 Hamburg", "Germany"]}, "phone": "+494043282375", "display_phone": "+49 40 43282375", "distance": 344.9789707749153}, {"id": "nLPOWc3XbsaIaE8y_jf_LQ", "alias": "mareas-tapas-bar-hamburg", "name": "Mareas Tapas-Bar", "image_url": "https://s3-media3.fl.yelpcdn.com/bphoto/Oz54I2euMRLGL3sc0pS4uA/o.jpg", "is_closed": false, "url": "https://www.yelp.com/biz/mareas-tapas-bar-hamburg?adjust_creative=hBJOknVQJ58S5goQyjmwRw&utm_campaign=yelp_api_v3&utm_medium=api_v3_business_search&utm_source=hBJOknVQJ58S5goQyjmwRw", "review_count": 67, "categories": [{"alias": "spanish", "title": "Spanish"}], "rating": 4.0, "coordinates": {"latitude": 53.56817, "longitude": 9.96102}, "transactions": [], "price": "\u20ac\u20ac", "location": {"address1": "Bellealliancestr. 44", "address2": null, "address3": null, "city": "Hamburg", "zip_code": "20259", "country": "DE", "state": "HH", "display_address": ["Bellealliancestr. 44", "20259 Hamburg", "Germany"]}, "phone": "+494023518311", "display_phone": "+49 40 23518311", "distance": 159.02891793397075}, {"id": "vFkOOOpJM2I9qgEGdLhCUg", "alias": "vienna-hamburg", "name": "Vienna", "image_url": "https://s3-media3.fl.yelpcdn.com/bphoto/1d1KcWbgzzQgGEvntZAJHA/o.jpg", "is_closed": false, "url": "https://www.yelp.com/biz/vienna-hamburg?adjust_creative=hBJOknVQJ58S5goQyjmwRw&utm_campaign=yelp_api_v3&utm_medium=api_v3_business_search&utm_source=hBJOknVQJ58S5goQyjmwRw", "review_count": 134, "categories": [{"alias": "french", "title": "French"}, {"alias": "italian", "title": "Italian"}, {"alias": "german", "title": "German"}], "rating": 4.5, "coordinates": {"latitude": 53.5665, "longitude": 9.96374}, "transactions": [], "price": "\u20ac\u20ac\u20ac", "location": {"address1": "Fettstr. 2", "address2": null, "address3": null, "city": "Hamburg", "zip_code": "20357", "country": "DE", "state": "HH", "display_address": ["Fettstr. 2", "20357 Hamburg", "Germany"]}, "phone": "+49404399182", "display_phone": "+49 40 4399182", "distance": 374.10036193439066}, {"id": "xKNpkIHSqnNunJMDuPZc7g", "alias": "khao-san-hamburg", "name": "Khao San", "image_url": "https://s3-media3.fl.yelpcdn.com/bphoto/tVrkDShcZl_wXAr0PcqZUA/o.jpg", "is_closed": false, "url": "https://www.yelp.com/biz/khao-san-hamburg?adjust_creative=hBJOknVQJ58S5goQyjmwRw&utm_campaign=yelp_api_v3&utm_medium=api_v3_business_search&utm_source=hBJOknVQJ58S5goQyjmwRw", "review_count": 56, "categories": [{"alias": "thai", "title": "Thai"}], "rating": 4.0, "coordinates": {"latitude": 53.57513, "longitude": 9.95747}, "transactions": [], "price": "\u20ac\u20ac", "location": {"address1": "Osterstr. 48", "address2": "", "address3": "", "city": "Hamburg", "zip_code": "20259", "country": "DE", "state": "HH", "display_address": ["Osterstr. 48", "20259 Hamburg", "Germany"]}, "phone": "+494075662926", "display_phone": "+49 40 75662926", "distance": 663.1165505410522}, {"id": "l67xj4WZcZ-qMhslvhhpdw", "alias": "piazza-trapani-hamburg-2", "name": "Piazza Trapani", "image_url": "https://s3-media4.fl.yelpcdn.com/bphoto/LAITvwprnwG4-Prn-KyleA/o.jpg", "is_closed": false, "url": "https://www.yelp.com/biz/piazza-trapani-hamburg-2?adjust_creative=hBJOknVQJ58S5goQyjmwRw&utm_campaign=yelp_api_v3&utm_medium=api_v3_business_search&utm_source=hBJOknVQJ58S5goQyjmwRw", "review_count": 70, "categories": [{"alias": "italian", "title": "Italian"}, {"alias": "pizza", "title": "Pizza"}], "rating": 4.5, "coordinates": {"latitude": 53.57316, "longitude": 9.96011}, "transactions": [], "price": "\u20ac\u20ac", "location": {"address1": "Eppendorfer Weg 89", "address2": "", "address3": "", "city": "Hamburg", "zip_code": "20259", "country": "DE", "state": "HH", "display_address": ["Eppendorfer Weg 89", "20259 Hamburg", "Germany"]}, "phone": "+494087976504", "display_phone": "+49 40 87976504", "distance": 407.4776754928215}, {"id": "ZrAo6bunwrIm3Jz_X32W2g", "alias": "jimmy-elsass-hamburg", "name": "Jimmy Elsass", "image_url": "https://s3-media4.fl.yelpcdn.com/bphoto/drR4K89S4m1KqEr8XeYKUg/o.jpg", "is_closed": false, "url": "https://www.yelp.com/biz/jimmy-elsass-hamburg?adjust_creative=hBJOknVQJ58S5goQyjmwRw&utm_campaign=yelp_api_v3&utm_medium=api_v3_business_search&utm_source=hBJOknVQJ58S5goQyjmwRw", "review_count": 93, "categories": [{"alias": "french", "title": "French"}], "rating": 4.0, "coordinates": {"latitude": 53.5683, "longitude": 9.96607}, "transactions": [], "price": "\u20ac\u20ac", "location": {"address1": "Sch\u00e4ferstr. 26", "address2": null, "address3": null, "city": "Hamburg", "zip_code": "20357", "country": "DE", "state": "HH", "display_address": ["Sch\u00e4ferstr. 26", "20357 Hamburg", "Germany"]}, "phone": "+494044195965", "display_phone": "+49 40 44195965", "distance": 349.74524525390484}, {"id": "AaUJWt8_H3qUfmE2_kragg", "alias": "trattoria-da-leandro-hamburg", "name": "Trattoria da Leandro", "image_url": "https://s3-media2.fl.yelpcdn.com/bphoto/3LqBW4LFkW_1uPQGby1iNA/o.jpg", "is_closed": false, "url": "https://www.yelp.com/biz/trattoria-da-leandro-hamburg?adjust_creative=hBJOknVQJ58S5goQyjmwRw&utm_campaign=yelp_api_v3&utm_medium=api_v3_business_search&utm_source=hBJOknVQJ58S5goQyjmwRw", "review_count": 29, "categories": [{"alias": "italian", "title": "Italian"}], "rating": 4.0, "coordinates": {"latitude": 53.56795, "longitude": 9.9642}, "transactions": [], "price": "\u20ac\u20ac", "location": {"address1": "Weidenallee 57", "address2": "", "address3": "", "city": "Hamburg", "zip_code": "20357", "country": "DE", "state": "HH", "display_address": ["Weidenallee 57", "20357 Hamburg", "Germany"]}, "phone": "+494087603068", "display_phone": "+49 40 87603068", "distance": 271.42505801943014}, {"id": "_7G_DNN4rRAmVR8zZYlZ6g", "alias": "der-erdbeefressende-drache-hamburg", "name": "Der erdbeefressende Drache", "image_url": "https://s3-media2.fl.yelpcdn.com/bphoto/lqQw_gTttuWD1_sgjjuSWQ/o.jpg", "is_closed": false, "url": "https://www.yelp.com/biz/der-erdbeefressende-drache-hamburg?adjust_creative=hBJOknVQJ58S5goQyjmwRw&utm_campaign=yelp_api_v3&utm_medium=api_v3_business_search&utm_source=hBJOknVQJ58S5goQyjmwRw", "review_count": 1, "categories": [{"alias": "popuprestaurants", "title": "Pop-Up Restaurants"}], "rating": 5.0, "coordinates": {"latitude": 53.5668997971549, "longitude": 9.96459893882275}, "transactions": [], "location": {"address1": "Weidenallee 27", "address2": "", "address3": null, "city": "Hamburg", "zip_code": "20357", "country": "DE", "state": "HH", "display_address": ["Weidenallee 27", "20357 Hamburg", "Germany"]}, "phone": "+494025481678", "display_phone": "+49 40 25481678", "distance": 377.35445118436144}, {"id": "p3zvoKWiqXaPElDEMvM7TQ", "alias": "bacana-hamburg", "name": "Bacana", "image_url": "https://s3-media3.fl.yelpcdn.com/bphoto/R-JLoNLOPDoOJaeP_UpHeQ/o.jpg", "is_closed": false, "url": "https://www.yelp.com/biz/bacana-hamburg?adjust_creative=hBJOknVQJ58S5goQyjmwRw&utm_campaign=yelp_api_v3&utm_medium=api_v3_business_search&utm_source=hBJOknVQJ58S5goQyjmwRw", "review_count": 42, "categories": [{"alias": "cafes", "title": "Cafes"}], "rating": 4.0, "coordinates": {"latitude": 53.56837, "longitude": 9.96167}, "transactions": [], "price": "\u20ac\u20ac", "location": {"address1": "Bellealliancestr. 52", "address2": "", "address3": "", "city": "Hamburg", "zip_code": "20259", "country": "DE", "state": "HH", "display_address": ["Bellealliancestr. 52", "20259 Hamburg", "Germany"]}, "phone": "+494018034321", "display_phone": "+49 40 18034321", "distance": 138.23181018229766}, {"id": "AhjpPDOv1X1ahcVe5OUa7Q", "alias": "limu-hamburg", "name": "Limu", "image_url": "https://s3-media4.fl.yelpcdn.com/bphoto/7ItcVO5bmuJJnSWBTn8fLg/o.jpg", "is_closed": false, "url": "https://www.yelp.com/biz/limu-hamburg?adjust_creative=hBJOknVQJ58S5goQyjmwRw&utm_campaign=yelp_api_v3&utm_medium=api_v3_business_search&utm_source=hBJOknVQJ58S5goQyjmwRw", "review_count": 6, "categories": [{"alias": "cafes", "title": "Cafes"}, {"alias": "bistros", "title": "Bistros"}], "rating": 4.5, "coordinates": {"latitude": 53.56796, "longitude": 9.96026}, "transactions": [], "price": "\u20ac", "location": {"address1": "Bellealliancestr. 38", "address2": "", "address3": "", "city": "Hamburg", "zip_code": "20259", "country": "DE", "state": "HH", "display_address": ["Bellealliancestr. 38", "20259 Hamburg", "Germany"]}, "phone": "+494049024004", "display_phone": "+49 40 49024004", "distance": 191.8641716402958}, {"id": "2PAnkUrnzf-GM_QqR5eZPQ", "alias": "mamalicious-hamburg", "name": "Mamalicious", "image_url": "https://s3-media1.fl.yelpcdn.com/bphoto/DX0RUJ8mkxq1GvRwEtV2lw/o.jpg", "is_closed": false, "url": "https://www.yelp.com/biz/mamalicious-hamburg?adjust_creative=hBJOknVQJ58S5goQyjmwRw&utm_campaign=yelp_api_v3&utm_medium=api_v3_business_search&utm_source=hBJOknVQJ58S5goQyjmwRw", "review_count": 125, "categories": [{"alias": "breakfast_brunch", "title": "Breakfast & Brunch"}, {"alias": "vegetarian", "title": "Vegetarian"}, {"alias": "vegan", "title": "Vegan"}], "rating": 4.0, "coordinates": {"latitude": 53.5637305812035, "longitude": 9.95982595038662}, "transactions": [], "price": "\u20ac\u20ac", "location": {"address1": "Max-Brauer-Allee 277", "address2": "", "address3": "", "city": "Hamburg", "zip_code": "22769", "country": "DE", "state": "HH", "display_address": ["Max-Brauer-Allee 277", "22769 Hamburg", "Germany"]}, "phone": "+494037026944", "display_phone": "+49 40 37026944", "distance": 654.4709448959003}, {"id": "TwzGCIciJZs90u542w2yEQ", "alias": "trattoria-salento-hamburg", "name": "Trattoria Salento", "image_url": "https://s3-media2.fl.yelpcdn.com/bphoto/lp5nk_AtTkxUWEsyjh5fgg/o.jpg", "is_closed": false, "url": "https://www.yelp.com/biz/trattoria-salento-hamburg?adjust_creative=hBJOknVQJ58S5goQyjmwRw&utm_campaign=yelp_api_v3&utm_medium=api_v3_business_search&utm_source=hBJOknVQJ58S5goQyjmwRw", "review_count": 141, "categories": [{"alias": "italian", "title": "Italian"}, {"alias": "pizza", "title": "Pizza"}], "rating": 4.5, "coordinates": {"latitude": 53.5752, "longitude": 9.95711}, "transactions": [], "price": "\u20ac\u20ac", "location": {"address1": "Osterstr. 52", "address2": null, "address3": null, "city": "Hamburg", "zip_code": "20259", "country": "DE", "state": "HH", "display_address": ["Osterstr. 52", "20259 Hamburg", "Germany"]}, "phone": "+494028514005", "display_phone": "+49 40 28514005", "distance": 685.0731654831112}, {"id": "JC6TYBN0thdXS_GuUI9nog", "alias": "mercato-venezia-hamburg", "name": "Mercato Venezia", "image_url": "https://s3-media4.fl.yelpcdn.com/bphoto/nNveNac0eW2aYdpJcIh8-g/o.jpg", "is_closed": false, "url": "https://www.yelp.com/biz/mercato-venezia-hamburg?adjust_creative=hBJOknVQJ58S5goQyjmwRw&utm_campaign=yelp_api_v3&utm_medium=api_v3_business_search&utm_source=hBJOknVQJ58S5goQyjmwRw", "review_count": 26, "categories": [{"alias": "italian", "title": "Italian"}, {"alias": "bistros", "title": "Bistros"}], "rating": 4.5, "coordinates": {"latitude": 53.5730970157985, "longitude": 9.9599683410962}, "transactions": [], "price": "\u20ac\u20ac", "location": {"address1": "Eppendorfer Weg 87", "address2": "", "address3": "", "city": "Hamburg", "zip_code": "20259", "country": "DE", "state": "HH", "display_address": ["Eppendorfer Weg 87", "20259 Hamburg", "Germany"]}, "phone": "+49404015853", "display_phone": "+49 40 4015853", "distance": 398.9238296614468}, {"id": "d2wzDFwpdckDH3hunH6mNg", "alias": "caf\u00e9-mexico-hamburg-2", "name": "Caf\u00e9 Mexico", "image_url": "https://s3-media2.fl.yelpcdn.com/bphoto/Jh5rRVDfqYyFiBLwgj04jg/o.jpg", "is_closed": false, "url": "https://www.yelp.com/biz/caf%C3%A9-mexico-hamburg-2?adjust_creative=hBJOknVQJ58S5goQyjmwRw&utm_campaign=yelp_api_v3&utm_medium=api_v3_business_search&utm_source=hBJOknVQJ58S5goQyjmwRw", "review_count": 43, "categories": [{"alias": "mexican", "title": "Mexican"}], "rating": 4.0, "coordinates": {"latitude": 53.5664299, "longitude": 9.96557}, "transactions": [], "price": "\u20ac\u20ac", "location": {"address1": "Weidenallee 6", "address2": "", "address3": "", "city": "Hamburg", "zip_code": "20357", "country": "DE", "state": "HH", "display_address": ["Weidenallee 6", "20357 Hamburg", "Germany"]}, "phone": "+494018042652", "display_phone": "+49 40 18042652", "distance": 459.47174818995455}, {"id": "vJcmM5Sh73f2_K4ksAHRAg", "alias": "umai-hamburg", "name": "Umai", "image_url": "https://s3-media3.fl.yelpcdn.com/bphoto/OQyXm0LqOBsp7wKGfaNGVw/o.jpg", "is_closed": false, "url": "https://www.yelp.com/biz/umai-hamburg?adjust_creative=hBJOknVQJ58S5goQyjmwRw&utm_campaign=yelp_api_v3&utm_medium=api_v3_business_search&utm_source=hBJOknVQJ58S5goQyjmwRw", "review_count": 50, "categories": [{"alias": "hotdogs", "title": "Fast Food"}, {"alias": "panasian", "title": "Pan Asian"}], "rating": 4.5, "coordinates": {"latitude": 53.55992, "longitude": 9.963291}, "transactions": [], "price": "\u20ac", "location": {"address1": "Lerchenstr. 115", "address2": "", "address3": "", "city": "Hamburg", "zip_code": "22767", "country": "DE", "state": "HH", "display_address": ["Lerchenstr. 115", "22767 Hamburg", "Germany"]}, "phone": "+494031702664", "display_phone": "+49 40 31702664", "distance": 1082.9636559813941}, {"id": "PkPzNtHIJ_UgX-q8EJOdqg", "alias": "kimo-hamburg-3", "name": "Kimo", "image_url": "https://s3-media1.fl.yelpcdn.com/bphoto/-dchNcTr7CFyS1yMFHVldw/o.jpg", "is_closed": false, "url": "https://www.yelp.com/biz/kimo-hamburg-3?adjust_creative=hBJOknVQJ58S5goQyjmwRw&utm_campaign=yelp_api_v3&utm_medium=api_v3_business_search&utm_source=hBJOknVQJ58S5goQyjmwRw", "review_count": 64, "categories": [{"alias": "falafel", "title": "Falafel"}], "rating": 4.5, "coordinates": {"latitude": 53.5644, "longitude": 9.96537}, "transactions": [], "price": "\u20ac", "location": {"address1": "Schanzenstr. 111", "address2": null, "address3": null, "city": "Hamburg", "zip_code": "20357", "country": "DE", "state": "HH", "display_address": ["Schanzenstr. 111", "20357 Hamburg", "Germany"]}, "phone": "+494039993586", "display_phone": "+49 40 39993586", "distance": 641.1109390212066}, {"id": "cY1O15icq1731fDAYgmw9A", "alias": "meisenfrei-hamburg", "name": "Meisenfrei", "image_url": "https://s3-media2.fl.yelpcdn.com/bphoto/VxtKH5DUxbceJF7e8_vwUg/o.jpg", "is_closed": false, "url": "https://www.yelp.com/biz/meisenfrei-hamburg?adjust_creative=hBJOknVQJ58S5goQyjmwRw&utm_campaign=yelp_api_v3&utm_medium=api_v3_business_search&utm_source=hBJOknVQJ58S5goQyjmwRw", "review_count": 17, "categories": [{"alias": "pubs", "title": "Pubs"}, {"alias": "cafes", "title": "Cafes"}, {"alias": "breakfast_brunch", "title": "Breakfast & Brunch"}], "rating": 4.0, "coordinates": {"latitude": 53.5720979860887, "longitude": 9.95885218650824}, "transactions": [], "price": "\u20ac\u20ac", "location": {"address1": "Eppendorfer Weg 75", "address2": null, "address3": null, "city": "Hamburg", "zip_code": "20259", "country": "DE", "state": "HH", "display_address": ["Eppendorfer Weg 75", "20259 Hamburg", "Germany"]}, "phone": "+49404919121", "display_phone": "+49 40 4919121", "distance": 317.03163350972994}, {"id": "Ej4spoD8FgqtzSUIcn5wOg", "alias": "geniesser-oase-hamburg", "name": "Geniesser Oase", "image_url": "https://s3-media3.fl.yelpcdn.com/bphoto/nvaPOGrSTxXYh1gzCMn4KQ/o.jpg", "is_closed": false, "url": "https://www.yelp.com/biz/geniesser-oase-hamburg?adjust_creative=hBJOknVQJ58S5goQyjmwRw&utm_campaign=yelp_api_v3&utm_medium=api_v3_business_search&utm_source=hBJOknVQJ58S5goQyjmwRw", "review_count": 8, "categories": [{"alias": "cafes", "title": "Cafes"}], "rating": 5.0, "coordinates": {"latitude": 53.56865, "longitude": 9.95606}, "transactions": [], "price": "\u20ac\u20ac", "location": {"address1": "Eimsb\u00fcttler Chaussee 84", "address2": "", "address3": "", "city": "Hamburg", "zip_code": "20259", "country": "DE", "state": "HH", "display_address": ["Eimsb\u00fcttler Chaussee 84", "20259 Hamburg", "Germany"]}, "phone": "", "display_phone": "", "distance": 341.22463883875054}, {"id": "SDy1rQbmQ9ViNDejwjFxaQ", "alias": "croques-und-crepes-hamburg-4", "name": "Croques und Crepes", "image_url": "https://s3-media2.fl.yelpcdn.com/bphoto/KTIvwET5pSqIQYAx2WhEUQ/o.jpg", "is_closed": false, "url": "https://www.yelp.com/biz/croques-und-crepes-hamburg-4?adjust_creative=hBJOknVQJ58S5goQyjmwRw&utm_campaign=yelp_api_v3&utm_medium=api_v3_business_search&utm_source=hBJOknVQJ58S5goQyjmwRw", "review_count": 26, "categories": [{"alias": "creperies", "title": "Creperies"}, {"alias": "hotdogs", "title": "Fast Food"}, {"alias": "sandwiches", "title": "Sandwiches"}], "rating": 4.5, "coordinates": {"latitude": 53.5741, "longitude": 9.9591}, "transactions": [], "price": "\u20ac\u20ac", "location": {"address1": "Schulweg 32", "address2": null, "address3": null, "city": "Hamburg", "zip_code": "20259", "country": "DE", "state": "HH", "display_address": ["Schulweg 32", "20259 Hamburg", "Germany"]}, "phone": "+49404916252", "display_phone": "+49 40 4916252", "distance": 520.2919972700405}, {"id": "vqsB_isChnHouVK9nGThiA", "alias": "zuehlke-hamburg-2", "name": "Zuehlke", "image_url": "https://s3-media1.fl.yelpcdn.com/bphoto/en3qbQhacozdkbbvkM3F1Q/o.jpg", "is_closed": false, "url": "https://www.yelp.com/biz/zuehlke-hamburg-2?adjust_creative=hBJOknVQJ58S5goQyjmwRw&utm_campaign=yelp_api_v3&utm_medium=api_v3_business_search&utm_source=hBJOknVQJ58S5goQyjmwRw", "review_count": 3, "categories": [{"alias": "wine_bars", "title": "Wine Bars"}, {"alias": "bistros", "title": "Bistros"}], "rating": 4.5, "coordinates": {"latitude": 53.5713431, "longitude": 9.9585139}, "transactions": [], "location": {"address1": "Eppendorfer Weg 58", "address2": null, "address3": null, "city": "Hamburg", "zip_code": "20259", "country": "DE", "state": "HH", "display_address": ["Eppendorfer Weg 58", "20259 Hamburg", "Germany"]}, "phone": "+494022759600", "display_phone": "+49 40 22759600", "distance": 259.6252435097994}, {"id": "FuMcpNWX7ORkMSfYnSWmpw", "alias": "schanz-elysee-hamburg", "name": "Schanz-Elysee", "image_url": "https://s3-media2.fl.yelpcdn.com/bphoto/zS_o0O2XFKvzGW04z1Pi8g/o.jpg", "is_closed": false, "url": "https://www.yelp.com/biz/schanz-elysee-hamburg?adjust_creative=hBJOknVQJ58S5goQyjmwRw&utm_campaign=yelp_api_v3&utm_medium=api_v3_business_search&utm_source=hBJOknVQJ58S5goQyjmwRw", "review_count": 21, "categories": [{"alias": "bistros", "title": "Bistros"}], "rating": 4.5, "coordinates": {"latitude": 53.55975, "longitude": 9.9643}, "transactions": [], "price": "\u20ac", "location": {"address1": "Schanzenstr. 3", "address2": null, "address3": null, "city": "Hamburg", "zip_code": "20357", "country": "DE", "state": "HH", "display_address": ["Schanzenstr. 3", "20357 Hamburg", "Germany"]}, "phone": "+4940436424", "display_phone": "+49 40 436424", "distance": 1117.1397455018002}, {"id": "NbPnWFkSdMpW_PVeeX7kEA", "alias": "cook-up-hamburg", "name": "Cook Up", "image_url": "https://s3-media2.fl.yelpcdn.com/bphoto/OO7a6EhbS8WVke-Q991cTw/o.jpg", "is_closed": false, "url": "https://www.yelp.com/biz/cook-up-hamburg?adjust_creative=hBJOknVQJ58S5goQyjmwRw&utm_campaign=yelp_api_v3&utm_medium=api_v3_business_search&utm_source=hBJOknVQJ58S5goQyjmwRw", "review_count": 2, "categories": [{"alias": "popuprestaurants", "title": "Pop-Up Restaurants"}], "rating": 4.5, "coordinates": {"latitude": 53.56691, "longitude": 9.9648}, "transactions": [], "location": {"address1": "Weidenallee 27", "address2": "", "address3": null, "city": "Hamburg", "zip_code": "20357", "country": "DE", "state": "HH", "display_address": ["Weidenallee 27", "20357 Hamburg", "Germany"]}, "phone": "+491716241679", "display_phone": "+49 171 6241679", "distance": 377.37996746381685}, {"id": "TxDSQa9bds2CN1WC-fzXDw", "alias": "gloria-hamburg-2", "name": "Gloria", "image_url": "https://s3-media1.fl.yelpcdn.com/bphoto/HSEE7j4bG3WkDLoekyZ__g/o.jpg", "is_closed": false, "url": "https://www.yelp.com/biz/gloria-hamburg-2?adjust_creative=hBJOknVQJ58S5goQyjmwRw&utm_campaign=yelp_api_v3&utm_medium=api_v3_business_search&utm_source=hBJOknVQJ58S5goQyjmwRw", "review_count": 128, "categories": [{"alias": "bars", "title": "Bars"}, {"alias": "german", "title": "German"}, {"alias": "cafes", "title": "Cafes"}], "rating": 3.5, "coordinates": {"latitude": 53.56794, "longitude": 9.9595}, "transactions": [], "price": "\u20ac\u20ac", "location": {"address1": "Bellealliancestr. 31", "address2": null, "address3": null, "city": "Hamburg", "zip_code": "20259", "country": "DE", "state": "HH", "display_address": ["Bellealliancestr. 31", "20259 Hamburg", "Germany"]}, "phone": "+494043290464", "display_phone": "+49 40 43290464", "distance": 241.86026713736663}, {"id": "88nTn36YOIAVSDvRa-Qmxw", "alias": "somedimsum-hamburg", "name": "SomeDimSum", "image_url": "https://s3-media3.fl.yelpcdn.com/bphoto/x5_hRq24_9yPbpAtrB2pdg/o.jpg", "is_closed": false, "url": "https://www.yelp.com/biz/somedimsum-hamburg?adjust_creative=hBJOknVQJ58S5goQyjmwRw&utm_campaign=yelp_api_v3&utm_medium=api_v3_business_search&utm_source=hBJOknVQJ58S5goQyjmwRw", "review_count": 10, "categories": [{"alias": "dimsum", "title": "Dim Sum"}], "rating": 3.5, "coordinates": {"latitude": 53.56911, "longitude": 9.964}, "transactions": [], "price": "\u20ac\u20ac", "location": {"address1": "Weidenallee 60", "address2": "", "address3": null, "city": "Hamburg", "zip_code": "20357", "country": "DE", "state": "HH", "display_address": ["Weidenallee 60", "20357 Hamburg", "Germany"]}, "phone": "+494041125111", "display_phone": "+49 40 41125111", "distance": 199.87300320057105}, {"id": "kVKwDj_4bfmaf_d7LTko7g", "alias": "sonnenseite-hamburg", "name": "Sonnenseite", "image_url": "https://s3-media1.fl.yelpcdn.com/bphoto/kBbPUQclKK_KaK1YvhF9Ew/o.jpg", "is_closed": false, "url": "https://www.yelp.com/biz/sonnenseite-hamburg?adjust_creative=hBJOknVQJ58S5goQyjmwRw&utm_campaign=yelp_api_v3&utm_medium=api_v3_business_search&utm_source=hBJOknVQJ58S5goQyjmwRw", "review_count": 13, "categories": [{"alias": "bars", "title": "Bars"}, {"alias": "cafes", "title": "Cafes"}], "rating": 4.5, "coordinates": {"latitude": 53.56743, "longitude": 9.96507}, "transactions": [], "price": "\u20ac\u20ac", "location": {"address1": "Weidenallee 24", "address2": null, "address3": null, "city": "Hamburg", "zip_code": "20357", "country": "DE", "state": "HH", "display_address": ["Weidenallee 24", "20357 Hamburg", "Germany"]}, "phone": "+494045000082", "display_phone": "+49 40 45000082", "distance": 354.4493848409476}, {"id": "298zBIj3OlxWRhGpQGLGTQ", "alias": "nicoles-fr\u00fchst\u00fccksladen-hamburg", "name": "Nicoles Fr\u00fchst\u00fccksladen", "image_url": "https://s3-media2.fl.yelpcdn.com/bphoto/PQWLtpw6tv2U2uacvz8lRA/o.jpg", "is_closed": false, "url": "https://www.yelp.com/biz/nicoles-fr%C3%BChst%C3%BCcksladen-hamburg?adjust_creative=hBJOknVQJ58S5goQyjmwRw&utm_campaign=yelp_api_v3&utm_medium=api_v3_business_search&utm_source=hBJOknVQJ58S5goQyjmwRw", "review_count": 1, "categories": [{"alias": "breakfast_brunch", "title": "Breakfast & Brunch"}], "rating": 5.0, "coordinates": {"latitude": 53.57615, "longitude": 9.96279}, "transactions": [], "location": {"address1": "Eppendorfer Weg 127", "address2": null, "address3": "", "city": "Hamburg", "zip_code": "20259", "country": "DE", "state": "HH", "display_address": ["Eppendorfer Weg 127", "20259 Hamburg", "Germany"]}, "phone": "+494049206054", "display_phone": "+49 40 49206054", "distance": 742.5858908163962}, {"id": "aTIkHn6O-tJanwVCtUO61A", "alias": "dionysos-hamburg", "name": "Dionysos", "image_url": "https://s3-media2.fl.yelpcdn.com/bphoto/XnyrIkks2AwV5yhb2qTtXg/o.jpg", "is_closed": false, "url": "https://www.yelp.com/biz/dionysos-hamburg?adjust_creative=hBJOknVQJ58S5goQyjmwRw&utm_campaign=yelp_api_v3&utm_medium=api_v3_business_search&utm_source=hBJOknVQJ58S5goQyjmwRw", "review_count": 72, "categories": [{"alias": "greek", "title": "Greek"}], "rating": 4.0, "coordinates": {"latitude": 53.57171, "longitude": 9.95848}, "transactions": [], "price": "\u20ac\u20ac\u20ac", "location": {"address1": "Eppendorfer Weg 67", "address2": null, "address3": null, "city": "Hamburg", "zip_code": "20259", "country": "DE", "state": "HH", "display_address": ["Eppendorfer Weg 67", "20259 Hamburg", "Germany"]}, "phone": "+4940498800", "display_phone": "+49 40 498800", "distance": 297.42029719129744}, {"id": "3ewndUGlnr4pjWU84xo24Q", "alias": "souperia-hamburg", "name": "Souperia", "image_url": "https://s3-media4.fl.yelpcdn.com/bphoto/oKcy9svkKKL9Rlubbcr_uQ/o.jpg", "is_closed": false, "url": "https://www.yelp.com/biz/souperia-hamburg?adjust_creative=hBJOknVQJ58S5goQyjmwRw&utm_campaign=yelp_api_v3&utm_medium=api_v3_business_search&utm_source=hBJOknVQJ58S5goQyjmwRw", "review_count": 77, "categories": [{"alias": "soup", "title": "Soup"}], "rating": 4.5, "coordinates": {"latitude": 53.56175, "longitude": 9.96476}, "transactions": [], "price": "\u20ac", "location": {"address1": "Bartelsstr. 21", "address2": "", "address3": "", "city": "Hamburg", "zip_code": "20357", "country": "DE", "state": "HH", "display_address": ["Bartelsstr. 21", "20357 Hamburg", "Germany"]}, "phone": "+494043099555", "display_phone": "+49 40 43099555", "distance": 903.4678896166129}, {"id": "gZyGAompux5Zmih-wFS-CA", "alias": "azeitona-hamburg", "name": "Azeitona", "image_url": "https://s3-media4.fl.yelpcdn.com/bphoto/vlONB_xiudEZMLX9mKJ1Yw/o.jpg", "is_closed": false, "url": "https://www.yelp.com/biz/azeitona-hamburg?adjust_creative=hBJOknVQJ58S5goQyjmwRw&utm_campaign=yelp_api_v3&utm_medium=api_v3_business_search&utm_source=hBJOknVQJ58S5goQyjmwRw", "review_count": 161, "categories": [{"alias": "international", "title": "International"}, {"alias": "oriental", "title": "Oriental"}], "rating": 4.0, "coordinates": {"latitude": 53.55879, "longitude": 9.96532}, "transactions": [], "price": "\u20ac", "location": {"address1": "Beckstr. 17 - 19", "address2": "", "address3": "", "city": "Hamburg", "zip_code": "20357", "country": "DE", "state": "HH", "display_address": ["Beckstr. 17 - 19", "20357 Hamburg", "Germany"]}, "phone": "+494018007371", "display_phone": "+49 40 18007371", "distance": 1220.3821616083321}, {"id": "G_w1POAZFjpSKNKdGlgqGQ", "alias": "mokis-goodies-hamburg-4", "name": "Moki's Goodies", "image_url": "https://s3-media3.fl.yelpcdn.com/bphoto/P-xyDe-O3djPqAsRZKgm0w/o.jpg", "is_closed": false, "url": "https://www.yelp.com/biz/mokis-goodies-hamburg-4?adjust_creative=hBJOknVQJ58S5goQyjmwRw&utm_campaign=yelp_api_v3&utm_medium=api_v3_business_search&utm_source=hBJOknVQJ58S5goQyjmwRw", "review_count": 36, "categories": [{"alias": "cafes", "title": "Cafes"}, {"alias": "breakfast_brunch", "title": "Breakfast & Brunch"}], "rating": 4.5, "coordinates": {"latitude": 53.5796940756179, "longitude": 9.96637894973753}, "transactions": [], "price": "\u20ac\u20ac", "location": {"address1": "Eppendorfer Weg 171", "address2": "", "address3": "", "city": "Hamburg", "zip_code": "20253", "country": "DE", "state": "HH", "display_address": ["Eppendorfer Weg 171", "20253 Hamburg", "Germany"]}, "phone": "+494084890833", "display_phone": "+49 40 84890833", "distance": 1179.0536492485508}, {"id": "QrSwuLyQ5G2vLD_7QmC--w", "alias": "zipang-hamburg-2", "name": "Zipang", "image_url": "https://s3-media3.fl.yelpcdn.com/bphoto/JcQ5z12w94lV_-oEypMscw/o.jpg", "is_closed": false, "url": "https://www.yelp.com/biz/zipang-hamburg-2?adjust_creative=hBJOknVQJ58S5goQyjmwRw&utm_campaign=yelp_api_v3&utm_medium=api_v3_business_search&utm_source=hBJOknVQJ58S5goQyjmwRw", "review_count": 40, "categories": [{"alias": "japanese", "title": "Japanese"}], "rating": 4.5, "coordinates": {"latitude": 53.57969, "longitude": 9.96634}, "transactions": [], "price": "\u20ac\u20ac\u20ac", "location": {"address1": "Eppendorfer Weg 171", "address2": null, "address3": null, "city": "Hamburg", "zip_code": "20253", "country": "DE", "state": "HH", "display_address": ["Eppendorfer Weg 171", "20253 Hamburg", "Germany"]}, "phone": "+494043280032", "display_phone": "+49 40 43280032", "distance": 1174.0792966740391}, {"id": "0eRSjatGOuwe2NHdKrL7Rw", "alias": "cafe-real-hamburg", "name": "Cafe Real", "image_url": "https://s3-media3.fl.yelpcdn.com/bphoto/f1RBRjuHgJaJOVFcBS3zKQ/o.jpg", "is_closed": false, "url": "https://www.yelp.com/biz/cafe-real-hamburg?adjust_creative=hBJOknVQJ58S5goQyjmwRw&utm_campaign=yelp_api_v3&utm_medium=api_v3_business_search&utm_source=hBJOknVQJ58S5goQyjmwRw", "review_count": 14, "categories": [{"alias": "bakeries", "title": "Bakeries"}, {"alias": "portuguese", "title": "Portuguese"}], "rating": 4.5, "coordinates": {"latitude": 53.57257, "longitude": 9.95943}, "transactions": [], "price": "\u20ac", "location": {"address1": "Eppendorfer Weg 79", "address2": null, "address3": null, "city": "Hamburg", "zip_code": "20259", "country": "DE", "state": "HH", "display_address": ["Eppendorfer Weg 79", "20259 Hamburg", "Germany"]}, "phone": "+494037503650", "display_phone": "+49 40 37503650", "distance": 369.30905101172976}, {"id": "5wPsq6B7zkpaYD30zWSn1A", "alias": "burgerkultour-hamburg-4", "name": "BurgerKultour", "image_url": "https://s3-media2.fl.yelpcdn.com/bphoto/vGL7qDqQ-CVBilNGtP0Qbw/o.jpg", "is_closed": false, "url": "https://www.yelp.com/biz/burgerkultour-hamburg-4?adjust_creative=hBJOknVQJ58S5goQyjmwRw&utm_campaign=yelp_api_v3&utm_medium=api_v3_business_search&utm_source=hBJOknVQJ58S5goQyjmwRw", "review_count": 36, "categories": [{"alias": "burgers", "title": "Burgers"}], "rating": 3.5, "coordinates": {"latitude": 53.56686, "longitude": 9.95713}, "transactions": [], "price": "\u20ac\u20ac", "location": {"address1": "Eimsb\u00fctteler Chaussee 25", "address2": "", "address3": "", "city": "Hamburg", "zip_code": "20259", "country": "DE", "state": "HH", "display_address": ["Eimsb\u00fctteler Chaussee 25", "20259 Hamburg", "Germany"]}, "phone": "+494018126026", "display_phone": "+49 40 18126026", "distance": 395.53699174364635}, {"id": "6PbUUtv-IJ9ibzTuXMRoZQ", "alias": "witwenball-hamburg", "name": "Witwenball", "image_url": "https://s3-media2.fl.yelpcdn.com/bphoto/RxAO8Ox6wYC02fYwrlIL7A/o.jpg", "is_closed": false, "url": "https://www.yelp.com/biz/witwenball-hamburg?adjust_creative=hBJOknVQJ58S5goQyjmwRw&utm_campaign=yelp_api_v3&utm_medium=api_v3_business_search&utm_source=hBJOknVQJ58S5goQyjmwRw", "review_count": 37, "categories": [{"alias": "german", "title": "German"}, {"alias": "wine_bars", "title": "Wine Bars"}], "rating": 4.0, "coordinates": {"latitude": 53.5670889560331, "longitude": 9.96517226099968}, "transactions": [], "price": "\u20ac\u20ac\u20ac", "location": {"address1": "Weidenallee 20", "address2": "", "address3": "", "city": "Hamburg", "zip_code": "20357", "country": "DE", "state": "HH", "display_address": ["Weidenallee 20", "20357 Hamburg", "Germany"]}, "phone": "+494053630085", "display_phone": "+49 40 53630085", "distance": 386.5490758060809}, {"id": "WZUll0VQ501QrA2S8ceEAg", "alias": "bistro-carmagnole-hamburg", "name": "Bistro Carmagnole", "image_url": "https://s3-media1.fl.yelpcdn.com/bphoto/kZuo7MgAPVEo9aChWPPn-A/o.jpg", "is_closed": false, "url": "https://www.yelp.com/biz/bistro-carmagnole-hamburg?adjust_creative=hBJOknVQJ58S5goQyjmwRw&utm_campaign=yelp_api_v3&utm_medium=api_v3_business_search&utm_source=hBJOknVQJ58S5goQyjmwRw", "review_count": 21, "categories": [{"alias": "bistros", "title": "Bistros"}, {"alias": "french", "title": "French"}], "rating": 4.0, "coordinates": {"latitude": 53.5612664876223, "longitude": 9.96057106720842}, "transactions": [], "price": "\u20ac\u20ac\u20ac", "location": {"address1": "Juliusstr. 18", "address2": "", "address3": "", "city": "Hamburg", "zip_code": "22769", "country": "DE", "state": "HH", "display_address": ["Juliusstr. 18", "22769 Hamburg", "Germany"]}, "phone": "+494040186115", "display_phone": "+49 40 40186115", "distance": 923.8673640890793}, {"id": "QTnVVoqDHw_pZHPVCVfwvA", "alias": "jim-burrito-hamburg", "name": "Jim Burrito", "image_url": "https://s3-media2.fl.yelpcdn.com/bphoto/RDGUW9RVeOAPNWjzUD_jNw/o.jpg", "is_closed": false, "url": "https://www.yelp.com/biz/jim-burrito-hamburg?adjust_creative=hBJOknVQJ58S5goQyjmwRw&utm_campaign=yelp_api_v3&utm_medium=api_v3_business_search&utm_source=hBJOknVQJ58S5goQyjmwRw", "review_count": 198, "categories": [{"alias": "mexican", "title": "Mexican"}], "rating": 4.0, "coordinates": {"latitude": 53.5599323867093, "longitude": 9.96367357671261}, "transactions": [], "price": "\u20ac\u20ac", "location": {"address1": "Schulterblatt 12", "address2": null, "address3": null, "city": "Hamburg", "zip_code": "20357", "country": "DE", "state": "HH", "display_address": ["Schulterblatt 12", "20357 Hamburg", "Germany"]}, "phone": "", "display_phone": "", "distance": 1085.311638430397}, {"id": "AX0fRgOTub9JfGMEB7Apog", "alias": "mama-rosa-hamburg", "name": "Mama Rosa", "image_url": "https://s3-media3.fl.yelpcdn.com/bphoto/YbLzWlikRF3bv3tCbghznw/o.jpg", "is_closed": false, "url": "https://www.yelp.com/biz/mama-rosa-hamburg?adjust_creative=hBJOknVQJ58S5goQyjmwRw&utm_campaign=yelp_api_v3&utm_medium=api_v3_business_search&utm_source=hBJOknVQJ58S5goQyjmwRw", "review_count": 33, "categories": [{"alias": "italian", "title": "Italian"}, {"alias": "bars", "title": "Bars"}], "rating": 4.0, "coordinates": {"latitude": 53.5801494086517, "longitude": 9.96144614549446}, "transactions": [], "price": "\u20ac", "location": {"address1": "Heckscherstr. 1 a", "address2": "", "address3": "", "city": "Hamburg", "zip_code": "20253", "country": "DE", "state": "HH", "display_address": ["Heckscherstr. 1 a", "20253 Hamburg", "Germany"]}, "phone": "+494043282977", "display_phone": "+49 40 43282977", "distance": 1176.666633544439}, {"id": "DldsTJyl7qMegOV99vhZhQ", "alias": "giorgios-hamburg", "name": "Giorgios", "image_url": "https://s3-media4.fl.yelpcdn.com/bphoto/gyL4IUQdocPhVf0_GGw5JQ/o.jpg", "is_closed": false, "url": "https://www.yelp.com/biz/giorgios-hamburg?adjust_creative=hBJOknVQJ58S5goQyjmwRw&utm_campaign=yelp_api_v3&utm_medium=api_v3_business_search&utm_source=hBJOknVQJ58S5goQyjmwRw", "review_count": 8, "categories": [{"alias": "bistros", "title": "Bistros"}], "rating": 5.0, "coordinates": {"latitude": 53.5753, "longitude": 9.95543}, "transactions": [], "price": "\u20ac\u20ac", "location": {"address1": "Osterstr. 91", "address2": "", "address3": null, "city": "Hamburg", "zip_code": "20259", "country": "DE", "state": "HH", "display_address": ["Osterstr. 91", "20259 Hamburg", "Germany"]}, "phone": "+494021093467", "display_phone": "+49 40 21093467", "distance": 738.0718334010797}, {"id": "9yugCSd6udSl_k5xnjLEAg", "alias": "br\u00fcgge-hamburg-2", "name": "Br\u00fcgge", "image_url": "https://s3-media3.fl.yelpcdn.com/bphoto/Sm_dfRlMF8iixtCk_TyH6Q/o.jpg", "is_closed": false, "url": "https://www.yelp.com/biz/br%C3%BCgge-hamburg-2?adjust_creative=hBJOknVQJ58S5goQyjmwRw&utm_campaign=yelp_api_v3&utm_medium=api_v3_business_search&utm_source=hBJOknVQJ58S5goQyjmwRw", "review_count": 1, "categories": [{"alias": "cafes", "title": "Cafes"}, {"alias": "bars", "title": "Bars"}], "rating": 5.0, "coordinates": {"latitude": 53.5683642630204, "longitude": 9.96385864913464}, "transactions": [], "location": {"address1": "Weidenallee 61", "address2": "", "address3": null, "city": "Hamburg", "zip_code": "20357", "country": "DE", "state": "HH", "display_address": ["Weidenallee 61", "20357 Hamburg", "Germany"]}, "phone": "+494038669333", "display_phone": "+49 40 38669333", "distance": 227.68274795926592}, {"id": "aXaPQNlO7yxYCltqFzlhEQ", "alias": "moraba-hamburg", "name": "Moraba", "image_url": "https://s3-media3.fl.yelpcdn.com/bphoto/3UDvM26BoalO-ncNCwMnBQ/o.jpg", "is_closed": false, "url": "https://www.yelp.com/biz/moraba-hamburg?adjust_creative=hBJOknVQJ58S5goQyjmwRw&utm_campaign=yelp_api_v3&utm_medium=api_v3_business_search&utm_source=hBJOknVQJ58S5goQyjmwRw", "review_count": 133, "categories": [{"alias": "mediterranean", "title": "Mediterranean"}], "rating": 4.0, "coordinates": {"latitude": 53.56201, "longitude": 9.9629}, "transactions": [], "price": "\u20ac\u20ac", "location": {"address1": "Susannenstr. 6", "address2": "", "address3": "", "city": "Hamburg", "zip_code": "20357", "country": "DE", "state": "HH", "display_address": ["Susannenstr. 6", "20357 Hamburg", "Germany"]}, "phone": "+494045038497", "display_phone": "+49 40 45038497", "distance": 852.4066871232897}, {"id": "II9loejxqUZU_c1hfEnHAg", "alias": "brunos-k\u00e4seladen-hamburg", "name": "Brunos K\u00e4seladen", "image_url": "https://s3-media1.fl.yelpcdn.com/bphoto/tP1y8jb1bN-eeMVJD1UHEQ/o.jpg", "is_closed": false, "url": "https://www.yelp.com/biz/brunos-k%C3%A4seladen-hamburg?adjust_creative=hBJOknVQJ58S5goQyjmwRw&utm_campaign=yelp_api_v3&utm_medium=api_v3_business_search&utm_source=hBJOknVQJ58S5goQyjmwRw", "review_count": 57, "categories": [{"alias": "cheese", "title": "Cheese Shops"}, {"alias": "flatbread", "title": "Flatbread"}], "rating": 5.0, "coordinates": {"latitude": 53.56144, "longitude": 9.96266}, "transactions": [], "price": "\u20ac\u20ac", "location": {"address1": "Schulterblatt 60", "address2": "", "address3": "", "city": "Hamburg", "zip_code": "20357", "country": "DE", "state": "HH", "display_address": ["Schulterblatt 60", "20357 Hamburg", "Germany"]}, "phone": "+49404300201", "display_phone": "+49 40 4300201", "distance": 907.081264184816}, {"id": "QuezmV_Ke6D3gZnJcdfXzQ", "alias": "jellyfish-hamburg", "name": "Jellyfish", "image_url": "https://s3-media3.fl.yelpcdn.com/bphoto/t0xBUzJHUXTzS4E74aB81A/o.jpg", "is_closed": false, "url": "https://www.yelp.com/biz/jellyfish-hamburg?adjust_creative=hBJOknVQJ58S5goQyjmwRw&utm_campaign=yelp_api_v3&utm_medium=api_v3_business_search&utm_source=hBJOknVQJ58S5goQyjmwRw", "review_count": 58, "categories": [{"alias": "seafood", "title": "Seafood"}], "rating": 4.0, "coordinates": {"latitude": 53.56663, "longitude": 9.96543}, "transactions": [], "price": "\u20ac\u20ac\u20ac", "location": {"address1": "Weidenallee 12", "address2": "", "address3": "", "city": "Hamburg", "zip_code": "20357", "country": "DE", "state": "HH", "display_address": ["Weidenallee 12", "20357 Hamburg", "Germany"]}, "phone": "+49404105414", "display_phone": "+49 40 4105414", "distance": 434.32646007362865}, {"id": "bhoMeWG8cFvgOPGUdLYwPA", "alias": "cookoon-hamburg", "name": "cookoon", "image_url": "https://s3-media2.fl.yelpcdn.com/bphoto/ALXsI1mOwWeQmgpyNM-QTA/o.jpg", "is_closed": false, "url": "https://www.yelp.com/biz/cookoon-hamburg?adjust_creative=hBJOknVQJ58S5goQyjmwRw&utm_campaign=yelp_api_v3&utm_medium=api_v3_business_search&utm_source=hBJOknVQJ58S5goQyjmwRw", "review_count": 3, "categories": [{"alias": "venues", "title": "Venues & Event Spaces"}, {"alias": "international", "title": "International"}], "rating": 5.0, "coordinates": {"latitude": 53.56144, "longitude": 9.9674}, "transactions": [], "location": {"address1": "Sternstr. 109", "address2": "", "address3": "", "city": "Hamburg", "zip_code": "20357", "country": "DE", "state": "HH", "display_address": ["Sternstr. 109", "20357 Hamburg", "Germany"]}, "phone": "+491724274287", "display_phone": "+49 172 4274287", "distance": 999.7442785049209}, {"id": "J4RRxQRVTVxSI5nGuaxJHg", "alias": "polokantine-hamburg", "name": "Polokantine", "image_url": "https://s3-media3.fl.yelpcdn.com/bphoto/4WLYwhon9P85-iy-C0WYUg/o.jpg", "is_closed": false, "url": "https://www.yelp.com/biz/polokantine-hamburg?adjust_creative=hBJOknVQJ58S5goQyjmwRw&utm_campaign=yelp_api_v3&utm_medium=api_v3_business_search&utm_source=hBJOknVQJ58S5goQyjmwRw", "review_count": 28, "categories": [{"alias": "international", "title": "International"}], "rating": 4.5, "coordinates": {"latitude": 53.5623, "longitude": 9.9645499}, "transactions": [], "price": "\u20ac", "location": {"address1": "Bartelsstr. 26", "address2": "", "address3": "", "city": "Hamburg", "zip_code": "20357", "country": "DE", "state": "HH", "display_address": ["Bartelsstr. 26", "20357 Hamburg", "Germany"]}, "phone": "+494043179636", "display_phone": "+49 40 43179636", "distance": 831.5520528406785}, {"id": "UQCRpupHggXuOmnf_wYbPg", "alias": "s\u00fcdhang-hamburg-3", "name": "S\u00fcdhang", "image_url": "https://s3-media2.fl.yelpcdn.com/bphoto/TSoJUb9BAvJS4CEYe2P35Q/o.jpg", "is_closed": false, "url": "https://www.yelp.com/biz/s%C3%BCdhang-hamburg-3?adjust_creative=hBJOknVQJ58S5goQyjmwRw&utm_campaign=yelp_api_v3&utm_medium=api_v3_business_search&utm_source=hBJOknVQJ58S5goQyjmwRw", "review_count": 77, "categories": [{"alias": "modern_european", "title": "Modern European"}, {"alias": "wine_bars", "title": "Wine Bars"}], "rating": 4.5, "coordinates": {"latitude": 53.5628740965332, "longitude": 9.96460799127817}, "transactions": [], "price": "\u20ac\u20ac", "location": {"address1": "Susannenstr. 29", "address2": "1. OG", "address3": null, "city": "Hamburg", "zip_code": "20357", "country": "DE", "state": "HH", "display_address": ["Susannenstr. 29", "1. OG", "20357 Hamburg", "Germany"]}, "phone": "+494043099099", "display_phone": "+49 40 43099099", "distance": 780.2880349653628}, {"id": "iprJEw-tnyoI_wogPNwkdA", "alias": "caf\u00e9-im-hamburg-haus-hamburg", "name": "Caf\u00e9 im Hamburg-Haus", "image_url": "https://s3-media1.fl.yelpcdn.com/bphoto/_uo81vABo0zofp6SVnR0_w/o.jpg", "is_closed": false, "url": "https://www.yelp.com/biz/caf%C3%A9-im-hamburg-haus-hamburg?adjust_creative=hBJOknVQJ58S5goQyjmwRw&utm_campaign=yelp_api_v3&utm_medium=api_v3_business_search&utm_source=hBJOknVQJ58S5goQyjmwRw", "review_count": 2, "categories": [{"alias": "german", "title": "German"}, {"alias": "cafes", "title": "Cafes"}], "rating": 4.0, "coordinates": {"latitude": 53.5717653860804, "longitude": 9.95613938794942}, "transactions": [], "price": "\u20ac\u20ac", "location": {"address1": "Doormannsweg 12", "address2": "", "address3": "", "city": "Hamburg", "zip_code": "20259", "country": "DE", "state": "HH", "display_address": ["Doormannsweg 12", "20259 Hamburg", "Germany"]}, "phone": "+494042868610", "display_phone": "+49 40 42868610", "distance": 407.02577766927254}, {"id": "YVisgsy-clVQk7wz4LFygg", "alias": "the-burger-lab-hamburg", "name": "The Burger Lab", "image_url": "https://s3-media4.fl.yelpcdn.com/bphoto/qSemZSQLgjqrxnvmQ9WPvg/o.jpg", "is_closed": false, "url": "https://www.yelp.com/biz/the-burger-lab-hamburg?adjust_creative=hBJOknVQJ58S5goQyjmwRw&utm_campaign=yelp_api_v3&utm_medium=api_v3_business_search&utm_source=hBJOknVQJ58S5goQyjmwRw", "review_count": 126, "categories": [{"alias": "burgers", "title": "Burgers"}], "rating": 4.0, "coordinates": {"latitude": 53.56259, "longitude": 9.95717}, "transactions": [], "price": "\u20ac\u20ac", "location": {"address1": "Max-Brauer-Allee 251", "address2": "", "address3": "", "city": "Hamburg", "zip_code": "22769", "country": "DE", "state": "HH", "display_address": ["Max-Brauer-Allee 251", "22769 Hamburg", "Germany"]}, "phone": "+494041494529", "display_phone": "+49 40 41494529", "distance": 817.1327903484465}, {"id": "dz-qahW4SFKUQLUkI0th_w", "alias": "tapas-y-m\u00e1s-hamburg-2", "name": "Tapas y M\u00e1s", "image_url": "https://s3-media3.fl.yelpcdn.com/bphoto/jyfA4UUvGFayFHCrXBYqVA/o.jpg", "is_closed": false, "url": "https://www.yelp.com/biz/tapas-y-m%C3%A1s-hamburg-2?adjust_creative=hBJOknVQJ58S5goQyjmwRw&utm_campaign=yelp_api_v3&utm_medium=api_v3_business_search&utm_source=hBJOknVQJ58S5goQyjmwRw", "review_count": 76, "categories": [{"alias": "tapas", "title": "Tapas Bars"}], "rating": 4.0, "coordinates": {"latitude": 53.56219, "longitude": 9.96617}, "transactions": [], "price": "\u20ac\u20ac", "location": {"address1": "Schanzenstr. 72", "address2": "", "address3": "", "city": "Hamburg", "zip_code": "20357", "country": "DE", "state": "HH", "display_address": ["Schanzenstr. 72", "20357 Hamburg", "Germany"]}, "phone": "+494043182040", "display_phone": "+49 40 43182040", "distance": 884.602941461721}, {"id": "SWh6IWspMqsh3SzfVhYTmw", "alias": "juwelier-espressobar-hamburg", "name": "Juwelier Espressobar", "image_url": "https://s3-media1.fl.yelpcdn.com/bphoto/zIMnvrqhzTiEnfArb7TRMw/o.jpg", "is_closed": false, "url": "https://www.yelp.com/biz/juwelier-espressobar-hamburg?adjust_creative=hBJOknVQJ58S5goQyjmwRw&utm_campaign=yelp_api_v3&utm_medium=api_v3_business_search&utm_source=hBJOknVQJ58S5goQyjmwRw", "review_count": 8, "categories": [{"alias": "cafes", "title": "Cafes"}], "rating": 4.5, "coordinates": {"latitude": 53.56707, "longitude": 9.96461}, "transactions": [], "location": {"address1": "Weidenallee 29", "address2": "", "address3": "", "city": "Hamburg", "zip_code": "20357", "country": "DE", "state": "HH", "display_address": ["Weidenallee 29", "20357 Hamburg", "Germany"]}, "phone": "+494043190073", "display_phone": "+49 40 43190073", "distance": 363.12229095791554}, {"id": "l_A7UF2P_tzQqSmEYx63qg", "alias": "bullerei-hamburg", "name": "Bullerei", "image_url": "https://s3-media3.fl.yelpcdn.com/bphoto/FmrXHWvXko0123m7k2Wr5Q/o.jpg", "is_closed": false, "url": "https://www.yelp.com/biz/bullerei-hamburg?adjust_creative=hBJOknVQJ58S5goQyjmwRw&utm_campaign=yelp_api_v3&utm_medium=api_v3_business_search&utm_source=hBJOknVQJ58S5goQyjmwRw", "review_count": 622, "categories": [{"alias": "german", "title": "German"}], "rating": 3.5, "coordinates": {"latitude": 53.562981, "longitude": 9.96619}, "transactions": [], "price": "\u20ac\u20ac\u20ac", "location": {"address1": "Lagerstr. 34 b", "address2": null, "address3": null, "city": "Hamburg", "zip_code": "20357", "country": "DE", "state": "HH", "display_address": ["Lagerstr. 34 b", "20357 Hamburg", "Germany"]}, "phone": "+494033442110", "display_phone": "+49 40 33442110", "distance": 806.8469524088854}, {"id": "ydoXPuXk6zt4Hq9F7n-jfQ", "alias": "doy-doy-kebap-house-hamburg", "name": "Doy Doy Kebap House", "image_url": "https://s3-media2.fl.yelpcdn.com/bphoto/eA9bQxDrLQqz2aPFo_uftQ/o.jpg", "is_closed": false, "url": "https://www.yelp.com/biz/doy-doy-kebap-house-hamburg?adjust_creative=hBJOknVQJ58S5goQyjmwRw&utm_campaign=yelp_api_v3&utm_medium=api_v3_business_search&utm_source=hBJOknVQJ58S5goQyjmwRw", "review_count": 29, "categories": [{"alias": "kebab", "title": "Kebab"}, {"alias": "turkish", "title": "Turkish"}, {"alias": "foodstands", "title": "Food Stands"}], "rating": 4.5, "coordinates": {"latitude": 53.57998, "longitude": 9.96675}, "transactions": [], "price": "\u20ac", "location": {"address1": "Kottwitzstr. 43", "address2": "", "address3": "", "city": "Hamburg", "zip_code": "20253", "country": "DE", "state": "HH", "display_address": ["Kottwitzstr. 43", "20253 Hamburg", "Germany"]}, "phone": "+494079300876", "display_phone": "+49 40 79300876", "distance": 1216.0217403567724}, {"id": "KH7E1l-vfLxTRjElRQm0RA", "alias": "elbgold-hamburg-5", "name": "Elbgold", "image_url": "https://s3-media1.fl.yelpcdn.com/bphoto/ATZhePew67T7sAQ_alitCQ/o.jpg", "is_closed": false, "url": "https://www.yelp.com/biz/elbgold-hamburg-5?adjust_creative=hBJOknVQJ58S5goQyjmwRw&utm_campaign=yelp_api_v3&utm_medium=api_v3_business_search&utm_source=hBJOknVQJ58S5goQyjmwRw", "review_count": 162, "categories": [{"alias": "cafes", "title": "Cafes"}], "rating": 4.5, "coordinates": {"latitude": 53.56321, "longitude": 9.96713}, "transactions": [], "price": "\u20ac\u20ac", "location": {"address1": "Lagerstr. 34 C", "address2": "", "address3": "", "city": "Hamburg", "zip_code": "20357", "country": "DE", "state": "HH", "display_address": ["Lagerstr. 34 C", "20357 Hamburg", "Germany"]}, "phone": "+494023517520", "display_phone": "+49 40 23517520", "distance": 812.5003477956674}, {"id": "YHaE8oGwIVdxrriy30iTCQ", "alias": "cafe-im-park-hamburg-2", "name": "Cafe im Park", "image_url": "https://s3-media4.fl.yelpcdn.com/bphoto/o-gZ0WLu8VTbXF0qlwpEwg/o.jpg", "is_closed": false, "url": "https://www.yelp.com/biz/cafe-im-park-hamburg-2?adjust_creative=hBJOknVQJ58S5goQyjmwRw&utm_campaign=yelp_api_v3&utm_medium=api_v3_business_search&utm_source=hBJOknVQJ58S5goQyjmwRw", "review_count": 31, "categories": [{"alias": "cafes", "title": "Cafes"}], "rating": 4.5, "coordinates": {"latitude": 53.5774268206918, "longitude": 9.96115238366701}, "transactions": [], "price": "\u20ac\u20ac", "location": {"address1": "Im Geh\u00f6lz gegen\u00fcber Nr. 7", "address2": "", "address3": "", "city": "Hamburg", "zip_code": "20255", "country": "DE", "state": "HH", "display_address": ["Im Geh\u00f6lz gegen\u00fcber Nr. 7", "20255 Hamburg", "Germany"]}, "phone": "", "display_phone": "", "distance": 873.6853019697136}, {"id": "xmGxeYgv13cZvnlWnsLH0g", "alias": "china-restaurant-hong-kong-hamburg-2", "name": "China Restaurant - Hong Kong", "image_url": "https://s3-media4.fl.yelpcdn.com/bphoto/_ZUiWerFu-DM35-up5aj3Q/o.jpg", "is_closed": false, "url": "https://www.yelp.com/biz/china-restaurant-hong-kong-hamburg-2?adjust_creative=hBJOknVQJ58S5goQyjmwRw&utm_campaign=yelp_api_v3&utm_medium=api_v3_business_search&utm_source=hBJOknVQJ58S5goQyjmwRw", "review_count": 13, "categories": [{"alias": "chinese", "title": "Chinese"}], "rating": 4.5, "coordinates": {"latitude": 53.5798, "longitude": 9.96431}, "transactions": [], "price": "\u20ac", "location": {"address1": "G\u00e4rtnerstr. 103", "address2": null, "address3": null, "city": "Hamburg", "zip_code": "20253", "country": "DE", "state": "HH", "display_address": ["G\u00e4rtnerstr. 103", "20253 Hamburg", "Germany"]}, "phone": "+4940400417", "display_phone": "+49 40 400417", "distance": 1157.4751651718784}, {"id": "GH8CU9yfTMhssX_XiV7XRQ", "alias": "taverna-akropolis-hamburg", "name": "Taverna Akropolis", "image_url": "https://s3-media1.fl.yelpcdn.com/bphoto/6VaMuxHyr8vzbBJ8Frumyg/o.jpg", "is_closed": false, "url": "https://www.yelp.com/biz/taverna-akropolis-hamburg?adjust_creative=hBJOknVQJ58S5goQyjmwRw&utm_campaign=yelp_api_v3&utm_medium=api_v3_business_search&utm_source=hBJOknVQJ58S5goQyjmwRw", "review_count": 42, "categories": [{"alias": "greek", "title": "Greek"}], "rating": 4.5, "coordinates": {"latitude": 53.57881, "longitude": 9.96438}, "transactions": [], "price": "\u20ac\u20ac", "location": {"address1": "Eppendorfer Weg 159", "address2": null, "address3": null, "city": "Hamburg", "zip_code": "20253", "country": "DE", "state": "HH", "display_address": ["Eppendorfer Weg 159", "20253 Hamburg", "Germany"]}, "phone": "+494049222169", "display_phone": "+49 40 49222169", "distance": 1063.424155935506}, {"id": "dZswNTBS_Of7hchSDO9sGQ", "alias": "caf\u00e9-kompass-hamburg-2", "name": "Caf\u00e9 Kompass", "image_url": "https://s3-media2.fl.yelpcdn.com/bphoto/XUFEv8-T9zj-4G190UeOxA/o.jpg", "is_closed": false, "url": "https://www.yelp.com/biz/caf%C3%A9-kompass-hamburg-2?adjust_creative=hBJOknVQJ58S5goQyjmwRw&utm_campaign=yelp_api_v3&utm_medium=api_v3_business_search&utm_source=hBJOknVQJ58S5goQyjmwRw", "review_count": 2, "categories": [{"alias": "cafes", "title": "Cafes"}, {"alias": "breakfast_brunch", "title": "Breakfast & Brunch"}, {"alias": "beergarden", "title": "Beer Garden"}], "rating": 3.0, "coordinates": {"latitude": 53.5707861, "longitude": 9.9607758}, "transactions": [], "price": "\u20ac\u20ac", "location": {"address1": "Weidenstieg 24", "address2": "", "address3": null, "city": "Hamburg", "zip_code": "20259", "country": "DE", "state": "HH", "display_address": ["Weidenstieg 24", "20259 Hamburg", "Germany"]}, "phone": "+494072376300", "display_phone": "+49 40 72376300", "distance": 136.65747742669484}, {"id": "5Xv-ufN9BP73DumRlaV8vw", "alias": "xenios-hamburg", "name": "Xenios", "image_url": "https://s3-media1.fl.yelpcdn.com/bphoto/8HJEJepWPmWjp5Pa4_yaXw/o.jpg", "is_closed": false, "url": "https://www.yelp.com/biz/xenios-hamburg?adjust_creative=hBJOknVQJ58S5goQyjmwRw&utm_campaign=yelp_api_v3&utm_medium=api_v3_business_search&utm_source=hBJOknVQJ58S5goQyjmwRw", "review_count": 94, "categories": [{"alias": "greek", "title": "Greek"}], "rating": 4.0, "coordinates": {"latitude": 53.575098, "longitude": 9.9576197}, "transactions": [], "price": "\u20ac\u20ac", "location": {"address1": "Osterstr. 46", "address2": null, "address3": null, "city": "Hamburg", "zip_code": "20259", "country": "DE", "state": "HH", "display_address": ["Osterstr. 46", "20259 Hamburg", "Germany"]}, "phone": "+4940400383", "display_phone": "+49 40 400383", "distance": 655.6081668516617}, {"id": "v0kPzsy4_QxKF9rNnUm8Bg", "alias": "caf\u00e9-pastelaria-perola-hamburg-2", "name": "Caf\u00e9 Pastelaria Perola", "image_url": "https://s3-media2.fl.yelpcdn.com/bphoto/cupKD5Untzap9liTRuLKQQ/o.jpg", "is_closed": false, "url": "https://www.yelp.com/biz/caf%C3%A9-pastelaria-perola-hamburg-2?adjust_creative=hBJOknVQJ58S5goQyjmwRw&utm_campaign=yelp_api_v3&utm_medium=api_v3_business_search&utm_source=hBJOknVQJ58S5goQyjmwRw", "review_count": 5, "categories": [{"alias": "portuguese", "title": "Portuguese"}], "rating": 4.0, "coordinates": {"latitude": 53.56785, "longitude": 9.96425}, "transactions": [], "price": "\u20ac\u20ac\u20ac", "location": {"address1": "Weidenallee 55", "address2": "", "address3": "", "city": "Hamburg", "zip_code": "20357", "country": "DE", "state": "HH", "display_address": ["Weidenallee 55", "20357 Hamburg", "Germany"]}, "phone": "+494043184720", "display_phone": "+49 40 43184720", "distance": 271.418586231305}, {"id": "gRY6KlounR-q2wQACFbTjw", "alias": "caf\u00e9-estrella-hamburg-2", "name": "Caf\u00e9 Estrella", "image_url": "https://s3-media3.fl.yelpcdn.com/bphoto/QpkTN22SMqzcYcldBD1SRQ/o.jpg", "is_closed": false, "url": "https://www.yelp.com/biz/caf%C3%A9-estrella-hamburg-2?adjust_creative=hBJOknVQJ58S5goQyjmwRw&utm_campaign=yelp_api_v3&utm_medium=api_v3_business_search&utm_source=hBJOknVQJ58S5goQyjmwRw", "review_count": 16, "categories": [{"alias": "cafes", "title": "Cafes"}, {"alias": "portuguese", "title": "Portuguese"}], "rating": 4.5, "coordinates": {"latitude": 53.56844, "longitude": 9.96391}, "transactions": [], "price": "\u20ac", "location": {"address1": "Weidenallee 63", "address2": "", "address3": "", "city": "Hamburg", "zip_code": "20357", "country": "DE", "state": "HH", "display_address": ["Weidenallee 63", "20357 Hamburg", "Germany"]}, "phone": "", "display_phone": "", "distance": 221.86441729391177}, {"id": "akQceWHvzDUbmfom7JS-Dg", "alias": "julius-hamburg", "name": "Julius", "image_url": "https://s3-media1.fl.yelpcdn.com/bphoto/3j9iu8ctVr1miAvAQBA4jg/o.jpg", "is_closed": false, "url": "https://www.yelp.com/biz/julius-hamburg?adjust_creative=hBJOknVQJ58S5goQyjmwRw&utm_campaign=yelp_api_v3&utm_medium=api_v3_business_search&utm_source=hBJOknVQJ58S5goQyjmwRw", "review_count": 1, "categories": [{"alias": "soup", "title": "Soup"}], "rating": 4.0, "coordinates": {"latitude": 53.56055, "longitude": 9.95971}, "transactions": [], "location": {"address1": "Juliusstr. 2 a", "address2": "", "address3": "", "city": "Hamburg", "zip_code": "22769", "country": "DE", "state": "HH", "display_address": ["Juliusstr. 2 a", "22769 Hamburg", "Germany"]}, "phone": "+494049222807", "display_phone": "+49 40 49222807", "distance": 1013.4590559620713}, {"id": "6-fyxvCUdyWCuRY6OuvmHg", "alias": "cafe-chaussee-hamburg", "name": "Cafe Chaussee", "image_url": "https://s3-media1.fl.yelpcdn.com/bphoto/peu3K13--0BWXkeGSnEFQA/o.jpg", "is_closed": false, "url": "https://www.yelp.com/biz/cafe-chaussee-hamburg?adjust_creative=hBJOknVQJ58S5goQyjmwRw&utm_campaign=yelp_api_v3&utm_medium=api_v3_business_search&utm_source=hBJOknVQJ58S5goQyjmwRw", "review_count": 9, "categories": [{"alias": "bakeries", "title": "Bakeries"}, {"alias": "cafes", "title": "Cafes"}], "rating": 5.0, "coordinates": {"latitude": 53.5685387, "longitude": 9.9553299}, "transactions": [], "price": "\u20ac\u20ac", "location": {"address1": "Eimsb\u00fctteler Chaussee 71", "address2": "", "address3": "", "city": "Hamburg", "zip_code": "20259", "country": "DE", "state": "HH", "display_address": ["Eimsb\u00fctteler Chaussee 71", "20259 Hamburg", "Germany"]}, "phone": "+494067383343", "display_phone": "+49 40 67383343", "distance": 410.3225833228842}, {"id": "f1z03X1rgrzroNbUA8z3yg", "alias": "vesper-hamburg-2", "name": "Vesper", "image_url": "https://s3-media1.fl.yelpcdn.com/bphoto/RhGENwQcU39eGZhKGouy4A/o.jpg", "is_closed": false, "url": "https://www.yelp.com/biz/vesper-hamburg-2?adjust_creative=hBJOknVQJ58S5goQyjmwRw&utm_campaign=yelp_api_v3&utm_medium=api_v3_business_search&utm_source=hBJOknVQJ58S5goQyjmwRw", "review_count": 132, "categories": [{"alias": "international", "title": "International"}], "rating": 3.5, "coordinates": {"latitude": 53.57391, "longitude": 9.96182}, "transactions": [], "price": "\u20ac\u20ac", "location": {"address1": "Osterstr. 10 - 12", "address2": null, "address3": null, "city": "Hamburg", "zip_code": "20259", "country": "DE", "state": "HH", "display_address": ["Osterstr. 10 - 12", "20259 Hamburg", "Germany"]}, "phone": "+49404917355", "display_phone": "+49 40 4917355", "distance": 493.02184532985103}, {"id": "ArEPZ4_YoIIlQMR9J_SFQQ", "alias": "ashirwad-hamburg-2", "name": "Ashirwad", "image_url": "", "is_closed": false, "url": "https://www.yelp.com/biz/ashirwad-hamburg-2?adjust_creative=hBJOknVQJ58S5goQyjmwRw&utm_campaign=yelp_api_v3&utm_medium=api_v3_business_search&utm_source=hBJOknVQJ58S5goQyjmwRw", "review_count": 1, "categories": [{"alias": "indpak", "title": "Indian"}], "rating": 2.0, "coordinates": {"latitude": 53.568784, "longitude": 9.96654}, "transactions": [], "location": {"address1": "Sch\u00e4ferkampsallee 41", "address2": "", "address3": null, "city": "Hamburg", "zip_code": "20357", "country": "DE", "state": "HH", "display_address": ["Sch\u00e4ferkampsallee 41", "20357 Hamburg", "Germany"]}, "phone": "+494041495005", "display_phone": "+49 40 41495005", "distance": 367.15017933100654}, {"id": "rLMfDIrsS_0DRrjE5d8V3A", "alias": "mercado-alentejano-hamburg-2", "name": "Mercado Alentejano", "image_url": "https://s3-media3.fl.yelpcdn.com/bphoto/UZUhp4OMCgZlZ8bI4xIjww/o.jpg", "is_closed": false, "url": "https://www.yelp.com/biz/mercado-alentejano-hamburg-2?adjust_creative=hBJOknVQJ58S5goQyjmwRw&utm_campaign=yelp_api_v3&utm_medium=api_v3_business_search&utm_source=hBJOknVQJ58S5goQyjmwRw", "review_count": 4, "categories": [{"alias": "cafes", "title": "Cafes"}, {"alias": "portuguese", "title": "Portuguese"}], "rating": 4.5, "coordinates": {"latitude": 53.56894, "longitude": 9.96362}, "transactions": [], "location": {"address1": "Weidenallee 67", "address2": "", "address3": "", "city": "Hamburg", "zip_code": "20357", "country": "DE", "state": "HH", "display_address": ["Weidenallee 67", "20357 Hamburg", "Germany"]}, "phone": "", "display_phone": "", "distance": 181.22670598863414}, {"id": "RLWFyQ6MslSrEPcxfSrRMg", "alias": "l\u00fcttn-grill-hamburg-2", "name": "L\u00fctt'n Grill", "image_url": "https://s3-media1.fl.yelpcdn.com/bphoto/tLRxTjaFHGAmipvhEq833Q/o.jpg", "is_closed": false, "url": "https://www.yelp.com/biz/l%C3%BCttn-grill-hamburg-2?adjust_creative=hBJOknVQJ58S5goQyjmwRw&utm_campaign=yelp_api_v3&utm_medium=api_v3_business_search&utm_source=hBJOknVQJ58S5goQyjmwRw", "review_count": 135, "categories": [{"alias": "currysausage", "title": "Curry Sausage"}, {"alias": "hotdogs", "title": "Fast Food"}, {"alias": "chickenshop", "title": "Chicken Shop"}], "rating": 4.0, "coordinates": {"latitude": 53.56365, "longitude": 9.95945}, "transactions": [], "price": "\u20ac\u20ac", "location": {"address1": "Max-Brauer-Allee 277", "address2": null, "address3": null, "city": "Hamburg", "zip_code": "22769", "country": "DE", "state": "HH", "display_address": ["Max-Brauer-Allee 277", "22769 Hamburg", "Germany"]}, "phone": "+49404396017", "display_phone": "+49 40 4396017", "distance": 671.9255387552414}, {"id": "egF4JCzF63xLcOEog4LjBA", "alias": "das-juli-hamburg", "name": "das juli", "image_url": "https://s3-media3.fl.yelpcdn.com/bphoto/Yb4n2jSE4dKNoYJnYMbhug/o.jpg", "is_closed": false, "url": "https://www.yelp.com/biz/das-juli-hamburg?adjust_creative=hBJOknVQJ58S5goQyjmwRw&utm_campaign=yelp_api_v3&utm_medium=api_v3_business_search&utm_source=hBJOknVQJ58S5goQyjmwRw", "review_count": 58, "categories": [{"alias": "bars", "title": "Bars"}, {"alias": "cafes", "title": "Cafes"}], "rating": 4.0, "coordinates": {"latitude": 53.56447, "longitude": 9.96003}, "transactions": [], "price": "\u20ac\u20ac", "location": {"address1": "Schulterblatt 114", "address2": "", "address3": null, "city": "Hamburg", "zip_code": "20357", "country": "DE", "state": "HH", "display_address": ["Schulterblatt 114", "20357 Hamburg", "Germany"]}, "phone": "+494043214696", "display_phone": "+49 40 43214696", "distance": 572.6451345366545}, {"id": "NLsMEtLedzipew31s4GpOQ", "alias": "mikawa-2-hamburg-3", "name": "Mikawa #2", "image_url": "https://s3-media1.fl.yelpcdn.com/bphoto/HkONZmqwX7dIkDGFVkOrkw/o.jpg", "is_closed": false, "url": "https://www.yelp.com/biz/mikawa-2-hamburg-3?adjust_creative=hBJOknVQJ58S5goQyjmwRw&utm_campaign=yelp_api_v3&utm_medium=api_v3_business_search&utm_source=hBJOknVQJ58S5goQyjmwRw", "review_count": 57, "categories": [{"alias": "panasian", "title": "Pan Asian"}], "rating": 4.0, "coordinates": {"latitude": 53.5623281, "longitude": 9.9637648}, "transactions": [], "price": "\u20ac\u20ac", "location": {"address1": "Susannenstr. 15", "address2": "", "address3": "", "city": "Hamburg", "zip_code": "20357", "country": "DE", "state": "HH", "display_address": ["Susannenstr. 15", "20357 Hamburg", "Germany"]}, "phone": "+49404300220", "display_phone": "+49 40 4300220", "distance": 824.6394637644638}, {"id": "k67TYBVDJvZitvuOSkwUKg", "alias": "falafelstern-hamburg", "name": "Falafelstern", "image_url": "https://s3-media3.fl.yelpcdn.com/bphoto/86N2tMGGwHY3dW5xz-qxHw/o.jpg", "is_closed": false, "url": "https://www.yelp.com/biz/falafelstern-hamburg?adjust_creative=hBJOknVQJ58S5goQyjmwRw&utm_campaign=yelp_api_v3&utm_medium=api_v3_business_search&utm_source=hBJOknVQJ58S5goQyjmwRw", "review_count": 110, "categories": [{"alias": "oriental", "title": "Oriental"}, {"alias": "falafel", "title": "Falafel"}], "rating": 4.5, "coordinates": {"latitude": 53.56442, "longitude": 9.96538}, "transactions": [], "price": "\u20ac", "location": {"address1": "Schanzenstr. 111", "address2": "", "address3": "", "city": "Hamburg", "zip_code": "20357", "country": "DE", "state": "HH", "display_address": ["Schanzenstr. 111", "20357 Hamburg", "Germany"]}, "phone": "+494041544435", "display_phone": "+49 40 41544435", "distance": 634.6031479559491}, {"id": "5-jPPPSwME3bT1dMHhqTCw", "alias": "l-incontro-hamburg", "name": "L'incontro", "image_url": "https://s3-media1.fl.yelpcdn.com/bphoto/5C4Oz8XkRx3M-J6lkQlRZw/o.jpg", "is_closed": false, "url": "https://www.yelp.com/biz/l-incontro-hamburg?adjust_creative=hBJOknVQJ58S5goQyjmwRw&utm_campaign=yelp_api_v3&utm_medium=api_v3_business_search&utm_source=hBJOknVQJ58S5goQyjmwRw", "review_count": 58, "categories": [{"alias": "italian", "title": "Italian"}], "rating": 4.0, "coordinates": {"latitude": 53.56677, "longitude": 9.96488}, "transactions": [], "price": "\u20ac\u20ac", "location": {"address1": "Weidenallee 25", "address2": null, "address3": null, "city": "Hamburg", "zip_code": "20357", "country": "DE", "state": "HH", "display_address": ["Weidenallee 25", "20357 Hamburg", "Germany"]}, "phone": "+49404300246", "display_phone": "+49 40 4300246", "distance": 394.3925856206447}, {"id": "UNw4-GQjuCglHvw_d5O8XQ", "alias": "gastst\u00e4tte-fasan-hamburg", "name": "Gastst\u00e4tte Fasan", "image_url": "https://s3-media1.fl.yelpcdn.com/bphoto/pbxsQriwjDolsOG1U9nY0Q/o.jpg", "is_closed": false, "url": "https://www.yelp.com/biz/gastst%C3%A4tte-fasan-hamburg?adjust_creative=hBJOknVQJ58S5goQyjmwRw&utm_campaign=yelp_api_v3&utm_medium=api_v3_business_search&utm_source=hBJOknVQJ58S5goQyjmwRw", "review_count": 13, "categories": [{"alias": "german", "title": "German"}, {"alias": "pubs", "title": "Pubs"}, {"alias": "beergarden", "title": "Beer Garden"}], "rating": 3.5, "coordinates": {"latitude": 53.57497, "longitude": 9.96345}, "transactions": [], "price": "\u20ac\u20ac", "location": {"address1": "Eichenstr. 10", "address2": null, "address3": null, "city": "Hamburg", "zip_code": "20259", "country": "DE", "state": "HH", "display_address": ["Eichenstr. 10", "20259 Hamburg", "Germany"]}, "phone": "+4940400979", "display_phone": "+49 40 400979", "distance": 626.2813041571136}, {"id": "xxbgtZ9wpc4GTeFcZH0-Kg", "alias": "ottos-burger-hamburg-6", "name": "Otto's Burger", "image_url": "https://s3-media1.fl.yelpcdn.com/bphoto/aTNtmwF7M40FFApi-drm0g/o.jpg", "is_closed": false, "url": "https://www.yelp.com/biz/ottos-burger-hamburg-6?adjust_creative=hBJOknVQJ58S5goQyjmwRw&utm_campaign=yelp_api_v3&utm_medium=api_v3_business_search&utm_source=hBJOknVQJ58S5goQyjmwRw", "review_count": 42, "categories": [{"alias": "burgers", "title": "Burgers"}], "rating": 4.0, "coordinates": {"latitude": 53.5616345253582, "longitude": 9.96586382889817}, "transactions": [], "price": "\u20ac\u20ac", "location": {"address1": "Schanzenstr. 58", "address2": "", "address3": "", "city": "Hamburg", "zip_code": "20357", "country": "DE", "state": "HH", "display_address": ["Schanzenstr. 58", "20357 Hamburg", "Germany"]}, "phone": "+494033458270", "display_phone": "+49 40 33458270", "distance": 937.3924828794815}, {"id": "efQVPFZgJlYYUcNiVlp2nw", "alias": "my-asia-hamburg", "name": "My Asia", "image_url": "https://s3-media4.fl.yelpcdn.com/bphoto/ccM-FUqqFyJ6NUo5L2379w/o.jpg", "is_closed": false, "url": "https://www.yelp.com/biz/my-asia-hamburg?adjust_creative=hBJOknVQJ58S5goQyjmwRw&utm_campaign=yelp_api_v3&utm_medium=api_v3_business_search&utm_source=hBJOknVQJ58S5goQyjmwRw", "review_count": 5, "categories": [{"alias": "vietnamese", "title": "Vietnamese"}, {"alias": "panasian", "title": "Pan Asian"}], "rating": 4.5, "coordinates": {"latitude": 53.563710789824, "longitude": 9.96031801719664}, "transactions": [], "price": "\u20ac", "location": {"address1": "Altonaer Str. 6", "address2": "", "address3": "", "city": "Hamburg", "zip_code": "20357", "country": "DE", "state": "HH", "display_address": ["Altonaer Str. 6", "20357 Hamburg", "Germany"]}, "phone": "+4940437775", "display_phone": "+49 40 437775", "distance": 653.3797922385861}, {"id": "eb5wQsAxRWp01WYsL3trgQ", "alias": "olympisches-feuer-hamburg", "name": "Olympisches Feuer", "image_url": "https://s3-media1.fl.yelpcdn.com/bphoto/RsR-CK16T5ra0PWxLwSETw/o.jpg", "is_closed": false, "url": "https://www.yelp.com/biz/olympisches-feuer-hamburg?adjust_creative=hBJOknVQJ58S5goQyjmwRw&utm_campaign=yelp_api_v3&utm_medium=api_v3_business_search&utm_source=hBJOknVQJ58S5goQyjmwRw", "review_count": 156, "categories": [{"alias": "greek", "title": "Greek"}], "rating": 4.0, "coordinates": {"latitude": 53.56083, "longitude": 9.9631399}, "transactions": [], "price": "\u20ac\u20ac", "location": {"address1": "Schulterblatt 36", "address2": null, "address3": null, "city": "Hamburg", "zip_code": "20357", "country": "DE", "state": "HH", "display_address": ["Schulterblatt 36", "20357 Hamburg", "Germany"]}, "phone": "+4940435597", "display_phone": "+49 40 435597", "distance": 988.3008314121237}, {"id": "k18KZ13pXyoclgBtDA4xEQ", "alias": "mocca-deli-hamburg", "name": "Mocca Deli", "image_url": "https://s3-media2.fl.yelpcdn.com/bphoto/CUU9auZKBP98AyYrAxbHqg/o.jpg", "is_closed": false, "url": "https://www.yelp.com/biz/mocca-deli-hamburg?adjust_creative=hBJOknVQJ58S5goQyjmwRw&utm_campaign=yelp_api_v3&utm_medium=api_v3_business_search&utm_source=hBJOknVQJ58S5goQyjmwRw", "review_count": 10, "categories": [{"alias": "cafes", "title": "Cafes"}], "rating": 4.5, "coordinates": {"latitude": 53.57531, "longitude": 9.95485}, "transactions": [], "price": "\u20ac\u20ac", "location": {"address1": "Osterstr. 79", "address2": "", "address3": "", "city": "Hamburg", "zip_code": "20259", "country": "DE", "state": "HH", "display_address": ["Osterstr. 79", "20259 Hamburg", "Germany"]}, "phone": "", "display_phone": "", "distance": 754.5684848713538}, {"id": "APvIA_7ssxgC0atmQEFMcg", "alias": "burgerkultour-food-truck-hamburg-2", "name": "BurgerKultour Food Truck", "image_url": "https://s3-media4.fl.yelpcdn.com/bphoto/KoAuwalMnlAO8139MmdYBQ/o.jpg", "is_closed": false, "url": "https://www.yelp.com/biz/burgerkultour-food-truck-hamburg-2?adjust_creative=hBJOknVQJ58S5goQyjmwRw&utm_campaign=yelp_api_v3&utm_medium=api_v3_business_search&utm_source=hBJOknVQJ58S5goQyjmwRw", "review_count": 3, "categories": [{"alias": "foodtrucks", "title": "Food Trucks"}, {"alias": "burgers", "title": "Burgers"}], "rating": 4.5, "coordinates": {"latitude": 53.57154, "longitude": 9.95575}, "transactions": [], "price": "\u20ac\u20ac", "location": {"address1": "", "address2": "", "address3": "", "city": "Hamburg", "zip_code": "20259", "country": "DE", "state": "HH", "display_address": ["20259 Hamburg", "Germany"]}, "phone": "+4917626055122", "display_phone": "+49 176 26055122", "distance": 347.181588265401}, {"id": "0zxRqp6HPz3RcgnD_Zmp7A", "alias": "kumpir-hamburg-6", "name": "kumpir", "image_url": "https://s3-media1.fl.yelpcdn.com/bphoto/01gSfHp2VNsM6IvoqCdCZw/o.jpg", "is_closed": false, "url": "https://www.yelp.com/biz/kumpir-hamburg-6?adjust_creative=hBJOknVQJ58S5goQyjmwRw&utm_campaign=yelp_api_v3&utm_medium=api_v3_business_search&utm_source=hBJOknVQJ58S5goQyjmwRw", "review_count": 175, "categories": [{"alias": "potatoes", "title": "Potatoes"}], "rating": 3.5, "coordinates": {"latitude": 53.5632336841814, "longitude": 9.96523640266578}, "transactions": [], "price": "\u20ac", "location": {"address1": "Schanzenstr. 95", "address2": "", "address3": "", "city": "Hamburg", "zip_code": "20357", "country": "DE", "state": "HH", "display_address": ["Schanzenstr. 95", "20357 Hamburg", "Germany"]}, "phone": "+494043097604", "display_phone": "+49 40 43097604", "distance": 756.3168100472489}, {"id": "wNGx_iy2HxGr0YJlrhJbmw", "alias": "henrys-fr\u00fchst\u00fccksstube-hamburg-2", "name": "Henry's Fr\u00fchst\u00fccksstube", "image_url": "https://s3-media2.fl.yelpcdn.com/bphoto/9fBo8CBuEzmjAQwsMWMGrA/o.jpg", "is_closed": false, "url": "https://www.yelp.com/biz/henrys-fr%C3%BChst%C3%BCcksstube-hamburg-2?adjust_creative=hBJOknVQJ58S5goQyjmwRw&utm_campaign=yelp_api_v3&utm_medium=api_v3_business_search&utm_source=hBJOknVQJ58S5goQyjmwRw", "review_count": 12, "categories": [{"alias": "hotdogs", "title": "Fast Food"}, {"alias": "breakfast_brunch", "title": "Breakfast & Brunch"}, {"alias": "german", "title": "German"}], "rating": 4.5, "coordinates": {"latitude": 53.5608999, "longitude": 9.96764}, "transactions": [], "price": "\u20ac", "location": {"address1": "Kampstr. 36", "address2": "", "address3": "", "city": "Hamburg", "zip_code": "20357", "country": "DE", "state": "HH", "display_address": ["Kampstr. 36", "20357 Hamburg", "Germany"]}, "phone": "+49404395104", "display_phone": "+49 40 4395104", "distance": 1040.2631547258443}, {"id": "nEx0gRwc6mg6b6Hv4J-lkA", "alias": "zum-olymp-hamburg", "name": "Zum Olymp", "image_url": "https://s3-media2.fl.yelpcdn.com/bphoto/0lDRLTTBGmRoe5YGBYjc3Q/o.jpg", "is_closed": false, "url": "https://www.yelp.com/biz/zum-olymp-hamburg?adjust_creative=hBJOknVQJ58S5goQyjmwRw&utm_campaign=yelp_api_v3&utm_medium=api_v3_business_search&utm_source=hBJOknVQJ58S5goQyjmwRw", "review_count": 13, "categories": [{"alias": "greek", "title": "Greek"}], "rating": 3.0, "coordinates": {"latitude": 53.5742, "longitude": 9.96397}, "transactions": [], "price": "\u20ac\u20ac", "location": {"address1": "Bismarckstr. 40", "address2": null, "address3": null, "city": "Hamburg", "zip_code": "20259", "country": "DE", "state": "HH", "display_address": ["Bismarckstr. 40", "20259 Hamburg", "Germany"]}, "phone": "+4940404481", "display_phone": "+49 40 404481", "distance": 549.2835036669812}, {"id": "iR5qVClDP_YhaaiwwMnk6A", "alias": "asia-house-hamburg", "name": "Asia House", "image_url": "https://s3-media3.fl.yelpcdn.com/bphoto/Ga2Gtp74TRWLQ91rUeYP0g/o.jpg", "is_closed": false, "url": "https://www.yelp.com/biz/asia-house-hamburg?adjust_creative=hBJOknVQJ58S5goQyjmwRw&utm_campaign=yelp_api_v3&utm_medium=api_v3_business_search&utm_source=hBJOknVQJ58S5goQyjmwRw", "review_count": 25, "categories": [{"alias": "panasian", "title": "Pan Asian"}], "rating": 4.0, "coordinates": {"latitude": 53.5597687, "longitude": 9.9638395}, "transactions": [], "price": "\u20ac", "location": {"address1": "Schulterblatt 10", "address2": "", "address3": "", "city": "Hamburg", "zip_code": "20357", "country": "DE", "state": "HH", "display_address": ["Schulterblatt 10", "20357 Hamburg", "Germany"]}, "phone": "+494043095712", "display_phone": "+49 40 43095712", "distance": 1099.773412972603}, {"id": "T5Ix4d_kirKQfA-bqc7yow", "alias": "cafe-piya-hamburg", "name": "Cafe Piya", "image_url": "https://s3-media3.fl.yelpcdn.com/bphoto/_VKujgwUrdshsuA4emq4UQ/o.jpg", "is_closed": false, "url": "https://www.yelp.com/biz/cafe-piya-hamburg?adjust_creative=hBJOknVQJ58S5goQyjmwRw&utm_campaign=yelp_api_v3&utm_medium=api_v3_business_search&utm_source=hBJOknVQJ58S5goQyjmwRw", "review_count": 11, "categories": [{"alias": "cafes", "title": "Cafes"}], "rating": 4.5, "coordinates": {"latitude": 53.56208, "longitude": 9.96304}, "transactions": [], "price": "\u20ac\u20ac", "location": {"address1": "Susannenstr. 8", "address2": null, "address3": "", "city": "Hamburg", "zip_code": "20357", "country": "DE", "state": "HH", "display_address": ["Susannenstr. 8", "20357 Hamburg", "Germany"]}, "phone": "+494043184291", "display_phone": "+49 40 43184291", "distance": 842.599131132866}, {"id": "0g6bK6-X_wWX6Noabghkng", "alias": "cao-hamburg", "name": "Cao", "image_url": "https://s3-media1.fl.yelpcdn.com/bphoto/jK5Gr--59YRYQedo7cKT6g/o.jpg", "is_closed": false, "url": "https://www.yelp.com/biz/cao-hamburg?adjust_creative=hBJOknVQJ58S5goQyjmwRw&utm_campaign=yelp_api_v3&utm_medium=api_v3_business_search&utm_source=hBJOknVQJ58S5goQyjmwRw", "review_count": 22, "categories": [{"alias": "foodstands", "title": "Food Stands"}, {"alias": "panasian", "title": "Pan Asian"}], "rating": 4.0, "coordinates": {"latitude": 53.5592489057507, "longitude": 9.96390927582979}, "transactions": [], "price": "\u20ac", "location": {"address1": "Schulterblatt 3", "address2": "", "address3": "", "city": "Hamburg", "zip_code": "20357", "country": "DE", "state": "HH", "display_address": ["Schulterblatt 3", "20357 Hamburg", "Germany"]}, "phone": "+494038678520", "display_phone": "+49 40 38678520", "distance": 1162.8220737304357}, {"id": "UK5w-8DvU3Us7y72wAVc9g", "alias": "caf\u00e9-mylys-hamburg-2", "name": "caf\u00e9 mylys", "image_url": "https://s3-media1.fl.yelpcdn.com/bphoto/ydtqHIDDeecAdjLBOUZ5aw/o.jpg", "is_closed": false, "url": "https://www.yelp.com/biz/caf%C3%A9-mylys-hamburg-2?adjust_creative=hBJOknVQJ58S5goQyjmwRw&utm_campaign=yelp_api_v3&utm_medium=api_v3_business_search&utm_source=hBJOknVQJ58S5goQyjmwRw", "review_count": 8, "categories": [{"alias": "cafes", "title": "Cafes"}], "rating": 4.5, "coordinates": {"latitude": 53.56663, "longitude": 9.96543}, "transactions": [], "location": {"address1": "Weidenallee 12", "address2": "", "address3": "", "city": "Hamburg", "zip_code": "20357", "country": "DE", "state": "HH", "display_address": ["Weidenallee 12", "20357 Hamburg", "Germany"]}, "phone": "+494041498865", "display_phone": "+49 40 41498865", "distance": 434.59039628143086}, {"id": "7hr0k1mDVthFeO_z36DOww", "alias": "christos-hamburg", "name": "Christos", "image_url": "https://s3-media3.fl.yelpcdn.com/bphoto/vE-t6fFHFMB_E5tHbdaMLg/o.jpg", "is_closed": false, "url": "https://www.yelp.com/biz/christos-hamburg?adjust_creative=hBJOknVQJ58S5goQyjmwRw&utm_campaign=yelp_api_v3&utm_medium=api_v3_business_search&utm_source=hBJOknVQJ58S5goQyjmwRw", "review_count": 79, "categories": [{"alias": "greek", "title": "Greek"}], "rating": 4.0, "coordinates": {"latitude": 53.57361, "longitude": 9.96301}, "transactions": [], "price": "\u20ac\u20ac", "location": {"address1": "Osterstr. 2", "address2": null, "address3": null, "city": "Hamburg", "zip_code": "20259", "country": "DE", "state": "HH", "display_address": ["Osterstr. 2", "20259 Hamburg", "Germany"]}, "phone": "+494043092657", "display_phone": "+49 40 43092657", "distance": 473.92301561927}, {"id": "QaknSc4cGyKnOV_J9dKBXg", "alias": "caf\u00e9-larigo-hamburg-2", "name": "Caf\u00e9 Larigo", "image_url": "https://s3-media2.fl.yelpcdn.com/bphoto/7-SVPg1Fj30k3UGQrCluVg/o.jpg", "is_closed": false, "url": "https://www.yelp.com/biz/caf%C3%A9-larigo-hamburg-2?adjust_creative=hBJOknVQJ58S5goQyjmwRw&utm_campaign=yelp_api_v3&utm_medium=api_v3_business_search&utm_source=hBJOknVQJ58S5goQyjmwRw", "review_count": 2, "categories": [{"alias": "cafes", "title": "Cafes"}], "rating": 4.5, "coordinates": {"latitude": 53.5615, "longitude": 9.96236}, "transactions": [], "location": {"address1": "Schulterblatt 59", "address2": null, "address3": null, "city": "Hamburg", "zip_code": "20357", "country": "DE", "state": "HH", "display_address": ["Schulterblatt 59", "20357 Hamburg", "Germany"]}, "phone": "", "display_phone": "", "distance": 901.336220036235}, {"id": "kvOdQOyvuojr5Gp0QCMRDA", "alias": "la-sepia-hamburg-3", "name": "La Sepia", "image_url": "https://s3-media1.fl.yelpcdn.com/bphoto/vP0-Lqq7-wg1BL0KlJCBSA/o.jpg", "is_closed": false, "url": "https://www.yelp.com/biz/la-sepia-hamburg-3?adjust_creative=hBJOknVQJ58S5goQyjmwRw&utm_campaign=yelp_api_v3&utm_medium=api_v3_business_search&utm_source=hBJOknVQJ58S5goQyjmwRw", "review_count": 215, "categories": [{"alias": "seafood", "title": "Seafood"}, {"alias": "portuguese", "title": "Portuguese"}], "rating": 3.5, "coordinates": {"latitude": 53.5589256738124, "longitude": 9.96451465674329}, "transactions": [], "price": "\u20ac\u20ac", "location": {"address1": "Neuer Pferdemarkt 16", "address2": null, "address3": null, "city": "Hamburg", "zip_code": "20357", "country": "DE", "state": "HH", "display_address": ["Neuer Pferdemarkt 16", "20357 Hamburg", "Germany"]}, "phone": "+49404322484", "display_phone": "+49 40 4322484", "distance": 1205.2077632020255}, {"id": "rQzF0GZFFCpXPZ8KvHglbw", "alias": "park-hamburg", "name": "Park", "image_url": "https://s3-media1.fl.yelpcdn.com/bphoto/UpnBKO1E3-YqpMxGphPAtA/o.jpg", "is_closed": false, "url": "https://www.yelp.com/biz/park-hamburg?adjust_creative=hBJOknVQJ58S5goQyjmwRw&utm_campaign=yelp_api_v3&utm_medium=api_v3_business_search&utm_source=hBJOknVQJ58S5goQyjmwRw", "review_count": 86, "categories": [{"alias": "cafes", "title": "Cafes"}, {"alias": "international", "title": "International"}], "rating": 3.5, "coordinates": {"latitude": 53.5618989260643, "longitude": 9.96262315660715}, "transactions": [], "price": "\u20ac\u20ac", "location": {"address1": "Susannenstr. 1", "address2": "", "address3": "", "city": "Hamburg", "zip_code": "20357", "country": "DE", "state": "HH", "display_address": ["Susannenstr. 1", "20357 Hamburg", "Germany"]}, "phone": "+494043183280", "display_phone": "+49 40 43183280", "distance": 859.0851932064461}, {"id": "60CrFnbgb3TsaXekw2-29A", "alias": "bok-hamburg-6", "name": "Bok", "image_url": "https://s3-media2.fl.yelpcdn.com/bphoto/NMCx6kUD-zw7BaU7jvtaBA/o.jpg", "is_closed": false, "url": "https://www.yelp.com/biz/bok-hamburg-6?adjust_creative=hBJOknVQJ58S5goQyjmwRw&utm_campaign=yelp_api_v3&utm_medium=api_v3_business_search&utm_source=hBJOknVQJ58S5goQyjmwRw", "review_count": 137, "categories": [{"alias": "sushi", "title": "Sushi Bars"}, {"alias": "panasian", "title": "Pan Asian"}], "rating": 4.0, "coordinates": {"latitude": 53.5593999, "longitude": 9.96374}, "transactions": [], "price": "\u20ac\u20ac", "location": {"address1": "Schulterblatt 3", "address2": null, "address3": null, "city": "Hamburg", "zip_code": "20357", "country": "DE", "state": "HH", "display_address": ["Schulterblatt 3", "20357 Hamburg", "Germany"]}, "phone": "+494043190070", "display_phone": "+49 40 43190070", "distance": 1152.7608514124267}, {"id": "zpWNQX-TxA12c7W-0Pl3yg", "alias": "herr-max-hamburg", "name": "Herr Max", "image_url": "https://s3-media4.fl.yelpcdn.com/bphoto/EKZyJEypsB0snWgIoulwnQ/o.jpg", "is_closed": false, "url": "https://www.yelp.com/biz/herr-max-hamburg?adjust_creative=hBJOknVQJ58S5goQyjmwRw&utm_campaign=yelp_api_v3&utm_medium=api_v3_business_search&utm_source=hBJOknVQJ58S5goQyjmwRw", "review_count": 213, "categories": [{"alias": "desserts", "title": "Desserts"}, {"alias": "cafes", "title": "Cafes"}], "rating": 4.0, "coordinates": {"latitude": 53.55993, "longitude": 9.9637499}, "transactions": [], "price": "\u20ac\u20ac", "location": {"address1": "Schulterblatt 12", "address2": "", "address3": "", "city": "Hamburg", "zip_code": "20357", "country": "DE", "state": "HH", "display_address": ["Schulterblatt 12", "20357 Hamburg", "Germany"]}, "phone": "+494069219951", "display_phone": "+49 40 69219951", "distance": 1085.8117586541396}, {"id": "Y1hpGpOw7RiRa-jorHeUQg", "alias": "asia-imbiss-food-hamburg", "name": "Asia Imbiss / Food", "image_url": "https://s3-media4.fl.yelpcdn.com/bphoto/JHrPYJVtwsHfDp_phhOGTw/o.jpg", "is_closed": false, "url": "https://www.yelp.com/biz/asia-imbiss-food-hamburg?adjust_creative=hBJOknVQJ58S5goQyjmwRw&utm_campaign=yelp_api_v3&utm_medium=api_v3_business_search&utm_source=hBJOknVQJ58S5goQyjmwRw", "review_count": 54, "categories": [{"alias": "fooddeliveryservices", "title": "Food Delivery Services"}, {"alias": "panasian", "title": "Pan Asian"}], "rating": 4.0, "coordinates": {"latitude": 53.55885, "longitude": 9.9636}, "transactions": [], "price": "\u20ac", "location": {"address1": "Beim Gr\u00fcnen J\u00e4ger 24", "address2": "", "address3": null, "city": "Hamburg", "zip_code": "20359", "country": "DE", "state": "HH", "display_address": ["Beim Gr\u00fcnen J\u00e4ger 24", "20359 Hamburg", "Germany"]}, "phone": "+49404390011", "display_phone": "+49 40 4390011", "distance": 1201.8952238915488}, {"id": "-TklniFjow9ZzWCB_LzykQ", "alias": "il-pozzo-lieferservice-hamburg", "name": "Il Pozzo Lieferservice", "image_url": "", "is_closed": false, "url": "https://www.yelp.com/biz/il-pozzo-lieferservice-hamburg?adjust_creative=hBJOknVQJ58S5goQyjmwRw&utm_campaign=yelp_api_v3&utm_medium=api_v3_business_search&utm_source=hBJOknVQJ58S5goQyjmwRw", "review_count": 1, "categories": [{"alias": "italian", "title": "Italian"}], "rating": 4.0, "coordinates": {"latitude": 53.5685, "longitude": 9.95644}, "transactions": [], "location": {"address1": "Eppendorfer Weg 3", "address2": null, "address3": null, "city": "Hamburg", "zip_code": "20259", "country": "DE", "state": "HH", "display_address": ["Eppendorfer Weg 3", "20259 Hamburg", "Germany"]}, "phone": "+4917677373683", "display_phone": "+49 176 77373683", "distance": 328.15081008163986}, {"id": "CQRJZ0aPJrwOW-M8fBLq9A", "alias": "sel-kebaps-hamburg", "name": "Sel Kebap's", "image_url": "https://s3-media4.fl.yelpcdn.com/bphoto/8fphsZPR06e4eZaRzYCPCA/o.jpg", "is_closed": false, "url": "https://www.yelp.com/biz/sel-kebaps-hamburg?adjust_creative=hBJOknVQJ58S5goQyjmwRw&utm_campaign=yelp_api_v3&utm_medium=api_v3_business_search&utm_source=hBJOknVQJ58S5goQyjmwRw", "review_count": 18, "categories": [{"alias": "kebab", "title": "Kebab"}], "rating": 4.0, "coordinates": {"latitude": 53.5644068032095, "longitude": 9.96572747826576}, "transactions": [], "price": "\u20ac", "location": {"address1": "Schanzenstr. 115", "address2": "", "address3": "", "city": "Hamburg", "zip_code": "20357", "country": "DE", "state": "HH", "display_address": ["Schanzenstr. 115", "20357 Hamburg", "Germany"]}, "phone": "+494027164698", "display_phone": "+49 40 27164698", "distance": 651.2397777200127}, {"id": "bT5bQLRn_YJB-jw04ZHSNA", "alias": "balutschistan-hamburg-4", "name": "Balutschistan", "image_url": "https://s3-media1.fl.yelpcdn.com/bphoto/vbvkqfMQc15a59aMfJBVzg/o.jpg", "is_closed": false, "url": "https://www.yelp.com/biz/balutschistan-hamburg-4?adjust_creative=hBJOknVQJ58S5goQyjmwRw&utm_campaign=yelp_api_v3&utm_medium=api_v3_business_search&utm_source=hBJOknVQJ58S5goQyjmwRw", "review_count": 96, "categories": [{"alias": "pakistani", "title": "Pakistani"}], "rating": 3.5, "coordinates": {"latitude": 53.56259, "longitude": 9.96165}, "transactions": [], "price": "\u20ac\u20ac", "location": {"address1": "Schulterblatt 88", "address2": null, "address3": null, "city": "Hamburg", "zip_code": "20357", "country": "DE", "state": "HH", "display_address": ["Schulterblatt 88", "20357 Hamburg", "Germany"]}, "phone": "+4940433661", "display_phone": "+49 40 433661", "distance": 773.162060344371}, {"id": "a9D1GXwTedZKiNZhEigFLQ", "alias": "central-park-hamburg-2", "name": "Central Park", "image_url": "https://s3-media3.fl.yelpcdn.com/bphoto/jDJbUbW9wLUeVT2x_w_FBQ/o.jpg", "is_closed": false, "url": "https://www.yelp.com/biz/central-park-hamburg-2?adjust_creative=hBJOknVQJ58S5goQyjmwRw&utm_campaign=yelp_api_v3&utm_medium=api_v3_business_search&utm_source=hBJOknVQJ58S5goQyjmwRw", "review_count": 69, "categories": [{"alias": "beachbars", "title": "Beach Bars"}, {"alias": "cafes", "title": "Cafes"}], "rating": 4.0, "coordinates": {"latitude": 53.563172806356, "longitude": 9.95919087089682}, "transactions": [], "price": "\u20ac\u20ac", "location": {"address1": "Max-Brauer-Allee 277", "address2": "", "address3": null, "city": "Hamburg", "zip_code": "22769", "country": "DE", "state": "HH", "display_address": ["Max-Brauer-Allee 277", "22769 Hamburg", "Germany"]}, "phone": "+4940433684", "display_phone": "+49 40 433684", "distance": 722.0638572095975}, {"id": "nou_ID9sZFfVciYA5GD_pA", "alias": "astakos-hamburg-2", "name": "Astakos", "image_url": "https://s3-media1.fl.yelpcdn.com/bphoto/0hNkKzqyepQ5liVqrQOrTA/o.jpg", "is_closed": false, "url": "https://www.yelp.com/biz/astakos-hamburg-2?adjust_creative=hBJOknVQJ58S5goQyjmwRw&utm_campaign=yelp_api_v3&utm_medium=api_v3_business_search&utm_source=hBJOknVQJ58S5goQyjmwRw", "review_count": 11, "categories": [{"alias": "greek", "title": "Greek"}], "rating": 4.5, "coordinates": {"latitude": 53.57967, "longitude": 9.96724}, "transactions": [], "price": "\u20ac\u20ac", "location": {"address1": "Eppendorfer Weg 164", "address2": "", "address3": "", "city": "Hamburg", "zip_code": "20253", "country": "DE", "state": "HH", "display_address": ["Eppendorfer Weg 164", "20253 Hamburg", "Germany"]}, "phone": "+49404222020", "display_phone": "+49 40 4222020", "distance": 1185.6934608764159}, {"id": "shvimyJfI4F3PuTKJLlEIw", "alias": "asia-imbiss-hamburg-8", "name": "Asia Imbiss", "image_url": "https://s3-media2.fl.yelpcdn.com/bphoto/YSDGwWCYKobGrUAfFkekag/o.jpg", "is_closed": false, "url": "https://www.yelp.com/biz/asia-imbiss-hamburg-8?adjust_creative=hBJOknVQJ58S5goQyjmwRw&utm_campaign=yelp_api_v3&utm_medium=api_v3_business_search&utm_source=hBJOknVQJ58S5goQyjmwRw", "review_count": 3, "categories": [{"alias": "sushi", "title": "Sushi Bars"}, {"alias": "foodstands", "title": "Food Stands"}, {"alias": "panasian", "title": "Pan Asian"}], "rating": 3.5, "coordinates": {"latitude": 53.5677, "longitude": 9.95705}, "transactions": [], "price": "\u20ac\u20ac\u20ac", "location": {"address1": "Eimsb\u00fctteler Chaussee 46", "address2": "", "address3": null, "city": "Hamburg", "zip_code": "20259", "country": "DE", "state": "HH", "display_address": ["Eimsb\u00fctteler Chaussee 46", "20259 Hamburg", "Germany"]}, "phone": "", "display_phone": "", "distance": 337.2591992453085}, {"id": "3RXKN1dp29L22m8WfAN9Pw", "alias": "mikawa-hamburg-5", "name": "Mikawa", "image_url": "https://s3-media2.fl.yelpcdn.com/bphoto/w0QwsjQe39bJ-qM3wVAKPg/o.jpg", "is_closed": false, "url": "https://www.yelp.com/biz/mikawa-hamburg-5?adjust_creative=hBJOknVQJ58S5goQyjmwRw&utm_campaign=yelp_api_v3&utm_medium=api_v3_business_search&utm_source=hBJOknVQJ58S5goQyjmwRw", "review_count": 57, "categories": [{"alias": "sushi", "title": "Sushi Bars"}, {"alias": "panasian", "title": "Pan Asian"}], "rating": 3.5, "coordinates": {"latitude": 53.5627396808655, "longitude": 9.96114693582058}, "transactions": [], "price": "\u20ac\u20ac", "location": {"address1": "Schulterblatt 92", "address2": null, "address3": null, "city": "Hamburg", "zip_code": "20357", "country": "DE", "state": "HH", "display_address": ["Schulterblatt 92", "20357 Hamburg", "Germany"]}, "phone": "+49404304458", "display_phone": "+49 40 4304458", "distance": 759.4809796768067}, {"id": "1HoduWI8rVGtlYuE8Y216w", "alias": "elbe-76-hamburg", "name": "Elbe 76", "image_url": "https://s3-media4.fl.yelpcdn.com/bphoto/fiYZ_uW1P8WGVhkRdPj1vA/o.jpg", "is_closed": false, "url": "https://www.yelp.com/biz/elbe-76-hamburg?adjust_creative=hBJOknVQJ58S5goQyjmwRw&utm_campaign=yelp_api_v3&utm_medium=api_v3_business_search&utm_source=hBJOknVQJ58S5goQyjmwRw", "review_count": 141, "categories": [{"alias": "german", "title": "German"}, {"alias": "international", "title": "International"}, {"alias": "cocktailbars", "title": "Cocktail Bars"}], "rating": 3.5, "coordinates": {"latitude": 53.5752534900343, "longitude": 9.96631982094729}, "transactions": [], "price": "\u20ac\u20ac\u20ac", "location": {"address1": "Bismarckstr. 60", "address2": null, "address3": null, "city": "Hamburg", "zip_code": "20259", "country": "DE", "state": "HH", "display_address": ["Bismarckstr. 60", "20259 Hamburg", "Germany"]}, "phone": "+4940400235", "display_phone": "+49 40 400235", "distance": 720.7768525909662}, {"id": "PrkRH9J6hhEy_kjTFd6xFg", "alias": "kostbar-hamburg", "name": "Kostbar", "image_url": "https://s3-media1.fl.yelpcdn.com/bphoto/u2q2ep58FATBo9PoUEAhaw/o.jpg", "is_closed": false, "url": "https://www.yelp.com/biz/kostbar-hamburg?adjust_creative=hBJOknVQJ58S5goQyjmwRw&utm_campaign=yelp_api_v3&utm_medium=api_v3_business_search&utm_source=hBJOknVQJ58S5goQyjmwRw", "review_count": 120, "categories": [{"alias": "breakfast_brunch", "title": "Breakfast & Brunch"}, {"alias": "cafes", "title": "Cafes"}, {"alias": "cocktailbars", "title": "Cocktail Bars"}], "rating": 4.0, "coordinates": {"latitude": 53.5623189251085, "longitude": 9.96305}, "transactions": [], "price": "\u20ac\u20ac", "location": {"address1": "Susannenstr. 36", "address2": "", "address3": "", "city": "Hamburg", "zip_code": "20357", "country": "DE", "state": "HH", "display_address": ["Susannenstr. 36", "20357 Hamburg", "Germany"]}, "phone": "+4917663155851", "display_phone": "+49 176 63155851", "distance": 816.7686262689994}, {"id": "Kv8jCFkgKsej5jtzTECt4Q", "alias": "beiersdorf-coffeeshop-hamburg", "name": "Beiersdorf CoffeeShop", "image_url": "https://s3-media3.fl.yelpcdn.com/bphoto/xE0heEVlYeIqVTUf0QNnqA/o.jpg", "is_closed": false, "url": "https://www.yelp.com/biz/beiersdorf-coffeeshop-hamburg?adjust_creative=hBJOknVQJ58S5goQyjmwRw&utm_campaign=yelp_api_v3&utm_medium=api_v3_business_search&utm_source=hBJOknVQJ58S5goQyjmwRw", "review_count": 1, "categories": [{"alias": "canteen", "title": "Canteen"}], "rating": 5.0, "coordinates": {"latitude": 53.579181, "longitude": 9.959536}, "transactions": [], "location": {"address1": "Unnastr. 48", "address2": "", "address3": "", "city": "Hamburg", "zip_code": "20253", "country": "DE", "state": "HH", "display_address": ["Unnastr. 48", "20253 Hamburg", "Germany"]}, "phone": "", "display_phone": "", "distance": 1073.5224950625789}, {"id": "baBHO0FYAdPV2pJZWHm8xA", "alias": "ricebrothers-hamburg", "name": "Ricebrothers", "image_url": "https://s3-media2.fl.yelpcdn.com/bphoto/rSfq8mfFdTgIJKphuHPIDg/o.jpg", "is_closed": false, "url": "https://www.yelp.com/biz/ricebrothers-hamburg?adjust_creative=hBJOknVQJ58S5goQyjmwRw&utm_campaign=yelp_api_v3&utm_medium=api_v3_business_search&utm_source=hBJOknVQJ58S5goQyjmwRw", "review_count": 11, "categories": [{"alias": "panasian", "title": "Pan Asian"}], "rating": 2.0, "coordinates": {"latitude": 53.560545, "longitude": 9.962977}, "transactions": [], "location": {"address1": "Schulterblatt 35", "address2": null, "address3": "", "city": "Hamburg", "zip_code": "20357", "country": "DE", "state": "HH", "display_address": ["Schulterblatt 35", "20357 Hamburg", "Germany"]}, "phone": "+494037504888", "display_phone": "+49 40 37504888", "distance": 1009.4352987375934}, {"id": "DZ4jGW_MQgbvH5xoKEiq3A", "alias": "hatari-pf\u00e4lzer-stube-hamburg", "name": "Hatari Pf\u00e4lzer Stube", "image_url": "https://s3-media4.fl.yelpcdn.com/bphoto/aOTZj8tpaxY9q6EvKwYhXg/o.jpg", "is_closed": false, "url": "https://www.yelp.com/biz/hatari-pf%C3%A4lzer-stube-hamburg?adjust_creative=hBJOknVQJ58S5goQyjmwRw&utm_campaign=yelp_api_v3&utm_medium=api_v3_business_search&utm_source=hBJOknVQJ58S5goQyjmwRw", "review_count": 210, "categories": [{"alias": "palatine", "title": "Palatine"}], "rating": 3.5, "coordinates": {"latitude": 53.55943, "longitude": 9.96453}, "transactions": [], "price": "\u20ac\u20ac", "location": {"address1": "Schanzenstr. 2 - 4", "address2": "", "address3": "", "city": "Hamburg", "zip_code": "20357", "country": "DE", "state": "HH", "display_address": ["Schanzenstr. 2 - 4", "20357 Hamburg", "Germany"]}, "phone": "+494043208866", "display_phone": "+49 40 43208866", "distance": 1155.2015929494423}, {"id": "BRA5zMIKAkpyT1dsm0Tb3Q", "alias": "mxb-bar-hamburg", "name": "MXB-Bar", "image_url": "https://s3-media2.fl.yelpcdn.com/bphoto/7d8xJWTbAkxhvSZt30q3_Q/o.jpg", "is_closed": false, "url": "https://www.yelp.com/biz/mxb-bar-hamburg?adjust_creative=hBJOknVQJ58S5goQyjmwRw&utm_campaign=yelp_api_v3&utm_medium=api_v3_business_search&utm_source=hBJOknVQJ58S5goQyjmwRw", "review_count": 7, "categories": [{"alias": "beachbars", "title": "Beach Bars"}, {"alias": "beergarden", "title": "Beer Garden"}, {"alias": "musicvenues", "title": "Music Venues"}], "rating": 4.5, "coordinates": {"latitude": 53.5615, "longitude": 9.95519}, "transactions": [], "price": "\u20ac", "location": {"address1": "Max-Brauer-Allee 225", "address2": "", "address3": "", "city": "Hamburg", "zip_code": "22769", "country": "DE", "state": "HH", "display_address": ["Max-Brauer-Allee 225", "22769 Hamburg", "Germany"]}, "phone": "", "display_phone": "", "distance": 977.7665351927998}, {"id": "l82k1IzkFeAvIMONIuLfjg", "alias": "mam-eat-greek-hamburg-2", "name": "MAM eat Greek", "image_url": "https://s3-media3.fl.yelpcdn.com/bphoto/izDriJW-sS8NNuFWlBt4Ug/o.jpg", "is_closed": false, "url": "https://www.yelp.com/biz/mam-eat-greek-hamburg-2?adjust_creative=hBJOknVQJ58S5goQyjmwRw&utm_campaign=yelp_api_v3&utm_medium=api_v3_business_search&utm_source=hBJOknVQJ58S5goQyjmwRw", "review_count": 9, "categories": [{"alias": "greek", "title": "Greek"}], "rating": 3.5, "coordinates": {"latitude": 53.5597810340689, "longitude": 9.96396794915199}, "transactions": [], "price": "\u20ac", "location": {"address1": "Schulterblatt 10", "address2": "", "address3": null, "city": "Hamburg", "zip_code": "20357", "country": "DE", "state": "HH", "display_address": ["Schulterblatt 10", "20357 Hamburg", "Germany"]}, "phone": "+494065040055", "display_phone": "+49 40 65040055", "distance": 1105.130736457219}, {"id": "FEz3ZojQ__iAaxh6DPU0iA", "alias": "in-flagranti-hamburg", "name": "In Flagranti", "image_url": "https://s3-media3.fl.yelpcdn.com/bphoto/4rxyMXZ3avxZNcsoOodNWQ/o.jpg", "is_closed": false, "url": "https://www.yelp.com/biz/in-flagranti-hamburg?adjust_creative=hBJOknVQJ58S5goQyjmwRw&utm_campaign=yelp_api_v3&utm_medium=api_v3_business_search&utm_source=hBJOknVQJ58S5goQyjmwRw", "review_count": 2, "categories": [{"alias": "restaurants", "title": "Restaurants"}], "rating": 4.0, "coordinates": {"latitude": 53.562373, "longitude": 9.961938}, "transactions": [], "location": {"address1": "Schulterblatt 84", "address2": "", "address3": "", "city": "Hamburg", "zip_code": "20357", "country": "DE", "state": "HH", "display_address": ["Schulterblatt 84", "20357 Hamburg", "Germany"]}, "phone": "", "display_phone": "", "distance": 807.3508054225766}, {"id": "hBEjPIDD67cAXBOoxvy1EA", "alias": "waffelaria-hamburg", "name": "Waffelaria", "image_url": "https://s3-media1.fl.yelpcdn.com/bphoto/PEuacBuX43YndOA1WKhaiA/o.jpg", "is_closed": false, "url": "https://www.yelp.com/biz/waffelaria-hamburg?adjust_creative=hBJOknVQJ58S5goQyjmwRw&utm_campaign=yelp_api_v3&utm_medium=api_v3_business_search&utm_source=hBJOknVQJ58S5goQyjmwRw", "review_count": 1, "categories": [{"alias": "waffles", "title": "Waffles"}, {"alias": "donuts", "title": "Donuts"}], "rating": 1.0, "coordinates": {"latitude": 53.5628364601893, "longitude": 9.96100008487701}, "transactions": [], "location": {"address1": "Schulterblatt 98", "address2": "", "address3": null, "city": "Hamburg", "zip_code": "20357", "country": "DE", "state": "HH", "display_address": ["Schulterblatt 98", "20357 Hamburg", "Germany"]}, "phone": "+49407902651", "display_phone": "+49 40 7902651", "distance": 748.7181399144664}, {"id": "4rSi2CeOJU-HvNaJDPsZHw", "alias": "fadda-hamburg", "name": "Fadda", "image_url": "https://s3-media4.fl.yelpcdn.com/bphoto/RBNCiAYAc2XtF__ApSMS0g/o.jpg", "is_closed": false, "url": "https://www.yelp.com/biz/fadda-hamburg?adjust_creative=hBJOknVQJ58S5goQyjmwRw&utm_campaign=yelp_api_v3&utm_medium=api_v3_business_search&utm_source=hBJOknVQJ58S5goQyjmwRw", "review_count": 35, "categories": [{"alias": "italian", "title": "Italian"}, {"alias": "gourmet", "title": "Specialty Food"}], "rating": 3.5, "coordinates": {"latitude": 53.57883, "longitude": 9.95512}, "transactions": [], "price": "\u20ac\u20ac\u20ac", "location": {"address1": "Heu\u00dfweg 90", "address2": null, "address3": null, "city": "Hamburg", "zip_code": "20255", "country": "DE", "state": "HH", "display_address": ["Heu\u00dfweg 90", "20255 Hamburg", "Germany"]}, "phone": "+49404320850", "display_phone": "+49 40 4320850", "distance": 1102.1262318331644}, {"id": "W-EfpdWN81ORM5f_IkDCHg", "alias": "bok-hamburg-8", "name": "Bok", "image_url": "https://s3-media3.fl.yelpcdn.com/bphoto/-bvkTgcsROiTHH468RAW9w/o.jpg", "is_closed": false, "url": "https://www.yelp.com/biz/bok-hamburg-8?adjust_creative=hBJOknVQJ58S5goQyjmwRw&utm_campaign=yelp_api_v3&utm_medium=api_v3_business_search&utm_source=hBJOknVQJ58S5goQyjmwRw", "review_count": 11, "categories": [{"alias": "sushi", "title": "Sushi Bars"}, {"alias": "panasian", "title": "Pan Asian"}], "rating": 3.5, "coordinates": {"latitude": 53.5609899, "longitude": 9.96552}, "transactions": [], "price": "\u20ac\u20ac", "location": {"address1": "Schanzenstr. 36", "address2": "", "address3": "", "city": "Hamburg", "zip_code": "20357", "country": "DE", "state": "HH", "display_address": ["Schanzenstr. 36", "20357 Hamburg", "Germany"]}, "phone": "", "display_phone": "", "distance": 1015.2795682863026}, {"id": "kA8cE7V8G1HdLWQYvWC0NA", "alias": "big-food-hamburg", "name": "Big Food", "image_url": "https://s3-media2.fl.yelpcdn.com/bphoto/9zwIDl1nhw6HyACHGXGfqg/o.jpg", "is_closed": false, "url": "https://www.yelp.com/biz/big-food-hamburg?adjust_creative=hBJOknVQJ58S5goQyjmwRw&utm_campaign=yelp_api_v3&utm_medium=api_v3_business_search&utm_source=hBJOknVQJ58S5goQyjmwRw", "review_count": 31, "categories": [{"alias": "kebab", "title": "Kebab"}], "rating": 4.0, "coordinates": {"latitude": 53.5596699, "longitude": 9.96358}, "transactions": [], "price": "\u20ac", "location": {"address1": "Schulterblatt 13", "address2": "", "address3": "", "city": "Hamburg", "zip_code": "20357", "country": "DE", "state": "HH", "display_address": ["Schulterblatt 13", "20357 Hamburg", "Germany"]}, "phone": "+49404305099", "display_phone": "+49 40 4305099", "distance": 1113.0769760264222}, {"id": "ufA31OvRh63xPmyP__o7LA", "alias": "pamukkale-hamburg-2", "name": "Pamukkale", "image_url": "https://s3-media2.fl.yelpcdn.com/bphoto/-H_uxDQ3HKNTI_mP3TeYXQ/o.jpg", "is_closed": false, "url": "https://www.yelp.com/biz/pamukkale-hamburg-2?adjust_creative=hBJOknVQJ58S5goQyjmwRw&utm_campaign=yelp_api_v3&utm_medium=api_v3_business_search&utm_source=hBJOknVQJ58S5goQyjmwRw", "review_count": 141, "categories": [{"alias": "turkish", "title": "Turkish"}, {"alias": "mediterranean", "title": "Mediterranean"}], "rating": 3.5, "coordinates": {"latitude": 53.5624139262531, "longitude": 9.96351112563502}, "transactions": [], "price": "\u20ac\u20ac", "location": {"address1": "Susannenstr. 34 - 35", "address2": "", "address3": "", "city": "Hamburg", "zip_code": "20357", "country": "DE", "state": "HH", "display_address": ["Susannenstr. 34 - 35", "20357 Hamburg", "Germany"]}, "phone": "+49404302411", "display_phone": "+49 40 4302411", "distance": 811.8333956017619}, {"id": "pRz6R7hwGRpeYuiiG4vi5w", "alias": "cantina-33-hamburg", "name": "Cantina 33", "image_url": "https://s3-media4.fl.yelpcdn.com/bphoto/lMapYD8V6ueyv6-ELqNKtA/o.jpg", "is_closed": false, "url": "https://www.yelp.com/biz/cantina-33-hamburg?adjust_creative=hBJOknVQJ58S5goQyjmwRw&utm_campaign=yelp_api_v3&utm_medium=api_v3_business_search&utm_source=hBJOknVQJ58S5goQyjmwRw", "review_count": 6, "categories": [{"alias": "cafes", "title": "Cafes"}], "rating": 4.0, "coordinates": {"latitude": 53.5626, "longitude": 9.95545}, "transactions": [], "price": "\u20ac", "location": {"address1": "Oelkersallee 33", "address2": null, "address3": null, "city": "Hamburg", "zip_code": "22769", "country": "DE", "state": "HH", "display_address": ["Oelkersallee 33", "22769 Hamburg", "Germany"]}, "phone": "+494040185520", "display_phone": "+49 40 40185520", "distance": 859.3215626244349}, {"id": "HtS0WvDmssXhnxvIH5LNnQ", "alias": "lomo-hamburg", "name": "LOMO", "image_url": "https://s3-media2.fl.yelpcdn.com/bphoto/xoUf-2HyOwbDFnQUhj6R-Q/o.jpg", "is_closed": false, "url": "https://www.yelp.com/biz/lomo-hamburg?adjust_creative=hBJOknVQJ58S5goQyjmwRw&utm_campaign=yelp_api_v3&utm_medium=api_v3_business_search&utm_source=hBJOknVQJ58S5goQyjmwRw", "review_count": 14, "categories": [{"alias": "italian", "title": "Italian"}, {"alias": "divebars", "title": "Dive Bars"}], "rating": 4.0, "coordinates": {"latitude": 53.56072, "longitude": 9.9598}, "transactions": [], "price": "\u20ac", "location": {"address1": "Juliusstr. 6", "address2": "", "address3": "", "city": "Hamburg", "zip_code": "22769", "country": "DE", "state": "HH", "display_address": ["Juliusstr. 6", "22769 Hamburg", "Germany"]}, "phone": "+494077189587", "display_phone": "+49 40 77189587", "distance": 986.4765189783848}, {"id": "TRlJPNN97a0zaqy9eBCyyg", "alias": "espressolution-hamburg", "name": "Espressolution", "image_url": "https://s3-media3.fl.yelpcdn.com/bphoto/wYbKBPn-alHwpy0WYNkK4g/o.jpg", "is_closed": false, "url": "https://www.yelp.com/biz/espressolution-hamburg?adjust_creative=hBJOknVQJ58S5goQyjmwRw&utm_campaign=yelp_api_v3&utm_medium=api_v3_business_search&utm_source=hBJOknVQJ58S5goQyjmwRw", "review_count": 14, "categories": [{"alias": "cafes", "title": "Cafes"}, {"alias": "coffeeteasupplies", "title": "Coffee & Tea Supplies"}], "rating": 4.5, "coordinates": {"latitude": 53.5609923, "longitude": 9.960042}, "transactions": [], "price": "\u20ac\u20ac", "location": {"address1": "Juliusstr. 12", "address2": "", "address3": "", "city": "Hamburg", "zip_code": "22769", "country": "DE", "state": "HH", "display_address": ["Juliusstr. 12", "22769 Hamburg", "Germany"]}, "phone": "+494041113539", "display_phone": "+49 40 41113539", "distance": 956.1844464250012}, {"id": "qdReN1PFiKYyaLwFBDbyrQ", "alias": "raj-mahal-hamburg-8", "name": "Raj Mahal", "image_url": "https://s3-media1.fl.yelpcdn.com/bphoto/eQAf5m2x-9_deWc2rxfx3w/o.jpg", "is_closed": false, "url": "https://www.yelp.com/biz/raj-mahal-hamburg-8?adjust_creative=hBJOknVQJ58S5goQyjmwRw&utm_campaign=yelp_api_v3&utm_medium=api_v3_business_search&utm_source=hBJOknVQJ58S5goQyjmwRw", "review_count": 10, "categories": [{"alias": "indpak", "title": "Indian"}, {"alias": "hotdogs", "title": "Fast Food"}], "rating": 3.0, "coordinates": {"latitude": 53.5676117, "longitude": 9.9569397}, "transactions": [], "price": "\u20ac\u20ac", "location": {"address1": "Eimsb\u00fctteler Chaussee 46", "address2": "", "address3": "", "city": "Hamburg", "zip_code": "20259", "country": "DE", "state": "HH", "display_address": ["Eimsb\u00fctteler Chaussee 46", "20259 Hamburg", "Germany"]}, "phone": "+49404397025", "display_phone": "+49 40 4397025", "distance": 347.81783177539813}, {"id": "ITe4g5eCUb-lzIcmf_63tQ", "alias": "falafel-factory-hamburg", "name": "Falafel Factory", "image_url": "https://s3-media3.fl.yelpcdn.com/bphoto/rzDRJPszMJ5MWVft0YKBqQ/o.jpg", "is_closed": false, "url": "https://www.yelp.com/biz/falafel-factory-hamburg?adjust_creative=hBJOknVQJ58S5goQyjmwRw&utm_campaign=yelp_api_v3&utm_medium=api_v3_business_search&utm_source=hBJOknVQJ58S5goQyjmwRw", "review_count": 72, "categories": [{"alias": "oriental", "title": "Oriental"}, {"alias": "foodstands", "title": "Food Stands"}], "rating": 4.5, "coordinates": {"latitude": 53.5640093, "longitude": 9.9652632}, "transactions": [], "price": "\u20ac", "location": {"address1": "Schanzenstr. 101", "address2": null, "address3": null, "city": "Hamburg", "zip_code": "20357", "country": "DE", "state": "HH", "display_address": ["Schanzenstr. 101", "20357 Hamburg", "Germany"]}, "phone": "+494043282882", "display_phone": "+49 40 43282882", "distance": 677.4245986424936}, {"id": "X0IPyVkIis7Y4m5mKStquw", "alias": "grill-shop-hamburg-3", "name": "Grill-Shop", "image_url": "https://s3-media4.fl.yelpcdn.com/bphoto/966GVHGBSVYQxhna731X1A/o.jpg", "is_closed": false, "url": "https://www.yelp.com/biz/grill-shop-hamburg-3?adjust_creative=hBJOknVQJ58S5goQyjmwRw&utm_campaign=yelp_api_v3&utm_medium=api_v3_business_search&utm_source=hBJOknVQJ58S5goQyjmwRw", "review_count": 1, "categories": [{"alias": "hotdogs", "title": "Fast Food"}], "rating": 1.0, "coordinates": {"latitude": 53.5688, "longitude": 9.96395}, "transactions": [], "location": {"address1": "Weidenallee 63", "address2": null, "address3": null, "city": "Hamburg", "zip_code": "20357", "country": "DE", "state": "HH", "display_address": ["Weidenallee 63", "20357 Hamburg", "Germany"]}, "phone": "", "display_phone": "", "distance": 208.4573268144968}, {"id": "EEyAC-ZxU9B1G6El7NOzjQ", "alias": "chakra-caf\u00e9-hamburg-2", "name": "Chakra Caf\u00e9", "image_url": "https://s3-media1.fl.yelpcdn.com/bphoto/5xABVeU77sIkdN-kQrWXFA/o.jpg", "is_closed": false, "url": "https://www.yelp.com/biz/chakra-caf%C3%A9-hamburg-2?adjust_creative=hBJOknVQJ58S5goQyjmwRw&utm_campaign=yelp_api_v3&utm_medium=api_v3_business_search&utm_source=hBJOknVQJ58S5goQyjmwRw", "review_count": 103, "categories": [{"alias": "cafes", "title": "Cafes"}, {"alias": "breakfast_brunch", "title": "Breakfast & Brunch"}, {"alias": "bars", "title": "Bars"}], "rating": 4.0, "coordinates": {"latitude": 53.56218, "longitude": 9.9633}, "transactions": [], "price": "\u20ac\u20ac", "location": {"address1": "Susannenstr. 11", "address2": "", "address3": null, "city": "Hamburg", "zip_code": "20357", "country": "DE", "state": "HH", "display_address": ["Susannenstr. 11", "20357 Hamburg", "Germany"]}, "phone": "+494043093817", "display_phone": "+49 40 43093817", "distance": 839.6478467675743}, {"id": "a3n-wCLuWf_je2_03BCzig", "alias": "schmidtchen-hamburg", "name": "Schmidtchen", "image_url": "https://s3-media1.fl.yelpcdn.com/bphoto/H9YDha_zQnQQnAXq6Vhh-g/o.jpg", "is_closed": false, "url": "https://www.yelp.com/biz/schmidtchen-hamburg?adjust_creative=hBJOknVQJ58S5goQyjmwRw&utm_campaign=yelp_api_v3&utm_medium=api_v3_business_search&utm_source=hBJOknVQJ58S5goQyjmwRw", "review_count": 7, "categories": [{"alias": "cafes", "title": "Cafes"}, {"alias": "breakfast_brunch", "title": "Breakfast & Brunch"}], "rating": 4.0, "coordinates": {"latitude": 53.5624160858393, "longitude": 9.96129110455513}, "transactions": [], "price": "\u20ac\u20ac", "location": {"address1": "Schulterblatt 73", "address2": "", "address3": "", "city": "Hamburg", "zip_code": "20357", "country": "DE", "state": "HH", "display_address": ["Schulterblatt 73", "20357 Hamburg", "Germany"]}, "phone": "+494041307249", "display_phone": "+49 40 41307249", "distance": 795.5789135284492}, {"id": "8sC3n6i2dAPEfIA89sC7Mw", "alias": "transmontana-hamburg", "name": "Transmontana", "image_url": "https://s3-media1.fl.yelpcdn.com/bphoto/sgi_QnCZ7KnsYOUNwBdKDA/o.jpg", "is_closed": false, "url": "https://www.yelp.com/biz/transmontana-hamburg?adjust_creative=hBJOknVQJ58S5goQyjmwRw&utm_campaign=yelp_api_v3&utm_medium=api_v3_business_search&utm_source=hBJOknVQJ58S5goQyjmwRw", "review_count": 68, "categories": [{"alias": "cafes", "title": "Cafes"}, {"alias": "cakeshop", "title": "Patisserie/Cake Shop"}], "rating": 4.0, "coordinates": {"latitude": 53.56247, "longitude": 9.9617799}, "transactions": [], "price": "\u20ac", "location": {"address1": "Schulterblatt 86", "address2": "", "address3": "", "city": "Hamburg", "zip_code": "20357", "country": "DE", "state": "HH", "display_address": ["Schulterblatt 86", "20357 Hamburg", "Germany"]}, "phone": "+49404397455", "display_phone": "+49 40 4397455", "distance": 788.8350919351257}, {"id": "WMDAjRN6ZUcvTV0SaaJgjw", "alias": "deike-hamburg", "name": "Deike", "image_url": "https://s3-media1.fl.yelpcdn.com/bphoto/vj4RibcuT3Xcm1XukkIu8Q/o.jpg", "is_closed": false, "url": "https://www.yelp.com/biz/deike-hamburg?adjust_creative=hBJOknVQJ58S5goQyjmwRw&utm_campaign=yelp_api_v3&utm_medium=api_v3_business_search&utm_source=hBJOknVQJ58S5goQyjmwRw", "review_count": 48, "categories": [{"alias": "bistros", "title": "Bistros"}, {"alias": "cafes", "title": "Cafes"}], "rating": 3.0, "coordinates": {"latitude": 53.57874, "longitude": 9.95648}, "transactions": [], "price": "\u20ac\u20ac", "location": {"address1": "Lutterothstr. 5", "address2": "", "address3": "", "city": "Hamburg", "zip_code": "20255", "country": "DE", "state": "HH", "display_address": ["Lutterothstr. 5", "20255 Hamburg", "Germany"]}, "phone": "+494039877920", "display_phone": "+49 40 39877920", "distance": 1071.6111637967742}, {"id": "72MYoAVbutKreBPV22U2Kw", "alias": "mcdonalds-hamburg-18", "name": "McDonald's", "image_url": "https://s3-media1.fl.yelpcdn.com/bphoto/9BpMDXHq1ijyuKVkDwIR5Q/o.jpg", "is_closed": false, "url": "https://www.yelp.com/biz/mcdonalds-hamburg-18?adjust_creative=hBJOknVQJ58S5goQyjmwRw&utm_campaign=yelp_api_v3&utm_medium=api_v3_business_search&utm_source=hBJOknVQJ58S5goQyjmwRw", "review_count": 7, "categories": [{"alias": "hotdogs", "title": "Fast Food"}, {"alias": "burgers", "title": "Burgers"}], "rating": 2.0, "coordinates": {"latitude": 53.5636702505245, "longitude": 9.96576278311159}, "transactions": [], "price": "\u20ac\u20ac\u20ac\u20ac", "location": {"address1": "S-Bahn Sternschanze", "address2": "", "address3": "", "city": "Hamburg", "zip_code": "20357", "country": "DE", "state": "HH", "display_address": ["S-Bahn Sternschanze", "20357 Hamburg", "Germany"]}, "phone": "+494023517458", "display_phone": "+49 40 23517458", "distance": 725.4643609261227}, {"id": "1sbjVlCPlecZ3fBWCfSe5g", "alias": "croque-express-hamburg", "name": "Croque Express", "image_url": "https://s3-media1.fl.yelpcdn.com/bphoto/tp6Es_HJOX32fmcs5VhmUA/o.jpg", "is_closed": false, "url": "https://www.yelp.com/biz/croque-express-hamburg?adjust_creative=hBJOknVQJ58S5goQyjmwRw&utm_campaign=yelp_api_v3&utm_medium=api_v3_business_search&utm_source=hBJOknVQJ58S5goQyjmwRw", "review_count": 7, "categories": [{"alias": "sandwiches", "title": "Sandwiches"}], "rating": 4.0, "coordinates": {"latitude": 53.5615, "longitude": 9.96273}, "transactions": [], "price": "\u20ac", "location": {"address1": "Schulterblatt  62", "address2": null, "address3": null, "city": "Hamburg", "zip_code": "20357", "country": "DE", "state": "HH", "display_address": ["Schulterblatt  62", "20357 Hamburg", "Germany"]}, "phone": "+4940435384", "display_phone": "+49 40 435384", "distance": 903.970305412947}, {"id": "WXADq5-9r_7Jzh9UEOd68A", "alias": "berliner-betr\u00fcger-hamburg", "name": "Berliner Betr\u00fcger", "image_url": "https://s3-media3.fl.yelpcdn.com/bphoto/Zzs21hpIc_F4td0pX59lew/o.jpg", "is_closed": false, "url": "https://www.yelp.com/biz/berliner-betr%C3%BCger-hamburg?adjust_creative=hBJOknVQJ58S5goQyjmwRw&utm_campaign=yelp_api_v3&utm_medium=api_v3_business_search&utm_source=hBJOknVQJ58S5goQyjmwRw", "review_count": 77, "categories": [{"alias": "breakfast_brunch", "title": "Breakfast & Brunch"}, {"alias": "bars", "title": "Bars"}], "rating": 4.0, "coordinates": {"latitude": 53.5610799, "longitude": 9.96071}, "transactions": [], "price": "\u20ac\u20ac", "location": {"address1": "Juliusstr. 15", "address2": "", "address3": "", "city": "Hamburg", "zip_code": "22769", "country": "DE", "state": "HH", "display_address": ["Juliusstr. 15", "22769 Hamburg", "Germany"]}, "phone": "+494040135735", "display_phone": "+49 40 40135735", "distance": 945.8834336958829}, {"id": "CNAE1E_uwQF9ehcBAjh-9A", "alias": "bol-kepce-hamburg", "name": "Bol Kepce", "image_url": "https://s3-media4.fl.yelpcdn.com/bphoto/QqVSLL8_SIqffnyFPEk_sQ/o.jpg", "is_closed": false, "url": "https://www.yelp.com/biz/bol-kepce-hamburg?adjust_creative=hBJOknVQJ58S5goQyjmwRw&utm_campaign=yelp_api_v3&utm_medium=api_v3_business_search&utm_source=hBJOknVQJ58S5goQyjmwRw", "review_count": 32, "categories": [{"alias": "turkish", "title": "Turkish"}], "rating": 4.0, "coordinates": {"latitude": 53.56213, "longitude": 9.96316}, "transactions": [], "price": "\u20ac\u20ac", "location": {"address1": "Susannenstr. 10", "address2": "", "address3": "", "city": "Hamburg", "zip_code": "20357", "country": "DE", "state": "HH", "display_address": ["Susannenstr. 10", "20357 Hamburg", "Germany"]}, "phone": "+4940438198", "display_phone": "+49 40 438198", "distance": 849.0921716253151}, {"id": "H2T2IrSZQiVE_JRXWdbA7w", "alias": "la-bella-pizzeria-hamburg", "name": "La Bella Pizzeria", "image_url": "https://s3-media2.fl.yelpcdn.com/bphoto/4-D9Yp6_Mm1b0JO63ubLrg/o.jpg", "is_closed": false, "url": "https://www.yelp.com/biz/la-bella-pizzeria-hamburg?adjust_creative=hBJOknVQJ58S5goQyjmwRw&utm_campaign=yelp_api_v3&utm_medium=api_v3_business_search&utm_source=hBJOknVQJ58S5goQyjmwRw", "review_count": 27, "categories": [{"alias": "pizza", "title": "Pizza"}, {"alias": "italian", "title": "Italian"}], "rating": 4.0, "coordinates": {"latitude": 53.56101, "longitude": 9.95526}, "transactions": [], "price": "\u20ac", "location": {"address1": "Wohlers Allee 78", "address2": "", "address3": "", "city": "Hamburg", "zip_code": "22767", "country": "DE", "state": "HH", "display_address": ["Wohlers Allee 78", "22767 Hamburg", "Germany"]}, "phone": "+494060432318", "display_phone": "+49 40 60432318", "distance": 1034.2016849200038}, {"id": "q3NggaFqfLYiQSIxqJoxKQ", "alias": "megas-hamburg", "name": "Mega's", "image_url": "https://s3-media3.fl.yelpcdn.com/bphoto/LPo6ztHTT1ng80d5FUn_pg/o.jpg", "is_closed": false, "url": "https://www.yelp.com/biz/megas-hamburg?adjust_creative=hBJOknVQJ58S5goQyjmwRw&utm_campaign=yelp_api_v3&utm_medium=api_v3_business_search&utm_source=hBJOknVQJ58S5goQyjmwRw", "review_count": 7, "categories": [{"alias": "gastropubs", "title": "Gastropubs"}, {"alias": "german", "title": "German"}, {"alias": "steak", "title": "Steakhouses"}], "rating": 3.0, "coordinates": {"latitude": 53.5755399, "longitude": 9.95509}, "transactions": [], "location": {"address1": "Osterstr. 74", "address2": "", "address3": "", "city": "Hamburg", "zip_code": "20259", "country": "DE", "state": "HH", "display_address": ["Osterstr. 74", "20259 Hamburg", "Germany"]}, "phone": "+494043277302", "display_phone": "+49 40 43277302", "distance": 775.9202939566597}, {"id": "0QiDw8jcelX9m1AWAnmung", "alias": "m-i-p-cafe-hamburg", "name": "M.I.P.  Cafe", "image_url": "https://s3-media1.fl.yelpcdn.com/bphoto/SAMT9q7mI74bRr4B2alCQA/o.jpg", "is_closed": false, "url": "https://www.yelp.com/biz/m-i-p-cafe-hamburg?adjust_creative=hBJOknVQJ58S5goQyjmwRw&utm_campaign=yelp_api_v3&utm_medium=api_v3_business_search&utm_source=hBJOknVQJ58S5goQyjmwRw", "review_count": 36, "categories": [{"alias": "cafes", "title": "Cafes"}], "rating": 4.0, "coordinates": {"latitude": 53.563, "longitude": 9.96087}, "transactions": [], "price": "\u20ac", "location": {"address1": "Schulterblatt 98", "address2": "", "address3": "", "city": "Hamburg", "zip_code": "20357", "country": "DE", "state": "HH", "display_address": ["Schulterblatt 98", "20357 Hamburg", "Germany"]}, "phone": "+494043190991", "display_phone": "+49 40 43190991", "distance": 730.6396940090457}, {"id": "Am1FdupMZ7wi6L1RpYXVaQ", "alias": "konfetti-caf\u00e9-altona-hamburg", "name": "Konfetti-Caf\u00e9 Altona", "image_url": "https://s3-media2.fl.yelpcdn.com/bphoto/PjwB7v40A4f5pTnBh4Cm-A/o.jpg", "is_closed": false, "url": "https://www.yelp.com/biz/konfetti-caf%C3%A9-altona-hamburg?adjust_creative=hBJOknVQJ58S5goQyjmwRw&utm_campaign=yelp_api_v3&utm_medium=api_v3_business_search&utm_source=hBJOknVQJ58S5goQyjmwRw", "review_count": 1, "categories": [{"alias": "cafes", "title": "Cafes"}], "rating": 5.0, "coordinates": {"latitude": 53.558584, "longitude": 9.957161}, "transactions": [], "price": "\u20ac\u20ac", "location": {"address1": "Bernstorffstr. 145", "address2": "", "address3": "", "city": "Hamburg", "zip_code": "22767", "country": "DE", "state": "HH", "display_address": ["Bernstorffstr. 145", "22767 Hamburg", "Germany"]}, "phone": "+494101552336", "display_phone": "+49 4101 552336", "distance": 1226.3529529383857}, {"id": "jrI7yVT0V9tBd3tKrcdF6Q", "alias": "omas-apotheke-hamburg", "name": "Oma's Apotheke", "image_url": "https://s3-media4.fl.yelpcdn.com/bphoto/OxJM3Ugtx-6Y5mLRiTkaKA/o.jpg", "is_closed": false, "url": "https://www.yelp.com/biz/omas-apotheke-hamburg?adjust_creative=hBJOknVQJ58S5goQyjmwRw&utm_campaign=yelp_api_v3&utm_medium=api_v3_business_search&utm_source=hBJOknVQJ58S5goQyjmwRw", "review_count": 265, "categories": [{"alias": "german", "title": "German"}, {"alias": "pubs", "title": "Pubs"}, {"alias": "breakfast_brunch", "title": "Breakfast & Brunch"}], "rating": 3.5, "coordinates": {"latitude": 53.5627848, "longitude": 9.9654518}, "transactions": [], "price": "\u20ac\u20ac", "location": {"address1": "Schanzenstr. 87", "address2": null, "address3": null, "city": "Hamburg", "zip_code": "20357", "country": "DE", "state": "HH", "display_address": ["Schanzenstr. 87", "20357 Hamburg", "Germany"]}, "phone": "+4940436620", "display_phone": "+49 40 436620", "distance": 789.5327761393778}, {"id": "2KOyCxU5OmaKszENGc9Jow", "alias": "le-croque-hamburg", "name": "Le Croque", "image_url": "https://s3-media4.fl.yelpcdn.com/bphoto/Ii28bHl62Nno0E5Qjt1EgA/o.jpg", "is_closed": false, "url": "https://www.yelp.com/biz/le-croque-hamburg?adjust_creative=hBJOknVQJ58S5goQyjmwRw&utm_campaign=yelp_api_v3&utm_medium=api_v3_business_search&utm_source=hBJOknVQJ58S5goQyjmwRw", "review_count": 7, "categories": [{"alias": "sandwiches", "title": "Sandwiches"}, {"alias": "kiosk", "title": "Kiosk"}], "rating": 4.5, "coordinates": {"latitude": 53.5801473743966, "longitude": 9.96389973888724}, "transactions": [], "price": "\u20ac\u20ac", "location": {"address1": "G\u00e4rtnerstr. 86", "address2": "", "address3": null, "city": "Hamburg", "zip_code": "20253", "country": "DE", "state": "HH", "display_address": ["G\u00e4rtnerstr. 86", "20253 Hamburg", "Germany"]}, "phone": "+49404914273", "display_phone": "+49 40 4914273", "distance": 1190.9111534025626}, {"id": "OOXOQ97gVnauzAsALcNByw", "alias": "bairro-alto-hamburg", "name": "Bairro Alto", "image_url": "https://s3-media1.fl.yelpcdn.com/bphoto/np2HY5Qs33tQw6SoDTutVQ/o.jpg", "is_closed": false, "url": "https://www.yelp.com/biz/bairro-alto-hamburg?adjust_creative=hBJOknVQJ58S5goQyjmwRw&utm_campaign=yelp_api_v3&utm_medium=api_v3_business_search&utm_source=hBJOknVQJ58S5goQyjmwRw", "review_count": 31, "categories": [{"alias": "portuguese", "title": "Portuguese"}, {"alias": "tapas", "title": "Tapas Bars"}], "rating": 3.5, "coordinates": {"latitude": 53.5613465751636, "longitude": 9.96272874037124}, "transactions": [], "price": "\u20ac\u20ac", "location": {"address1": "Schulterblatt 58 a", "address2": "", "address3": "", "city": "Hamburg", "zip_code": "20357", "country": "DE", "state": "HH", "display_address": ["Schulterblatt 58 a", "20357 Hamburg", "Germany"]}, "phone": "+494043098505", "display_phone": "+49 40 43098505", "distance": 920.8971214707705}, {"id": "tX8USJxwABgCguuVdbbieQ", "alias": "stenzel-hamburg", "name": "Stenzel", "image_url": "https://s3-media3.fl.yelpcdn.com/bphoto/L8syR3CY-wFSAgAd3_HpSA/o.jpg", "is_closed": false, "url": "https://www.yelp.com/biz/stenzel-hamburg?adjust_creative=hBJOknVQJ58S5goQyjmwRw&utm_campaign=yelp_api_v3&utm_medium=api_v3_business_search&utm_source=hBJOknVQJ58S5goQyjmwRw", "review_count": 64, "categories": [{"alias": "cafes", "title": "Cafes"}, {"alias": "cakeshop", "title": "Patisserie/Cake Shop"}], "rating": 4.0, "coordinates": {"latitude": 53.5613386, "longitude": 9.9623121}, "transactions": [], "price": "\u20ac\u20ac", "location": {"address1": "Schulterblatt 61", "address2": null, "address3": null, "city": "Hamburg", "zip_code": "20357", "country": "DE", "state": "HH", "display_address": ["Schulterblatt 61", "20357 Hamburg", "Germany"]}, "phone": "+4940434364", "display_phone": "+49 40 434364", "distance": 906.10453029279}, {"id": "dIOMeyu-VvI29SJ96fLT8Q", "alias": "vier-f\u00e4uste-hamburg", "name": "Vier F\u00e4uste", "image_url": "https://s3-media1.fl.yelpcdn.com/bphoto/7iwv6C_uEFBcRDvQRILULQ/o.jpg", "is_closed": false, "url": "https://www.yelp.com/biz/vier-f%C3%A4uste-hamburg?adjust_creative=hBJOknVQJ58S5goQyjmwRw&utm_campaign=yelp_api_v3&utm_medium=api_v3_business_search&utm_source=hBJOknVQJ58S5goQyjmwRw", "review_count": 15, "categories": [{"alias": "bars", "title": "Bars"}, {"alias": "cafes", "title": "Cafes"}], "rating": 4.5, "coordinates": {"latitude": 53.5616493225098, "longitude": 9.96156406402588}, "transactions": [], "price": "\u20ac", "location": {"address1": "Juliusstr. 40", "address2": "", "address3": "", "city": "Hamburg", "zip_code": "22769", "country": "DE", "state": "HH", "display_address": ["Juliusstr. 40", "22769 Hamburg", "Germany"]}, "phone": "+494040135735", "display_phone": "+49 40 40135735", "distance": 881.307319652807}, {"id": "4y1PTBUEpFARNvO8QQIvHQ", "alias": "cafe-diwan-hamburg", "name": "Cafe Diwan", "image_url": "https://s3-media1.fl.yelpcdn.com/bphoto/XQ45O1XBAvb3cJ2ZYOAAoA/o.jpg", "is_closed": false, "url": "https://www.yelp.com/biz/cafe-diwan-hamburg?adjust_creative=hBJOknVQJ58S5goQyjmwRw&utm_campaign=yelp_api_v3&utm_medium=api_v3_business_search&utm_source=hBJOknVQJ58S5goQyjmwRw", "review_count": 13, "categories": [{"alias": "bars", "title": "Bars"}, {"alias": "cafes", "title": "Cafes"}], "rating": 3.0, "coordinates": {"latitude": 53.56272, "longitude": 9.96429}, "transactions": [], "price": "\u20ac\u20ac", "location": {"address1": "Susannenstr. 30", "address2": null, "address3": null, "city": "Hamburg", "zip_code": "20357", "country": "DE", "state": "HH", "display_address": ["Susannenstr. 30", "20357 Hamburg", "Germany"]}, "phone": "+494023518281", "display_phone": "+49 40 23518281", "distance": 783.508167110066}, {"id": "u-oZRmUzj6oMrebcHkZnlg", "alias": "marcano-hamburg", "name": "Marcano", "image_url": "https://s3-media4.fl.yelpcdn.com/bphoto/0GkuhB5L5J9xXoN_CiY4eA/o.jpg", "is_closed": false, "url": "https://www.yelp.com/biz/marcano-hamburg?adjust_creative=hBJOknVQJ58S5goQyjmwRw&utm_campaign=yelp_api_v3&utm_medium=api_v3_business_search&utm_source=hBJOknVQJ58S5goQyjmwRw", "review_count": 1, "categories": [{"alias": "pizza", "title": "Pizza"}], "rating": 5.0, "coordinates": {"latitude": 53.5675, "longitude": 9.95703}, "transactions": [], "location": {"address1": "Eimsb\u00fctteler Chaussee 46", "address2": null, "address3": null, "city": "Hamburg", "zip_code": "20259", "country": "DE", "state": "HH", "display_address": ["Eimsb\u00fctteler Chaussee 46", "20259 Hamburg", "Germany"]}, "phone": "+494043215142", "display_phone": "+49 40 43215142", "distance": 352.40451294095175}, {"id": "xNRFUAUArvcW9Pcr3n-vEA", "alias": "petisco-hamburg", "name": "Petisco", "image_url": "https://s3-media2.fl.yelpcdn.com/bphoto/8Esd1WNxV1e1rhDpj_KpAQ/o.jpg", "is_closed": false, "url": "https://www.yelp.com/biz/petisco-hamburg?adjust_creative=hBJOknVQJ58S5goQyjmwRw&utm_campaign=yelp_api_v3&utm_medium=api_v3_business_search&utm_source=hBJOknVQJ58S5goQyjmwRw", "review_count": 38, "categories": [{"alias": "portuguese", "title": "Portuguese"}], "rating": 3.0, "coordinates": {"latitude": 53.5621099, "longitude": 9.96215}, "transactions": [], "price": "\u20ac\u20ac", "location": {"address1": "Schulterblatt 78", "address2": "", "address3": "", "city": "Hamburg", "zip_code": "20357", "country": "DE", "state": "HH", "display_address": ["Schulterblatt 78", "20357 Hamburg", "Germany"]}, "phone": "+494043290899", "display_phone": "+49 40 43290899", "distance": 823.2243461818531}, {"id": "wB1uHl_VnEbn7tqigTZKTQ", "alias": "kopiba-hamburg-3", "name": "Kopiba", "image_url": "https://s3-media2.fl.yelpcdn.com/bphoto/YKBMzv5Psg0ZAKHBjpTSlg/o.jpg", "is_closed": false, "url": "https://www.yelp.com/biz/kopiba-hamburg-3?adjust_creative=hBJOknVQJ58S5goQyjmwRw&utm_campaign=yelp_api_v3&utm_medium=api_v3_business_search&utm_source=hBJOknVQJ58S5goQyjmwRw", "review_count": 93, "categories": [{"alias": "cafes", "title": "Cafes"}, {"alias": "cocktailbars", "title": "Cocktail Bars"}, {"alias": "breakfast_brunch", "title": "Breakfast & Brunch"}], "rating": 4.5, "coordinates": {"latitude": 53.5588618766177, "longitude": 9.96386643126438}, "transactions": [], "price": "\u20ac\u20ac", "location": {"address1": "Beim Gr\u00fcnen J\u00e4ger 24", "address2": null, "address3": null, "city": "Hamburg", "zip_code": "20359", "country": "DE", "state": "HH", "display_address": ["Beim Gr\u00fcnen J\u00e4ger 24", "20359 Hamburg", "Germany"]}, "phone": "+4940343824", "display_phone": "+49 40 343824", "distance": 1204.8784898299728}, {"id": "xnEgNu3N5oJjjENFOdATmA", "alias": "der-amsterdamer-hamburg", "name": "Der Amsterdamer", "image_url": "https://s3-media3.fl.yelpcdn.com/bphoto/Yf8-rcD2njvhgn23kUip7A/o.jpg", "is_closed": false, "url": "https://www.yelp.com/biz/der-amsterdamer-hamburg?adjust_creative=hBJOknVQJ58S5goQyjmwRw&utm_campaign=yelp_api_v3&utm_medium=api_v3_business_search&utm_source=hBJOknVQJ58S5goQyjmwRw", "review_count": 7, "categories": [{"alias": "hotdogs", "title": "Fast Food"}, {"alias": "tradamerican", "title": "American (Traditional)"}], "rating": 3.5, "coordinates": {"latitude": 53.5796, "longitude": 9.95583}, "transactions": [], "price": "\u20ac\u20ac\u20ac", "location": {"address1": "Heu\u00dfweg 95", "address2": null, "address3": null, "city": "Hamburg", "zip_code": "20255", "country": "DE", "state": "HH", "display_address": ["Heu\u00dfweg 95", "20255 Hamburg", "Germany"]}, "phone": "", "display_phone": "", "distance": 1167.7722028210833}, {"id": "m_DUj52jtV_3t2_3F5E2eQ", "alias": "colmeia-hamburg", "name": "Colmeia", "image_url": "https://s3-media3.fl.yelpcdn.com/bphoto/jq5U3zCSDfmkof1fSAL96A/o.jpg", "is_closed": false, "url": "https://www.yelp.com/biz/colmeia-hamburg?adjust_creative=hBJOknVQJ58S5goQyjmwRw&utm_campaign=yelp_api_v3&utm_medium=api_v3_business_search&utm_source=hBJOknVQJ58S5goQyjmwRw", "review_count": 12, "categories": [{"alias": "coffee", "title": "Coffee & Tea"}, {"alias": "portuguese", "title": "Portuguese"}, {"alias": "breakfast_brunch", "title": "Breakfast & Brunch"}], "rating": 4.0, "coordinates": {"latitude": 53.55903, "longitude": 9.96451}, "transactions": [], "price": "\u20ac", "location": {"address1": "Neuer Pferdemarkt 14", "address2": "", "address3": "", "city": "Hamburg", "zip_code": "20359", "country": "DE", "state": "HH", "display_address": ["Neuer Pferdemarkt 14", "20359 Hamburg", "Germany"]}, "phone": "+494032037132", "display_phone": "+49 40 32037132", "distance": 1193.7589913754978}, {"id": "ZiE1o1VcFWdSlsp-zsxAiw", "alias": "mok-kitchen-hamburg-4", "name": "Mok-Kitchen", "image_url": "https://s3-media4.fl.yelpcdn.com/bphoto/xaNS1zcDdL8iDSfHYl1QGg/o.jpg", "is_closed": false, "url": "https://www.yelp.com/biz/mok-kitchen-hamburg-4?adjust_creative=hBJOknVQJ58S5goQyjmwRw&utm_campaign=yelp_api_v3&utm_medium=api_v3_business_search&utm_source=hBJOknVQJ58S5goQyjmwRw", "review_count": 39, "categories": [{"alias": "panasian", "title": "Pan Asian"}], "rating": 3.5, "coordinates": {"latitude": 53.5746, "longitude": 9.95796}, "transactions": [], "price": "\u20ac\u20ac", "location": {"address1": "Osterstr. 75", "address2": null, "address3": null, "city": "Hamburg", "zip_code": "20259", "country": "DE", "state": "HH", "display_address": ["Osterstr. 75", "20259 Hamburg", "Germany"]}, "phone": "+494049222655", "display_phone": "+49 40 49222655", "distance": 595.8789118662378}, {"id": "NBjajow5fa08WzvweWFlFQ", "alias": "cafe-unter-den-linden-hamburg", "name": "Cafe unter den Linden", "image_url": "https://s3-media2.fl.yelpcdn.com/bphoto/efUCAJOZJ_0D-oDrkWkNIw/o.jpg", "is_closed": false, "url": "https://www.yelp.com/biz/cafe-unter-den-linden-hamburg?adjust_creative=hBJOknVQJ58S5goQyjmwRw&utm_campaign=yelp_api_v3&utm_medium=api_v3_business_search&utm_source=hBJOknVQJ58S5goQyjmwRw", "review_count": 103, "categories": [{"alias": "cafes", "title": "Cafes"}, {"alias": "breakfast_brunch", "title": "Breakfast & Brunch"}], "rating": 3.5, "coordinates": {"latitude": 53.56123, "longitude": 9.96041}, "transactions": [], "price": "\u20ac\u20ac", "location": {"address1": "Juliusstr. 16", "address2": null, "address3": null, "city": "Hamburg", "zip_code": "22769", "country": "DE", "state": "HH", "display_address": ["Juliusstr. 16", "22769 Hamburg", "Germany"]}, "phone": "+4940438140", "display_phone": "+49 40 438140", "distance": 923.8018817868523}, {"id": "wacEh2GL2JfndmoJK4iq6A", "alias": "shikara-quick-hamburg-2", "name": "Shikara Quick", "image_url": "https://s3-media1.fl.yelpcdn.com/bphoto/YH3RJOj7frZnoDeWARexpg/o.jpg", "is_closed": false, "url": "https://www.yelp.com/biz/shikara-quick-hamburg-2?adjust_creative=hBJOknVQJ58S5goQyjmwRw&utm_campaign=yelp_api_v3&utm_medium=api_v3_business_search&utm_source=hBJOknVQJ58S5goQyjmwRw", "review_count": 48, "categories": [{"alias": "indpak", "title": "Indian"}], "rating": 3.0, "coordinates": {"latitude": 53.56279, "longitude": 9.96492}, "transactions": [], "price": "\u20ac\u20ac\u20ac", "location": {"address1": "Susannenstr. 20", "address2": "", "address3": "", "city": "Hamburg", "zip_code": "20357", "country": "DE", "state": "HH", "display_address": ["Susannenstr. 20", "20357 Hamburg", "Germany"]}, "phone": "+49404302353", "display_phone": "+49 40 4302353", "distance": 799.9741759796649}, {"id": "pBL6KM_e1eQXlIEEp61Uqg", "alias": "frank-und-frei-hamburg", "name": "Frank und Frei", "image_url": "https://s3-media1.fl.yelpcdn.com/bphoto/tWBFPZd9007V47eQVF03Uw/o.jpg", "is_closed": false, "url": "https://www.yelp.com/biz/frank-und-frei-hamburg?adjust_creative=hBJOknVQJ58S5goQyjmwRw&utm_campaign=yelp_api_v3&utm_medium=api_v3_business_search&utm_source=hBJOknVQJ58S5goQyjmwRw", "review_count": 186, "categories": [{"alias": "german", "title": "German"}, {"alias": "tex-mex", "title": "Tex-Mex"}, {"alias": "burgers", "title": "Burgers"}], "rating": 3.0, "coordinates": {"latitude": 53.5630549913129, "longitude": 9.96530263068848}, "transactions": [], "price": "\u20ac\u20ac", "location": {"address1": "Schanzenstr. 93", "address2": null, "address3": null, "city": "Hamburg", "zip_code": "20357", "country": "DE", "state": "HH", "display_address": ["Schanzenstr. 93", "20357 Hamburg", "Germany"]}, "phone": "+49404300573", "display_phone": "+49 40 4300573", "distance": 776.4231838551596}, {"id": "me8HkVGQdaRkd7-mhgnDFw", "alias": "taverna-romana-hamburg", "name": "Taverna Romana", "image_url": "https://s3-media3.fl.yelpcdn.com/bphoto/07oLRNJ_uXWqMzduOR-M_A/o.jpg", "is_closed": false, "url": "https://www.yelp.com/biz/taverna-romana-hamburg?adjust_creative=hBJOknVQJ58S5goQyjmwRw&utm_campaign=yelp_api_v3&utm_medium=api_v3_business_search&utm_source=hBJOknVQJ58S5goQyjmwRw", "review_count": 91, "categories": [{"alias": "greek", "title": "Greek"}, {"alias": "italian", "title": "Italian"}], "rating": 3.5, "coordinates": {"latitude": 53.56113, "longitude": 9.9624}, "transactions": [], "price": "\u20ac\u20ac", "location": {"address1": "Schulterblatt 53", "address2": null, "address3": null, "city": "Hamburg", "zip_code": "20357", "country": "DE", "state": "HH", "display_address": ["Schulterblatt 53", "20357 Hamburg", "Germany"]}, "phone": "+4940434410", "display_phone": "+49 40 434410", "distance": 942.5447976435512}, {"id": "_d5kCvNg5B3_QYhS9syrFQ", "alias": "sushi-dreams-hamburg-2", "name": "Sushi Dreams", "image_url": "https://s3-media4.fl.yelpcdn.com/bphoto/XTjC_Mawg2PMa7JUuWQfZQ/o.jpg", "is_closed": false, "url": "https://www.yelp.com/biz/sushi-dreams-hamburg-2?adjust_creative=hBJOknVQJ58S5goQyjmwRw&utm_campaign=yelp_api_v3&utm_medium=api_v3_business_search&utm_source=hBJOknVQJ58S5goQyjmwRw", "review_count": 38, "categories": [{"alias": "sushi", "title": "Sushi Bars"}], "rating": 3.0, "coordinates": {"latitude": 53.57418, "longitude": 9.96017}, "transactions": [], "price": "\u20ac\u20ac", "location": {"address1": "Osterstr. 19", "address2": null, "address3": null, "city": "Hamburg", "zip_code": "20259", "country": "DE", "state": "HH", "display_address": ["Osterstr. 19", "20259 Hamburg", "Germany"]}, "phone": "+494043193267", "display_phone": "+49 40 43193267", "distance": 507.33303028687527}, {"id": "o1Z2sIpwH4hxr_puz2BRXg", "alias": "eckstein-hamburg", "name": "Eckstein", "image_url": "https://s3-media4.fl.yelpcdn.com/bphoto/lN78YO9uoGLOhOfxYQVmjA/o.jpg", "is_closed": false, "url": "https://www.yelp.com/biz/eckstein-hamburg?adjust_creative=hBJOknVQJ58S5goQyjmwRw&utm_campaign=yelp_api_v3&utm_medium=api_v3_business_search&utm_source=hBJOknVQJ58S5goQyjmwRw", "review_count": 46, "categories": [{"alias": "international", "title": "International"}], "rating": 3.0, "coordinates": {"latitude": 53.5747, "longitude": 9.9578}, "transactions": [], "price": "\u20ac\u20ac", "location": {"address1": "Osterstr. 45", "address2": null, "address3": null, "city": "Hamburg", "zip_code": "20259", "country": "DE", "state": "HH", "display_address": ["Osterstr. 45", "20259 Hamburg", "Germany"]}, "phone": "+494040186251", "display_phone": "+49 40 40186251", "distance": 609.9893004773975}, {"id": "5JbmHiHcc5qvYZX796kG2w", "alias": "kaffeekontor-hamburg", "name": "Kaffeekontor", "image_url": "https://s3-media3.fl.yelpcdn.com/bphoto/UheuZMVv77_xGhvSXdtvtA/o.jpg", "is_closed": false, "url": "https://www.yelp.com/biz/kaffeekontor-hamburg?adjust_creative=hBJOknVQJ58S5goQyjmwRw&utm_campaign=yelp_api_v3&utm_medium=api_v3_business_search&utm_source=hBJOknVQJ58S5goQyjmwRw", "review_count": 44, "categories": [{"alias": "cafes", "title": "Cafes"}], "rating": 4.0, "coordinates": {"latitude": 53.55981, "longitude": 9.9648}, "transactions": [], "price": "\u20ac", "location": {"address1": "Schanzenstr. 14", "address2": "", "address3": "", "city": "Hamburg", "zip_code": "20357", "country": "DE", "state": "HH", "display_address": ["Schanzenstr. 14", "20357 Hamburg", "Germany"]}, "phone": "+494043183050", "display_phone": "+49 40 43183050", "distance": 1114.9735658740528}, {"id": "IfbMy9GXTNyNPPH9XqmZNg", "alias": "piazza-hamburg-2", "name": "Piazza", "image_url": "https://s3-media4.fl.yelpcdn.com/bphoto/3P3EYYEoRYYAUihLaScUxw/o.jpg", "is_closed": false, "url": "https://www.yelp.com/biz/piazza-hamburg-2?adjust_creative=hBJOknVQJ58S5goQyjmwRw&utm_campaign=yelp_api_v3&utm_medium=api_v3_business_search&utm_source=hBJOknVQJ58S5goQyjmwRw", "review_count": 30, "categories": [{"alias": "italian", "title": "Italian"}, {"alias": "pizza", "title": "Pizza"}], "rating": 4.0, "coordinates": {"latitude": 53.56235, "longitude": 9.9619}, "transactions": [], "price": "\u20ac\u20ac", "location": {"address1": "Schulterblatt 84", "address2": "", "address3": "", "city": "Hamburg", "zip_code": "20357", "country": "DE", "state": "HH", "display_address": ["Schulterblatt 84", "20357 Hamburg", "Germany"]}, "phone": "+494043276955", "display_phone": "+49 40 43276955", "distance": 807.3508054225766}, {"id": "oHlMNfcFUF8Ch5jw4DJOqw", "alias": "apple-und-eve-hamburg", "name": "Apple & Eve", "image_url": "", "is_closed": false, "url": "https://www.yelp.com/biz/apple-und-eve-hamburg?adjust_creative=hBJOknVQJ58S5goQyjmwRw&utm_campaign=yelp_api_v3&utm_medium=api_v3_business_search&utm_source=hBJOknVQJ58S5goQyjmwRw", "review_count": 1, "categories": [{"alias": "vegetarian", "title": "Vegetarian"}, {"alias": "vegan", "title": "Vegan"}], "rating": 3.0, "coordinates": {"latitude": 53.564291, "longitude": 9.965272}, "transactions": [], "location": {"address1": "Schanzenstr. 107", "address2": "", "address3": null, "city": "Hamburg", "zip_code": "20357", "country": "DE", "state": "HH", "display_address": ["Schanzenstr. 107", "20357 Hamburg", "Germany"]}, "phone": "+494041352586", "display_phone": "+49 40 41352586", "distance": 646.6397269612777}, {"id": "FOAzJD3x-p1zpwCNaJwxyg", "alias": "saal-ii-hamburg", "name": "Saal II", "image_url": "https://s3-media2.fl.yelpcdn.com/bphoto/RMQE1mf6iiw-744a8sf7cA/o.jpg", "is_closed": false, "url": "https://www.yelp.com/biz/saal-ii-hamburg?adjust_creative=hBJOknVQJ58S5goQyjmwRw&utm_campaign=yelp_api_v3&utm_medium=api_v3_business_search&utm_source=hBJOknVQJ58S5goQyjmwRw", "review_count": 76, "categories": [{"alias": "bars", "title": "Bars"}, {"alias": "cafes", "title": "Cafes"}], "rating": 4.0, "coordinates": {"latitude": 53.56276, "longitude": 9.96082}, "transactions": [], "price": "\u20ac\u20ac", "location": {"address1": "Schulterblatt 83", "address2": null, "address3": null, "city": "Hamburg", "zip_code": "20357", "country": "DE", "state": "HH", "display_address": ["Schulterblatt 83", "20357 Hamburg", "Germany"]}, "phone": "+49404392828", "display_phone": "+49 40 4392828", "distance": 758.0028883997542}, {"id": "wb8vdgXZqjOaw_5XXXMC0A", "alias": "sessanta-due-hamburg", "name": "Sessanta Due", "image_url": "https://s3-media1.fl.yelpcdn.com/bphoto/bNG1GssjaEfoHQXkRplyrg/o.jpg", "is_closed": false, "url": "https://www.yelp.com/biz/sessanta-due-hamburg?adjust_creative=hBJOknVQJ58S5goQyjmwRw&utm_campaign=yelp_api_v3&utm_medium=api_v3_business_search&utm_source=hBJOknVQJ58S5goQyjmwRw", "review_count": 40, "categories": [{"alias": "italian", "title": "Italian"}], "rating": 3.5, "coordinates": {"latitude": 53.56156, "longitude": 9.96257}, "transactions": [], "price": "\u20ac\u20ac", "location": {"address1": "Schulterblatt 62", "address2": "", "address3": "", "city": "Hamburg", "zip_code": "20357", "country": "DE", "state": "HH", "display_address": ["Schulterblatt 62", "20357 Hamburg", "Germany"]}, "phone": "+494050719750", "display_phone": "+49 40 50719750", "distance": 897.4058607457852}, {"id": "XpA2cxnEwgMds2lDWPlrWA", "alias": "jill-hamburg", "name": "Jill", "image_url": "https://s3-media2.fl.yelpcdn.com/bphoto/2m3r21gQHujAqTidiHrxkQ/o.jpg", "is_closed": false, "url": "https://www.yelp.com/biz/jill-hamburg?adjust_creative=hBJOknVQJ58S5goQyjmwRw&utm_campaign=yelp_api_v3&utm_medium=api_v3_business_search&utm_source=hBJOknVQJ58S5goQyjmwRw", "review_count": 33, "categories": [{"alias": "pizza", "title": "Pizza"}, {"alias": "breakfast_brunch", "title": "Breakfast & Brunch"}], "rating": 3.5, "coordinates": {"latitude": 53.5620217944002, "longitude": 9.96494561433792}, "transactions": [], "price": "\u20ac\u20ac", "location": {"address1": "Bartelsstr. 12", "address2": "", "address3": null, "city": "Hamburg", "zip_code": "20357", "country": "DE", "state": "HH", "display_address": ["Bartelsstr. 12", "20357 Hamburg", "Germany"]}, "phone": "+494065040500", "display_phone": "+49 40 65040500", "distance": 877.4177405464709}, {"id": "DZ2CqdOloYS9gtijbmudHA", "alias": "schanzenb\u00e4ckerei-hamburg-39", "name": "Schanzenb\u00e4ckerei", "image_url": "https://s3-media1.fl.yelpcdn.com/bphoto/blXFsGs-oCyj1nGZC7uSOw/o.jpg", "is_closed": false, "url": "https://www.yelp.com/biz/schanzenb%C3%A4ckerei-hamburg-39?adjust_creative=hBJOknVQJ58S5goQyjmwRw&utm_campaign=yelp_api_v3&utm_medium=api_v3_business_search&utm_source=hBJOknVQJ58S5goQyjmwRw", "review_count": 27, "categories": [{"alias": "bakeries", "title": "Bakeries"}, {"alias": "cafes", "title": "Cafes"}], "rating": 4.0, "coordinates": {"latitude": 53.5639899, "longitude": 9.96526}, "transactions": [], "price": "\u20ac", "location": {"address1": "Schanzenstr. 101", "address2": null, "address3": null, "city": "Hamburg", "zip_code": "20357", "country": "DE", "state": "HH", "display_address": ["Schanzenstr. 101", "20357 Hamburg", "Germany"]}, "phone": "+494042102770", "display_phone": "+49 40 42102770", "distance": 671.2440382697947}, {"id": "ww-1ze_epEbd7_xCg3OLPQ", "alias": "cafe-larigo-hamburg", "name": "cafe larigo", "image_url": "https://s3-media4.fl.yelpcdn.com/bphoto/5C44hCWHwm_nbex_Y16kzg/o.jpg", "is_closed": false, "url": "https://www.yelp.com/biz/cafe-larigo-hamburg?adjust_creative=hBJOknVQJ58S5goQyjmwRw&utm_campaign=yelp_api_v3&utm_medium=api_v3_business_search&utm_source=hBJOknVQJ58S5goQyjmwRw", "review_count": 2, "categories": [{"alias": "cafes", "title": "Cafes"}, {"alias": "eltern_cafes", "title": "Parent Cafes"}, {"alias": "coffee", "title": "Coffee & Tea"}], "rating": 3.5, "coordinates": {"latitude": 53.56153, "longitude": 9.96214}, "transactions": [], "price": "\u20ac", "location": {"address1": "Schulterblatt 63", "address2": "", "address3": "", "city": "Hamburg", "zip_code": "20357", "country": "DE", "state": "HH", "display_address": ["Schulterblatt 63", "20357 Hamburg", "Germany"]}, "phone": "+491702001694", "display_phone": "+49 170 2001694", "distance": 900.0501965520439}, {"id": "HIx76xqLIh5ZoEEShca9lw", "alias": "schmitt-foxy-food-hamburg", "name": "Schmitt Foxy Food", "image_url": "https://s3-media3.fl.yelpcdn.com/bphoto/kDwhqhgdLrabvP9oSu090A/o.jpg", "is_closed": false, "url": "https://www.yelp.com/biz/schmitt-foxy-food-hamburg?adjust_creative=hBJOknVQJ58S5goQyjmwRw&utm_campaign=yelp_api_v3&utm_medium=api_v3_business_search&utm_source=hBJOknVQJ58S5goQyjmwRw", "review_count": 122, "categories": [{"alias": "foodstands", "title": "Food Stands"}], "rating": 3.5, "coordinates": {"latitude": 53.5617961704234, "longitude": 9.96227815747261}, "transactions": [], "price": "\u20ac\u20ac", "location": {"address1": "Schulterblatt 70", "address2": "", "address3": "", "city": "Hamburg", "zip_code": "20357", "country": "DE", "state": "HH", "display_address": ["Schulterblatt 70", "20357 Hamburg", "Germany"]}, "phone": "+494078895330", "display_phone": "+49 40 78895330", "distance": 868.0433959059726}, {"id": "CowKdKa9ofrJlJaqhMsEBQ", "alias": "bella-pizza-hamburg-2", "name": "Bella Pizza", "image_url": "https://s3-media3.fl.yelpcdn.com/bphoto/8ylIPbxFfPO5DhDpJBdFHg/o.jpg", "is_closed": false, "url": "https://www.yelp.com/biz/bella-pizza-hamburg-2?adjust_creative=hBJOknVQJ58S5goQyjmwRw&utm_campaign=yelp_api_v3&utm_medium=api_v3_business_search&utm_source=hBJOknVQJ58S5goQyjmwRw", "review_count": 4, "categories": [{"alias": "pizza", "title": "Pizza"}], "rating": 3.0, "coordinates": {"latitude": 53.56855, "longitude": 9.95639}, "transactions": [], "location": {"address1": "Eppendorfer Weg 3", "address2": "", "address3": "", "city": "Hamburg", "zip_code": "20259", "country": "DE", "state": "HH", "display_address": ["Eppendorfer Weg 3", "20259 Hamburg", "Germany"]}, "phone": "", "display_phone": "", "distance": 333.86319865555635}, {"id": "6uCP66HB-rMFF0opREuLog", "alias": "k\u00e4ptn-ahab-hamburg", "name": "K\u00e4ptn Ahab", "image_url": "https://s3-media1.fl.yelpcdn.com/bphoto/HDVoOQcFMWEQmbhMU3qs1Q/o.jpg", "is_closed": false, "url": "https://www.yelp.com/biz/k%C3%A4ptn-ahab-hamburg?adjust_creative=hBJOknVQJ58S5goQyjmwRw&utm_campaign=yelp_api_v3&utm_medium=api_v3_business_search&utm_source=hBJOknVQJ58S5goQyjmwRw", "review_count": 11, "categories": [{"alias": "bars", "title": "Bars"}, {"alias": "tapasmallplates", "title": "Tapas/Small Plates"}], "rating": 2.5, "coordinates": {"latitude": 53.5618246473024, "longitude": 9.9620920792222}, "transactions": [], "price": "\u20ac\u20ac\u20ac", "location": {"address1": "Schulterblatt 72", "address2": "", "address3": "", "city": "Hamburg", "zip_code": "20357", "country": "DE", "state": "HH", "display_address": ["Schulterblatt 72", "20357 Hamburg", "Germany"]}, "phone": "+494043098715", "display_phone": "+49 40 43098715", "distance": 863.8448202360487}, {"id": "RMAhPxlaFguTIfJS3V22GQ", "alias": "scapola-hamburg", "name": "Scapola", "image_url": "https://s3-media2.fl.yelpcdn.com/bphoto/mMDujMsj1Ek96QLIMK73rQ/o.jpg", "is_closed": false, "url": "https://www.yelp.com/biz/scapola-hamburg?adjust_creative=hBJOknVQJ58S5goQyjmwRw&utm_campaign=yelp_api_v3&utm_medium=api_v3_business_search&utm_source=hBJOknVQJ58S5goQyjmwRw", "review_count": 2, "categories": [{"alias": "kebab", "title": "Kebab"}], "rating": 3.5, "coordinates": {"latitude": 53.5593999, "longitude": 9.96374}, "transactions": [], "price": "\u20ac", "location": {"address1": "Schulterblatt 3", "address2": "", "address3": "", "city": "Hamburg", "zip_code": "20357", "country": "DE", "state": "HH", "display_address": ["Schulterblatt 3", "20357 Hamburg", "Germany"]}, "phone": "+494028796026", "display_phone": "+49 40 28796026", "distance": 1152.7608514124267}, {"id": "qrffyVgDy8f7BycS1bmefg", "alias": "asia-unique-hamburg", "name": "Asia Unique", "image_url": "https://s3-media4.fl.yelpcdn.com/bphoto/TapKwWn-90BxMJxYN2S_3Q/o.jpg", "is_closed": false, "url": "https://www.yelp.com/biz/asia-unique-hamburg?adjust_creative=hBJOknVQJ58S5goQyjmwRw&utm_campaign=yelp_api_v3&utm_medium=api_v3_business_search&utm_source=hBJOknVQJ58S5goQyjmwRw", "review_count": 8, "categories": [{"alias": "panasian", "title": "Pan Asian"}], "rating": 3.5, "coordinates": {"latitude": 53.5626749620583, "longitude": 9.96452383697033}, "transactions": [], "price": "\u20ac", "location": {"address1": "Susannenstr. 18", "address2": "", "address3": "", "city": "Hamburg", "zip_code": "20357", "country": "DE", "state": "HH", "display_address": ["Susannenstr. 18", "20357 Hamburg", "Germany"]}, "phone": "", "display_phone": "", "distance": 799.8414887850172}, {"id": "x_nd4XCZe9_8oK3df-C6JA", "alias": "schanzen-d\u00f6ner-hamburg", "name": "Schanzen D\u00f6ner", "image_url": "https://s3-media2.fl.yelpcdn.com/bphoto/Fb9CDvfthTN0e7inEcrv3g/o.jpg", "is_closed": false, "url": "https://www.yelp.com/biz/schanzen-d%C3%B6ner-hamburg?adjust_creative=hBJOknVQJ58S5goQyjmwRw&utm_campaign=yelp_api_v3&utm_medium=api_v3_business_search&utm_source=hBJOknVQJ58S5goQyjmwRw", "review_count": 16, "categories": [{"alias": "turkish", "title": "Turkish"}], "rating": 3.5, "coordinates": {"latitude": 53.56405, "longitude": 9.96499}, "transactions": [], "price": "\u20ac", "location": {"address1": "Schanzenstr.101", "address2": "", "address3": "", "city": "Hamburg", "zip_code": "20357", "country": "DE", "state": "HH", "display_address": ["Schanzenstr.101", "20357 Hamburg", "Germany"]}, "phone": "+494042102770", "display_phone": "+49 40 42102770", "distance": 666.0824139612834}, {"id": "baHgxjc6DIyXDfbh5FOumw", "alias": "taverna-plaka-hamburg", "name": "Taverna Plaka", "image_url": "https://s3-media2.fl.yelpcdn.com/bphoto/IxrqWUs0E1gqRfAS7KhhmA/o.jpg", "is_closed": false, "url": "https://www.yelp.com/biz/taverna-plaka-hamburg?adjust_creative=hBJOknVQJ58S5goQyjmwRw&utm_campaign=yelp_api_v3&utm_medium=api_v3_business_search&utm_source=hBJOknVQJ58S5goQyjmwRw", "review_count": 19, "categories": [{"alias": "greek", "title": "Greek"}], "rating": 3.5, "coordinates": {"latitude": 53.56022, "longitude": 9.96461}, "transactions": [], "price": "\u20ac\u20ac", "location": {"address1": "Schanzenstr. 25", "address2": null, "address3": null, "city": "Hamburg", "zip_code": "20357", "country": "DE", "state": "HH", "display_address": ["Schanzenstr. 25", "20357 Hamburg", "Germany"]}, "phone": "+4940437719", "display_phone": "+49 40 437719", "distance": 1067.7683152656184}, {"id": "5bq58Gl_eShf7njrzbanlQ", "alias": "gepettos-hamburg", "name": "Gepettos", "image_url": "https://s3-media4.fl.yelpcdn.com/bphoto/MwvRrKwgatO-WVkBVUKz6Q/o.jpg", "is_closed": false, "url": "https://www.yelp.com/biz/gepettos-hamburg?adjust_creative=hBJOknVQJ58S5goQyjmwRw&utm_campaign=yelp_api_v3&utm_medium=api_v3_business_search&utm_source=hBJOknVQJ58S5goQyjmwRw", "review_count": 42, "categories": [{"alias": "italian", "title": "Italian"}, {"alias": "pizza", "title": "Pizza"}], "rating": 3.5, "coordinates": {"latitude": 53.5769256, "longitude": 9.9636922}, "transactions": [], "price": "\u20ac\u20ac\u20ac", "location": {"address1": "Eppendorfer Weg 138", "address2": "", "address3": "", "city": "Hamburg", "zip_code": "20253", "country": "DE", "state": "HH", "display_address": ["Eppendorfer Weg 138", "20253 Hamburg", "Germany"]}, "phone": "+4940311261", "display_phone": "+49 40 311261", "distance": 925.3047256751788}, {"id": "sv5hmxay2YwdMZnFLV3xLA", "alias": "il-cammino-hamburg", "name": "Il Cammino", "image_url": "https://s3-media2.fl.yelpcdn.com/bphoto/U7Nx3vgOaNSPeJ0ZczzkMw/o.jpg", "is_closed": false, "url": "https://www.yelp.com/biz/il-cammino-hamburg?adjust_creative=hBJOknVQJ58S5goQyjmwRw&utm_campaign=yelp_api_v3&utm_medium=api_v3_business_search&utm_source=hBJOknVQJ58S5goQyjmwRw", "review_count": 64, "categories": [{"alias": "italian", "title": "Italian"}], "rating": 3.0, "coordinates": {"latitude": 53.56223, "longitude": 9.96203}, "transactions": [], "price": "\u20ac\u20ac", "location": {"address1": "Schulterblatt 82", "address2": null, "address3": null, "city": "Hamburg", "zip_code": "20357", "country": "DE", "state": "HH", "display_address": ["Schulterblatt 82", "20357 Hamburg", "Germany"]}, "phone": "+494050719891", "display_phone": "+49 40 50719891", "distance": 816.3572035536382}, {"id": "eOExj0ctYrgWgb1oUI_B4Q", "alias": "mikawa-hamburg-8", "name": "Mikawa", "image_url": "https://s3-media1.fl.yelpcdn.com/bphoto/o33oFtw_j9uZGwU-mrW_MQ/o.jpg", "is_closed": false, "url": "https://www.yelp.com/biz/mikawa-hamburg-8?adjust_creative=hBJOknVQJ58S5goQyjmwRw&utm_campaign=yelp_api_v3&utm_medium=api_v3_business_search&utm_source=hBJOknVQJ58S5goQyjmwRw", "review_count": 51, "categories": [{"alias": "sushi", "title": "Sushi Bars"}, {"alias": "panasian", "title": "Pan Asian"}], "rating": 3.5, "coordinates": {"latitude": 53.5615092, "longitude": 9.9648982}, "transactions": [], "price": "\u20ac", "location": {"address1": "Bartelsstr. 7 - 11", "address2": "", "address3": "", "city": "Hamburg", "zip_code": "20357", "country": "DE", "state": "HH", "display_address": ["Bartelsstr. 7 - 11", "20357 Hamburg", "Germany"]}, "phone": "+49404303088", "display_phone": "+49 40 4303088", "distance": 931.2327697836757}, {"id": "vKtCmvs0DuIDAHKdoKhumw", "alias": "pizza-pazza-hamburg", "name": "Pizza Pazza", "image_url": "https://s3-media2.fl.yelpcdn.com/bphoto/n9ZhwJuZkAs0z72sQaR3DQ/o.jpg", "is_closed": false, "url": "https://www.yelp.com/biz/pizza-pazza-hamburg?adjust_creative=hBJOknVQJ58S5goQyjmwRw&utm_campaign=yelp_api_v3&utm_medium=api_v3_business_search&utm_source=hBJOknVQJ58S5goQyjmwRw", "review_count": 24, "categories": [{"alias": "pizza", "title": "Pizza"}], "rating": 4.0, "coordinates": {"latitude": 53.5618591, "longitude": 9.9617796}, "transactions": [], "price": "\u20ac\u20ac", "location": {"address1": "Schulterblatt 69", "address2": "", "address3": "", "city": "Hamburg", "zip_code": "20357", "country": "DE", "state": "HH", "display_address": ["Schulterblatt 69", "20357 Hamburg", "Germany"]}, "phone": "", "display_phone": "", "distance": 866.3789280689585}, {"id": "eFimDPTPSmyuusqvLvFJ_w", "alias": "don-kamos-hamburg", "name": "Don Kamos", "image_url": "https://s3-media3.fl.yelpcdn.com/bphoto/zz5RvNElFIghx6hbTgD0MQ/o.jpg", "is_closed": false, "url": "https://www.yelp.com/biz/don-kamos-hamburg?adjust_creative=hBJOknVQJ58S5goQyjmwRw&utm_campaign=yelp_api_v3&utm_medium=api_v3_business_search&utm_source=hBJOknVQJ58S5goQyjmwRw", "review_count": 3, "categories": [{"alias": "italian", "title": "Italian"}], "rating": 3.5, "coordinates": {"latitude": 53.560545, "longitude": 9.962977}, "transactions": [], "location": {"address1": "Schulterblatt 35", "address2": "", "address3": "", "city": "Hamburg", "zip_code": "20357", "country": "DE", "state": "HH", "display_address": ["Schulterblatt 35", "20357 Hamburg", "Germany"]}, "phone": "+494041359468", "display_phone": "+49 40 41359468", "distance": 1009.4352987375934}, {"id": "le3z5pQXk0dDd7Jrmvv1zA", "alias": "jung-und-frech-hamburg", "name": "Jung & Frech", "image_url": "https://s3-media2.fl.yelpcdn.com/bphoto/Dh_A4D-U8ubVQMJw22pDKg/o.jpg", "is_closed": false, "url": "https://www.yelp.com/biz/jung-und-frech-hamburg?adjust_creative=hBJOknVQJ58S5goQyjmwRw&utm_campaign=yelp_api_v3&utm_medium=api_v3_business_search&utm_source=hBJOknVQJ58S5goQyjmwRw", "review_count": 33, "categories": [{"alias": "burgers", "title": "Burgers"}, {"alias": "bars", "title": "Bars"}], "rating": 2.5, "coordinates": {"latitude": 53.5610824499371, "longitude": 9.96292255818844}, "transactions": [], "price": "\u20ac\u20ac", "location": {"address1": "Schulterblatt 36", "address2": "", "address3": "", "city": "Hamburg", "zip_code": "20357", "country": "DE", "state": "HH", "display_address": ["Schulterblatt 36", "20357 Hamburg", "Germany"]}, "phone": "+494043096370", "display_phone": "+49 40 43096370", "distance": 951.6241732091717}, {"id": "IQQPPRRYJb1UyXKNzc8Zeg", "alias": "caf\u00e9-sul-hamburg-7", "name": "Caf\u00e9 SUL", "image_url": "https://s3-media4.fl.yelpcdn.com/bphoto/lcvHgPuZCMkiO7d9Ekt3AQ/o.jpg", "is_closed": false, "url": "https://www.yelp.com/biz/caf%C3%A9-sul-hamburg-7?adjust_creative=hBJOknVQJ58S5goQyjmwRw&utm_campaign=yelp_api_v3&utm_medium=api_v3_business_search&utm_source=hBJOknVQJ58S5goQyjmwRw", "review_count": 34, "categories": [{"alias": "cafes", "title": "Cafes"}], "rating": 3.5, "coordinates": {"latitude": 53.5612530764055, "longitude": 9.96557657853896}, "transactions": [], "price": "\u20ac\u20ac", "location": {"address1": "Schanzenstr. 48", "address2": null, "address3": null, "city": "Hamburg", "zip_code": "20359", "country": "DE", "state": "HH", "display_address": ["Schanzenstr. 48", "20359 Hamburg", "Germany"]}, "phone": "+494031797486", "display_phone": "+49 40 31797486", "distance": 971.44609624019}, {"id": "YTvxFLEdcsF5CjDWl0qYYQ", "alias": "la-famille-hamburg", "name": "La Famille", "image_url": "https://s3-media4.fl.yelpcdn.com/bphoto/V3khzjVHhbsnCU-IzbB8wQ/o.jpg", "is_closed": false, "url": "https://www.yelp.com/biz/la-famille-hamburg?adjust_creative=hBJOknVQJ58S5goQyjmwRw&utm_campaign=yelp_api_v3&utm_medium=api_v3_business_search&utm_source=hBJOknVQJ58S5goQyjmwRw", "review_count": 65, "categories": [{"alias": "bistros", "title": "Bistros"}], "rating": 3.5, "coordinates": {"latitude": 53.56156, "longitude": 9.96257}, "transactions": [], "price": "\u20ac\u20ac", "location": {"address1": "Schulterblatt 62", "address2": "", "address3": "", "city": "Hamburg", "zip_code": "20357", "country": "DE", "state": "HH", "display_address": ["Schulterblatt 62", "20357 Hamburg", "Germany"]}, "phone": "+4940435384", "display_phone": "+49 40 435384", "distance": 897.4058607457852}, {"id": "yuRbPfyR7yxqul10FNfS3g", "alias": "asia-imbiss-hamburg-12", "name": "Asia Imbiss", "image_url": "https://s3-media2.fl.yelpcdn.com/bphoto/rkQm2tecrofJdJoW7BZn3Q/o.jpg", "is_closed": false, "url": "https://www.yelp.com/biz/asia-imbiss-hamburg-12?adjust_creative=hBJOknVQJ58S5goQyjmwRw&utm_campaign=yelp_api_v3&utm_medium=api_v3_business_search&utm_source=hBJOknVQJ58S5goQyjmwRw", "review_count": 24, "categories": [{"alias": "hotdogs", "title": "Fast Food"}, {"alias": "panasian", "title": "Pan Asian"}], "rating": 3.5, "coordinates": {"latitude": 53.5623999, "longitude": 9.96445}, "transactions": [], "price": "\u20ac", "location": {"address1": "Bartelsstr. 28", "address2": null, "address3": null, "city": "Hamburg", "zip_code": "20357", "country": "DE", "state": "HH", "display_address": ["Bartelsstr. 28", "20357 Hamburg", "Germany"]}, "phone": "+49404303301", "display_phone": "+49 40 4303301", "distance": 830.0632294212444}, {"id": "0wmqz_HxiZ23XF_dl99OFg", "alias": "presse-hamburg-4", "name": "Presse", "image_url": "https://s3-media2.fl.yelpcdn.com/bphoto/Z0qi9mwL7H3dkpUAJGDCxw/o.jpg", "is_closed": false, "url": "https://www.yelp.com/biz/presse-hamburg-4?adjust_creative=hBJOknVQJ58S5goQyjmwRw&utm_campaign=yelp_api_v3&utm_medium=api_v3_business_search&utm_source=hBJOknVQJ58S5goQyjmwRw", "review_count": 11, "categories": [{"alias": "cafes", "title": "Cafes"}, {"alias": "international", "title": "International"}, {"alias": "breakfast_brunch", "title": "Breakfast & Brunch"}], "rating": 2.0, "coordinates": {"latitude": 53.56203, "longitude": 9.96247}, "transactions": [], "price": "\u20ac\u20ac", "location": {"address1": "Susannenstr. 42", "address2": null, "address3": "", "city": "Hamburg", "zip_code": "20357", "country": "DE", "state": "HH", "display_address": ["Susannenstr. 42", "20357 Hamburg", "Germany"]}, "phone": "+494043190145", "display_phone": "+49 40 43190145", "distance": 841.9184936348513}, {"id": "MRP_uy-bMHQKdSN82J7C8g", "alias": "tapas-bar-hamburg", "name": "Tapas Bar", "image_url": "https://s3-media4.fl.yelpcdn.com/bphoto/Oq6_VwYgzy9emxcv9LJYVA/o.jpg", "is_closed": false, "url": "https://www.yelp.com/biz/tapas-bar-hamburg?adjust_creative=hBJOknVQJ58S5goQyjmwRw&utm_campaign=yelp_api_v3&utm_medium=api_v3_business_search&utm_source=hBJOknVQJ58S5goQyjmwRw", "review_count": 42, "categories": [{"alias": "tapas", "title": "Tapas Bars"}], "rating": 2.5, "coordinates": {"latitude": 53.56235, "longitude": 9.9619}, "transactions": [], "price": "\u20ac\u20ac", "location": {"address1": "Schulterblatt 84", "address2": "", "address3": "", "city": "Hamburg", "zip_code": "20357", "country": "DE", "state": "HH", "display_address": ["Schulterblatt 84", "20357 Hamburg", "Germany"]}, "phone": "+494043276930", "display_phone": "+49 40 43276930", "distance": 807.3508054225766}]