[{"id": "iO72nlCUUTigMJzPDOHT5w", "alias": "xe\u00f4m-hamburg-2", "name": "Xe\u00f4m", "image_url": "https://s3-media2.fl.yelpcdn.com/bphoto/dUsn3dSewIJBlQ-pLV2INw/o.jpg", "is_closed": false, "url": "https://www.yelp.com/biz/xe%C3%B4m-hamburg-2?adjust_creative=hBJOknVQJ58S5goQyjmwRw&utm_campaign=yelp_api_v3&utm_medium=api_v3_business_search&utm_source=hBJOknVQJ58S5goQyjmwRw", "review_count": 100, "categories": [{"alias": "vietnamese", "title": "Vietnamese"}], "rating": 4.5, "coordinates": {"latitude": 53.559304, "longitude": 9.975204}, "transactions": [], "price": "\u20ac\u20ac", "location": {"address1": "Karolinenstr. 25", "address2": "", "address3": "", "city": "Hamburg", "zip_code": "20357", "country": "DE", "state": "HH", "display_address": ["Karolinenstr. 25", "20357 Hamburg", "Germany"]}, "phone": "+494018138263", "display_phone": "+49 40 18138263", "distance": 137.98326524929664}, {"id": "-8xSkDrq6b0jp4xa-O0Viw", "alias": "so-na-mu-hamburg", "name": "So Na Mu", "image_url": "https://s3-media3.fl.yelpcdn.com/bphoto/pIRvIsGAJzLIesit1CWYjQ/o.jpg", "is_closed": false, "url": "https://www.yelp.com/biz/so-na-mu-hamburg?adjust_creative=hBJOknVQJ58S5goQyjmwRw&utm_campaign=yelp_api_v3&utm_medium=api_v3_business_search&utm_source=hBJOknVQJ58S5goQyjmwRw", "review_count": 68, "categories": [{"alias": "korean", "title": "Korean"}], "rating": 4.0, "coordinates": {"latitude": 53.5678, "longitude": 9.980124}, "transactions": [], "price": "\u20ac\u20ac", "location": {"address1": "Grindelallee 89", "address2": null, "address3": null, "city": "Hamburg", "zip_code": "20146", "country": "DE", "state": "HH", "display_address": ["Grindelallee 89", "20146 Hamburg", "Germany"]}, "phone": "+494041308884", "display_phone": "+49 40 41308884", "distance": 861.1751591907583}, {"id": "XSCx5JX8ER22BkBHI4UAGg", "alias": "karofisch-hamburg", "name": "Karofisch", "image_url": "https://s3-media1.fl.yelpcdn.com/bphoto/Lght5S1A-YNZGUoELyiZZQ/o.jpg", "is_closed": false, "url": "https://www.yelp.com/biz/karofisch-hamburg?adjust_creative=hBJOknVQJ58S5goQyjmwRw&utm_campaign=yelp_api_v3&utm_medium=api_v3_business_search&utm_source=hBJOknVQJ58S5goQyjmwRw", "review_count": 75, "categories": [{"alias": "seafood", "title": "Seafood"}], "rating": 4.5, "coordinates": {"latitude": 53.5574386, "longitude": 9.9698761}, "transactions": [], "price": "\u20ac\u20ac", "location": {"address1": "Feldstr. 32", "address2": "", "address3": "", "city": "Hamburg", "zip_code": "20357", "country": "DE", "state": "HH", "display_address": ["Feldstr. 32", "20357 Hamburg", "Germany"]}, "phone": "+494088237532", "display_phone": "+49 40 88237532", "distance": 523.9292995726294}, {"id": "usVa1X2FT0N58Z7xBcK8CQ", "alias": "b\u00e9kaa-hamburg-2", "name": "B\u00e9kaa", "image_url": "https://s3-media2.fl.yelpcdn.com/bphoto/ZfpOG5uL6uwZ8E872cFbuw/o.jpg", "is_closed": false, "url": "https://www.yelp.com/biz/b%C3%A9kaa-hamburg-2?adjust_creative=hBJOknVQJ58S5goQyjmwRw&utm_campaign=yelp_api_v3&utm_medium=api_v3_business_search&utm_source=hBJOknVQJ58S5goQyjmwRw", "review_count": 93, "categories": [{"alias": "lebanese", "title": "Lebanese"}], "rating": 4.5, "coordinates": {"latitude": 53.5650199, "longitude": 9.9776}, "transactions": [], "price": "\u20ac\u20ac", "location": {"address1": "Rentzelstr. 50", "address2": "", "address3": "", "city": "Hamburg", "zip_code": "20146", "country": "DE", "state": "HH", "display_address": ["Rentzelstr. 50", "20146 Hamburg", "Germany"]}, "phone": "+4940454975", "display_phone": "+49 40 454975", "distance": 516.0806896888669}, {"id": "-4r0omLxa9LnTCdFDmDHJA", "alias": "teolino-hamburg", "name": "Teolino", "image_url": "https://s3-media1.fl.yelpcdn.com/bphoto/kNh9jY45MLxbIDn2pwPHCQ/o.jpg", "is_closed": false, "url": "https://www.yelp.com/biz/teolino-hamburg?adjust_creative=hBJOknVQJ58S5goQyjmwRw&utm_campaign=yelp_api_v3&utm_medium=api_v3_business_search&utm_source=hBJOknVQJ58S5goQyjmwRw", "review_count": 10, "categories": [{"alias": "mediterranean", "title": "Mediterranean"}, {"alias": "italian", "title": "Italian"}], "rating": 5.0, "coordinates": {"latitude": 53.55765, "longitude": 9.97524}, "transactions": [], "price": "\u20ac\u20ac", "location": {"address1": "Karolinenstr. 6", "address2": "", "address3": "", "city": "Hamburg", "zip_code": "20357", "country": "DE", "state": "HH", "display_address": ["Karolinenstr. 6", "20357 Hamburg", "Germany"]}, "phone": "+494046645527", "display_phone": "+49 40 46645527", "distance": 318.45516030451046}, {"id": "zfZRlqo00AehKvnLTfzbAA", "alias": "zum-sp\u00e4tzle-hamburg", "name": "Zum Sp\u00e4tzle", "image_url": "https://s3-media3.fl.yelpcdn.com/bphoto/XyisfDXz57Wz0yr3_sA0aw/o.jpg", "is_closed": false, "url": "https://www.yelp.com/biz/zum-sp%C3%A4tzle-hamburg?adjust_creative=hBJOknVQJ58S5goQyjmwRw&utm_campaign=yelp_api_v3&utm_medium=api_v3_business_search&utm_source=hBJOknVQJ58S5goQyjmwRw", "review_count": 96, "categories": [{"alias": "swabian", "title": "Swabian"}], "rating": 4.5, "coordinates": {"latitude": 53.55097, "longitude": 9.9817}, "transactions": [], "price": "\u20ac\u20ac", "location": {"address1": "Wexstr. 31", "address2": "", "address3": "", "city": "Hamburg", "zip_code": "20355", "country": "DE", "state": "HH", "display_address": ["Wexstr. 31", "20355 Hamburg", "Germany"]}, "phone": "+494035739516", "display_phone": "+49 40 35739516", "distance": 1128.796745827401}, {"id": "uo1dTeJ-eMLAsq1ZBM4s3Q", "alias": "maui-pok\u00e9-guys-hamburg", "name": "Maui Pok\u00e9 Guys", "image_url": "https://s3-media3.fl.yelpcdn.com/bphoto/O449K4e5Ca9DcjjDxoGqvg/o.jpg", "is_closed": false, "url": "https://www.yelp.com/biz/maui-pok%C3%A9-guys-hamburg?adjust_creative=hBJOknVQJ58S5goQyjmwRw&utm_campaign=yelp_api_v3&utm_medium=api_v3_business_search&utm_source=hBJOknVQJ58S5goQyjmwRw", "review_count": 5, "categories": [{"alias": "hawaiian", "title": "Hawaiian"}], "rating": 4.5, "coordinates": {"latitude": 53.5598570745324, "longitude": 9.97524625508524}, "transactions": [], "location": {"address1": "Karolinenstr. 30", "address2": "", "address3": null, "city": "Hamburg", "zip_code": "20357", "country": "DE", "state": "HH", "display_address": ["Karolinenstr. 30", "20357 Hamburg", "Germany"]}, "phone": "+494030742687", "display_phone": "+49 40 30742687", "distance": 82.07680308285036}, {"id": "zIbfGXu049z3_MwgkZ5p3Q", "alias": "man-nam-hamburg", "name": "Man-Nam", "image_url": "https://s3-media2.fl.yelpcdn.com/bphoto/4dUin293mGvcvC8tn5LtCQ/o.jpg", "is_closed": false, "url": "https://www.yelp.com/biz/man-nam-hamburg?adjust_creative=hBJOknVQJ58S5goQyjmwRw&utm_campaign=yelp_api_v3&utm_medium=api_v3_business_search&utm_source=hBJOknVQJ58S5goQyjmwRw", "review_count": 32, "categories": [{"alias": "korean", "title": "Korean"}], "rating": 3.5, "coordinates": {"latitude": 53.5569, "longitude": 9.97477}, "transactions": [], "price": "\u20ac\u20ac", "location": {"address1": "Karolinenstr. 1", "address2": "", "address3": null, "city": "Hamburg", "zip_code": "20357", "country": "DE", "state": "HH", "display_address": ["Karolinenstr. 1", "20357 Hamburg", "Germany"]}, "phone": "+494043097171", "display_phone": "+49 40 43097171", "distance": 403.6370520585605}, {"id": "u81B_ybiRK1NTWq-lQOTPw", "alias": "diggi-smalls-hamburg", "name": "Diggi Smalls", "image_url": "https://s3-media2.fl.yelpcdn.com/bphoto/TDVgtjEbwyRon16AFuXFJw/o.jpg", "is_closed": false, "url": "https://www.yelp.com/biz/diggi-smalls-hamburg?adjust_creative=hBJOknVQJ58S5goQyjmwRw&utm_campaign=yelp_api_v3&utm_medium=api_v3_business_search&utm_source=hBJOknVQJ58S5goQyjmwRw", "review_count": 18, "categories": [{"alias": "oriental", "title": "Oriental"}], "rating": 4.5, "coordinates": {"latitude": 53.56958, "longitude": 9.97959}, "transactions": [], "price": "\u20ac\u20ac", "location": {"address1": "Grindelallee 148", "address2": "", "address3": null, "city": "Hamburg", "zip_code": "20146", "country": "DE", "state": "HH", "display_address": ["Grindelallee 148", "20146 Hamburg", "Germany"]}, "phone": "+4917660474543", "display_phone": "+49 176 60474543", "distance": 1043.4520401679385}, {"id": "BqgLEvLUCMslfYKCTTACew", "alias": "hej-papa-hamburg", "name": "Hej Papa", "image_url": "https://s3-media2.fl.yelpcdn.com/bphoto/PM-_-VHClAIGhZCTWbWBhg/o.jpg", "is_closed": false, "url": "https://www.yelp.com/biz/hej-papa-hamburg?adjust_creative=hBJOknVQJ58S5goQyjmwRw&utm_campaign=yelp_api_v3&utm_medium=api_v3_business_search&utm_source=hBJOknVQJ58S5goQyjmwRw", "review_count": 57, "categories": [{"alias": "cafes", "title": "Cafes"}, {"alias": "breakfast_brunch", "title": "Breakfast & Brunch"}], "rating": 4.0, "coordinates": {"latitude": 53.55427, "longitude": 9.97973}, "transactions": [], "price": "\u20ac\u20ac", "location": {"address1": "Poolstr. 32", "address2": "", "address3": "", "city": "Hamburg", "zip_code": "20355", "country": "DE", "state": "HH", "display_address": ["Poolstr. 32", "20355 Hamburg", "Germany"]}, "phone": "+494066872747", "display_phone": "+49 40 66872747", "distance": 731.437535317453}, {"id": "0ZTW3LJqj-UtK2pWZ6B6FA", "alias": "karlsons-hamburg", "name": "Karlsons", "image_url": "https://s3-media1.fl.yelpcdn.com/bphoto/S6Xy8H-rdMuWwtre-dk1dA/o.jpg", "is_closed": false, "url": "https://www.yelp.com/biz/karlsons-hamburg?adjust_creative=hBJOknVQJ58S5goQyjmwRw&utm_campaign=yelp_api_v3&utm_medium=api_v3_business_search&utm_source=hBJOknVQJ58S5goQyjmwRw", "review_count": 92, "categories": [{"alias": "scandinavian", "title": "Scandinavian"}], "rating": 4.5, "coordinates": {"latitude": 53.5504047, "longitude": 9.9821225}, "transactions": [], "price": "\u20ac\u20ac", "location": {"address1": "Alter Steinweg 10", "address2": "", "address3": "", "city": "Hamburg", "zip_code": "20459", "country": "DE", "state": "HH", "display_address": ["Alter Steinweg 10", "20459 Hamburg", "Germany"]}, "phone": "+494052598233", "display_phone": "+49 40 52598233", "distance": 1189.850545564385}, {"id": "q7HSWEKD76krb-4S1EaPDA", "alias": "katana-sushi-hamburg", "name": "Katana Sushi", "image_url": "https://s3-media3.fl.yelpcdn.com/bphoto/M6HmNvQpm1YcRDVFPLJ7xg/o.jpg", "is_closed": false, "url": "https://www.yelp.com/biz/katana-sushi-hamburg?adjust_creative=hBJOknVQJ58S5goQyjmwRw&utm_campaign=yelp_api_v3&utm_medium=api_v3_business_search&utm_source=hBJOknVQJ58S5goQyjmwRw", "review_count": 102, "categories": [{"alias": "sushi", "title": "Sushi Bars"}], "rating": 4.5, "coordinates": {"latitude": 53.5501509, "longitude": 9.9805262}, "transactions": [], "price": "\u20ac\u20ac", "location": {"address1": "Gro\u00dfneumarkt 52", "address2": "", "address3": "", "city": "Hamburg", "zip_code": "20459", "country": "DE", "state": "HH", "display_address": ["Gro\u00dfneumarkt 52", "20459 Hamburg", "Germany"]}, "phone": "+494033989340", "display_phone": "+49 40 33989340", "distance": 1185.3112027599334}, {"id": "oTPtt5hJOqs4SbFMWj03EA", "alias": "hindukusch-ghischtallei-hamburg", "name": "Hindukusch Ghischtallei", "image_url": "https://s3-media3.fl.yelpcdn.com/bphoto/1OWcxLAGuD7xfSPsqpMUSA/o.jpg", "is_closed": false, "url": "https://www.yelp.com/biz/hindukusch-ghischtallei-hamburg?adjust_creative=hBJOknVQJ58S5goQyjmwRw&utm_campaign=yelp_api_v3&utm_medium=api_v3_business_search&utm_source=hBJOknVQJ58S5goQyjmwRw", "review_count": 67, "categories": [{"alias": "afghani", "title": "Afghan"}], "rating": 4.5, "coordinates": {"latitude": 53.5678368427341, "longitude": 9.98160408075197}, "transactions": [], "price": "\u20ac", "location": {"address1": "Grindelhof 15", "address2": null, "address3": null, "city": "Hamburg", "zip_code": "20146", "country": "DE", "state": "HH", "display_address": ["Grindelhof 15", "20146 Hamburg", "Germany"]}, "phone": "+4940418164", "display_phone": "+49 40 418164", "distance": 900.8914623180796}, {"id": "UeUVIdtGAMTwu5sHfavQlA", "alias": "la-chance-hamburg", "name": "La Chance", "image_url": "https://s3-media2.fl.yelpcdn.com/bphoto/8bteoGvt_aZz4lqekqCSaA/o.jpg", "is_closed": false, "url": "https://www.yelp.com/biz/la-chance-hamburg?adjust_creative=hBJOknVQJ58S5goQyjmwRw&utm_campaign=yelp_api_v3&utm_medium=api_v3_business_search&utm_source=hBJOknVQJ58S5goQyjmwRw", "review_count": 88, "categories": [{"alias": "bistros", "title": "Bistros"}, {"alias": "cafes", "title": "Cafes"}, {"alias": "oriental", "title": "Oriental"}], "rating": 4.5, "coordinates": {"latitude": 53.5508780647649, "longitude": 9.98147072883603}, "transactions": [], "price": "\u20ac\u20ac", "location": {"address1": "Wexstr. 33", "address2": "", "address3": "", "city": "Hamburg", "zip_code": "20355", "country": "DE", "state": "HH", "display_address": ["Wexstr. 33", "20355 Hamburg", "Germany"]}, "phone": "+494038637431", "display_phone": "+49 40 38637431", "distance": 1125.8890439670881}, {"id": "l8hb2SVe3Xm9i8PSv7V34Q", "alias": "happenpappen-hamburg-3", "name": "Happenpappen", "image_url": "https://s3-media4.fl.yelpcdn.com/bphoto/_gv5gSIWcOVFZBU-UkEoOA/o.jpg", "is_closed": false, "url": "https://www.yelp.com/biz/happenpappen-hamburg-3?adjust_creative=hBJOknVQJ58S5goQyjmwRw&utm_campaign=yelp_api_v3&utm_medium=api_v3_business_search&utm_source=hBJOknVQJ58S5goQyjmwRw", "review_count": 14, "categories": [{"alias": "vegan", "title": "Vegan"}], "rating": 4.5, "coordinates": {"latitude": 53.5574748, "longitude": 9.9702877}, "transactions": [], "price": "\u20ac\u20ac", "location": {"address1": "Feldstr. 36", "address2": "", "address3": null, "city": "Hamburg", "zip_code": "20357", "country": "DE", "state": "HH", "display_address": ["Feldstr. 36", "20357 Hamburg", "Germany"]}, "phone": "", "display_phone": "", "distance": 500.69352023862433}, {"id": "jw9l4NXWiTDaxuSwDn_0ww", "alias": "das-peace-hamburg", "name": "Das Peace", "image_url": "https://s3-media2.fl.yelpcdn.com/bphoto/D8czkwsIs05HgGCbqTaoTA/o.jpg", "is_closed": false, "url": "https://www.yelp.com/biz/das-peace-hamburg?adjust_creative=hBJOknVQJ58S5goQyjmwRw&utm_campaign=yelp_api_v3&utm_medium=api_v3_business_search&utm_source=hBJOknVQJ58S5goQyjmwRw", "review_count": 113, "categories": [{"alias": "turkish", "title": "Turkish"}, {"alias": "burgers", "title": "Burgers"}], "rating": 4.0, "coordinates": {"latitude": 53.55852, "longitude": 9.97505}, "transactions": [], "price": "\u20ac\u20ac", "location": {"address1": "Karolinenstr. 14", "address2": "", "address3": "", "city": "Hamburg", "zip_code": "20357", "country": "DE", "state": "HH", "display_address": ["Karolinenstr. 14", "20357 Hamburg", "Germany"]}, "phone": "+494059458777", "display_phone": "+49 40 59458777", "distance": 219.69149558207732}, {"id": "yIg2PccJlr-rXAffI0aKTw", "alias": "bootshaus-komb\u00fcse-hamburg-2", "name": "Bootshaus Komb\u00fcse", "image_url": "https://s3-media1.fl.yelpcdn.com/bphoto/wJvkDLIXRoYpPASaZrK5lw/o.jpg", "is_closed": false, "url": "https://www.yelp.com/biz/bootshaus-komb%C3%BCse-hamburg-2?adjust_creative=hBJOknVQJ58S5goQyjmwRw&utm_campaign=yelp_api_v3&utm_medium=api_v3_business_search&utm_source=hBJOknVQJ58S5goQyjmwRw", "review_count": 18, "categories": [{"alias": "seafood", "title": "Seafood"}, {"alias": "northerngerman", "title": "Northern German"}], "rating": 5.0, "coordinates": {"latitude": 53.550726, "longitude": 9.982093}, "transactions": [], "price": "\u20ac", "location": {"address1": "Steinwegpassage 5", "address2": null, "address3": null, "city": "Hamburg", "zip_code": "20355", "country": "DE", "state": "HH", "display_address": ["Steinwegpassage 5", "20355 Hamburg", "Germany"]}, "phone": "+494049209063", "display_phone": "+49 40 49209063", "distance": 1155.6572822816902}, {"id": "lwgh-PhFU-c4rvgDcJbVBw", "alias": "riads-hamburg", "name": "Riads", "image_url": "https://s3-media2.fl.yelpcdn.com/bphoto/5hISy_KZk0onVax49_ljLw/o.jpg", "is_closed": false, "url": "https://www.yelp.com/biz/riads-hamburg?adjust_creative=hBJOknVQJ58S5goQyjmwRw&utm_campaign=yelp_api_v3&utm_medium=api_v3_business_search&utm_source=hBJOknVQJ58S5goQyjmwRw", "review_count": 64, "categories": [{"alias": "lebanese", "title": "Lebanese"}], "rating": 4.0, "coordinates": {"latitude": 53.554808, "longitude": 9.9800367}, "transactions": [], "price": "\u20ac\u20ac\u20ac", "location": {"address1": "Johannes-Brahms-Platz 7", "address2": "", "address3": "", "city": "Hamburg", "zip_code": "20355", "country": "DE", "state": "HH", "display_address": ["Johannes-Brahms-Platz 7", "20355 Hamburg", "Germany"]}, "phone": "+494035716923", "display_phone": "+49 40 35716923", "distance": 675.8621759701801}, {"id": "bZOXCyFbLWM7mRE3--fMHQ", "alias": "claudios-hamburg", "name": "Claudio's", "image_url": "https://s3-media2.fl.yelpcdn.com/bphoto/ifDgqsR7P1nr6aP2ds05uw/o.jpg", "is_closed": false, "url": "https://www.yelp.com/biz/claudios-hamburg?adjust_creative=hBJOknVQJ58S5goQyjmwRw&utm_campaign=yelp_api_v3&utm_medium=api_v3_business_search&utm_source=hBJOknVQJ58S5goQyjmwRw", "review_count": 21, "categories": [{"alias": "tapas", "title": "Tapas Bars"}, {"alias": "mediterranean", "title": "Mediterranean"}], "rating": 4.0, "coordinates": {"latitude": 53.557894, "longitude": 9.975754}, "transactions": [], "price": "\u20ac\u20ac\u20ac\u20ac", "location": {"address1": "Tschaikowskyplatz 2", "address2": "", "address3": "", "city": "Hamburg", "zip_code": "20355", "country": "DE", "state": "HH", "display_address": ["Tschaikowskyplatz 2", "20355 Hamburg", "Germany"]}, "phone": "+494035004422", "display_phone": "+49 40 35004422", "distance": 285.6801856385203}, {"id": "0szBijuPEwYXuFSkVfDUgw", "alias": "th\u00e4mers-hamburg", "name": "Th\u00e4mer's", "image_url": "https://s3-media2.fl.yelpcdn.com/bphoto/Ocgu-9BlrJGTr5LdsFf76g/o.jpg", "is_closed": false, "url": "https://www.yelp.com/biz/th%C3%A4mers-hamburg?adjust_creative=hBJOknVQJ58S5goQyjmwRw&utm_campaign=yelp_api_v3&utm_medium=api_v3_business_search&utm_source=hBJOknVQJ58S5goQyjmwRw", "review_count": 104, "categories": [{"alias": "bars", "title": "Bars"}, {"alias": "german", "title": "German"}], "rating": 4.0, "coordinates": {"latitude": 53.55091, "longitude": 9.98075}, "transactions": [], "price": "\u20ac\u20ac", "location": {"address1": "Gro\u00dfneumarkt 10", "address2": null, "address3": null, "city": "Hamburg", "zip_code": "20459", "country": "DE", "state": "HH", "display_address": ["Gro\u00dfneumarkt 10", "20459 Hamburg", "Germany"]}, "phone": "+4940345077", "display_phone": "+49 40 345077", "distance": 1108.4774054869306}, {"id": "DUD-AUE4N5qbKMo6DBocLQ", "alias": "delta-bistro-hamburg", "name": "Delta Bistro", "image_url": "https://s3-media4.fl.yelpcdn.com/bphoto/cWSRvODjsQ--s1hsR_vXCA/o.jpg", "is_closed": false, "url": "https://www.yelp.com/biz/delta-bistro-hamburg?adjust_creative=hBJOknVQJ58S5goQyjmwRw&utm_campaign=yelp_api_v3&utm_medium=api_v3_business_search&utm_source=hBJOknVQJ58S5goQyjmwRw", "review_count": 137, "categories": [{"alias": "bistros", "title": "Bistros"}], "rating": 4.5, "coordinates": {"latitude": 53.562, "longitude": 9.970557}, "transactions": [], "price": "\u20ac\u20ac\u20ac", "location": {"address1": "Lagerstr. 11", "address2": null, "address3": null, "city": "Hamburg", "zip_code": "20357", "country": "DE", "state": "HH", "display_address": ["Lagerstr. 11", "20357 Hamburg", "Germany"]}, "phone": "+49404316136", "display_phone": "+49 40 4316136", "distance": 395.9553582343801}, {"id": "PUvn_Suad3PWxxLn1ZDDDQ", "alias": "dulfs-burger-hamburg-2", "name": "Dulf's Burger", "image_url": "https://s3-media2.fl.yelpcdn.com/bphoto/ReOCMszI7pQFXnxWiqT15g/o.jpg", "is_closed": false, "url": "https://www.yelp.com/biz/dulfs-burger-hamburg-2?adjust_creative=hBJOknVQJ58S5goQyjmwRw&utm_campaign=yelp_api_v3&utm_medium=api_v3_business_search&utm_source=hBJOknVQJ58S5goQyjmwRw", "review_count": 111, "categories": [{"alias": "burgers", "title": "Burgers"}], "rating": 4.0, "coordinates": {"latitude": 53.5570925, "longitude": 9.9754705}, "transactions": [], "price": "\u20ac\u20ac", "location": {"address1": "Karolinenstr. 2", "address2": "", "address3": null, "city": "Hamburg", "zip_code": "20357", "country": "DE", "state": "HH", "display_address": ["Karolinenstr. 2", "20357 Hamburg", "Germany"]}, "phone": "+494046007663", "display_phone": "+49 40 46007663", "distance": 375.87855174783175}, {"id": "rC23Eqdm2lOrJdbtmtWowg", "alias": "balutschi-hamburg", "name": "Balutschi", "image_url": "https://s3-media4.fl.yelpcdn.com/bphoto/mP7jkFGBUBkPfpEgjfW0lg/o.jpg", "is_closed": false, "url": "https://www.yelp.com/biz/balutschi-hamburg?adjust_creative=hBJOknVQJ58S5goQyjmwRw&utm_campaign=yelp_api_v3&utm_medium=api_v3_business_search&utm_source=hBJOknVQJ58S5goQyjmwRw", "review_count": 65, "categories": [{"alias": "pakistani", "title": "Pakistani"}], "rating": 4.0, "coordinates": {"latitude": 53.56573, "longitude": 9.98225}, "transactions": [], "price": "\u20ac\u20ac", "location": {"address1": "Grindelallee 31", "address2": null, "address3": null, "city": "Hamburg", "zip_code": "20146", "country": "DE", "state": "HH", "display_address": ["Grindelallee 31", "20146 Hamburg", "Germany"]}, "phone": "+4940452479", "display_phone": "+49 40 452479", "distance": 710.9794238110063}, {"id": "c-wi4d7oWqUBVBOiKWK5fQ", "alias": "irish-rover-hamburg", "name": "Irish Rover", "image_url": "https://s3-media4.fl.yelpcdn.com/bphoto/OPwW1UNECX7Nb28qAYltCw/o.jpg", "is_closed": false, "url": "https://www.yelp.com/biz/irish-rover-hamburg?adjust_creative=hBJOknVQJ58S5goQyjmwRw&utm_campaign=yelp_api_v3&utm_medium=api_v3_business_search&utm_source=hBJOknVQJ58S5goQyjmwRw", "review_count": 78, "categories": [{"alias": "irish_pubs", "title": "Irish Pub"}, {"alias": "irish", "title": "Irish"}], "rating": 4.0, "coordinates": {"latitude": 53.5506861, "longitude": 9.980616}, "transactions": [], "price": "\u20ac\u20ac", "location": {"address1": "Gro\u00dfneumarkt 8", "address2": null, "address3": null, "city": "Hamburg", "zip_code": "20459", "country": "DE", "state": "HH", "display_address": ["Gro\u00dfneumarkt 8", "20459 Hamburg", "Germany"]}, "phone": "+494035714663", "display_phone": "+49 40 35714663", "distance": 1129.4572470718404}, {"id": "IPO-_x2dwZFbCyS3tdfsaA", "alias": "sternchance-hamburg", "name": "Sternchance", "image_url": "https://s3-media1.fl.yelpcdn.com/bphoto/D5wgq44I3hmAzCZf8RCvNQ/o.jpg", "is_closed": false, "url": "https://www.yelp.com/biz/sternchance-hamburg?adjust_creative=hBJOknVQJ58S5goQyjmwRw&utm_campaign=yelp_api_v3&utm_medium=api_v3_business_search&utm_source=hBJOknVQJ58S5goQyjmwRw", "review_count": 51, "categories": [{"alias": "cafes", "title": "Cafes"}, {"alias": "breakfast_brunch", "title": "Breakfast & Brunch"}], "rating": 4.0, "coordinates": {"latitude": 53.56464, "longitude": 9.9755}, "transactions": [], "price": "\u20ac\u20ac", "location": {"address1": "Schr\u00f6derstiftstr. 7", "address2": null, "address3": null, "city": "Hamburg", "zip_code": "20146", "country": "DE", "state": "HH", "display_address": ["Schr\u00f6derstiftstr. 7", "20146 Hamburg", "Germany"]}, "phone": "+49404301168", "display_phone": "+49 40 4301168", "distance": 452.0403051777217}, {"id": "55jHAyWMxY9_LoPfAMMEBg", "alias": "arrabbiata-orient-bistro-hamburg", "name": "Arrabbiata - orient bistro", "image_url": "https://s3-media2.fl.yelpcdn.com/bphoto/HBkH43eoZ7fSXbV-4rLFfw/o.jpg", "is_closed": false, "url": "https://www.yelp.com/biz/arrabbiata-orient-bistro-hamburg?adjust_creative=hBJOknVQJ58S5goQyjmwRw&utm_campaign=yelp_api_v3&utm_medium=api_v3_business_search&utm_source=hBJOknVQJ58S5goQyjmwRw", "review_count": 42, "categories": [{"alias": "oriental", "title": "Oriental"}], "rating": 4.5, "coordinates": {"latitude": 53.5689054, "longitude": 9.9799778}, "transactions": [], "price": "\u20ac", "location": {"address1": "Grindelallee 134", "address2": "", "address3": "", "city": "Hamburg", "zip_code": "20146", "country": "DE", "state": "HH", "display_address": ["Grindelallee 134", "20146 Hamburg", "Germany"]}, "phone": "+494041623326", "display_phone": "+49 40 41623326", "distance": 975.7809813771914}, {"id": "I_5QS4i3PgkiHNQ5MJFeOg", "alias": "hamburger-stube-hamburg", "name": "Hamburger Stube", "image_url": "https://s3-media3.fl.yelpcdn.com/bphoto/kV7ZU6gW8xUZkrU_wMynfA/o.jpg", "is_closed": false, "url": "https://www.yelp.com/biz/hamburger-stube-hamburg?adjust_creative=hBJOknVQJ58S5goQyjmwRw&utm_campaign=yelp_api_v3&utm_medium=api_v3_business_search&utm_source=hBJOknVQJ58S5goQyjmwRw", "review_count": 5, "categories": [{"alias": "german", "title": "German"}], "rating": 5.0, "coordinates": {"latitude": 53.55104, "longitude": 9.97782}, "transactions": [], "price": "\u20ac\u20ac\u20ac\u20ac", "location": {"address1": "Hotel Lindner", "address2": "Neanderstr. 20", "address3": "", "city": "Hamburg", "zip_code": "20459", "country": "DE", "state": "HH", "display_address": ["Hotel Lindner", "Neanderstr. 20", "20459 Hamburg", "Germany"]}, "phone": "+4940307067150", "display_phone": "+49 40 307067150", "distance": 1064.3595045647432}, {"id": "NgWE7_yTIiNA3FMY-XqGEA", "alias": "koch-kontor-hamburg", "name": "Koch Kontor", "image_url": "https://s3-media2.fl.yelpcdn.com/bphoto/leQOrWrie1aCNZkCKVVreQ/o.jpg", "is_closed": false, "url": "https://www.yelp.com/biz/koch-kontor-hamburg?adjust_creative=hBJOknVQJ58S5goQyjmwRw&utm_campaign=yelp_api_v3&utm_medium=api_v3_business_search&utm_source=hBJOknVQJ58S5goQyjmwRw", "review_count": 36, "categories": [{"alias": "bookstores", "title": "Bookstores"}, {"alias": "bistros", "title": "Bistros"}], "rating": 4.5, "coordinates": {"latitude": 53.55952, "longitude": 9.97522}, "transactions": [], "price": "\u20ac\u20ac", "location": {"address1": "Karolinenstr. 27", "address2": null, "address3": null, "city": "Hamburg", "zip_code": "20357", "country": "DE", "state": "HH", "display_address": ["Karolinenstr. 27", "20357 Hamburg", "Germany"]}, "phone": "+494043216036", "display_phone": "+49 40 43216036", "distance": 112.72854924549391}, {"id": "DlMkImBdhH7RK73y09xPFg", "alias": "vu2-hamburg", "name": "Vu2", "image_url": "https://s3-media4.fl.yelpcdn.com/bphoto/ymOAUsFyiUK-D88Xo3EpbQ/o.jpg", "is_closed": false, "url": "https://www.yelp.com/biz/vu2-hamburg?adjust_creative=hBJOknVQJ58S5goQyjmwRw&utm_campaign=yelp_api_v3&utm_medium=api_v3_business_search&utm_source=hBJOknVQJ58S5goQyjmwRw", "review_count": 1, "categories": [{"alias": "foodstands", "title": "Food Stands"}], "rating": 4.0, "coordinates": {"latitude": 53.558833, "longitude": 9.975068}, "transactions": [], "location": {"address1": "Karolinenstr. 18", "address2": "", "address3": null, "city": "Hamburg", "zip_code": "20357", "country": "DE", "state": "HH", "display_address": ["Karolinenstr. 18", "20357 Hamburg", "Germany"]}, "phone": "", "display_phone": "", "distance": 187.49530031078223}, {"id": "FbuMUN6gVcTOOtWPoNp4ag", "alias": "chinesischer-imbiss-lu-hamburg", "name": "Chinesischer Imbiss Lu", "image_url": "https://s3-media4.fl.yelpcdn.com/bphoto/uElqeEfcHF7OYbJSnkLdtA/o.jpg", "is_closed": false, "url": "https://www.yelp.com/biz/chinesischer-imbiss-lu-hamburg?adjust_creative=hBJOknVQJ58S5goQyjmwRw&utm_campaign=yelp_api_v3&utm_medium=api_v3_business_search&utm_source=hBJOknVQJ58S5goQyjmwRw", "review_count": 2, "categories": [{"alias": "chinese", "title": "Chinese"}], "rating": 4.5, "coordinates": {"latitude": 53.5588, "longitude": 9.97528}, "transactions": [], "price": "\u20ac", "location": {"address1": "Karolinenstr. 18", "address2": null, "address3": null, "city": "Hamburg", "zip_code": "20357", "country": "DE", "state": "HH", "display_address": ["Karolinenstr. 18", "20357 Hamburg", "Germany"]}, "phone": "+494043276399", "display_phone": "+49 40 43276399", "distance": 190.03195057821614}, {"id": "yaN71-m814AbrwWBsZNQ9A", "alias": "caf\u00e9-seepavillon-hamburg", "name": "Caf\u00e9 Seepavillon", "image_url": "https://s3-media2.fl.yelpcdn.com/bphoto/lHfSk551UOO4nKhxf-7sow/o.jpg", "is_closed": false, "url": "https://www.yelp.com/biz/caf%C3%A9-seepavillon-hamburg?adjust_creative=hBJOknVQJ58S5goQyjmwRw&utm_campaign=yelp_api_v3&utm_medium=api_v3_business_search&utm_source=hBJOknVQJ58S5goQyjmwRw", "review_count": 3, "categories": [{"alias": "cafes", "title": "Cafes"}, {"alias": "beergarden", "title": "Beer Garden"}], "rating": 4.5, "coordinates": {"latitude": 53.562224, "longitude": 9.981674}, "transactions": [], "price": "\u20ac", "location": {"address1": "St. Petersburger Str. 28", "address2": "", "address3": "", "city": "Hamburg", "zip_code": "20355", "country": "DE", "state": "HH", "display_address": ["St. Petersburger Str. 28", "20355 Hamburg", "Germany"]}, "phone": "+494033370328", "display_phone": "+49 40 33370328", "distance": 425.1468992341128}, {"id": "Yl-P1JZmCusGBNStgX9KBA", "alias": "harbor-cake-hamburg", "name": "Harbor Cake", "image_url": "https://s3-media1.fl.yelpcdn.com/bphoto/6YP2uFSvfvlV54FuyREYzw/o.jpg", "is_closed": false, "url": "https://www.yelp.com/biz/harbor-cake-hamburg?adjust_creative=hBJOknVQJ58S5goQyjmwRw&utm_campaign=yelp_api_v3&utm_medium=api_v3_business_search&utm_source=hBJOknVQJ58S5goQyjmwRw", "review_count": 7, "categories": [{"alias": "cafes", "title": "Cafes"}], "rating": 4.5, "coordinates": {"latitude": 53.5582803108822, "longitude": 9.97074417112269}, "transactions": [], "price": "\u20ac", "location": {"address1": "Marktstr. 36", "address2": "", "address3": "", "city": "Hamburg", "zip_code": "20357", "country": "DE", "state": "HH", "display_address": ["Marktstr. 36", "20357 Hamburg", "Germany"]}, "phone": "", "display_phone": "", "distance": 421.37276047272417}, {"id": "9LbcCE63KVimXxbJSexsdg", "alias": "mr-dam-hamburg-4", "name": "Mr Dam", "image_url": "https://s3-media3.fl.yelpcdn.com/bphoto/F7U-qewXfkQlH3Uo7d4SQQ/o.jpg", "is_closed": false, "url": "https://www.yelp.com/biz/mr-dam-hamburg-4?adjust_creative=hBJOknVQJ58S5goQyjmwRw&utm_campaign=yelp_api_v3&utm_medium=api_v3_business_search&utm_source=hBJOknVQJ58S5goQyjmwRw", "review_count": 8, "categories": [{"alias": "thai", "title": "Thai"}], "rating": 4.5, "coordinates": {"latitude": 53.55925, "longitude": 9.97523}, "transactions": [], "price": "\u20ac\u20ac", "location": {"address1": "Karolinenstr. 24", "address2": "", "address3": "", "city": "Hamburg", "zip_code": "20357", "country": "DE", "state": "HH", "display_address": ["Karolinenstr. 24", "20357 Hamburg", "Germany"]}, "phone": "", "display_phone": "", "distance": 139.18740483630904}, {"id": "DjsF_oRkhVQQbZeDPWDFFw", "alias": "hanging-out-hamburg-3", "name": "Hanging Out", "image_url": "https://s3-media2.fl.yelpcdn.com/bphoto/21qlJn4fXyYbEfxt4CkLDg/o.jpg", "is_closed": false, "url": "https://www.yelp.com/biz/hanging-out-hamburg-3?adjust_creative=hBJOknVQJ58S5goQyjmwRw&utm_campaign=yelp_api_v3&utm_medium=api_v3_business_search&utm_source=hBJOknVQJ58S5goQyjmwRw", "review_count": 1, "categories": [{"alias": "cafes", "title": "Cafes"}], "rating": 5.0, "coordinates": {"latitude": 53.5681117, "longitude": 9.9813964}, "transactions": [], "location": {"address1": "Bornstr. 18", "address2": null, "address3": "", "city": "Hamburg", "zip_code": "20146", "country": "DE", "state": "HH", "display_address": ["Bornstr. 18", "20146 Hamburg", "Germany"]}, "phone": "+4917662409068", "display_phone": "+49 176 62409068", "distance": 923.3876873366478}, {"id": "ViCxuS9mzG-K4IgmQs31cA", "alias": "rio-the-grillbar-hamburg-6", "name": "Rio The Grillbar", "image_url": "https://s3-media2.fl.yelpcdn.com/bphoto/XqN6dicwAtx9Zz9LSClbGA/o.jpg", "is_closed": false, "url": "https://www.yelp.com/biz/rio-the-grillbar-hamburg-6?adjust_creative=hBJOknVQJ58S5goQyjmwRw&utm_campaign=yelp_api_v3&utm_medium=api_v3_business_search&utm_source=hBJOknVQJ58S5goQyjmwRw", "review_count": 23, "categories": [{"alias": "steak", "title": "Steakhouses"}, {"alias": "burgers", "title": "Burgers"}], "rating": 4.0, "coordinates": {"latitude": 53.55026, "longitude": 9.98092}, "transactions": [], "price": "\u20ac\u20ac", "location": {"address1": "Gro\u00dfneumarkt 58", "address2": "", "address3": "", "city": "Hamburg", "zip_code": "20459", "country": "DE", "state": "HH", "display_address": ["Gro\u00dfneumarkt 58", "20459 Hamburg", "Germany"]}, "phone": "+494060867275", "display_phone": "+49 40 60867275", "distance": 1181.7584313770287}, {"id": "H_JVOx0TjRXaRx43MtjXJA", "alias": "marblau-hamburg", "name": "marblau", "image_url": "https://s3-media4.fl.yelpcdn.com/bphoto/s6A3eyYAho9fMJdhuwdJRA/o.jpg", "is_closed": false, "url": "https://www.yelp.com/biz/marblau-hamburg?adjust_creative=hBJOknVQJ58S5goQyjmwRw&utm_campaign=yelp_api_v3&utm_medium=api_v3_business_search&utm_source=hBJOknVQJ58S5goQyjmwRw", "review_count": 83, "categories": [{"alias": "brasseries", "title": "Brasseries"}, {"alias": "mediterranean", "title": "Mediterranean"}], "rating": 4.0, "coordinates": {"latitude": 53.55469, "longitude": 9.97995}, "transactions": [], "price": "\u20ac\u20ac\u20ac", "location": {"address1": "Poolstr. 21", "address2": null, "address3": null, "city": "Hamburg", "zip_code": "20355", "country": "DE", "state": "HH", "display_address": ["Poolstr. 21", "20355 Hamburg", "Germany"]}, "phone": "+494035016555", "display_phone": "+49 40 35016555", "distance": 699.9393184009842}, {"id": "aIcX7o_v7eUCRQakzcm51w", "alias": "panter-hamburg", "name": "Panter", "image_url": "https://s3-media1.fl.yelpcdn.com/bphoto/4FgAB-BtbAwBFF6s_oI65Q/o.jpg", "is_closed": false, "url": "https://www.yelp.com/biz/panter-hamburg?adjust_creative=hBJOknVQJ58S5goQyjmwRw&utm_campaign=yelp_api_v3&utm_medium=api_v3_business_search&utm_source=hBJOknVQJ58S5goQyjmwRw", "review_count": 47, "categories": [{"alias": "cafes", "title": "Cafes"}], "rating": 4.0, "coordinates": {"latitude": 53.55833, "longitude": 9.97447}, "transactions": [], "price": "\u20ac\u20ac", "location": {"address1": "Marktstr. 3", "address2": "", "address3": "", "city": "Hamburg", "zip_code": "20357", "country": "DE", "state": "HH", "display_address": ["Marktstr. 3", "20357 Hamburg", "Germany"]}, "phone": "+4940436218", "display_phone": "+49 40 436218", "distance": 259.15535694966115}, {"id": "_05djMqK3kLNqCmXVttLUQ", "alias": "waffelb\u00e4ckerei-heidmann-hamburg", "name": "Waffelb\u00e4ckerei Heidmann", "image_url": "https://s3-media1.fl.yelpcdn.com/bphoto/k02VQhli5yGqa08-6VME2g/o.jpg", "is_closed": false, "url": "https://www.yelp.com/biz/waffelb%C3%A4ckerei-heidmann-hamburg?adjust_creative=hBJOknVQJ58S5goQyjmwRw&utm_campaign=yelp_api_v3&utm_medium=api_v3_business_search&utm_source=hBJOknVQJ58S5goQyjmwRw", "review_count": 4, "categories": [{"alias": "waffles", "title": "Waffles"}], "rating": 5.0, "coordinates": {"latitude": 53.55727, "longitude": 9.9705999}, "transactions": [], "location": {"address1": "Heiligengeistfeld", "address2": "Eingang Feldstra\u00dfe", "address3": "", "city": "Hamburg", "zip_code": "20359", "country": "DE", "state": "HH", "display_address": ["Heiligengeistfeld", "Eingang Feldstra\u00dfe", "20359 Hamburg", "Germany"]}, "phone": "", "display_phone": "", "distance": 592.7151384485652}, {"id": "bnrpQvSmG1vLpG9mSbN6gg", "alias": "messe-caf\u00e9-hamburg-3", "name": "Messe Caf\u00e9", "image_url": "https://s3-media1.fl.yelpcdn.com/bphoto/hg1tO3WysHKLWBm9MrypmQ/o.jpg", "is_closed": false, "url": "https://www.yelp.com/biz/messe-caf%C3%A9-hamburg-3?adjust_creative=hBJOknVQJ58S5goQyjmwRw&utm_campaign=yelp_api_v3&utm_medium=api_v3_business_search&utm_source=hBJOknVQJ58S5goQyjmwRw", "review_count": 4, "categories": [{"alias": "cafes", "title": "Cafes"}], "rating": 5.0, "coordinates": {"latitude": 53.5583, "longitude": 9.97546}, "transactions": [], "price": "\u20ac", "location": {"address1": "Karolinenstr. 12", "address2": null, "address3": null, "city": "Hamburg", "zip_code": "20357", "country": "DE", "state": "HH", "display_address": ["Karolinenstr. 12", "20357 Hamburg", "Germany"]}, "phone": "+494043092893", "display_phone": "+49 40 43092893", "distance": 242.48618711619645}, {"id": "EstRRIFUer3TPTGsEOdzYw", "alias": "caf\u00e9-klatsch-hamburg-2", "name": "Caf\u00e9 Klatsch", "image_url": "https://s3-media2.fl.yelpcdn.com/bphoto/rHTPX5VQU8IXOZNXHr1Oog/o.jpg", "is_closed": false, "url": "https://www.yelp.com/biz/caf%C3%A9-klatsch-hamburg-2?adjust_creative=hBJOknVQJ58S5goQyjmwRw&utm_campaign=yelp_api_v3&utm_medium=api_v3_business_search&utm_source=hBJOknVQJ58S5goQyjmwRw", "review_count": 74, "categories": [{"alias": "breakfast_brunch", "title": "Breakfast & Brunch"}, {"alias": "cafes", "title": "Cafes"}], "rating": 3.5, "coordinates": {"latitude": 53.5587, "longitude": 9.97273}, "transactions": [], "price": "\u20ac\u20ac", "location": {"address1": "Glash\u00fcttenstr. 17", "address2": null, "address3": null, "city": "Hamburg", "zip_code": "20357", "country": "DE", "state": "HH", "display_address": ["Glash\u00fcttenstr. 17", "20357 Hamburg", "Germany"]}, "phone": "+49404390443", "display_phone": "+49 40 4390443", "distance": 292.6334236437963}, {"id": "hpHD8loQ5vVp2kDpcV7lfg", "alias": "piccolo-paradiso-hamburg", "name": "Piccolo Paradiso", "image_url": "https://s3-media3.fl.yelpcdn.com/bphoto/htDYwN5qg1LQpvEdcUkfzg/o.jpg", "is_closed": false, "url": "https://www.yelp.com/biz/piccolo-paradiso-hamburg?adjust_creative=hBJOknVQJ58S5goQyjmwRw&utm_campaign=yelp_api_v3&utm_medium=api_v3_business_search&utm_source=hBJOknVQJ58S5goQyjmwRw", "review_count": 85, "categories": [{"alias": "mediterranean", "title": "Mediterranean"}, {"alias": "vegetarian", "title": "Vegetarian"}, {"alias": "wine_bars", "title": "Wine Bars"}], "rating": 4.5, "coordinates": {"latitude": 53.55141, "longitude": 9.98082}, "transactions": [], "price": "\u20ac\u20ac\u20ac", "location": {"address1": "Br\u00fcderstr. 27", "address2": "", "address3": null, "city": "Hamburg", "zip_code": "20355", "country": "DE", "state": "HH", "display_address": ["Br\u00fcderstr. 27", "20355 Hamburg", "Germany"]}, "phone": "+494035715358", "display_phone": "+49 40 35715358", "distance": 1055.3692377160571}, {"id": "JhKAgKjSuhzATNByqHTANw", "alias": "kaalia-hamburg", "name": "Kaalia", "image_url": "https://s3-media1.fl.yelpcdn.com/bphoto/W4aVIgnUwPu4WhvVM5xqQA/o.jpg", "is_closed": false, "url": "https://www.yelp.com/biz/kaalia-hamburg?adjust_creative=hBJOknVQJ58S5goQyjmwRw&utm_campaign=yelp_api_v3&utm_medium=api_v3_business_search&utm_source=hBJOknVQJ58S5goQyjmwRw", "review_count": 7, "categories": [{"alias": "bistros", "title": "Bistros"}], "rating": 5.0, "coordinates": {"latitude": 53.56623, "longitude": 9.98003}, "transactions": [], "price": "\u20ac\u20ac", "location": {"address1": "Rentzelstr. 13", "address2": "", "address3": "", "city": "Hamburg", "zip_code": "20146", "country": "DE", "state": "HH", "display_address": ["Rentzelstr. 13", "20146 Hamburg", "Germany"]}, "phone": "+4915733120817", "display_phone": "+49 1573 3120817", "distance": 689.1087026871251}, {"id": "H3ZEK7sJyHVA9K3ViShe7A", "alias": "le-golden-igel-hamburg-3", "name": "Le Golden Igel", "image_url": "https://s3-media4.fl.yelpcdn.com/bphoto/uU5579i15VRIG1Qa3LawEA/o.jpg", "is_closed": false, "url": "https://www.yelp.com/biz/le-golden-igel-hamburg-3?adjust_creative=hBJOknVQJ58S5goQyjmwRw&utm_campaign=yelp_api_v3&utm_medium=api_v3_business_search&utm_source=hBJOknVQJ58S5goQyjmwRw", "review_count": 4, "categories": [{"alias": "tapas", "title": "Tapas Bars"}], "rating": 5.0, "coordinates": {"latitude": 53.553208, "longitude": 9.981575}, "transactions": [], "location": {"address1": "Neust\u00e4dter Str. 49", "address2": "", "address3": null, "city": "Hamburg", "zip_code": "20355", "country": "DE", "state": "HH", "display_address": ["Neust\u00e4dter Str. 49", "20355 Hamburg", "Germany"]}, "phone": "+494030706336", "display_phone": "+49 40 30706336", "distance": 884.461845779253}, {"id": "SVdiz4D4pce0lSmmaigSRw", "alias": "gretchens-villa-hamburg", "name": "Gretchens Villa", "image_url": "https://s3-media2.fl.yelpcdn.com/bphoto/kBpvbXaflls74893CSpZzw/o.jpg", "is_closed": false, "url": "https://www.yelp.com/biz/gretchens-villa-hamburg?adjust_creative=hBJOknVQJ58S5goQyjmwRw&utm_campaign=yelp_api_v3&utm_medium=api_v3_business_search&utm_source=hBJOknVQJ58S5goQyjmwRw", "review_count": 121, "categories": [{"alias": "cafes", "title": "Cafes"}, {"alias": "breakfast_brunch", "title": "Breakfast & Brunch"}], "rating": 4.0, "coordinates": {"latitude": 53.558583, "longitude": 9.974038}, "transactions": [], "price": "\u20ac\u20ac", "location": {"address1": "Marktstr. 142", "address2": "", "address3": "", "city": "Hamburg", "zip_code": "20357", "country": "DE", "state": "HH", "display_address": ["Marktstr. 142", "20357 Hamburg", "Germany"]}, "phone": "+494076972434", "display_phone": "+49 40 76972434", "distance": 244.39747077351493}, {"id": "p5KAolHr5QnOSuIRsQRxAw", "alias": "philipps-restaurant-hamburg", "name": "Philipps Restaurant", "image_url": "https://s3-media2.fl.yelpcdn.com/bphoto/6flvvIlDVEoO_rKUpvLxFA/o.jpg", "is_closed": false, "url": "https://www.yelp.com/biz/philipps-restaurant-hamburg?adjust_creative=hBJOknVQJ58S5goQyjmwRw&utm_campaign=yelp_api_v3&utm_medium=api_v3_business_search&utm_source=hBJOknVQJ58S5goQyjmwRw", "review_count": 20, "categories": [{"alias": "german", "title": "German"}, {"alias": "french", "title": "French"}], "rating": 4.5, "coordinates": {"latitude": 53.55806, "longitude": 9.97089}, "transactions": [], "price": "\u20ac\u20ac\u20ac", "location": {"address1": "Turnerstr. 9", "address2": "", "address3": "", "city": "Hamburg", "zip_code": "20357", "country": "DE", "state": "HH", "display_address": ["Turnerstr. 9", "20357 Hamburg", "Germany"]}, "phone": "+494063735108", "display_phone": "+49 40 63735108", "distance": 431.9912163125619}, {"id": "ObE8tNAibi11mHCnqtu9Uw", "alias": "milchbar-hamburg-2", "name": "Milchbar", "image_url": "https://s3-media4.fl.yelpcdn.com/bphoto/Ci3qMN6c5j97N25El6wE_A/o.jpg", "is_closed": false, "url": "https://www.yelp.com/biz/milchbar-hamburg-2?adjust_creative=hBJOknVQJ58S5goQyjmwRw&utm_campaign=yelp_api_v3&utm_medium=api_v3_business_search&utm_source=hBJOknVQJ58S5goQyjmwRw", "review_count": 1, "categories": [{"alias": "desserts", "title": "Desserts"}, {"alias": "cafes", "title": "Cafes"}], "rating": 4.0, "coordinates": {"latitude": 53.5682436680063, "longitude": 9.98163902965568}, "transactions": [], "location": {"address1": "Bornstr. 18", "address2": "", "address3": null, "city": "Hamburg", "zip_code": "20146", "country": "DE", "state": "HH", "display_address": ["Bornstr. 18", "20146 Hamburg", "Germany"]}, "phone": "+494055897532", "display_phone": "+49 40 55897532", "distance": 943.1787656797055}, {"id": "X6z20azUalqp2VBMP1ZU6g", "alias": "terzetto-hamburg-2", "name": "Terzetto", "image_url": "https://s3-media1.fl.yelpcdn.com/bphoto/TD1mQeMXzEB1EvvrOJIZDQ/o.jpg", "is_closed": false, "url": "https://www.yelp.com/biz/terzetto-hamburg-2?adjust_creative=hBJOknVQJ58S5goQyjmwRw&utm_campaign=yelp_api_v3&utm_medium=api_v3_business_search&utm_source=hBJOknVQJ58S5goQyjmwRw", "review_count": 64, "categories": [{"alias": "italian", "title": "Italian"}, {"alias": "wine_bars", "title": "Wine Bars"}], "rating": 4.5, "coordinates": {"latitude": 53.5657364, "longitude": 9.979304}, "transactions": [], "price": "\u20ac\u20ac", "location": {"address1": "Bundesstr. 31", "address2": "", "address3": "", "city": "Hamburg", "zip_code": "20146", "country": "DE", "state": "HH", "display_address": ["Bundesstr. 31", "20146 Hamburg", "Germany"]}, "phone": "+4940442891", "display_phone": "+49 40 442891", "distance": 626.8142755620421}, {"id": "IqIF8FmJak_LdDyPuZvE-g", "alias": "trattoria-cento-lire-hamburg", "name": "Trattoria Cento Lire", "image_url": "https://s3-media2.fl.yelpcdn.com/bphoto/j6ZMgoAwDEBW-QEGq7l8JA/o.jpg", "is_closed": false, "url": "https://www.yelp.com/biz/trattoria-cento-lire-hamburg?adjust_creative=hBJOknVQJ58S5goQyjmwRw&utm_campaign=yelp_api_v3&utm_medium=api_v3_business_search&utm_source=hBJOknVQJ58S5goQyjmwRw", "review_count": 84, "categories": [{"alias": "italian", "title": "Italian"}], "rating": 4.0, "coordinates": {"latitude": 53.55826, "longitude": 9.9751999}, "transactions": [], "price": "\u20ac\u20ac", "location": {"address1": "Karolinenstr. 12", "address2": "", "address3": "", "city": "Hamburg", "zip_code": "20357", "country": "DE", "state": "HH", "display_address": ["Karolinenstr. 12", "20357 Hamburg", "Germany"]}, "phone": "+494041359177", "display_phone": "+49 40 41359177", "distance": 245.8508291371871}, {"id": "XQ4wQ5Yzr38AIy8poxa5xA", "alias": "ycksushilounge-hamburg", "name": "Ycksushilounge", "image_url": "https://s3-media3.fl.yelpcdn.com/bphoto/h6R8wu5s9bshpp_WqwgVMA/o.jpg", "is_closed": false, "url": "https://www.yelp.com/biz/ycksushilounge-hamburg?adjust_creative=hBJOknVQJ58S5goQyjmwRw&utm_campaign=yelp_api_v3&utm_medium=api_v3_business_search&utm_source=hBJOknVQJ58S5goQyjmwRw", "review_count": 1, "categories": [{"alias": "japanese", "title": "Japanese"}], "rating": 5.0, "coordinates": {"latitude": 53.565023, "longitude": 9.981192}, "transactions": [], "location": {"address1": "Bundesstr. 24", "address2": null, "address3": "", "city": "Hamburg", "zip_code": "20148", "country": "DE", "state": "HH", "display_address": ["Bundesstr. 24", "20148 Hamburg", "Germany"]}, "phone": "+494055634231", "display_phone": "+49 40 55634231", "distance": 620.2799149019}, {"id": "_pbeMqhzNnIxR3VT38zzdQ", "alias": "kim-long-hamburg-2", "name": "Kim Long", "image_url": "https://s3-media3.fl.yelpcdn.com/bphoto/o97uyYL1oRzLImgCz3Sh0g/o.jpg", "is_closed": false, "url": "https://www.yelp.com/biz/kim-long-hamburg-2?adjust_creative=hBJOknVQJ58S5goQyjmwRw&utm_campaign=yelp_api_v3&utm_medium=api_v3_business_search&utm_source=hBJOknVQJ58S5goQyjmwRw", "review_count": 6, "categories": [{"alias": "chinese", "title": "Chinese"}], "rating": 4.0, "coordinates": {"latitude": 53.56492, "longitude": 9.97753}, "transactions": [], "price": "\u20ac\u20ac\u20ac\u20ac", "location": {"address1": "Rentzelstr. 52", "address2": "", "address3": "", "city": "Hamburg", "zip_code": "20146", "country": "DE", "state": "HH", "display_address": ["Rentzelstr. 52", "20146 Hamburg", "Germany"]}, "phone": "+494083983073", "display_phone": "+49 40 83983073", "distance": 500.80658768088676}, {"id": "Y58qS21ppv4YH7XhRc1pcA", "alias": "m\u00f6venpick-restaurant-hamburg-3", "name": "M\u00f6venpick Restaurant", "image_url": "https://s3-media4.fl.yelpcdn.com/bphoto/U8waXQglNui4OxQZIgqoOQ/o.jpg", "is_closed": false, "url": "https://www.yelp.com/biz/m%C3%B6venpick-restaurant-hamburg-3?adjust_creative=hBJOknVQJ58S5goQyjmwRw&utm_campaign=yelp_api_v3&utm_medium=api_v3_business_search&utm_source=hBJOknVQJ58S5goQyjmwRw", "review_count": 12, "categories": [{"alias": "international", "title": "International"}, {"alias": "breakfast_brunch", "title": "Breakfast & Brunch"}], "rating": 4.5, "coordinates": {"latitude": 53.5646162840744, "longitude": 9.97078277170658}, "transactions": [], "price": "\u20ac\u20ac", "location": {"address1": "M\u00f6venpick Hotel", "address2": "Sternschanze 6", "address3": "", "city": "Hamburg", "zip_code": "20357", "country": "DE", "state": "HH", "display_address": ["M\u00f6venpick Hotel", "Sternschanze 6", "20357 Hamburg", "Germany"]}, "phone": "+49403344113340", "display_phone": "+49 40 3344113340", "distance": 574.9800232677471}, {"id": "hA0-mZxH1yZoDXon9vBhYw", "alias": "toto-und-malta-hamburg", "name": "Toto & Malta", "image_url": "https://s3-media2.fl.yelpcdn.com/bphoto/Nd4dDUY4dlNheVD2yK_qow/o.jpg", "is_closed": false, "url": "https://www.yelp.com/biz/toto-und-malta-hamburg?adjust_creative=hBJOknVQJ58S5goQyjmwRw&utm_campaign=yelp_api_v3&utm_medium=api_v3_business_search&utm_source=hBJOknVQJ58S5goQyjmwRw", "review_count": 8, "categories": [{"alias": "italian", "title": "Italian"}], "rating": 4.0, "coordinates": {"latitude": 53.5550206, "longitude": 9.9802777}, "transactions": [], "price": "\u20ac\u20ac", "location": {"address1": "Johannes-Brahms-Platz 11", "address2": "", "address3": "", "city": "Hamburg", "zip_code": "20355", "country": "DE", "state": "HH", "display_address": ["Johannes-Brahms-Platz 11", "20355 Hamburg", "Germany"]}, "phone": "+494035016420", "display_phone": "+49 40 35016420", "distance": 668.6407384513294}, {"id": "8xYa3g3OBUHeg0aYtO96Pw", "alias": "cai-kitchen-hamburg", "name": "Cai Kitchen", "image_url": "https://s3-media2.fl.yelpcdn.com/bphoto/V0UblluESiaIY5majGWD3A/o.jpg", "is_closed": false, "url": "https://www.yelp.com/biz/cai-kitchen-hamburg?adjust_creative=hBJOknVQJ58S5goQyjmwRw&utm_campaign=yelp_api_v3&utm_medium=api_v3_business_search&utm_source=hBJOknVQJ58S5goQyjmwRw", "review_count": 1, "categories": [{"alias": "chinese", "title": "Chinese"}, {"alias": "vegan", "title": "Vegan"}], "rating": 5.0, "coordinates": {"latitude": 53.559501, "longitude": 9.972988}, "transactions": [], "location": {"address1": "Glash\u00fcttenstr.  85 A", "address2": "", "address3": null, "city": "Hamburg", "zip_code": "20357", "country": "DE", "state": "HH", "display_address": ["Glash\u00fcttenstr.  85 A", "20357 Hamburg", "Germany"]}, "phone": "+494030926561", "display_phone": "+49 40 30926561", "distance": 223.55470767485357}, {"id": "jEVnkcpTQxL1AKXldQ6AwA", "alias": "trattoria-da-enzo-hamburg", "name": "Trattoria da Enzo", "image_url": "https://s3-media2.fl.yelpcdn.com/bphoto/YPHAIpXfomX4SrX_Ne0lPQ/o.jpg", "is_closed": false, "url": "https://www.yelp.com/biz/trattoria-da-enzo-hamburg?adjust_creative=hBJOknVQJ58S5goQyjmwRw&utm_campaign=yelp_api_v3&utm_medium=api_v3_business_search&utm_source=hBJOknVQJ58S5goQyjmwRw", "review_count": 106, "categories": [{"alias": "italian", "title": "Italian"}], "rating": 4.0, "coordinates": {"latitude": 53.55108, "longitude": 9.9816}, "transactions": [], "price": "\u20ac\u20ac\u20ac", "location": {"address1": "Wexstr. 34", "address2": null, "address3": null, "city": "Hamburg", "zip_code": "20355", "country": "DE", "state": "HH", "display_address": ["Wexstr. 34", "20355 Hamburg", "Germany"]}, "phone": "+494035713366", "display_phone": "+49 40 35713366", "distance": 1100.8509626433115}, {"id": "u3ub5f0MS4qY67Q8XF9ZoA", "alias": "sodemanns-fisch-kutter-nr-1-hamburg", "name": "Sodemann's Fisch-Kutter Nr. 1", "image_url": "https://s3-media3.fl.yelpcdn.com/bphoto/BlysP6fVPaL0eEjKvEbByw/o.jpg", "is_closed": false, "url": "https://www.yelp.com/biz/sodemanns-fisch-kutter-nr-1-hamburg?adjust_creative=hBJOknVQJ58S5goQyjmwRw&utm_campaign=yelp_api_v3&utm_medium=api_v3_business_search&utm_source=hBJOknVQJ58S5goQyjmwRw", "review_count": 3, "categories": [{"alias": "foodtrucks", "title": "Food Trucks"}, {"alias": "fischbroetchen", "title": "Fischbroetchen"}], "rating": 5.0, "coordinates": {"latitude": 53.5537490844727, "longitude": 9.99182987213135}, "transactions": [], "price": "\u20ac\u20ac", "location": {"address1": "", "address2": null, "address3": "", "city": "Hamburg", "zip_code": "", "country": "DE", "state": "HH", "display_address": ["Hamburg", "Germany"]}, "phone": "+491773606663", "display_phone": "+49 177 3606663", "distance": 1567.400123539153}, {"id": "qPuiRuAQbd-et6Nwy4KDGw", "alias": "dock-12-hamburg", "name": "Dock 12", "image_url": "https://s3-media2.fl.yelpcdn.com/bphoto/1-HCDmeVILjMZtjuVgj91A/o.jpg", "is_closed": false, "url": "https://www.yelp.com/biz/dock-12-hamburg?adjust_creative=hBJOknVQJ58S5goQyjmwRw&utm_campaign=yelp_api_v3&utm_medium=api_v3_business_search&utm_source=hBJOknVQJ58S5goQyjmwRw", "review_count": 1, "categories": [{"alias": "beergarden", "title": "Beer Garden"}, {"alias": "beer_and_wine", "title": "Beer, Wine & Spirits"}], "rating": 4.0, "coordinates": {"latitude": 53.5532683620833, "longitude": 9.9708769513428}, "transactions": [], "price": "\u20ac", "location": {"address1": "Hamburger Dom", "address2": "Heiligengeistfeld", "address3": "", "city": "Hamburg", "zip_code": "20359", "country": "DE", "state": "HH", "display_address": ["Hamburger Dom", "Heiligengeistfeld", "20359 Hamburg", "Germany"]}, "phone": "+491783581874", "display_phone": "+49 178 3581874", "distance": 867.385181257746}, {"id": "w97RogrUMt7wf0OpYSZieA", "alias": "colmado-dominicano-bachata-bar-hamburg", "name": "Colmado Dominicano Bachata Bar", "image_url": "https://s3-media2.fl.yelpcdn.com/bphoto/T65ZDvhtRwtuol4FQmNRAw/o.jpg", "is_closed": false, "url": "https://www.yelp.com/biz/colmado-dominicano-bachata-bar-hamburg?adjust_creative=hBJOknVQJ58S5goQyjmwRw&utm_campaign=yelp_api_v3&utm_medium=api_v3_business_search&utm_source=hBJOknVQJ58S5goQyjmwRw", "review_count": 1, "categories": [{"alias": "cocktailbars", "title": "Cocktail Bars"}, {"alias": "latin", "title": "Latin American"}], "rating": 5.0, "coordinates": {"latitude": 53.5503, "longitude": 9.98192}, "transactions": [], "price": "\u20ac\u20ac\u20ac", "location": {"address1": "Alter Steinweg 11", "address2": null, "address3": null, "city": "Hamburg", "zip_code": "20459", "country": "DE", "state": "HH", "display_address": ["Alter Steinweg 11", "20459 Hamburg", "Germany"]}, "phone": "+494067379884", "display_phone": "+49 40 67379884", "distance": 1196.3313172216638}, {"id": "nPkFU4-4gTOzZuWoPN22lw", "alias": "herr-buhbe-hamburg", "name": "Herr Buhbe", "image_url": "https://s3-media2.fl.yelpcdn.com/bphoto/kK5gI_eoQwe60xrVIfV7lA/o.jpg", "is_closed": false, "url": "https://www.yelp.com/biz/herr-buhbe-hamburg?adjust_creative=hBJOknVQJ58S5goQyjmwRw&utm_campaign=yelp_api_v3&utm_medium=api_v3_business_search&utm_source=hBJOknVQJ58S5goQyjmwRw", "review_count": 7, "categories": [{"alias": "german", "title": "German"}], "rating": 4.5, "coordinates": {"latitude": 53.5508583, "longitude": 9.9809318}, "transactions": [], "price": "\u20ac\u20ac", "location": {"address1": "Wexstr. 42", "address2": null, "address3": null, "city": "Hamburg", "zip_code": "20355", "country": "DE", "state": "HH", "display_address": ["Wexstr. 42", "20355 Hamburg", "Germany"]}, "phone": "+4940346689", "display_phone": "+49 40 346689", "distance": 1116.9950489808996}, {"id": "66oVGj9H3MoOnmDx9sNW-w", "alias": "kleinhuis-cafe-und-weinstube-hamburg", "name": "Kleinhuis Cafe & Weinstube", "image_url": "https://s3-media2.fl.yelpcdn.com/bphoto/PE5N_4_QCEVkysA3e2ihOQ/o.jpg", "is_closed": false, "url": "https://www.yelp.com/biz/kleinhuis-cafe-und-weinstube-hamburg?adjust_creative=hBJOknVQJ58S5goQyjmwRw&utm_campaign=yelp_api_v3&utm_medium=api_v3_business_search&utm_source=hBJOknVQJ58S5goQyjmwRw", "review_count": 3, "categories": [{"alias": "german", "title": "German"}, {"alias": "wine_bars", "title": "Wine Bars"}, {"alias": "seafood", "title": "Seafood"}], "rating": 4.5, "coordinates": {"latitude": 53.5512314, "longitude": 9.9773397}, "transactions": [], "price": "\u20ac\u20ac", "location": {"address1": "Neanderstr. 27", "address2": "", "address3": "", "city": "Hamburg", "zip_code": "20459", "country": "DE", "state": "HH", "display_address": ["Neanderstr. 27", "20459 Hamburg", "Germany"]}, "phone": "+4940353366", "display_phone": "+49 40 353366", "distance": 1027.4689894806445}, {"id": "Wm96VV-LxzTDmcHHfV9dxA", "alias": "gefundenes-fressen-hamburg-3", "name": "Gefundenes Fressen", "image_url": "https://s3-media2.fl.yelpcdn.com/bphoto/KykHFPWa0Xwc2RJsJnON1w/o.jpg", "is_closed": false, "url": "https://www.yelp.com/biz/gefundenes-fressen-hamburg-3?adjust_creative=hBJOknVQJ58S5goQyjmwRw&utm_campaign=yelp_api_v3&utm_medium=api_v3_business_search&utm_source=hBJOknVQJ58S5goQyjmwRw", "review_count": 35, "categories": [{"alias": "bbq", "title": "Barbeque"}], "rating": 3.0, "coordinates": {"latitude": 53.5583979246605, "longitude": 9.97242461889982}, "transactions": [], "price": "\u20ac\u20ac", "location": {"address1": "Marktstr. 130", "address2": "", "address3": "", "city": "Hamburg", "zip_code": "20357", "country": "DE", "state": "HH", "display_address": ["Marktstr. 130", "20357 Hamburg", "Germany"]}, "phone": "+494043096060", "display_phone": "+49 40 43096060", "distance": 327.40346937541716}, {"id": "GDJYapZCL0TTv3SklUCqpA", "alias": "felds-salat-hamburg", "name": "Feld's Salat", "image_url": "https://s3-media1.fl.yelpcdn.com/bphoto/F4zmcgLxIOrX-KbI2eKu5w/o.jpg", "is_closed": false, "url": "https://www.yelp.com/biz/felds-salat-hamburg?adjust_creative=hBJOknVQJ58S5goQyjmwRw&utm_campaign=yelp_api_v3&utm_medium=api_v3_business_search&utm_source=hBJOknVQJ58S5goQyjmwRw", "review_count": 23, "categories": [{"alias": "salad", "title": "Salad"}], "rating": 4.5, "coordinates": {"latitude": 53.5540415784796, "longitude": 9.97981721461045}, "transactions": [], "price": "\u20ac", "location": {"address1": "Poolstr. 34", "address2": "", "address3": "", "city": "Hamburg", "zip_code": "20355", "country": "DE", "state": "HH", "display_address": ["Poolstr. 34", "20355 Hamburg", "Germany"]}, "phone": "+494030773150", "display_phone": "+49 40 30773150", "distance": 757.7677406845046}, {"id": "5XfEB3tYRUlQksHISU5unw", "alias": "mohl-tied-hamburg", "name": "Mohl Tied", "image_url": "", "is_closed": false, "url": "https://www.yelp.com/biz/mohl-tied-hamburg?adjust_creative=hBJOknVQJ58S5goQyjmwRw&utm_campaign=yelp_api_v3&utm_medium=api_v3_business_search&utm_source=hBJOknVQJ58S5goQyjmwRw", "review_count": 2, "categories": [{"alias": "german", "title": "German"}], "rating": 5.0, "coordinates": {"latitude": 53.5539566220121, "longitude": 9.97870678650918}, "transactions": [], "location": {"address1": "Pilatuspool 16", "address2": "", "address3": "", "city": "Hamburg", "zip_code": "20355", "country": "DE", "state": "HH", "display_address": ["Pilatuspool 16", "20355 Hamburg", "Germany"]}, "phone": "", "display_phone": "", "distance": 745.53199077841}, {"id": "5TjilN9cOWAfKsRr8uRjeA", "alias": "la-mirabelle-hamburg", "name": "La Mirabelle", "image_url": "https://s3-media2.fl.yelpcdn.com/bphoto/znDprjYPsZVzdpI6xveCVg/o.jpg", "is_closed": false, "url": "https://www.yelp.com/biz/la-mirabelle-hamburg?adjust_creative=hBJOknVQJ58S5goQyjmwRw&utm_campaign=yelp_api_v3&utm_medium=api_v3_business_search&utm_source=hBJOknVQJ58S5goQyjmwRw", "review_count": 81, "categories": [{"alias": "french", "title": "French"}], "rating": 4.5, "coordinates": {"latitude": 53.5650338196784, "longitude": 9.98034142350768}, "transactions": [], "price": "\u20ac\u20ac\u20ac", "location": {"address1": "Bundesstr. 15", "address2": null, "address3": null, "city": "Hamburg", "zip_code": "20146", "country": "DE", "state": "HH", "display_address": ["Bundesstr. 15", "20146 Hamburg", "Germany"]}, "phone": "+49404107585", "display_phone": "+49 40 4107585", "distance": 585.0343474098213}, {"id": "wdbpGLMljtPesAspUMePWA", "alias": "thang-long-hamburg-4", "name": "Thang Long", "image_url": "https://s3-media3.fl.yelpcdn.com/bphoto/TCXM7ErUV3_08rOd5v2ZBA/o.jpg", "is_closed": false, "url": "https://www.yelp.com/biz/thang-long-hamburg-4?adjust_creative=hBJOknVQJ58S5goQyjmwRw&utm_campaign=yelp_api_v3&utm_medium=api_v3_business_search&utm_source=hBJOknVQJ58S5goQyjmwRw", "review_count": 89, "categories": [{"alias": "vietnamese", "title": "Vietnamese"}], "rating": 4.0, "coordinates": {"latitude": 53.5679, "longitude": 9.98005}, "transactions": [], "price": "\u20ac\u20ac", "location": {"address1": "Grindelallee 91", "address2": "", "address3": "", "city": "Hamburg", "zip_code": "20146", "country": "DE", "state": "HH", "display_address": ["Grindelallee 91", "20146 Hamburg", "Germany"]}, "phone": "+494068876621", "display_phone": "+49 40 68876621", "distance": 873.6029439251112}, {"id": "PMGBFSHLx5y5JRsFuGV6fg", "alias": "campus-d\u00f6ner-hamburg", "name": "Campus D\u00f6ner", "image_url": "https://s3-media2.fl.yelpcdn.com/bphoto/8_ytfY9KGRo69_Wslz8AWA/o.jpg", "is_closed": false, "url": "https://www.yelp.com/biz/campus-d%C3%B6ner-hamburg?adjust_creative=hBJOknVQJ58S5goQyjmwRw&utm_campaign=yelp_api_v3&utm_medium=api_v3_business_search&utm_source=hBJOknVQJ58S5goQyjmwRw", "review_count": 24, "categories": [{"alias": "kebab", "title": "Kebab"}], "rating": 4.0, "coordinates": {"latitude": 53.5669712793989, "longitude": 9.9812775850296}, "transactions": [], "price": "\u20ac", "location": {"address1": "Grindelallee 88", "address2": "", "address3": "", "city": "Hamburg", "zip_code": "20146", "country": "DE", "state": "HH", "display_address": ["Grindelallee 88", "20146 Hamburg", "Germany"]}, "phone": "+494039106210", "display_phone": "+49 40 39106210", "distance": 804.598553018486}, {"id": "5MwlB28Gs3ZzxlwWA2RGag", "alias": "curry-grindel-hamburg", "name": "Curry Grindel", "image_url": "https://s3-media3.fl.yelpcdn.com/bphoto/skt9h-nKuTVVw0Ah_B19Cw/o.jpg", "is_closed": false, "url": "https://www.yelp.com/biz/curry-grindel-hamburg?adjust_creative=hBJOknVQJ58S5goQyjmwRw&utm_campaign=yelp_api_v3&utm_medium=api_v3_business_search&utm_source=hBJOknVQJ58S5goQyjmwRw", "review_count": 138, "categories": [{"alias": "currysausage", "title": "Curry Sausage"}, {"alias": "hotdogs", "title": "Fast Food"}], "rating": 4.0, "coordinates": {"latitude": 53.566893, "longitude": 9.980414}, "transactions": [], "price": "\u20ac\u20ac", "location": {"address1": "Rentzelstr. 2", "address2": "", "address3": "", "city": "Hamburg", "zip_code": "20146", "country": "DE", "state": "HH", "display_address": ["Rentzelstr. 2", "20146 Hamburg", "Germany"]}, "phone": "+494041338581", "display_phone": "+49 40 41338581", "distance": 773.3474113411156}, {"id": "CxLiEt55FW3CNjOIDNuaQg", "alias": "variable-hamburg-2", "name": "Variable", "image_url": "https://s3-media2.fl.yelpcdn.com/bphoto/OJp-lNajUGlfPxfajAZAyA/o.jpg", "is_closed": false, "url": "https://www.yelp.com/biz/variable-hamburg-2?adjust_creative=hBJOknVQJ58S5goQyjmwRw&utm_campaign=yelp_api_v3&utm_medium=api_v3_business_search&utm_source=hBJOknVQJ58S5goQyjmwRw", "review_count": 30, "categories": [{"alias": "bars", "title": "Bars"}, {"alias": "cafes", "title": "Cafes"}], "rating": 4.0, "coordinates": {"latitude": 53.55916, "longitude": 9.97518}, "transactions": [], "price": "\u20ac\u20ac", "location": {"address1": "Karolinenstr. 23", "address2": null, "address3": null, "city": "Hamburg", "zip_code": "20357", "country": "DE", "state": "HH", "display_address": ["Karolinenstr. 23", "20357 Hamburg", "Germany"]}, "phone": "+49404305326", "display_phone": "+49 40 4305326", "distance": 154.9798606890961}, {"id": "OMplhhVJAdFo048rJPKzcQ", "alias": "september-hamburg", "name": "September", "image_url": "https://s3-media1.fl.yelpcdn.com/bphoto/z1WyhtmoRLgP1lE2aHYNAQ/o.jpg", "is_closed": false, "url": "https://www.yelp.com/biz/september-hamburg?adjust_creative=hBJOknVQJ58S5goQyjmwRw&utm_campaign=yelp_api_v3&utm_medium=api_v3_business_search&utm_source=hBJOknVQJ58S5goQyjmwRw", "review_count": 138, "categories": [{"alias": "german", "title": "German"}], "rating": 3.0, "coordinates": {"latitude": 53.5566834, "longitude": 9.9745633}, "transactions": [], "price": "\u20ac\u20ac", "location": {"address1": "Feldstr. 60", "address2": "", "address3": null, "city": "Hamburg", "zip_code": "20357", "country": "DE", "state": "HH", "display_address": ["Feldstr. 60", "20357 Hamburg", "Germany"]}, "phone": "+4940437611", "display_phone": "+49 40 437611", "distance": 421.41041368405234}, {"id": "hfdSWJ3si-nW0PE9TmoJIg", "alias": "la-locanda-hamburg-3", "name": "La Locanda", "image_url": "https://s3-media2.fl.yelpcdn.com/bphoto/NRgJMkCMtzQ8ll73U14Tuw/o.jpg", "is_closed": false, "url": "https://www.yelp.com/biz/la-locanda-hamburg-3?adjust_creative=hBJOknVQJ58S5goQyjmwRw&utm_campaign=yelp_api_v3&utm_medium=api_v3_business_search&utm_source=hBJOknVQJ58S5goQyjmwRw", "review_count": 155, "categories": [{"alias": "pizza", "title": "Pizza"}, {"alias": "italian", "title": "Italian"}], "rating": 4.0, "coordinates": {"latitude": 53.5510499, "longitude": 9.98198}, "transactions": [], "price": "\u20ac", "location": {"address1": "Wexstr. 29", "address2": null, "address3": null, "city": "Hamburg", "zip_code": "20355", "country": "DE", "state": "HH", "display_address": ["Wexstr. 29", "20355 Hamburg", "Germany"]}, "phone": "+494033441786", "display_phone": "+49 40 33441786", "distance": 1125.3272024729101}, {"id": "escJjofqfa11ZGW_IQeTMQ", "alias": "orexis-by-jorgo-hamburg", "name": "orexis by Jorgo", "image_url": "https://s3-media2.fl.yelpcdn.com/bphoto/ngIZqJPFSQ6H4Hl9WiW7eg/o.jpg", "is_closed": false, "url": "https://www.yelp.com/biz/orexis-by-jorgo-hamburg?adjust_creative=hBJOknVQJ58S5goQyjmwRw&utm_campaign=yelp_api_v3&utm_medium=api_v3_business_search&utm_source=hBJOknVQJ58S5goQyjmwRw", "review_count": 33, "categories": [{"alias": "greek", "title": "Greek"}], "rating": 4.5, "coordinates": {"latitude": 53.57076, "longitude": 9.97125}, "transactions": [], "price": "\u20ac\u20ac", "location": {"address1": "Gustav-Falke-Str. 30", "address2": "", "address3": null, "city": "Hamburg", "zip_code": "20144", "country": "DE", "state": "HH", "display_address": ["Gustav-Falke-Str. 30", "20144 Hamburg", "Germany"]}, "phone": "+4940418935", "display_phone": "+49 40 418935", "distance": 1184.3955898280253}, {"id": "LLsJWxGZ-YVqiepMleO8cQ", "alias": "dos-amigos-hamburg", "name": "Dos Amigos", "image_url": "https://s3-media1.fl.yelpcdn.com/bphoto/Gx1a1fC6Kf09cHm05zR2AQ/o.jpg", "is_closed": false, "url": "https://www.yelp.com/biz/dos-amigos-hamburg?adjust_creative=hBJOknVQJ58S5goQyjmwRw&utm_campaign=yelp_api_v3&utm_medium=api_v3_business_search&utm_source=hBJOknVQJ58S5goQyjmwRw", "review_count": 109, "categories": [{"alias": "mexican", "title": "Mexican"}], "rating": 3.5, "coordinates": {"latitude": 53.5502286, "longitude": 9.9806722}, "transactions": [], "price": "\u20ac\u20ac", "location": {"address1": "Gro\u00dfneumarkt 54", "address2": "", "address3": "", "city": "Hamburg", "zip_code": "20459", "country": "DE", "state": "HH", "display_address": ["Gro\u00dfneumarkt 54", "20459 Hamburg", "Germany"]}, "phone": "+494035710972", "display_phone": "+49 40 35710972", "distance": 1179.4642721979421}, {"id": "MZX1LxTIMQBuDvoulfYEuw", "alias": "zwanzig-quadratmeter-hamburg", "name": "Zwanzig Quadratmeter", "image_url": "https://s3-media2.fl.yelpcdn.com/bphoto/2TxZ7XrCyPCQzGYgX2ncHQ/o.jpg", "is_closed": false, "url": "https://www.yelp.com/biz/zwanzig-quadratmeter-hamburg?adjust_creative=hBJOknVQJ58S5goQyjmwRw&utm_campaign=yelp_api_v3&utm_medium=api_v3_business_search&utm_source=hBJOknVQJ58S5goQyjmwRw", "review_count": 3, "categories": [{"alias": "cafes", "title": "Cafes"}], "rating": 3.5, "coordinates": {"latitude": 53.5594619968613, "longitude": 9.97324001044035}, "transactions": [], "price": "\u20ac\u20ac", "location": {"address1": "Glash\u00fcttenstr. 85 A", "address2": "", "address3": "", "city": "Hamburg", "zip_code": "20357", "country": "DE", "state": "HH", "display_address": ["Glash\u00fcttenstr. 85 A", "20357 Hamburg", "Germany"]}, "phone": "+4917662024640", "display_phone": "+49 176 62024640", "distance": 211.3228040917918}, {"id": "4mb5yTIDa0J5lE7EO5TU6g", "alias": "asia-lounge-hamburg", "name": "Asia Lounge", "image_url": "https://s3-media2.fl.yelpcdn.com/bphoto/ic1wWYNT7n9SuuU3hdTcPQ/o.jpg", "is_closed": false, "url": "https://www.yelp.com/biz/asia-lounge-hamburg?adjust_creative=hBJOknVQJ58S5goQyjmwRw&utm_campaign=yelp_api_v3&utm_medium=api_v3_business_search&utm_source=hBJOknVQJ58S5goQyjmwRw", "review_count": 43, "categories": [{"alias": "panasian", "title": "Pan Asian"}], "rating": 4.0, "coordinates": {"latitude": 53.56946, "longitude": 9.97967}, "transactions": [], "price": "\u20ac", "location": {"address1": "Grindelallee 146", "address2": null, "address3": null, "city": "Hamburg", "zip_code": "20146", "country": "DE", "state": "HH", "display_address": ["Grindelallee 146", "20146 Hamburg", "Germany"]}, "phone": "+494098260000", "display_phone": "+49 40 98260000", "distance": 1033.4915239428742}, {"id": "8kajAjfOe80lmJpWSXIDHg", "alias": "dwaraka-hamburg", "name": "Dwaraka", "image_url": "https://s3-media3.fl.yelpcdn.com/bphoto/gX3ApBNOVjGRTrqAyf2mmw/o.jpg", "is_closed": false, "url": "https://www.yelp.com/biz/dwaraka-hamburg?adjust_creative=hBJOknVQJ58S5goQyjmwRw&utm_campaign=yelp_api_v3&utm_medium=api_v3_business_search&utm_source=hBJOknVQJ58S5goQyjmwRw", "review_count": 34, "categories": [{"alias": "indpak", "title": "Indian"}], "rating": 4.0, "coordinates": {"latitude": 53.5652216600553, "longitude": 9.97775729062039}, "transactions": [], "price": "\u20ac\u20ac", "location": {"address1": "Rentzelstr. 38", "address2": "", "address3": "", "city": "Hamburg", "zip_code": "20146", "country": "DE", "state": "HH", "display_address": ["Rentzelstr. 38", "20146 Hamburg", "Germany"]}, "phone": "+4940453237", "display_phone": "+49 40 453237", "distance": 542.5539635175744}, {"id": "OCeRH_NSKX_IFByv4Q01BQ", "alias": "belmondo-hamburg-2", "name": "Belmondo", "image_url": "https://s3-media3.fl.yelpcdn.com/bphoto/YL6elQvCT2_DpToTZh6ixA/o.jpg", "is_closed": false, "url": "https://www.yelp.com/biz/belmondo-hamburg-2?adjust_creative=hBJOknVQJ58S5goQyjmwRw&utm_campaign=yelp_api_v3&utm_medium=api_v3_business_search&utm_source=hBJOknVQJ58S5goQyjmwRw", "review_count": 13, "categories": [{"alias": "pizza", "title": "Pizza"}, {"alias": "italian", "title": "Italian"}], "rating": 4.5, "coordinates": {"latitude": 53.5661296418214, "longitude": 9.97922443187491}, "transactions": [], "price": "\u20ac\u20ac", "location": {"address1": "Bundesstr. 40", "address2": "", "address3": "", "city": "Hamburg", "zip_code": "20146", "country": "DE", "state": "HH", "display_address": ["Bundesstr. 40", "20146 Hamburg", "Germany"]}, "phone": "+494041498728", "display_phone": "+49 40 41498728", "distance": 666.2008551622718}, {"id": "Xa9NCe1WUgJXye3oYUWd2w", "alias": "caf\u00e9-backwahn-hamburg-2", "name": "Caf\u00e9 Backwahn", "image_url": "https://s3-media2.fl.yelpcdn.com/bphoto/I_MUV6loGIUJEZQlU8TLFA/o.jpg", "is_closed": false, "url": "https://www.yelp.com/biz/caf%C3%A9-backwahn-hamburg-2?adjust_creative=hBJOknVQJ58S5goQyjmwRw&utm_campaign=yelp_api_v3&utm_medium=api_v3_business_search&utm_source=hBJOknVQJ58S5goQyjmwRw", "review_count": 62, "categories": [{"alias": "cafes", "title": "Cafes"}], "rating": 4.0, "coordinates": {"latitude": 53.56958, "longitude": 9.97959}, "transactions": [], "price": "\u20ac\u20ac", "location": {"address1": "Grindelallee 148", "address2": null, "address3": null, "city": "Hamburg", "zip_code": "20146", "country": "DE", "state": "HH", "display_address": ["Grindelallee 148", "20146 Hamburg", "Germany"]}, "phone": "+49404106141", "display_phone": "+49 40 4106141", "distance": 1043.4520401679385}, {"id": "ovA7g6xjTqF408_KhJbueA", "alias": "salon-wechsel-dich-hamburg-3", "name": "Salon wechsel Dich", "image_url": "https://s3-media3.fl.yelpcdn.com/bphoto/vZizMKiTC_lGlrxDgL0jdw/o.jpg", "is_closed": false, "url": "https://www.yelp.com/biz/salon-wechsel-dich-hamburg-3?adjust_creative=hBJOknVQJ58S5goQyjmwRw&utm_campaign=yelp_api_v3&utm_medium=api_v3_business_search&utm_source=hBJOknVQJ58S5goQyjmwRw", "review_count": 1, "categories": [{"alias": "cafes", "title": "Cafes"}, {"alias": "homedecor", "title": "Home Decor"}], "rating": 5.0, "coordinates": {"latitude": 53.5585498797122, "longitude": 9.97394073754549}, "transactions": [], "location": {"address1": "Marktstr. 142", "address2": "", "address3": null, "city": "Hamburg", "zip_code": "20357", "country": "DE", "state": "HH", "display_address": ["Marktstr. 142", "20357 Hamburg", "Germany"]}, "phone": "+494032039889", "display_phone": "+49 40 32039889", "distance": 250.90974254890634}, {"id": "NpLa9Q1CrWCUC2YDb6WQvQ", "alias": "qrito-hamburg", "name": "Qrito", "image_url": "https://s3-media3.fl.yelpcdn.com/bphoto/1H8_nTcCFfjwQEKdrpA9Gw/o.jpg", "is_closed": false, "url": "https://www.yelp.com/biz/qrito-hamburg?adjust_creative=hBJOknVQJ58S5goQyjmwRw&utm_campaign=yelp_api_v3&utm_medium=api_v3_business_search&utm_source=hBJOknVQJ58S5goQyjmwRw", "review_count": 96, "categories": [{"alias": "mexican", "title": "Mexican"}], "rating": 3.5, "coordinates": {"latitude": 53.56725, "longitude": 9.97998}, "transactions": [], "price": "\u20ac\u20ac", "location": {"address1": "Grindelallee 79", "address2": null, "address3": null, "city": "Hamburg", "zip_code": "20146", "country": "DE", "state": "HH", "display_address": ["Grindelallee 79", "20146 Hamburg", "Germany"]}, "phone": "+494044405273", "display_phone": "+49 40 44405273", "distance": 800.250354385187}, {"id": "3sZKy-ufIWzzie9fdhQoZQ", "alias": "capriccio-hamburg", "name": "Capriccio", "image_url": "https://s3-media3.fl.yelpcdn.com/bphoto/_8hqr9j5NZ32vYjbZd3IvQ/o.jpg", "is_closed": false, "url": "https://www.yelp.com/biz/capriccio-hamburg?adjust_creative=hBJOknVQJ58S5goQyjmwRw&utm_campaign=yelp_api_v3&utm_medium=api_v3_business_search&utm_source=hBJOknVQJ58S5goQyjmwRw", "review_count": 51, "categories": [{"alias": "italian", "title": "Italian"}, {"alias": "pizza", "title": "Pizza"}], "rating": 4.5, "coordinates": {"latitude": 53.5510103, "longitude": 9.9805262}, "transactions": [], "price": "\u20ac\u20ac", "location": {"address1": "Thielbek 12", "address2": "", "address3": "", "city": "Hamburg", "zip_code": "20355", "country": "DE", "state": "HH", "display_address": ["Thielbek 12", "20355 Hamburg", "Germany"]}, "phone": "+494018079219", "display_phone": "+49 40 18079219", "distance": 1093.1616138618128}, {"id": "8QndEj8UhCn-bptR0-ygWg", "alias": "petit-bonheur-hamburg", "name": "Petit Bonheur", "image_url": "https://s3-media2.fl.yelpcdn.com/bphoto/r3QBzse8AxuxKKN5QwXpEw/o.jpg", "is_closed": false, "url": "https://www.yelp.com/biz/petit-bonheur-hamburg?adjust_creative=hBJOknVQJ58S5goQyjmwRw&utm_campaign=yelp_api_v3&utm_medium=api_v3_business_search&utm_source=hBJOknVQJ58S5goQyjmwRw", "review_count": 49, "categories": [{"alias": "french", "title": "French"}, {"alias": "bars", "title": "Bars"}], "rating": 4.5, "coordinates": {"latitude": 53.5507160913463, "longitude": 9.97563126181586}, "transactions": [], "price": "\u20ac\u20ac\u20ac", "location": {"address1": "H\u00fctten 85 - 86", "address2": "", "address3": "", "city": "Hamburg", "zip_code": "20355", "country": "DE", "state": "HH", "display_address": ["H\u00fctten 85 - 86", "20355 Hamburg", "Germany"]}, "phone": "+494033441526", "display_phone": "+49 40 33441526", "distance": 1083.714755807349}, {"id": "lHQC_K6CHaYFKzC2NG066A", "alias": "traumkuh-hamburg", "name": "Traumkuh", "image_url": "https://s3-media1.fl.yelpcdn.com/bphoto/AFJz1EFDDc3gWQFDlYukuA/o.jpg", "is_closed": false, "url": "https://www.yelp.com/biz/traumkuh-hamburg?adjust_creative=hBJOknVQJ58S5goQyjmwRw&utm_campaign=yelp_api_v3&utm_medium=api_v3_business_search&utm_source=hBJOknVQJ58S5goQyjmwRw", "review_count": 22, "categories": [{"alias": "burgers", "title": "Burgers"}], "rating": 3.0, "coordinates": {"latitude": 53.5694836, "longitude": 9.9799385}, "transactions": [], "price": "\u20ac\u20ac", "location": {"address1": "Grindelallee 146", "address2": "", "address3": null, "city": "Hamburg", "zip_code": "20146", "country": "DE", "state": "HH", "display_address": ["Grindelallee 146", "20146 Hamburg", "Germany"]}, "phone": "", "display_phone": "", "distance": 1037.1410478029266}, {"id": "RTYCuOcOLokCdrvy9r01JQ", "alias": "paulaners-hamburg", "name": "Paulaner's", "image_url": "https://s3-media2.fl.yelpcdn.com/bphoto/Dv7V5wLX7EhLIai1KULMCw/o.jpg", "is_closed": false, "url": "https://www.yelp.com/biz/paulaners-hamburg?adjust_creative=hBJOknVQJ58S5goQyjmwRw&utm_campaign=yelp_api_v3&utm_medium=api_v3_business_search&utm_source=hBJOknVQJ58S5goQyjmwRw", "review_count": 60, "categories": [{"alias": "german", "title": "German"}], "rating": 3.0, "coordinates": {"latitude": 53.5504601, "longitude": 9.9809049}, "transactions": [], "price": "\u20ac\u20ac", "location": {"address1": "Gro\u00dfneumarkt 1", "address2": null, "address3": null, "city": "Hamburg", "zip_code": "20459", "country": "DE", "state": "HH", "display_address": ["Gro\u00dfneumarkt 1", "20459 Hamburg", "Germany"]}, "phone": "+494063607900", "display_phone": "+49 40 63607900", "distance": 1085.9584802298084}, {"id": "pwvATKQ6muqWxqPBGcglkw", "alias": "loving-hut-hamburg", "name": "Loving Hut", "image_url": "https://s3-media2.fl.yelpcdn.com/bphoto/QfflfkXy17asZcpdYiDgkA/o.jpg", "is_closed": false, "url": "https://www.yelp.com/biz/loving-hut-hamburg?adjust_creative=hBJOknVQJ58S5goQyjmwRw&utm_campaign=yelp_api_v3&utm_medium=api_v3_business_search&utm_source=hBJOknVQJ58S5goQyjmwRw", "review_count": 81, "categories": [{"alias": "vegan", "title": "Vegan"}, {"alias": "panasian", "title": "Pan Asian"}], "rating": 4.0, "coordinates": {"latitude": 53.55165, "longitude": 9.98029}, "transactions": [], "price": "\u20ac\u20ac", "location": {"address1": "Markusstr. 2", "address2": "", "address3": "", "city": "Hamburg", "zip_code": "20355", "country": "DE", "state": "HH", "display_address": ["Markusstr. 2", "20355 Hamburg", "Germany"]}, "phone": "+494057221029", "display_phone": "+49 40 57221029", "distance": 1013.9826977937516}, {"id": "2ho80qeiiHZGO06j9iXxww", "alias": "sushi-153-hamburg", "name": "Sushi 153", "image_url": "https://s3-media3.fl.yelpcdn.com/bphoto/SX_Na97Hwae282TfhKjzXA/o.jpg", "is_closed": false, "url": "https://www.yelp.com/biz/sushi-153-hamburg?adjust_creative=hBJOknVQJ58S5goQyjmwRw&utm_campaign=yelp_api_v3&utm_medium=api_v3_business_search&utm_source=hBJOknVQJ58S5goQyjmwRw", "review_count": 30, "categories": [{"alias": "sushi", "title": "Sushi Bars"}], "rating": 4.0, "coordinates": {"latitude": 53.5501099, "longitude": 9.9796}, "transactions": [], "price": "\u20ac\u20ac", "location": {"address1": "Gro\u00dfneumarkt 38", "address2": "", "address3": "", "city": "Hamburg", "zip_code": "20459", "country": "DE", "state": "HH", "display_address": ["Gro\u00dfneumarkt 38", "20459 Hamburg", "Germany"]}, "phone": "+494035018501", "display_phone": "+49 40 35018501", "distance": 1193.2195336783348}, {"id": "nKC1f9OfL7ocoiraNOJrQA", "alias": "trastevere-uno-hamburg", "name": "Trastevere Uno", "image_url": "https://s3-media3.fl.yelpcdn.com/bphoto/4oiBoq3HHemOysGGIUcZ0Q/o.jpg", "is_closed": false, "url": "https://www.yelp.com/biz/trastevere-uno-hamburg?adjust_creative=hBJOknVQJ58S5goQyjmwRw&utm_campaign=yelp_api_v3&utm_medium=api_v3_business_search&utm_source=hBJOknVQJ58S5goQyjmwRw", "review_count": 8, "categories": [{"alias": "italian", "title": "Italian"}], "rating": 5.0, "coordinates": {"latitude": 53.56829, "longitude": 9.98137}, "transactions": [], "price": "\u20ac\u20ac\u20ac", "location": {"address1": "Bornstr. 20", "address2": null, "address3": null, "city": "Hamburg", "zip_code": "20146", "country": "DE", "state": "HH", "display_address": ["Bornstr. 20", "20146 Hamburg", "Germany"]}, "phone": "+4940456411", "display_phone": "+49 40 456411", "distance": 941.5333401490578}, {"id": "ulGzADfVgeBesptFewL46g", "alias": "kumpir-k\u00f6nig-hamburg-2", "name": "Kumpir K\u00f6nig", "image_url": "https://s3-media3.fl.yelpcdn.com/bphoto/wWDOq11dfjYwVO4yNF_h_g/o.jpg", "is_closed": false, "url": "https://www.yelp.com/biz/kumpir-k%C3%B6nig-hamburg-2?adjust_creative=hBJOknVQJ58S5goQyjmwRw&utm_campaign=yelp_api_v3&utm_medium=api_v3_business_search&utm_source=hBJOknVQJ58S5goQyjmwRw", "review_count": 54, "categories": [{"alias": "potatoes", "title": "Potatoes"}, {"alias": "salad", "title": "Salad"}], "rating": 3.5, "coordinates": {"latitude": 53.5672778437459, "longitude": 9.98137641734961}, "transactions": [], "price": "\u20ac", "location": {"address1": "Grindelhof 8", "address2": "", "address3": "", "city": "Hamburg", "zip_code": "20146", "country": "DE", "state": "HH", "display_address": ["Grindelhof 8", "20146 Hamburg", "Germany"]}, "phone": "+494041353241", "display_phone": "+49 40 41353241", "distance": 838.1673190810703}, {"id": "nRrZOEiV07jVyWBun-ZiOw", "alias": "ratsherrn-klause-hamburg", "name": "Ratsherrn Klause", "image_url": "https://s3-media1.fl.yelpcdn.com/bphoto/p7aqRXQ8udnvaTAQd6DHRA/o.jpg", "is_closed": false, "url": "https://www.yelp.com/biz/ratsherrn-klause-hamburg?adjust_creative=hBJOknVQJ58S5goQyjmwRw&utm_campaign=yelp_api_v3&utm_medium=api_v3_business_search&utm_source=hBJOknVQJ58S5goQyjmwRw", "review_count": 5, "categories": [{"alias": "sportsbars", "title": "Sports Bars"}, {"alias": "beergarden", "title": "Beer Garden"}], "rating": 4.0, "coordinates": {"latitude": 53.564673, "longitude": 9.976627}, "transactions": [], "price": "\u20ac", "location": {"address1": "Schr\u00f6derstiftstr. 9", "address2": null, "address3": null, "city": "Hamburg", "zip_code": "20146", "country": "DE", "state": "HH", "display_address": ["Schr\u00f6derstiftstr. 9", "20146 Hamburg", "Germany"]}, "phone": "+494041339818", "display_phone": "+49 40 41339818", "distance": 470.49216729629325}, {"id": "2d1uMVD3eKoZtvZ9Oij4XA", "alias": "la-croque-hamburg", "name": "La Croque", "image_url": "https://s3-media2.fl.yelpcdn.com/bphoto/iQ0EpMxP6sxipzUt97_ncQ/o.jpg", "is_closed": false, "url": "https://www.yelp.com/biz/la-croque-hamburg?adjust_creative=hBJOknVQJ58S5goQyjmwRw&utm_campaign=yelp_api_v3&utm_medium=api_v3_business_search&utm_source=hBJOknVQJ58S5goQyjmwRw", "review_count": 7, "categories": [{"alias": "sandwiches", "title": "Sandwiches"}], "rating": 4.0, "coordinates": {"latitude": 53.5511194, "longitude": 9.9805083}, "transactions": [], "price": "\u20ac", "location": {"address1": "Markusstr. 17", "address2": "", "address3": null, "city": "Hamburg", "zip_code": "20355", "country": "DE", "state": "HH", "display_address": ["Markusstr. 17", "20355 Hamburg", "Germany"]}, "phone": "+4940342381", "display_phone": "+49 40 342381", "distance": 1081.1767101661849}, {"id": "n_Yio-a9VzssOtDbgezpRA", "alias": "subu-sushi-burrito-hamburg-3", "name": "Subu Sushi Burrito", "image_url": "https://s3-media3.fl.yelpcdn.com/bphoto/x2oh5mzvkzvrXjswE_MjXQ/o.jpg", "is_closed": false, "url": "https://www.yelp.com/biz/subu-sushi-burrito-hamburg-3?adjust_creative=hBJOknVQJ58S5goQyjmwRw&utm_campaign=yelp_api_v3&utm_medium=api_v3_business_search&utm_source=hBJOknVQJ58S5goQyjmwRw", "review_count": 3, "categories": [{"alias": "foodtrucks", "title": "Food Trucks"}, {"alias": "sushi", "title": "Sushi Bars"}], "rating": 5.0, "coordinates": {"latitude": 53.5526819869811, "longitude": 10.0010880455375}, "transactions": [], "price": "\u20ac", "location": {"address1": "", "address2": "", "address3": "", "city": "Hamburg", "zip_code": "", "country": "DE", "state": "HH", "display_address": ["Hamburg", "Germany"]}, "phone": "+4917670834316", "display_phone": "+49 176 70834316", "distance": 1871.4506543842053}, {"id": "Kxg2752gdjPg7OrgEsgh-g", "alias": "emmioglu-falafel-hamburg", "name": "Emmioglu Falafel", "image_url": "https://s3-media3.fl.yelpcdn.com/bphoto/dWLLjuHVG0PzCysaWA_kbw/o.jpg", "is_closed": false, "url": "https://www.yelp.com/biz/emmioglu-falafel-hamburg?adjust_creative=hBJOknVQJ58S5goQyjmwRw&utm_campaign=yelp_api_v3&utm_medium=api_v3_business_search&utm_source=hBJOknVQJ58S5goQyjmwRw", "review_count": 23, "categories": [{"alias": "foodstands", "title": "Food Stands"}, {"alias": "falafel", "title": "Falafel"}], "rating": 4.0, "coordinates": {"latitude": 53.55746, "longitude": 9.97}, "transactions": [], "price": "\u20ac\u20ac", "location": {"address1": "Feldstr. 32", "address2": "", "address3": "", "city": "Hamburg", "zip_code": "20357", "country": "DE", "state": "HH", "display_address": ["Feldstr. 32", "20357 Hamburg", "Germany"]}, "phone": "+49404305470", "display_phone": "+49 40 4305470", "distance": 513.8837515311468}, {"id": "MCX7fE69i3tzsPaEUHgfTQ", "alias": "peking-enten-haus-hamburg-2", "name": "Peking-Enten-Haus", "image_url": "https://s3-media3.fl.yelpcdn.com/bphoto/5h2YLmctarvkrH1wmJ4QNg/o.jpg", "is_closed": false, "url": "https://www.yelp.com/biz/peking-enten-haus-hamburg-2?adjust_creative=hBJOknVQJ58S5goQyjmwRw&utm_campaign=yelp_api_v3&utm_medium=api_v3_business_search&utm_source=hBJOknVQJ58S5goQyjmwRw", "review_count": 3, "categories": [{"alias": "chinese", "title": "Chinese"}], "rating": 3.0, "coordinates": {"latitude": 53.566, "longitude": 9.97713}, "transactions": [], "location": {"address1": "Laufgraben 18", "address2": "", "address3": null, "city": "Hamburg", "zip_code": "20146", "country": "DE", "state": "HH", "display_address": ["Laufgraben 18", "20146 Hamburg", "Germany"]}, "phone": "+4940458096", "display_phone": "+49 40 458096", "distance": 626.7209274084635}, {"id": "RWdMWqPPCIolgvqxBNw9AA", "alias": "bague-hamburg", "name": "Bague", "image_url": "https://s3-media4.fl.yelpcdn.com/bphoto/YRMWIkt-mOmdftdrttYOmg/o.jpg", "is_closed": false, "url": "https://www.yelp.com/biz/bague-hamburg?adjust_creative=hBJOknVQJ58S5goQyjmwRw&utm_campaign=yelp_api_v3&utm_medium=api_v3_business_search&utm_source=hBJOknVQJ58S5goQyjmwRw", "review_count": 2, "categories": [{"alias": "cafes", "title": "Cafes"}, {"alias": "cakeshop", "title": "Patisserie/Cake Shop"}], "rating": 5.0, "coordinates": {"latitude": 53.5546, "longitude": 9.9811599}, "transactions": [], "price": "\u20ac", "location": {"address1": "Kaiser Wilhelm Str. 89", "address2": "", "address3": "", "city": "Hamburg", "zip_code": "20355", "country": "DE", "state": "HH", "display_address": ["Kaiser Wilhelm Str. 89", "20355 Hamburg", "Germany"]}, "phone": "+494046645167", "display_phone": "+49 40 46645167", "distance": 734.3690020192133}, {"id": "Nvv6jRIfOWhi2Cc6WSxVKA", "alias": "bistro-abaton-hamburg", "name": "Bistro Abaton", "image_url": "https://s3-media4.fl.yelpcdn.com/bphoto/q3cQporzYaA6KbGKo4BOrg/o.jpg", "is_closed": false, "url": "https://www.yelp.com/biz/bistro-abaton-hamburg?adjust_creative=hBJOknVQJ58S5goQyjmwRw&utm_campaign=yelp_api_v3&utm_medium=api_v3_business_search&utm_source=hBJOknVQJ58S5goQyjmwRw", "review_count": 92, "categories": [{"alias": "modern_european", "title": "Modern European"}, {"alias": "cafes", "title": "Cafes"}], "rating": 3.5, "coordinates": {"latitude": 53.5676533, "longitude": 9.98212759206547}, "transactions": [], "price": "\u20ac\u20ac", "location": {"address1": "Grindelhof 14 A", "address2": null, "address3": null, "city": "Hamburg", "zip_code": "20146", "country": "DE", "state": "HH", "display_address": ["Grindelhof 14 A", "20146 Hamburg", "Germany"]}, "phone": "+4940457771", "display_phone": "+49 40 457771", "distance": 897.4957923913923}, {"id": "6-URsKcGDwx62rzYkn8fBA", "alias": "beyoglu-kebab-house-hamburg", "name": "Beyoglu Kebab House", "image_url": "https://s3-media3.fl.yelpcdn.com/bphoto/oRwapFBgSXSs0xTVL6GRsg/o.jpg", "is_closed": false, "url": "https://www.yelp.com/biz/beyoglu-kebab-house-hamburg?adjust_creative=hBJOknVQJ58S5goQyjmwRw&utm_campaign=yelp_api_v3&utm_medium=api_v3_business_search&utm_source=hBJOknVQJ58S5goQyjmwRw", "review_count": 8, "categories": [{"alias": "turkish", "title": "Turkish"}, {"alias": "kebab", "title": "Kebab"}], "rating": 3.5, "coordinates": {"latitude": 53.5501099, "longitude": 9.9796}, "transactions": [], "price": "\u20ac\u20ac", "location": {"address1": "Grossneumarkt 38", "address2": null, "address3": "", "city": "Hamburg", "zip_code": "20459", "country": "DE", "state": "HH", "display_address": ["Grossneumarkt 38", "20459 Hamburg", "Germany"]}, "phone": "+494060796190", "display_phone": "+49 40 60796190", "distance": 1192.5037935856653}, {"id": "gQTMrmPNr43c8sCvOlM3eA", "alias": "trattoria-due-da-enzo-hamburg", "name": "Trattoria Due Da Enzo", "image_url": "https://s3-media2.fl.yelpcdn.com/bphoto/sn5_a5t7_vHRHr9wAYIeLw/o.jpg", "is_closed": false, "url": "https://www.yelp.com/biz/trattoria-due-da-enzo-hamburg?adjust_creative=hBJOknVQJ58S5goQyjmwRw&utm_campaign=yelp_api_v3&utm_medium=api_v3_business_search&utm_source=hBJOknVQJ58S5goQyjmwRw", "review_count": 50, "categories": [{"alias": "italian", "title": "Italian"}], "rating": 4.0, "coordinates": {"latitude": 53.5505799, "longitude": 9.98092}, "transactions": [], "price": "\u20ac\u20ac\u20ac", "location": {"address1": "Gro\u00dfneumarkt 2", "address2": "", "address3": "", "city": "Hamburg", "zip_code": "20459", "country": "DE", "state": "HH", "display_address": ["Gro\u00dfneumarkt 2", "20459 Hamburg", "Germany"]}, "phone": "+494035715140", "display_phone": "+49 40 35715140", "distance": 1142.5410613132267}, {"id": "Qj8RWvTT60vZwYjN82pMow", "alias": "park-caf\u00e9-planten-un-blomen-hamburg", "name": "Park Caf\u00e9 Planten un Blomen", "image_url": "https://s3-media1.fl.yelpcdn.com/bphoto/6rZMEhxN6D4ghYbZmopluw/o.jpg", "is_closed": false, "url": "https://www.yelp.com/biz/park-caf%C3%A9-planten-un-blomen-hamburg?adjust_creative=hBJOknVQJ58S5goQyjmwRw&utm_campaign=yelp_api_v3&utm_medium=api_v3_business_search&utm_source=hBJOknVQJ58S5goQyjmwRw", "review_count": 2, "categories": [{"alias": "cafes", "title": "Cafes"}, {"alias": "beergarden", "title": "Beer Garden"}], "rating": 4.5, "coordinates": {"latitude": 53.553106, "longitude": 9.974383}, "transactions": [], "location": {"address1": "Holstenwall 30", "address2": "", "address3": null, "city": "Hamburg", "zip_code": "20355", "country": "DE", "state": "HH", "display_address": ["Holstenwall 30", "20355 Hamburg", "Germany"]}, "phone": "", "display_phone": "", "distance": 824.378236085278}, {"id": "NNDr3Muuj3QDX4Y6FU66gg", "alias": "dat-backhus-hamburg-32", "name": "Dat Backhus", "image_url": "https://s3-media1.fl.yelpcdn.com/bphoto/fPZUd9JkHIiNSVZO0FGCUQ/o.jpg", "is_closed": false, "url": "https://www.yelp.com/biz/dat-backhus-hamburg-32?adjust_creative=hBJOknVQJ58S5goQyjmwRw&utm_campaign=yelp_api_v3&utm_medium=api_v3_business_search&utm_source=hBJOknVQJ58S5goQyjmwRw", "review_count": 19, "categories": [{"alias": "bakeries", "title": "Bakeries"}, {"alias": "cafes", "title": "Cafes"}], "rating": 3.5, "coordinates": {"latitude": 53.5503281, "longitude": 9.9773228}, "transactions": [], "price": "\u20ac\u20ac", "location": {"address1": "Neuer Steinweg 20", "address2": "", "address3": "", "city": "Hamburg", "zip_code": "20355", "country": "DE", "state": "HH", "display_address": ["Neuer Steinweg 20", "20355 Hamburg", "Germany"]}, "phone": "+494030703670", "display_phone": "+49 40 30703670", "distance": 1130.212691689949}, {"id": "cEfKAP2twi45gI-kUEL5nw", "alias": "imbiss-asia-viet-hamburg", "name": "Imbiss Asia-Viet", "image_url": "https://s3-media4.fl.yelpcdn.com/bphoto/jyBGzaHsxMZ0Z3ffAs1CmA/o.jpg", "is_closed": false, "url": "https://www.yelp.com/biz/imbiss-asia-viet-hamburg?adjust_creative=hBJOknVQJ58S5goQyjmwRw&utm_campaign=yelp_api_v3&utm_medium=api_v3_business_search&utm_source=hBJOknVQJ58S5goQyjmwRw", "review_count": 5, "categories": [{"alias": "vietnamese", "title": "Vietnamese"}, {"alias": "panasian", "title": "Pan Asian"}], "rating": 4.0, "coordinates": {"latitude": 53.56492, "longitude": 9.97753}, "transactions": [], "price": "\u20ac", "location": {"address1": "Rentzelstr. 52", "address2": "", "address3": "", "city": "Hamburg", "zip_code": "20146", "country": "DE", "state": "HH", "display_address": ["Rentzelstr. 52", "20146 Hamburg", "Germany"]}, "phone": "+494041330921", "display_phone": "+49 40 41330921", "distance": 500.80658768088676}, {"id": "pMukUYGY0JPnMhK8BHGroA", "alias": "pan-cafe-und-bar-hamburg", "name": "Pan Cafe & Bar", "image_url": "https://s3-media1.fl.yelpcdn.com/bphoto/IR1ODSK85RNhp35F9vdu8A/o.jpg", "is_closed": false, "url": "https://www.yelp.com/biz/pan-cafe-und-bar-hamburg?adjust_creative=hBJOknVQJ58S5goQyjmwRw&utm_campaign=yelp_api_v3&utm_medium=api_v3_business_search&utm_source=hBJOknVQJ58S5goQyjmwRw", "review_count": 4, "categories": [{"alias": "cafes", "title": "Cafes"}], "rating": 4.0, "coordinates": {"latitude": 53.55025, "longitude": 9.98191}, "transactions": [], "price": "\u20ac", "location": {"address1": "Alter Steinweg 11", "address2": "", "address3": "", "city": "Hamburg", "zip_code": "20459", "country": "DE", "state": "HH", "display_address": ["Alter Steinweg 11", "20459 Hamburg", "Germany"]}, "phone": "+494030753698", "display_phone": "+49 40 30753698", "distance": 1201.366988194138}, {"id": "APvIA_7ssxgC0atmQEFMcg", "alias": "burgerkultour-food-truck-hamburg-2", "name": "BurgerKultour Food Truck", "image_url": "https://s3-media4.fl.yelpcdn.com/bphoto/KoAuwalMnlAO8139MmdYBQ/o.jpg", "is_closed": false, "url": "https://www.yelp.com/biz/burgerkultour-food-truck-hamburg-2?adjust_creative=hBJOknVQJ58S5goQyjmwRw&utm_campaign=yelp_api_v3&utm_medium=api_v3_business_search&utm_source=hBJOknVQJ58S5goQyjmwRw", "review_count": 3, "categories": [{"alias": "foodtrucks", "title": "Food Trucks"}, {"alias": "burgers", "title": "Burgers"}], "rating": 4.5, "coordinates": {"latitude": 53.57154, "longitude": 9.95575}, "transactions": [], "price": "\u20ac\u20ac", "location": {"address1": "", "address2": "", "address3": "", "city": "Hamburg", "zip_code": "20259", "country": "DE", "state": "HH", "display_address": ["20259 Hamburg", "Germany"]}, "phone": "+4917626055122", "display_phone": "+49 176 26055122", "distance": 1743.112489884518}, {"id": "1F1qeAGTy9bTexDqbjKUvQ", "alias": "rucola-e-parma-hamburg", "name": "Rucola e Parma", "image_url": "https://s3-media3.fl.yelpcdn.com/bphoto/uWLXwSeH5lheeB8_jn8q-g/o.jpg", "is_closed": false, "url": "https://www.yelp.com/biz/rucola-e-parma-hamburg?adjust_creative=hBJOknVQJ58S5goQyjmwRw&utm_campaign=yelp_api_v3&utm_medium=api_v3_business_search&utm_source=hBJOknVQJ58S5goQyjmwRw", "review_count": 24, "categories": [{"alias": "italian", "title": "Italian"}], "rating": 4.5, "coordinates": {"latitude": 53.57007, "longitude": 9.97537}, "transactions": [], "price": "\u20ac\u20ac", "location": {"address1": "Beim Schlump 27", "address2": "", "address3": "", "city": "Hamburg", "zip_code": "20144", "country": "DE", "state": "HH", "display_address": ["Beim Schlump 27", "20144 Hamburg", "Germany"]}, "phone": "+494045069988", "display_phone": "+49 40 45069988", "distance": 1089.8177155884289}, {"id": "wnnTUtUQo4Xjfz81GHKH6g", "alias": "noahs-taverna-hamburg-2", "name": "Noahs Taverna", "image_url": "https://s3-media1.fl.yelpcdn.com/bphoto/FWvPncMvm_xbkDdd-ZHEaw/o.jpg", "is_closed": false, "url": "https://www.yelp.com/biz/noahs-taverna-hamburg-2?adjust_creative=hBJOknVQJ58S5goQyjmwRw&utm_campaign=yelp_api_v3&utm_medium=api_v3_business_search&utm_source=hBJOknVQJ58S5goQyjmwRw", "review_count": 64, "categories": [{"alias": "greek", "title": "Greek"}], "rating": 3.5, "coordinates": {"latitude": 53.55012, "longitude": 9.98056}, "transactions": [], "price": "\u20ac\u20ac", "location": {"address1": "Gro\u00dfneumarkt 52", "address2": "", "address3": "", "city": "Hamburg", "zip_code": "20459", "country": "DE", "state": "HH", "display_address": ["Gro\u00dfneumarkt 52", "20459 Hamburg", "Germany"]}, "phone": "+494063607829", "display_phone": "+49 40 63607829", "distance": 1191.5465059856915}, {"id": "0Gy0N_onE5PYf-OSsLaZRw", "alias": "kims-kitchen-hamburg", "name": "Kim's Kitchen", "image_url": "https://s3-media2.fl.yelpcdn.com/bphoto/VOzXpsNzvgE9W7aqUyaimA/o.jpg", "is_closed": false, "url": "https://www.yelp.com/biz/kims-kitchen-hamburg?adjust_creative=hBJOknVQJ58S5goQyjmwRw&utm_campaign=yelp_api_v3&utm_medium=api_v3_business_search&utm_source=hBJOknVQJ58S5goQyjmwRw", "review_count": 1, "categories": [{"alias": "laotian", "title": "Laotian"}], "rating": 2.0, "coordinates": {"latitude": 53.55836, "longitude": 9.97287}, "transactions": [], "location": {"address1": "Marktstr. 21 a", "address2": "", "address3": null, "city": "Hamburg", "zip_code": "20357", "country": "DE", "state": "HH", "display_address": ["Marktstr. 21 a", "20357 Hamburg", "Germany"]}, "phone": "+494069608914", "display_phone": "+49 40 69608914", "distance": 312.1360836975317}, {"id": "Jg2sNFjDBQYsBc8heoKJrg", "alias": "sehr-schmeck-hamburg", "name": "Sehr Schmeck", "image_url": "https://s3-media2.fl.yelpcdn.com/bphoto/fO2NfWzh4gFn7zFrbo_4Og/o.jpg", "is_closed": false, "url": "https://www.yelp.com/biz/sehr-schmeck-hamburg?adjust_creative=hBJOknVQJ58S5goQyjmwRw&utm_campaign=yelp_api_v3&utm_medium=api_v3_business_search&utm_source=hBJOknVQJ58S5goQyjmwRw", "review_count": 3, "categories": [{"alias": "soup", "title": "Soup"}, {"alias": "coffee", "title": "Coffee & Tea"}], "rating": 4.5, "coordinates": {"latitude": 53.5583765870235, "longitude": 9.97017116745246}, "transactions": [], "price": "\u20ac\u20ac", "location": {"address1": "Marktstr. 102", "address2": "", "address3": "", "city": "Hamburg", "zip_code": "20357", "country": "DE", "state": "HH", "display_address": ["Marktstr. 102", "20357 Hamburg", "Germany"]}, "phone": "+4915150625396", "display_phone": "+49 1515 0625396", "distance": 447.21473891444714}, {"id": "VMOz9FZ3sCBUpwLAj1hJEA", "alias": "roxie-hamburg-3", "name": "Roxie", "image_url": "https://s3-media2.fl.yelpcdn.com/bphoto/W3QiEPdseXOJNgujXLXlIQ/o.jpg", "is_closed": false, "url": "https://www.yelp.com/biz/roxie-hamburg-3?adjust_creative=hBJOknVQJ58S5goQyjmwRw&utm_campaign=yelp_api_v3&utm_medium=api_v3_business_search&utm_source=hBJOknVQJ58S5goQyjmwRw", "review_count": 82, "categories": [{"alias": "international", "title": "International"}, {"alias": "bistros", "title": "Bistros"}, {"alias": "cocktailbars", "title": "Cocktail Bars"}], "rating": 3.5, "coordinates": {"latitude": 53.5668385, "longitude": 9.9803422}, "transactions": [], "price": "\u20ac", "location": {"address1": "Rentzelstr. 6", "address2": null, "address3": null, "city": "Hamburg", "zip_code": "20146", "country": "DE", "state": "HH", "display_address": ["Rentzelstr. 6", "20146 Hamburg", "Germany"]}, "phone": "+4940451770", "display_phone": "+49 40 451770", "distance": 765.9426078456908}, {"id": "S0iyHqWxJuKS1XpnpYZDsw", "alias": "hadleys-caf\u00e9-bar-hamburg-3", "name": "Hadley's Caf\u00e9 Bar", "image_url": "https://s3-media1.fl.yelpcdn.com/bphoto/9a-_Sc2NpA0rBJraVuaqZQ/o.jpg", "is_closed": false, "url": "https://www.yelp.com/biz/hadleys-caf%C3%A9-bar-hamburg-3?adjust_creative=hBJOknVQJ58S5goQyjmwRw&utm_campaign=yelp_api_v3&utm_medium=api_v3_business_search&utm_source=hBJOknVQJ58S5goQyjmwRw", "review_count": 96, "categories": [{"alias": "bars", "title": "Bars"}, {"alias": "cafes", "title": "Cafes"}], "rating": 3.5, "coordinates": {"latitude": 53.570575898216, "longitude": 9.9771439338684}, "transactions": [], "price": "\u20ac\u20ac", "location": {"address1": "Beim Schlump 84 a", "address2": null, "address3": null, "city": "Hamburg", "zip_code": "20144", "country": "DE", "state": "HH", "display_address": ["Beim Schlump 84 a", "20144 Hamburg", "Germany"]}, "phone": "+49404505075", "display_phone": "+49 40 4505075", "distance": 1127.5154751430075}, {"id": "JHEJnQU0KAAuBxVmP-IxZQ", "alias": "balutschistan-hamburg", "name": "Balutschistan", "image_url": "https://s3-media2.fl.yelpcdn.com/bphoto/J_vP6WAsBC__fz84qtWzEg/o.jpg", "is_closed": false, "url": "https://www.yelp.com/biz/balutschistan-hamburg?adjust_creative=hBJOknVQJ58S5goQyjmwRw&utm_campaign=yelp_api_v3&utm_medium=api_v3_business_search&utm_source=hBJOknVQJ58S5goQyjmwRw", "review_count": 85, "categories": [{"alias": "indpak", "title": "Indian"}, {"alias": "pakistani", "title": "Pakistani"}], "rating": 3.5, "coordinates": {"latitude": 53.568101675986, "longitude": 9.979875859399}, "transactions": [], "price": "\u20ac\u20ac", "location": {"address1": "Grindelallee 91", "address2": "", "address3": "", "city": "Hamburg", "zip_code": "20146", "country": "DE", "state": "HH", "display_address": ["Grindelallee 91", "20146 Hamburg", "Germany"]}, "phone": "+494041280246", "display_phone": "+49 40 41280246", "distance": 888.1238144997722}, {"id": "cnLmlT-p3-S8O2Mpq_Ozfg", "alias": "nigiri-sushi-und-more-hamburg", "name": "nigiri sushi & more", "image_url": "https://s3-media2.fl.yelpcdn.com/bphoto/BU2kyDBnSahS7p3vOHAO0w/o.jpg", "is_closed": false, "url": "https://www.yelp.com/biz/nigiri-sushi-und-more-hamburg?adjust_creative=hBJOknVQJ58S5goQyjmwRw&utm_campaign=yelp_api_v3&utm_medium=api_v3_business_search&utm_source=hBJOknVQJ58S5goQyjmwRw", "review_count": 6, "categories": [{"alias": "sushi", "title": "Sushi Bars"}], "rating": 4.0, "coordinates": {"latitude": 53.5672962, "longitude": 9.9813441}, "transactions": [], "price": "\u20ac\u20ac", "location": {"address1": "Grindelhof 2-6", "address2": "", "address3": "", "city": "Hamburg", "zip_code": "20146", "country": "DE", "state": "HH", "display_address": ["Grindelhof 2-6", "20146 Hamburg", "Germany"]}, "phone": "+494041498488", "display_phone": "+49 40 41498488", "distance": 839.1076621508807}, {"id": "2jzIbZsfzca5drJYk7JwbQ", "alias": "the-bao-bros-hamburg-2", "name": "The Bao Bros", "image_url": "https://s3-media1.fl.yelpcdn.com/bphoto/vUMA4Y35x3UwZk6fMJfZRw/o.jpg", "is_closed": false, "url": "https://www.yelp.com/biz/the-bao-bros-hamburg-2?adjust_creative=hBJOknVQJ58S5goQyjmwRw&utm_campaign=yelp_api_v3&utm_medium=api_v3_business_search&utm_source=hBJOknVQJ58S5goQyjmwRw", "review_count": 2, "categories": [{"alias": "foodtrucks", "title": "Food Trucks"}, {"alias": "burgers", "title": "Burgers"}], "rating": 4.0, "coordinates": {"latitude": 53.5533409118652, "longitude": 9.99246978759766}, "transactions": [], "price": "\u20ac", "location": {"address1": "", "address2": "", "address3": "", "city": "Hamburg", "zip_code": "", "country": "DE", "state": "HH", "display_address": ["Hamburg", "Germany"]}, "phone": "+4915140700076", "display_phone": "+49 1514 0700076", "distance": 1567.395191070671}, {"id": "jCxQHMldsoMsikCKbZJ3dQ", "alias": "caffetteria-da-franco-hamburg", "name": "Caffetteria da Franco", "image_url": "https://s3-media1.fl.yelpcdn.com/bphoto/CDnf9Jn-QJFZtuwCAYsg3g/o.jpg", "is_closed": false, "url": "https://www.yelp.com/biz/caffetteria-da-franco-hamburg?adjust_creative=hBJOknVQJ58S5goQyjmwRw&utm_campaign=yelp_api_v3&utm_medium=api_v3_business_search&utm_source=hBJOknVQJ58S5goQyjmwRw", "review_count": 6, "categories": [{"alias": "cafes", "title": "Cafes"}, {"alias": "italian", "title": "Italian"}], "rating": 4.5, "coordinates": {"latitude": 53.5512, "longitude": 9.98055}, "transactions": [], "price": "\u20ac\u20ac\u20ac\u20ac", "location": {"address1": "Thielbek 3", "address2": "", "address3": null, "city": "Hamburg", "zip_code": "20355", "country": "DE", "state": "HH", "display_address": ["Thielbek 3", "20355 Hamburg", "Germany"]}, "phone": "+494035016545", "display_phone": "+49 40 35016545", "distance": 1073.344097562363}, {"id": "zweWx3LkfZYPchp9hy3U9g", "alias": "ristorante-luna-hamburg-3", "name": "Ristorante Luna", "image_url": "https://s3-media4.fl.yelpcdn.com/bphoto/aqfaml0Mbrk0XIhsIVCt8A/o.jpg", "is_closed": false, "url": "https://www.yelp.com/biz/ristorante-luna-hamburg-3?adjust_creative=hBJOknVQJ58S5goQyjmwRw&utm_campaign=yelp_api_v3&utm_medium=api_v3_business_search&utm_source=hBJOknVQJ58S5goQyjmwRw", "review_count": 91, "categories": [{"alias": "italian", "title": "Italian"}], "rating": 4.0, "coordinates": {"latitude": 53.550968, "longitude": 9.981799}, "transactions": [], "price": "\u20ac\u20ac", "location": {"address1": "Wexstr. 31", "address2": null, "address3": null, "city": "Hamburg", "zip_code": "20355", "country": "DE", "state": "HH", "display_address": ["Wexstr. 31", "20355 Hamburg", "Germany"]}, "phone": "+4940354471", "display_phone": "+49 40 354471", "distance": 1128.796745827401}, {"id": "rMt2D7h-S-mJKrZWzSGfKg", "alias": "michelangelo-hamburg", "name": "Michelangelo", "image_url": "https://s3-media2.fl.yelpcdn.com/bphoto/bF-Fvx1Rbzl-3O4dHWmpxw/o.jpg", "is_closed": false, "url": "https://www.yelp.com/biz/michelangelo-hamburg?adjust_creative=hBJOknVQJ58S5goQyjmwRw&utm_campaign=yelp_api_v3&utm_medium=api_v3_business_search&utm_source=hBJOknVQJ58S5goQyjmwRw", "review_count": 20, "categories": [{"alias": "italian", "title": "Italian"}], "rating": 4.0, "coordinates": {"latitude": 53.55289, "longitude": 9.97648}, "transactions": [], "price": "\u20ac\u20ac", "location": {"address1": "Holstenwall 13", "address2": "", "address3": null, "city": "Hamburg", "zip_code": "20355", "country": "DE", "state": "HH", "display_address": ["Holstenwall 13", "20355 Hamburg", "Germany"]}, "phone": "+49403480600", "display_phone": "+49 40 3480600", "distance": 849.0205103882931}, {"id": "AYsSOhx1A2nxQ8PuSh3w_g", "alias": "double-coffee-hamburg", "name": "Double Coffee", "image_url": "https://s3-media4.fl.yelpcdn.com/bphoto/i9Ct6myYQKydI0VFbItYWQ/o.jpg", "is_closed": false, "url": "https://www.yelp.com/biz/double-coffee-hamburg?adjust_creative=hBJOknVQJ58S5goQyjmwRw&utm_campaign=yelp_api_v3&utm_medium=api_v3_business_search&utm_source=hBJOknVQJ58S5goQyjmwRw", "review_count": 14, "categories": [{"alias": "coffee", "title": "Coffee & Tea"}, {"alias": "cafes", "title": "Cafes"}], "rating": 3.5, "coordinates": {"latitude": 53.55544, "longitude": 9.98121}, "transactions": [], "price": "\u20ac", "location": {"address1": "Dragonerstall 15", "address2": "", "address3": null, "city": "Hamburg", "zip_code": "20355", "country": "DE", "state": "HH", "display_address": ["Dragonerstall 15", "20355 Hamburg", "Germany"]}, "phone": "+494076970664", "display_phone": "+49 40 76970664", "distance": 658.9980260512291}, {"id": "GiUhCMtRaUYprXuosLYdyg", "alias": "big-bull-hamburg", "name": "Big Bull", "image_url": "https://s3-media3.fl.yelpcdn.com/bphoto/_qPFlxk6dpGsu_l6veFpdw/o.jpg", "is_closed": false, "url": "https://www.yelp.com/biz/big-bull-hamburg?adjust_creative=hBJOknVQJ58S5goQyjmwRw&utm_campaign=yelp_api_v3&utm_medium=api_v3_business_search&utm_source=hBJOknVQJ58S5goQyjmwRw", "review_count": 19, "categories": [{"alias": "steak", "title": "Steakhouses"}], "rating": 3.0, "coordinates": {"latitude": 53.55093, "longitude": 9.9796896}, "transactions": [], "price": "\u20ac\u20ac", "location": {"address1": "Gro\u00dfneumarkt 24", "address2": "", "address3": "", "city": "Hamburg", "zip_code": "20459", "country": "DE", "state": "HH", "display_address": ["Gro\u00dfneumarkt 24", "20459 Hamburg", "Germany"]}, "phone": "+494054803900", "display_phone": "+49 40 54803900", "distance": 1084.15653571992}, {"id": "zM7Tlv5bFUmHXqcv3BcTgg", "alias": "caf\u00e9-mococo-hamburg", "name": "Caf\u00e9 Mococo", "image_url": "https://s3-media3.fl.yelpcdn.com/bphoto/WsqYynOzylNxE4KbLrWAAg/o.jpg", "is_closed": false, "url": "https://www.yelp.com/biz/caf%C3%A9-mococo-hamburg?adjust_creative=hBJOknVQJ58S5goQyjmwRw&utm_campaign=yelp_api_v3&utm_medium=api_v3_business_search&utm_source=hBJOknVQJ58S5goQyjmwRw", "review_count": 1, "categories": [{"alias": "portuguese", "title": "Portuguese"}, {"alias": "cafes", "title": "Cafes"}], "rating": 5.0, "coordinates": {"latitude": 53.55256, "longitude": 9.98045}, "transactions": [], "location": {"address1": "Kohlh\u00f6fen 17", "address2": "", "address3": "", "city": "Hamburg", "zip_code": "20355", "country": "DE", "state": "HH", "display_address": ["Kohlh\u00f6fen 17", "20355 Hamburg", "Germany"]}, "phone": "", "display_phone": "", "distance": 922.4349810277353}, {"id": "LFd3NtFtEsUjGoipcyzxMA", "alias": "restaurant-rosenhof-hamburg", "name": "Restaurant Rosenhof", "image_url": "https://s3-media3.fl.yelpcdn.com/bphoto/W7xJrJaTYNbWYizEV9zfqA/o.jpg", "is_closed": false, "url": "https://www.yelp.com/biz/restaurant-rosenhof-hamburg?adjust_creative=hBJOknVQJ58S5goQyjmwRw&utm_campaign=yelp_api_v3&utm_medium=api_v3_business_search&utm_source=hBJOknVQJ58S5goQyjmwRw", "review_count": 7, "categories": [{"alias": "bistros", "title": "Bistros"}, {"alias": "german", "title": "German"}], "rating": 2.5, "coordinates": {"latitude": 53.5632867001817, "longitude": 9.98091481626034}, "transactions": [], "price": "\u20ac\u20ac", "location": {"address1": "Tiergartenstr. 10", "address2": null, "address3": null, "city": "Hamburg", "zip_code": "20355", "country": "DE", "state": "HH", "display_address": ["Tiergartenstr. 10", "20355 Hamburg", "Germany"]}, "phone": "+4940343787", "display_phone": "+49 40 343787", "distance": 453.59573383981103}, {"id": "VrRnN03NA-wk_hBG7JaXIQ", "alias": "cupn-go-hamburg-4", "name": "Cup'n Go", "image_url": "https://s3-media1.fl.yelpcdn.com/bphoto/HC5BFbs_5WWQrWNTlGXGyg/o.jpg", "is_closed": false, "url": "https://www.yelp.com/biz/cupn-go-hamburg-4?adjust_creative=hBJOknVQJ58S5goQyjmwRw&utm_campaign=yelp_api_v3&utm_medium=api_v3_business_search&utm_source=hBJOknVQJ58S5goQyjmwRw", "review_count": 1, "categories": [{"alias": "hotdogs", "title": "Fast Food"}], "rating": 4.0, "coordinates": {"latitude": 53.567511486368, "longitude": 9.98119060730942}, "transactions": [], "price": "\u20ac", "location": {"address1": "Grindelhof 1", "address2": "", "address3": "", "city": "Hamburg", "zip_code": "20146", "country": "DE", "state": "HH", "display_address": ["Grindelhof 1", "20146 Hamburg", "Germany"]}, "phone": "+494069084689", "display_phone": "+49 40 69084689", "distance": 856.7173739575605}, {"id": "mJ9R4ZdrbQEBqTOzTVhZvw", "alias": "tai-pho-hamburg", "name": "Tai Pho", "image_url": "https://s3-media1.fl.yelpcdn.com/bphoto/GNe5OJTtv03YzVeot5xhZg/o.jpg", "is_closed": false, "url": "https://www.yelp.com/biz/tai-pho-hamburg?adjust_creative=hBJOknVQJ58S5goQyjmwRw&utm_campaign=yelp_api_v3&utm_medium=api_v3_business_search&utm_source=hBJOknVQJ58S5goQyjmwRw", "review_count": 1, "categories": [{"alias": "thai", "title": "Thai"}], "rating": 3.0, "coordinates": {"latitude": 53.567537, "longitude": 9.980281}, "transactions": [], "location": {"address1": "Grindelallee 83", "address2": "", "address3": null, "city": "Hamburg", "zip_code": "20146", "country": "DE", "state": "HH", "display_address": ["Grindelallee 83", "20146 Hamburg", "Germany"]}, "phone": "+494082243909", "display_phone": "+49 40 82243909", "distance": 834.862687379849}, {"id": "88Ek_bz9C3bx_voHK9qsxw", "alias": "gopalam-hamburg", "name": "Gopalam", "image_url": "https://s3-media4.fl.yelpcdn.com/bphoto/fKu3p9XA_s8gGV4YqC5nIg/o.jpg", "is_closed": false, "url": "https://www.yelp.com/biz/gopalam-hamburg?adjust_creative=hBJOknVQJ58S5goQyjmwRw&utm_campaign=yelp_api_v3&utm_medium=api_v3_business_search&utm_source=hBJOknVQJ58S5goQyjmwRw", "review_count": 55, "categories": [{"alias": "vegetarian", "title": "Vegetarian"}, {"alias": "indpak", "title": "Indian"}], "rating": 3.5, "coordinates": {"latitude": 53.5707898121772, "longitude": 9.97815144541625}, "transactions": [], "price": "\u20ac", "location": {"address1": "Grindelallee 159", "address2": null, "address3": null, "city": "Hamburg", "zip_code": "20146", "country": "DE", "state": "HH", "display_address": ["Grindelallee 159", "20146 Hamburg", "Germany"]}, "phone": "+49404504048", "display_phone": "+49 40 4504048", "distance": 1157.6589195168026}, {"id": "BXPDAcklr2NuApAqa_5m7w", "alias": "roxy-bar-montra-caf\u00e9-bistro-hamburg", "name": "Roxy Bar Montra Caf\u00e9 Bistro", "image_url": "", "is_closed": false, "url": "https://www.yelp.com/biz/roxy-bar-montra-caf%C3%A9-bistro-hamburg?adjust_creative=hBJOknVQJ58S5goQyjmwRw&utm_campaign=yelp_api_v3&utm_medium=api_v3_business_search&utm_source=hBJOknVQJ58S5goQyjmwRw", "review_count": 1, "categories": [{"alias": "cafes", "title": "Cafes"}, {"alias": "coffee", "title": "Coffee & Tea"}], "rating": 4.0, "coordinates": {"latitude": 53.5511, "longitude": 9.98049}, "transactions": [], "location": {"address1": "Thielbek 3", "address2": null, "address3": null, "city": "Hamburg", "zip_code": "20355", "country": "DE", "state": "HH", "display_address": ["Thielbek 3", "20355 Hamburg", "Germany"]}, "phone": "+494035016545", "display_phone": "+49 40 35016545", "distance": 1082.9147883553176}, {"id": "PcbmWpZ7jD4-xWznO7t8xw", "alias": "il-girasole-hamburg", "name": "Il Girasole", "image_url": "https://s3-media2.fl.yelpcdn.com/bphoto/OwzWCDtks9jB9j2y2f-oCw/o.jpg", "is_closed": false, "url": "https://www.yelp.com/biz/il-girasole-hamburg?adjust_creative=hBJOknVQJ58S5goQyjmwRw&utm_campaign=yelp_api_v3&utm_medium=api_v3_business_search&utm_source=hBJOknVQJ58S5goQyjmwRw", "review_count": 27, "categories": [{"alias": "italian", "title": "Italian"}], "rating": 3.5, "coordinates": {"latitude": 53.5517883, "longitude": 9.9805603}, "transactions": [], "price": "\u20ac", "location": {"address1": "Kohlh\u00f6fen 6", "address2": "", "address3": "", "city": "Hamburg", "zip_code": "20355", "country": "DE", "state": "HH", "display_address": ["Kohlh\u00f6fen 6", "20355 Hamburg", "Germany"]}, "phone": "+494035719261", "display_phone": "+49 40 35719261", "distance": 1009.1809218157742}, {"id": "A-SHrkG2SHjLxCCLvrztsA", "alias": "sallis-hamburg", "name": "Salli's", "image_url": "https://s3-media4.fl.yelpcdn.com/bphoto/NuttWqM2jH9QZ0oq5G63sQ/o.jpg", "is_closed": false, "url": "https://www.yelp.com/biz/sallis-hamburg?adjust_creative=hBJOknVQJ58S5goQyjmwRw&utm_campaign=yelp_api_v3&utm_medium=api_v3_business_search&utm_source=hBJOknVQJ58S5goQyjmwRw", "review_count": 12, "categories": [{"alias": "hotdogs", "title": "Fast Food"}], "rating": 3.0, "coordinates": {"latitude": 53.568115, "longitude": 9.969683}, "transactions": [], "price": "\u20ac\u20ac\u20ac", "location": {"address1": "Sch\u00e4ferkampsallee 2", "address2": "", "address3": "", "city": "Hamburg", "zip_code": "20357", "country": "DE", "state": "HH", "display_address": ["Sch\u00e4ferkampsallee 2", "20357 Hamburg", "Germany"]}, "phone": "", "display_phone": "", "distance": 946.8303691205188}, {"id": "oX_6ceMrlqD58LSvWZqnCQ", "alias": "restaurant-donostia-hamburg", "name": "Restaurant Donostia", "image_url": "https://s3-media2.fl.yelpcdn.com/bphoto/yjOpPhVBeh63ZwgmwL1HZw/o.jpg", "is_closed": false, "url": "https://www.yelp.com/biz/restaurant-donostia-hamburg?adjust_creative=hBJOknVQJ58S5goQyjmwRw&utm_campaign=yelp_api_v3&utm_medium=api_v3_business_search&utm_source=hBJOknVQJ58S5goQyjmwRw", "review_count": 2, "categories": [{"alias": "spanish", "title": "Spanish"}], "rating": 3.0, "coordinates": {"latitude": 53.5655, "longitude": 9.98034}, "transactions": [], "price": "\u20ac\u20ac", "location": {"address1": "Bundesstr. 30", "address2": null, "address3": null, "city": "Hamburg", "zip_code": "20146", "country": "DE", "state": "HH", "display_address": ["Bundesstr. 30", "20146 Hamburg", "Germany"]}, "phone": "+494044140418", "display_phone": "+49 40 44140418", "distance": 630.5724253239853}, {"id": "nfn8p7LgVfmerGQL8w71NA", "alias": "caf\u00e9-da-gama-hamburg-2", "name": "Caf\u00e9 da Gama", "image_url": "https://s3-media1.fl.yelpcdn.com/bphoto/iQID8N3XodCJY4CHh8UDlQ/o.jpg", "is_closed": false, "url": "https://www.yelp.com/biz/caf%C3%A9-da-gama-hamburg-2?adjust_creative=hBJOknVQJ58S5goQyjmwRw&utm_campaign=yelp_api_v3&utm_medium=api_v3_business_search&utm_source=hBJOknVQJ58S5goQyjmwRw", "review_count": 11, "categories": [{"alias": "portuguese", "title": "Portuguese"}, {"alias": "sandwiches", "title": "Sandwiches"}, {"alias": "desserts", "title": "Desserts"}], "rating": 3.5, "coordinates": {"latitude": 53.56745, "longitude": 9.98154}, "transactions": [], "price": "\u20ac\u20ac", "location": {"address1": "Grindelhof 10", "address2": "", "address3": "", "city": "Hamburg", "zip_code": "20146", "country": "DE", "state": "HH", "display_address": ["Grindelhof 10", "20146 Hamburg", "Germany"]}, "phone": "+494041172819", "display_phone": "+49 40 41172819", "distance": 887.8648157326281}, {"id": "5d8Yoi36dIfHZUqhNjIg8Q", "alias": "din-hau-hamburg-3", "name": "Din Hau", "image_url": "https://s3-media2.fl.yelpcdn.com/bphoto/6zv_sX5Gv76_wfw74yIt5A/o.jpg", "is_closed": false, "url": "https://www.yelp.com/biz/din-hau-hamburg-3?adjust_creative=hBJOknVQJ58S5goQyjmwRw&utm_campaign=yelp_api_v3&utm_medium=api_v3_business_search&utm_source=hBJOknVQJ58S5goQyjmwRw", "review_count": 11, "categories": [{"alias": "panasian", "title": "Pan Asian"}], "rating": 2.5, "coordinates": {"latitude": 53.55091, "longitude": 9.9815}, "transactions": [], "price": "\u20ac", "location": {"address1": "Wexstr. 33", "address2": "", "address3": "", "city": "Hamburg", "zip_code": "20355", "country": "DE", "state": "HH", "display_address": ["Wexstr. 33", "20355 Hamburg", "Germany"]}, "phone": "+4940342869", "display_phone": "+49 40 342869", "distance": 1128.4393119713168}, {"id": "2FZAp0aGQkc3awPCj3X17g", "alias": "akdeniz-schnell-imbiss-hamburg", "name": "Akdeniz Schnell Imbiss", "image_url": "https://s3-media3.fl.yelpcdn.com/bphoto/P6OSW1VrpbyvCBIT8u2HMw/o.jpg", "is_closed": false, "url": "https://www.yelp.com/biz/akdeniz-schnell-imbiss-hamburg?adjust_creative=hBJOknVQJ58S5goQyjmwRw&utm_campaign=yelp_api_v3&utm_medium=api_v3_business_search&utm_source=hBJOknVQJ58S5goQyjmwRw", "review_count": 14, "categories": [{"alias": "foodstands", "title": "Food Stands"}, {"alias": "kebab", "title": "Kebab"}], "rating": 4.0, "coordinates": {"latitude": 53.56768, "longitude": 9.98006}, "transactions": [], "price": "\u20ac\u20ac\u20ac", "location": {"address1": "Grindelallee 87", "address2": "", "address3": "", "city": "Hamburg", "zip_code": "20146", "country": "DE", "state": "HH", "display_address": ["Grindelallee 87", "20146 Hamburg", "Germany"]}, "phone": "+494041339458", "display_phone": "+49 40 41339458", "distance": 847.1808077891488}, {"id": "xK8nqMzPkmGpOnEueWphhA", "alias": "adina-apartment-hotel-hamburg", "name": "Adina Apartment Hotel", "image_url": "", "is_closed": false, "url": "https://www.yelp.com/biz/adina-apartment-hotel-hamburg?adjust_creative=hBJOknVQJ58S5goQyjmwRw&utm_campaign=yelp_api_v3&utm_medium=api_v3_business_search&utm_source=hBJOknVQJ58S5goQyjmwRw", "review_count": 1, "categories": [{"alias": "german", "title": "German"}], "rating": 4.0, "coordinates": {"latitude": 53.5500779503022, "longitude": 9.97627704145974}, "transactions": [], "location": {"address1": "Neuer Steinweg 26", "address2": "", "address3": "", "city": "Hamburg", "zip_code": "20459", "country": "DE", "state": "HH", "display_address": ["Neuer Steinweg 26", "20459 Hamburg", "Germany"]}, "phone": "+49402263500", "display_phone": "+49 40 2263500", "distance": 1154.6383000060307}, {"id": "W0fjEMaSsSix86XHaFziiQ", "alias": "k\u00fcchenkartell-hamburg", "name": "K\u00fcchenkartell", "image_url": "https://s3-media4.fl.yelpcdn.com/bphoto/U7lZjujSqMh4hQy0BV4E3Q/o.jpg", "is_closed": false, "url": "https://www.yelp.com/biz/k%C3%BCchenkartell-hamburg?adjust_creative=hBJOknVQJ58S5goQyjmwRw&utm_campaign=yelp_api_v3&utm_medium=api_v3_business_search&utm_source=hBJOknVQJ58S5goQyjmwRw", "review_count": 38, "categories": [{"alias": "burgers", "title": "Burgers"}, {"alias": "schnitzel", "title": "Schnitzel"}], "rating": 4.5, "coordinates": {"latitude": 53.5508614, "longitude": 9.98213676812293}, "transactions": [], "price": "\u20ac\u20ac", "location": {"address1": "Steinwegpassage 11", "address2": "", "address3": "", "city": "Hamburg", "zip_code": "20355", "country": "DE", "state": "HH", "display_address": ["Steinwegpassage 11", "20355 Hamburg", "Germany"]}, "phone": "+494035714527", "display_phone": "+49 40 35714527", "distance": 1142.5966706908152}, {"id": "jK8b4aHrYvrN38H7r2hlkQ", "alias": "arkadasch-hamburg", "name": "Arkadasch", "image_url": "https://s3-media2.fl.yelpcdn.com/bphoto/NdStNW8CE0kcnSLBBTMiKA/o.jpg", "is_closed": false, "url": "https://www.yelp.com/biz/arkadasch-hamburg?adjust_creative=hBJOknVQJ58S5goQyjmwRw&utm_campaign=yelp_api_v3&utm_medium=api_v3_business_search&utm_source=hBJOknVQJ58S5goQyjmwRw", "review_count": 101, "categories": [{"alias": "turkish", "title": "Turkish"}], "rating": 3.0, "coordinates": {"latitude": 53.56811, "longitude": 9.98214}, "transactions": [], "price": "\u20ac", "location": {"address1": "Grindelhof 17", "address2": null, "address3": null, "city": "Hamburg", "zip_code": "20146", "country": "DE", "state": "HH", "display_address": ["Grindelhof 17", "20146 Hamburg", "Germany"]}, "phone": "+494041125941", "display_phone": "+49 40 41125941", "distance": 947.4930742759589}, {"id": "oGzCbZ6qNVWw1CjxNfCo3g", "alias": "gobinda-hamburg-2", "name": "Gobinda", "image_url": "https://s3-media3.fl.yelpcdn.com/bphoto/VDlYrOTRIYJ7QZYG_q6ZJA/o.jpg", "is_closed": false, "url": "https://www.yelp.com/biz/gobinda-hamburg-2?adjust_creative=hBJOknVQJ58S5goQyjmwRw&utm_campaign=yelp_api_v3&utm_medium=api_v3_business_search&utm_source=hBJOknVQJ58S5goQyjmwRw", "review_count": 17, "categories": [{"alias": "indpak", "title": "Indian"}], "rating": 4.0, "coordinates": {"latitude": 53.569528052871, "longitude": 9.97964106750542}, "transactions": [], "price": "\u20ac\u20ac", "location": {"address1": "Grindelallee 148", "address2": null, "address3": null, "city": "Hamburg", "zip_code": "20146", "country": "DE", "state": "HH", "display_address": ["Grindelallee 148", "20146 Hamburg", "Germany"]}, "phone": "+494041343380", "display_phone": "+49 40 41343380", "distance": 1037.1480628349818}, {"id": "JO7Q8FJY6eWHRrk6SJJyYw", "alias": "karlsons-hamburg-2", "name": "Karlsons", "image_url": "https://s3-media3.fl.yelpcdn.com/bphoto/R2BX5SGGYQhJCmakoIoMkg/o.jpg", "is_closed": false, "url": "https://www.yelp.com/biz/karlsons-hamburg-2?adjust_creative=hBJOknVQJ58S5goQyjmwRw&utm_campaign=yelp_api_v3&utm_medium=api_v3_business_search&utm_source=hBJOknVQJ58S5goQyjmwRw", "review_count": 7, "categories": [{"alias": "breakfast_brunch", "title": "Breakfast & Brunch"}, {"alias": "scandinavian", "title": "Scandinavian"}], "rating": 3.5, "coordinates": {"latitude": 53.5712, "longitude": 9.9808}, "transactions": [], "price": "\u20ac\u20ac", "location": {"address1": "Rutschbahn 15 a", "address2": "", "address3": null, "city": "Hamburg", "zip_code": "20146", "country": "DE", "state": "HH", "display_address": ["Rutschbahn 15 a", "20146 Hamburg", "Germany"]}, "phone": "+494018160903", "display_phone": "+49 40 18160903", "distance": 1236.1983108217366}, {"id": "TZ36re0pwLxbeFZv_kgKiA", "alias": "dieze-hamburg", "name": "Dieze", "image_url": "https://s3-media3.fl.yelpcdn.com/bphoto/7wrAUr1ZAElcpbSV8iWg_w/o.jpg", "is_closed": false, "url": "https://www.yelp.com/biz/dieze-hamburg?adjust_creative=hBJOknVQJ58S5goQyjmwRw&utm_campaign=yelp_api_v3&utm_medium=api_v3_business_search&utm_source=hBJOknVQJ58S5goQyjmwRw", "review_count": 8, "categories": [{"alias": "cafes", "title": "Cafes"}], "rating": 4.0, "coordinates": {"latitude": 53.57089, "longitude": 9.98054}, "transactions": [], "price": "\u20ac", "location": {"address1": "Heinrich-Barth-Str. 15", "address2": "", "address3": "", "city": "Hamburg", "zip_code": "20146", "country": "DE", "state": "HH", "display_address": ["Heinrich-Barth-Str. 15", "20146 Hamburg", "Germany"]}, "phone": "", "display_phone": "", "distance": 1203.10580202084}, {"id": "E91N5QGQfyYOlnNdxjHpRw", "alias": "caf\u00e9-seeterrassen-hamburg-2", "name": "Caf\u00e9 Seeterrassen", "image_url": "https://s3-media2.fl.yelpcdn.com/bphoto/lpK4Y0EWDAavssWRrlZGTA/o.jpg", "is_closed": false, "url": "https://www.yelp.com/biz/caf%C3%A9-seeterrassen-hamburg-2?adjust_creative=hBJOknVQJ58S5goQyjmwRw&utm_campaign=yelp_api_v3&utm_medium=api_v3_business_search&utm_source=hBJOknVQJ58S5goQyjmwRw", "review_count": 38, "categories": [{"alias": "cafes", "title": "Cafes"}, {"alias": "venues", "title": "Venues & Event Spaces"}], "rating": 2.5, "coordinates": {"latitude": 53.5615357516941, "longitude": 9.98223156284325}, "transactions": [], "price": "\u20ac\u20ac", "location": {"address1": "St. Petersburger Str. 22", "address2": "", "address3": null, "city": "Hamburg", "zip_code": "20355", "country": "DE", "state": "HH", "display_address": ["St. Petersburger Str. 22", "20355 Hamburg", "Germany"]}, "phone": "+4940353608", "display_phone": "+49 40 353608", "distance": 430.96107709294466}, {"id": "1UosveImfu0O9_AJpt7j1w", "alias": "cafe-nuestro-hamburg", "name": "Cafe Nuestro", "image_url": "https://s3-media1.fl.yelpcdn.com/bphoto/XTKz0OLtTNOFOAsmzZXddw/o.jpg", "is_closed": false, "url": "https://www.yelp.com/biz/cafe-nuestro-hamburg?adjust_creative=hBJOknVQJ58S5goQyjmwRw&utm_campaign=yelp_api_v3&utm_medium=api_v3_business_search&utm_source=hBJOknVQJ58S5goQyjmwRw", "review_count": 21, "categories": [{"alias": "mediterranean", "title": "Mediterranean"}], "rating": 4.0, "coordinates": {"latitude": 53.5711, "longitude": 9.98146}, "transactions": [], "price": "\u20ac\u20ac\u20ac", "location": {"address1": "Rutschbahn 17", "address2": "", "address3": "", "city": "Hamburg", "zip_code": "20146", "country": "DE", "state": "HH", "display_address": ["Rutschbahn 17", "20146 Hamburg", "Germany"]}, "phone": "+494021996900", "display_phone": "+49 40 21996900", "distance": 1245.5596003566773}, {"id": "ySg_n6ImHCCuhqxxWAYHyg", "alias": "balzac-coffee-hamburg-17", "name": "Balzac Coffee", "image_url": "https://s3-media2.fl.yelpcdn.com/bphoto/0w30PmwCsHjr9jfQ9NjWEA/o.jpg", "is_closed": false, "url": "https://www.yelp.com/biz/balzac-coffee-hamburg-17?adjust_creative=hBJOknVQJ58S5goQyjmwRw&utm_campaign=yelp_api_v3&utm_medium=api_v3_business_search&utm_source=hBJOknVQJ58S5goQyjmwRw", "review_count": 30, "categories": [{"alias": "coffee", "title": "Coffee & Tea"}, {"alias": "cafes", "title": "Cafes"}], "rating": 3.0, "coordinates": {"latitude": 53.567973, "longitude": 9.981651}, "transactions": [], "price": "\u20ac\u20ac", "location": {"address1": "Grindelhof 15", "address2": "", "address3": "", "city": "Hamburg", "zip_code": "20146", "country": "DE", "state": "HH", "display_address": ["Grindelhof 15", "20146 Hamburg", "Germany"]}, "phone": "+494041495435", "display_phone": "+49 40 41495435", "distance": 909.919801316378}, {"id": "oDIAGAnxNQ-7foTstq-XHA", "alias": "kanarya-imbiss-h\u00fcseyin-kudu-hamburg", "name": "Kanarya Imbiss H\u00fcseyin Kudu", "image_url": "https://s3-media1.fl.yelpcdn.com/bphoto/VT9Pd1yDzbc532rXIVlpOw/o.jpg", "is_closed": false, "url": "https://www.yelp.com/biz/kanarya-imbiss-h%C3%BCseyin-kudu-hamburg?adjust_creative=hBJOknVQJ58S5goQyjmwRw&utm_campaign=yelp_api_v3&utm_medium=api_v3_business_search&utm_source=hBJOknVQJ58S5goQyjmwRw", "review_count": 2, "categories": [{"alias": "kebab", "title": "Kebab"}, {"alias": "foodstands", "title": "Food Stands"}, {"alias": "kiosk", "title": "Kiosk"}], "rating": 2.0, "coordinates": {"latitude": 53.5583, "longitude": 9.97289}, "transactions": [], "location": {"address1": "Marktstr. 20", "address2": null, "address3": null, "city": "Hamburg", "zip_code": "20357", "country": "DE", "state": "HH", "display_address": ["Marktstr. 20", "20357 Hamburg", "Germany"]}, "phone": "+49404322237", "display_phone": "+49 40 4322237", "distance": 314.4591104779986}, {"id": "Uxw4wGI55kwmlpFqBHfSlQ", "alias": "happy-waffel-hamburg-2", "name": "Happy Waffel", "image_url": "https://s3-media3.fl.yelpcdn.com/bphoto/6JQkwhktJx_LcwfwA67i-Q/o.jpg", "is_closed": false, "url": "https://www.yelp.com/biz/happy-waffel-hamburg-2?adjust_creative=hBJOknVQJ58S5goQyjmwRw&utm_campaign=yelp_api_v3&utm_medium=api_v3_business_search&utm_source=hBJOknVQJ58S5goQyjmwRw", "review_count": 6, "categories": [{"alias": "waffles", "title": "Waffles"}], "rating": 3.5, "coordinates": {"latitude": 53.56754, "longitude": 9.9803}, "transactions": [], "price": "\u20ac\u20ac", "location": {"address1": "Grindelallee 83", "address2": "", "address3": "", "city": "Hamburg", "zip_code": "20146", "country": "DE", "state": "HH", "display_address": ["Grindelallee 83", "20146 Hamburg", "Germany"]}, "phone": "+494036841125", "display_phone": "+49 40 36841125", "distance": 834.2348587965739}, {"id": "eRAU19uMipoEsOf65kTKrw", "alias": "gastst\u00e4tte-zum-schauermann-hamburg", "name": "Gastst\u00e4tte Zum Schauermann", "image_url": "", "is_closed": false, "url": "https://www.yelp.com/biz/gastst%C3%A4tte-zum-schauermann-hamburg?adjust_creative=hBJOknVQJ58S5goQyjmwRw&utm_campaign=yelp_api_v3&utm_medium=api_v3_business_search&utm_source=hBJOknVQJ58S5goQyjmwRw", "review_count": 1, "categories": [{"alias": "restaurants", "title": "Restaurants"}], "rating": 5.0, "coordinates": {"latitude": 53.55326, "longitude": 9.98246}, "transactions": [], "location": {"address1": "Neust\u00e4dter Str. 43", "address2": null, "address3": null, "city": "Hamburg", "zip_code": "20355", "country": "DE", "state": "HH", "display_address": ["Neust\u00e4dter Str. 43", "20355 Hamburg", "Germany"]}, "phone": "", "display_phone": "", "distance": 901.0928291520706}, {"id": "KrlfygRCW_2nZJ_238v1jA", "alias": "goldburger-l\u00fcneburg", "name": "Goldburger", "image_url": "https://s3-media3.fl.yelpcdn.com/bphoto/oWJwH3J1qgS4nmv-HCJqqw/o.jpg", "is_closed": false, "url": "https://www.yelp.com/biz/goldburger-l%C3%BCneburg?adjust_creative=hBJOknVQJ58S5goQyjmwRw&utm_campaign=yelp_api_v3&utm_medium=api_v3_business_search&utm_source=hBJOknVQJ58S5goQyjmwRw", "review_count": 2, "categories": [{"alias": "foodtrucks", "title": "Food Trucks"}, {"alias": "burgers", "title": "Burgers"}], "rating": 3.5, "coordinates": {"latitude": 53.5659480186922, "longitude": 9.97467811530374}, "transactions": [], "location": {"address1": "Hindenburgstr. 23", "address2": "", "address3": "", "city": "L\u00fcneburg", "zip_code": "21335", "country": "DE", "state": "HH", "display_address": ["Hindenburgstr. 23", "21335 L\u00fcneburg", "Germany"]}, "phone": "+491707532319", "display_phone": "+49 170 7532319", "distance": 616.0866155127273}, {"id": "nb5ifTXr2HIs8g9sSZ4-UQ", "alias": "weissraumhamburg-hamburg", "name": "Weissraumhamburg", "image_url": "https://s3-media2.fl.yelpcdn.com/bphoto/2InYv_cxFf0wkffpd3OGVw/o.jpg", "is_closed": false, "url": "https://www.yelp.com/biz/weissraumhamburg-hamburg?adjust_creative=hBJOknVQJ58S5goQyjmwRw&utm_campaign=yelp_api_v3&utm_medium=api_v3_business_search&utm_source=hBJOknVQJ58S5goQyjmwRw", "review_count": 9, "categories": [{"alias": "venues", "title": "Venues & Event Spaces"}, {"alias": "german", "title": "German"}], "rating": 4.0, "coordinates": {"latitude": 53.5509605, "longitude": 9.9811897}, "transactions": [], "price": "\u20ac", "location": {"address1": "Wexstr. 38", "address2": "", "address3": "", "city": "Hamburg", "zip_code": "20355", "country": "DE", "state": "HH", "display_address": ["Wexstr. 38", "20355 Hamburg", "Germany"]}, "phone": "+494023818841", "display_phone": "+49 40 23818841", "distance": 1108.3898516264567}, {"id": "lKmFCpB_nOoQALVHckpe1Q", "alias": "mensa-geomatikum-hamburg", "name": "Mensa Geomatikum", "image_url": "", "is_closed": false, "url": "https://www.yelp.com/biz/mensa-geomatikum-hamburg?adjust_creative=hBJOknVQJ58S5goQyjmwRw&utm_campaign=yelp_api_v3&utm_medium=api_v3_business_search&utm_source=hBJOknVQJ58S5goQyjmwRw", "review_count": 4, "categories": [{"alias": "canteen", "title": "Canteen"}], "rating": 4.0, "coordinates": {"latitude": 53.568286, "longitude": 9.974492}, "transactions": [], "location": {"address1": "Bundesstr. 55", "address2": "", "address3": "", "city": "Hamburg", "zip_code": "20146", "country": "DE", "state": "HH", "display_address": ["Bundesstr. 55", "20146 Hamburg", "Germany"]}, "phone": "+49404500605", "display_phone": "+49 40 4500605", "distance": 864.9809944860142}, {"id": "eI10g-iye5zzIHrgaZ3osA", "alias": "croque-h\u00fctte-hamburg-2", "name": "Croque H\u00fctte", "image_url": "https://s3-media3.fl.yelpcdn.com/bphoto/IZ3gzUyD3Ukx92MbQXtpvw/o.jpg", "is_closed": false, "url": "https://www.yelp.com/biz/croque-h%C3%BCtte-hamburg-2?adjust_creative=hBJOknVQJ58S5goQyjmwRw&utm_campaign=yelp_api_v3&utm_medium=api_v3_business_search&utm_source=hBJOknVQJ58S5goQyjmwRw", "review_count": 7, "categories": [{"alias": "pizza", "title": "Pizza"}, {"alias": "hotdogs", "title": "Fast Food"}], "rating": 4.0, "coordinates": {"latitude": 53.5663191, "longitude": 9.980155}, "transactions": [], "price": "\u20ac", "location": {"address1": "Rentzelstr. 11", "address2": "", "address3": "", "city": "Hamburg", "zip_code": "20146", "country": "DE", "state": "HH", "display_address": ["Rentzelstr. 11", "20146 Hamburg", "Germany"]}, "phone": "+494045000991", "display_phone": "+49 40 45000991", "distance": 707.8720449847934}, {"id": "KKJsTEpUPI33yUFb-5RXIA", "alias": "caf\u00e9-portugal-hamburg-2", "name": "Caf\u00e9 Portugal", "image_url": "https://s3-media2.fl.yelpcdn.com/bphoto/URn_BsIdwQ0YJpZTZc_wEw/o.jpg", "is_closed": false, "url": "https://www.yelp.com/biz/caf%C3%A9-portugal-hamburg-2?adjust_creative=hBJOknVQJ58S5goQyjmwRw&utm_campaign=yelp_api_v3&utm_medium=api_v3_business_search&utm_source=hBJOknVQJ58S5goQyjmwRw", "review_count": 1, "categories": [{"alias": "cafes", "title": "Cafes"}, {"alias": "coffee", "title": "Coffee & Tea"}], "rating": 3.0, "coordinates": {"latitude": 53.5663, "longitude": 9.98016}, "transactions": [], "price": "\u20ac", "location": {"address1": "Rentzelstr. 11", "address2": null, "address3": null, "city": "Hamburg", "zip_code": "20146", "country": "DE", "state": "HH", "display_address": ["Rentzelstr. 11", "20146 Hamburg", "Germany"]}, "phone": "", "display_phone": "", "distance": 706.047508678619}, {"id": "_LT2nOZL4ligxQFAlMAy_A", "alias": "chinaman-sushi-co-hamburg", "name": "Chinaman Sushi + co", "image_url": "https://s3-media4.fl.yelpcdn.com/bphoto/MfU1cOAdAz1aqiFsVkmGpQ/o.jpg", "is_closed": false, "url": "https://www.yelp.com/biz/chinaman-sushi-co-hamburg?adjust_creative=hBJOknVQJ58S5goQyjmwRw&utm_campaign=yelp_api_v3&utm_medium=api_v3_business_search&utm_source=hBJOknVQJ58S5goQyjmwRw", "review_count": 34, "categories": [{"alias": "panasian", "title": "Pan Asian"}], "rating": 3.5, "coordinates": {"latitude": 53.56983, "longitude": 9.97475}, "transactions": [], "price": "\u20ac\u20ac", "location": {"address1": "Beim Schlump 30", "address2": null, "address3": null, "city": "Hamburg", "zip_code": "20144", "country": "DE", "state": "HH", "display_address": ["Beim Schlump 30", "20144 Hamburg", "Germany"]}, "phone": "+4940458212", "display_phone": "+49 40 458212", "distance": 1045.5494159827733}, {"id": "jBmnGBEk6S6StQU9QzX0Xg", "alias": "bastion-hamburg", "name": "Bastion", "image_url": "", "is_closed": false, "url": "https://www.yelp.com/biz/bastion-hamburg?adjust_creative=hBJOknVQJ58S5goQyjmwRw&utm_campaign=yelp_api_v3&utm_medium=api_v3_business_search&utm_source=hBJOknVQJ58S5goQyjmwRw", "review_count": 2, "categories": [{"alias": "bars", "title": "Bars"}, {"alias": "german", "title": "German"}, {"alias": "venues", "title": "Venues & Event Spaces"}], "rating": 3.0, "coordinates": {"latitude": 53.551025, "longitude": 9.973759}, "transactions": [], "location": {"address1": "Holstenwall 24", "address2": "", "address3": null, "city": "Hamburg", "zip_code": "20355", "country": "DE", "state": "HH", "display_address": ["Holstenwall 24", "20355 Hamburg", "Germany"]}, "phone": "+494031767640", "display_phone": "+49 40 31767640", "distance": 1059.1944676830767}, {"id": "BhiWzSmwlts9sla6oKVraQ", "alias": "restaurant-sonnin-hamburg", "name": "Restaurant Sonnin", "image_url": "https://s3-media2.fl.yelpcdn.com/bphoto/I0uzVjcyOm15-Mi45rLxDA/o.jpg", "is_closed": false, "url": "https://www.yelp.com/biz/restaurant-sonnin-hamburg?adjust_creative=hBJOknVQJ58S5goQyjmwRw&utm_campaign=yelp_api_v3&utm_medium=api_v3_business_search&utm_source=hBJOknVQJ58S5goQyjmwRw", "review_count": 2, "categories": [{"alias": "german", "title": "German"}], "rating": 4.5, "coordinates": {"latitude": 53.55104, "longitude": 9.97782}, "transactions": [], "location": {"address1": "Hotel Lindner", "address2": "Neanderstr. 20", "address3": "", "city": "Hamburg", "zip_code": "20459", "country": "DE", "state": "HH", "display_address": ["Hotel Lindner", "Neanderstr. 20", "20459 Hamburg", "Germany"]}, "phone": "+49403070670", "display_phone": "+49 40 3070670", "distance": 1064.3595045647432}, {"id": "K0tAAr1BmVLqWrf9y-W3Dw", "alias": "med-kebab-hamburg", "name": "Med Kebab", "image_url": "https://s3-media1.fl.yelpcdn.com/bphoto/XBNUwjexT05L-nSTZCpQpw/o.jpg", "is_closed": false, "url": "https://www.yelp.com/biz/med-kebab-hamburg?adjust_creative=hBJOknVQJ58S5goQyjmwRw&utm_campaign=yelp_api_v3&utm_medium=api_v3_business_search&utm_source=hBJOknVQJ58S5goQyjmwRw", "review_count": 5, "categories": [{"alias": "kebab", "title": "Kebab"}], "rating": 3.5, "coordinates": {"latitude": 53.56716, "longitude": 9.98121}, "transactions": [], "price": "\u20ac", "location": {"address1": "Grindelhof 2 - 6", "address2": "", "address3": "", "city": "Hamburg", "zip_code": "20146", "country": "DE", "state": "HH", "display_address": ["Grindelhof 2 - 6", "20146 Hamburg", "Germany"]}, "phone": "", "display_phone": "", "distance": 821.5269794053023}, {"id": "wHJUd8e1PaAlXXQWlnynWA", "alias": "knusper-bistro-hamburg", "name": "Knusper Bistro", "image_url": "https://s3-media1.fl.yelpcdn.com/bphoto/c1s6eldkcjViHwXxvdgKnA/o.jpg", "is_closed": false, "url": "https://www.yelp.com/biz/knusper-bistro-hamburg?adjust_creative=hBJOknVQJ58S5goQyjmwRw&utm_campaign=yelp_api_v3&utm_medium=api_v3_business_search&utm_source=hBJOknVQJ58S5goQyjmwRw", "review_count": 1, "categories": [{"alias": "hotdogs", "title": "Fast Food"}], "rating": 3.0, "coordinates": {"latitude": 53.5543, "longitude": 9.98191}, "transactions": [], "price": "\u20ac\u20ac", "location": {"address1": "B\u00e4ckerbreitgang 14, Innenhof", "address2": "", "address3": null, "city": "Hamburg", "zip_code": "20355", "country": "DE", "state": "HH", "display_address": ["B\u00e4ckerbreitgang 14, Innenhof", "20355 Hamburg", "Germany"]}, "phone": "+494023848405", "display_phone": "+49 40 23848405", "distance": 789.6296042752244}, {"id": "SeodQIjOcsrznD7rwIB-Jw", "alias": "the-big-balmy-hamburg-2", "name": "The Big Balmy", "image_url": "https://s3-media2.fl.yelpcdn.com/bphoto/KWUCQvGDONs_iDxlKXzgvQ/o.jpg", "is_closed": false, "url": "https://www.yelp.com/biz/the-big-balmy-hamburg-2?adjust_creative=hBJOknVQJ58S5goQyjmwRw&utm_campaign=yelp_api_v3&utm_medium=api_v3_business_search&utm_source=hBJOknVQJ58S5goQyjmwRw", "review_count": 27, "categories": [{"alias": "burgers", "title": "Burgers"}, {"alias": "foodtrucks", "title": "Food Trucks"}], "rating": 3.5, "coordinates": {"latitude": 53.537786, "longitude": 10.028218}, "transactions": [], "price": "\u20ac\u20ac", "location": {"address1": "", "address2": null, "address3": null, "city": "Hamburg", "zip_code": "", "country": "DE", "state": "HH", "display_address": ["Hamburg", "Germany"]}, "phone": "+494069278630", "display_phone": "+49 40 69278630", "distance": 4274.87520327753}, {"id": "TYFhUhudnUrOfKYG3ML2HA", "alias": "olive-tree-hamburg", "name": "Olive Tree", "image_url": "https://s3-media3.fl.yelpcdn.com/bphoto/bBUSCg8FNCj5l0AMPy3UfQ/o.jpg", "is_closed": false, "url": "https://www.yelp.com/biz/olive-tree-hamburg?adjust_creative=hBJOknVQJ58S5goQyjmwRw&utm_campaign=yelp_api_v3&utm_medium=api_v3_business_search&utm_source=hBJOknVQJ58S5goQyjmwRw", "review_count": 1, "categories": [{"alias": "restaurants", "title": "Restaurants"}], "rating": 3.0, "coordinates": {"latitude": 53.5644, "longitude": 9.97715}, "transactions": [], "location": {"address1": "Schr\u00f6derstiftstr. 3", "address2": null, "address3": null, "city": "Hamburg", "zip_code": "20146", "country": "DE", "state": "HH", "display_address": ["Schr\u00f6derstiftstr. 3", "20146 Hamburg", "Germany"]}, "phone": "+4940450690", "display_phone": "+49 40 450690", "distance": 445.0484213983695}, {"id": "rgHTMJjCWj0x84yl4cm6hQ", "alias": "kantine-im-zivilgericht-hamburg", "name": "Kantine im Zivilgericht", "image_url": "https://s3-media2.fl.yelpcdn.com/bphoto/rbWLZ1SThsJNQRND85S-Rw/o.jpg", "is_closed": false, "url": "https://www.yelp.com/biz/kantine-im-zivilgericht-hamburg?adjust_creative=hBJOknVQJ58S5goQyjmwRw&utm_campaign=yelp_api_v3&utm_medium=api_v3_business_search&utm_source=hBJOknVQJ58S5goQyjmwRw", "review_count": 6, "categories": [{"alias": "canteen", "title": "Canteen"}], "rating": 3.0, "coordinates": {"latitude": 53.5559299, "longitude": 9.9767499}, "transactions": [], "price": "\u20ac\u20ac", "location": {"address1": "Sievekingplatz 1", "address2": "", "address3": "", "city": "Hamburg", "zip_code": "20355", "country": "DE", "state": "HH", "display_address": ["Sievekingplatz 1", "20355 Hamburg", "Germany"]}, "phone": "+494035015293", "display_phone": "+49 40 35015293", "distance": 543.6799901489786}, {"id": "cGIKCcR0wZszz8VldC2-7g", "alias": "currywerk-hamburg", "name": "curryWERK", "image_url": "https://s3-media4.fl.yelpcdn.com/bphoto/j_ZPQAB6JrAru84VDuLiRA/o.jpg", "is_closed": false, "url": "https://www.yelp.com/biz/currywerk-hamburg?adjust_creative=hBJOknVQJ58S5goQyjmwRw&utm_campaign=yelp_api_v3&utm_medium=api_v3_business_search&utm_source=hBJOknVQJ58S5goQyjmwRw", "review_count": 1, "categories": [{"alias": "foodtrucks", "title": "Food Trucks"}, {"alias": "currysausage", "title": "Curry Sausage"}], "rating": 4.0, "coordinates": {"latitude": 53.5498886108398, "longitude": 9.94732189178467}, "transactions": [], "price": "\u20ac\u20ac", "location": {"address1": "", "address2": "", "address3": "", "city": "Hamburg", "zip_code": "22767", "country": "DE", "state": "HH", "display_address": ["22767 Hamburg", "Germany"]}, "phone": "+4917632443433", "display_phone": "+49 176 32443433", "distance": 2551.5182491643077}, {"id": "fJ7GIkv0YTDFKd2PoWSwyQ", "alias": "alba-hamburg-2", "name": "Alba", "image_url": "https://s3-media2.fl.yelpcdn.com/bphoto/Se7BhxJ_6s1Z0E4jXigcsg/o.jpg", "is_closed": false, "url": "https://www.yelp.com/biz/alba-hamburg-2?adjust_creative=hBJOknVQJ58S5goQyjmwRw&utm_campaign=yelp_api_v3&utm_medium=api_v3_business_search&utm_source=hBJOknVQJ58S5goQyjmwRw", "review_count": 41, "categories": [{"alias": "italian", "title": "Italian"}, {"alias": "pizza", "title": "Pizza"}], "rating": 3.0, "coordinates": {"latitude": 53.5509639052325, "longitude": 9.98002444335637}, "transactions": [], "price": "\u20ac\u20ac", "location": {"address1": "Gro\u00dfneumarkt 20", "address2": "", "address3": "", "city": "Hamburg", "zip_code": "20459", "country": "DE", "state": "HH", "display_address": ["Gro\u00dfneumarkt 20", "20459 Hamburg", "Germany"]}, "phone": "+494034107858", "display_phone": "+49 40 34107858", "distance": 1089.4897131671376}, {"id": "anvDytNNC13UOdpaMzJXow", "alias": "am-schlump-hamburg-2", "name": "Am Schlump", "image_url": "https://s3-media2.fl.yelpcdn.com/bphoto/s-5dUxsazVKVhQ8A73XBPw/o.jpg", "is_closed": false, "url": "https://www.yelp.com/biz/am-schlump-hamburg-2?adjust_creative=hBJOknVQJ58S5goQyjmwRw&utm_campaign=yelp_api_v3&utm_medium=api_v3_business_search&utm_source=hBJOknVQJ58S5goQyjmwRw", "review_count": 5, "categories": [{"alias": "pizza", "title": "Pizza"}], "rating": 3.5, "coordinates": {"latitude": 53.5687332088298, "longitude": 9.97267875820398}, "transactions": [], "location": {"address1": "Beim Schlump 53", "address2": "", "address3": "", "city": "Hamburg", "zip_code": "20144", "country": "DE", "state": "HH", "display_address": ["Beim Schlump 53", "20144 Hamburg", "Germany"]}, "phone": "+494064561461", "display_phone": "+49 40 64561461", "distance": 945.1345861356473}, {"id": "DKPi2qyc-EzpDxSoteQ2IA", "alias": "caf\u00e9-pastelaria-hamburg-2", "name": "Caf\u00e9 Pastelaria", "image_url": "https://s3-media1.fl.yelpcdn.com/bphoto/3lvkQIxjoCPzwv1VNn8KbQ/o.jpg", "is_closed": false, "url": "https://www.yelp.com/biz/caf%C3%A9-pastelaria-hamburg-2?adjust_creative=hBJOknVQJ58S5goQyjmwRw&utm_campaign=yelp_api_v3&utm_medium=api_v3_business_search&utm_source=hBJOknVQJ58S5goQyjmwRw", "review_count": 3, "categories": [{"alias": "coffee", "title": "Coffee & Tea"}, {"alias": "cafes", "title": "Cafes"}, {"alias": "portuguese", "title": "Portuguese"}], "rating": 4.0, "coordinates": {"latitude": 53.5708356375107, "longitude": 9.97890241485399}, "transactions": [], "price": "\u20ac", "location": {"address1": "Grindelallee 168", "address2": "", "address3": "", "city": "Hamburg", "zip_code": "20144", "country": "DE", "state": "HH", "display_address": ["Grindelallee 168", "20144 Hamburg", "Germany"]}, "phone": "+494045000246", "display_phone": "+49 40 45000246", "distance": 1169.9152489507717}, {"id": "LYiAiM16C-QBEY93hm08gg", "alias": "imbiss-and-kiosk-one-minute-hamburg", "name": "Imbiss & Kiosk One Minute", "image_url": "https://s3-media3.fl.yelpcdn.com/bphoto/Pfyn6vlkl6sCOHZtpj12vA/o.jpg", "is_closed": false, "url": "https://www.yelp.com/biz/imbiss-and-kiosk-one-minute-hamburg?adjust_creative=hBJOknVQJ58S5goQyjmwRw&utm_campaign=yelp_api_v3&utm_medium=api_v3_business_search&utm_source=hBJOknVQJ58S5goQyjmwRw", "review_count": 1, "categories": [{"alias": "foodstands", "title": "Food Stands"}], "rating": 3.0, "coordinates": {"latitude": 53.558506244126, "longitude": 9.9728683541925}, "transactions": [], "location": {"address1": "Marktstr. 17", "address2": "", "address3": "", "city": "Hamburg", "zip_code": "20357", "country": "DE", "state": "HH", "display_address": ["Marktstr. 17", "20357 Hamburg", "Germany"]}, "phone": "", "display_phone": "", "distance": 298.2873586460494}, {"id": "1DZM_1xNpNM4Ao4wr1EbQA", "alias": "gastst\u00e4tte-blauer-peter-ii-hamburg", "name": "Gastst\u00e4tte Blauer Peter II", "image_url": "https://s3-media1.fl.yelpcdn.com/bphoto/dqXwQKc4eh0_FE-q3IP0Tg/o.jpg", "is_closed": false, "url": "https://www.yelp.com/biz/gastst%C3%A4tte-blauer-peter-ii-hamburg?adjust_creative=hBJOknVQJ58S5goQyjmwRw&utm_campaign=yelp_api_v3&utm_medium=api_v3_business_search&utm_source=hBJOknVQJ58S5goQyjmwRw", "review_count": 1, "categories": [{"alias": "german", "title": "German"}], "rating": 3.0, "coordinates": {"latitude": 53.55327, "longitude": 9.98162}, "transactions": [], "location": {"address1": "Neust\u00e4dter Str. 49", "address2": null, "address3": null, "city": "Hamburg", "zip_code": "20355", "country": "DE", "state": "HH", "display_address": ["Neust\u00e4dter Str. 49", "20355 Hamburg", "Germany"]}, "phone": "+4940342603", "display_phone": "+49 40 342603", "distance": 884.4590879778816}, {"id": "D_alDQXVl72ZqDvF1tutjQ", "alias": "levante-hamburg", "name": "LEVANTE", "image_url": "https://s3-media2.fl.yelpcdn.com/bphoto/iqiWnxa8zUXGMvPsVW9Ieg/o.jpg", "is_closed": false, "url": "https://www.yelp.com/biz/levante-hamburg?adjust_creative=hBJOknVQJ58S5goQyjmwRw&utm_campaign=yelp_api_v3&utm_medium=api_v3_business_search&utm_source=hBJOknVQJ58S5goQyjmwRw", "review_count": 11, "categories": [{"alias": "cafes", "title": "Cafes"}], "rating": 3.0, "coordinates": {"latitude": 53.566893, "longitude": 9.981546}, "transactions": [], "price": "\u20ac\u20ac", "location": {"address1": "Grindelallee 80", "address2": "", "address3": "", "city": "Hamburg", "zip_code": "20146", "country": "DE", "state": "HH", "display_address": ["Grindelallee 80", "20146 Hamburg", "Germany"]}, "phone": "", "display_phone": "", "distance": 802.3795117985459}]