[{"id": "hT3eXmaoDzyyZS412fK7nQ", "alias": "patac\u00f3n-pisao-hamburg", "name": "Patac\u00f3n Pisao", "image_url": "https://s3-media3.fl.yelpcdn.com/bphoto/nJGXofeGzevr5E3FSIQKGQ/o.jpg", "is_closed": false, "url": "https://www.yelp.com/biz/patac%C3%B3n-pisao-hamburg?adjust_creative=hBJOknVQJ58S5goQyjmwRw&utm_campaign=yelp_api_v3&utm_medium=api_v3_business_search&utm_source=hBJOknVQJ58S5goQyjmwRw", "review_count": 20, "categories": [{"alias": "latin", "title": "Latin American"}], "rating": 4.5, "coordinates": {"latitude": 53.5708912, "longitude": 9.9858544}, "transactions": [], "price": "\u20ac\u20ac", "location": {"address1": "Schl\u00fcterstr. 79", "address2": null, "address3": null, "city": "Hamburg", "zip_code": "20146", "country": "DE", "state": "HH", "display_address": ["Schl\u00fcterstr. 79", "20146 Hamburg", "Germany"]}, "phone": "+494038664011", "display_phone": "+49 40 38664011", "distance": 904.6887237512576}, {"id": "2Y6c3FgNAsGLWZCthowbGg", "alias": "suzy-wong-hamburg", "name": "Suzy Wong", "image_url": "https://s3-media1.fl.yelpcdn.com/bphoto/8mGgxikcJANqKnSfXFVhfQ/o.jpg", "is_closed": false, "url": "https://www.yelp.com/biz/suzy-wong-hamburg?adjust_creative=hBJOknVQJ58S5goQyjmwRw&utm_campaign=yelp_api_v3&utm_medium=api_v3_business_search&utm_source=hBJOknVQJ58S5goQyjmwRw", "review_count": 53, "categories": [{"alias": "chinese", "title": "Chinese"}], "rating": 4.5, "coordinates": {"latitude": 53.57023, "longitude": 9.99548}, "transactions": [], "price": "\u20ac\u20ac", "location": {"address1": "Mittelweg 141", "address2": "", "address3": null, "city": "Hamburg", "zip_code": "20148", "country": "DE", "state": "HH", "display_address": ["Mittelweg 141", "20148 Hamburg", "Germany"]}, "phone": "+4940454112", "display_phone": "+49 40 454112", "distance": 938.5471182417476}, {"id": "wBfW7hhpUrUUQXLa0xo1dA", "alias": "la-madrague-hamburg", "name": "La Madrague", "image_url": "https://s3-media3.fl.yelpcdn.com/bphoto/OtvDWPWPiG4gPJt0ff-KXQ/o.jpg", "is_closed": false, "url": "https://www.yelp.com/biz/la-madrague-hamburg?adjust_creative=hBJOknVQJ58S5goQyjmwRw&utm_campaign=yelp_api_v3&utm_medium=api_v3_business_search&utm_source=hBJOknVQJ58S5goQyjmwRw", "review_count": 22, "categories": [{"alias": "african", "title": "African"}], "rating": 4.5, "coordinates": {"latitude": 53.5718699, "longitude": 9.98598}, "transactions": [], "price": "\u20ac\u20ac", "location": {"address1": "Hallerplatz 10", "address2": null, "address3": null, "city": "Hamburg", "zip_code": "20146", "country": "DE", "state": "HH", "display_address": ["Hallerplatz 10", "20146 Hamburg", "Germany"]}, "phone": "+4940451924", "display_phone": "+49 40 451924", "distance": 800.362210273134}, {"id": "LMdAEJ3NqqnBykzjM-y94Q", "alias": "palazzo-hamburg-2", "name": "Palazzo", "image_url": "https://s3-media2.fl.yelpcdn.com/bphoto/Lp45um7gNVAhJx_NKWI55g/o.jpg", "is_closed": false, "url": "https://www.yelp.com/biz/palazzo-hamburg-2?adjust_creative=hBJOknVQJ58S5goQyjmwRw&utm_campaign=yelp_api_v3&utm_medium=api_v3_business_search&utm_source=hBJOknVQJ58S5goQyjmwRw", "review_count": 36, "categories": [{"alias": "italian", "title": "Italian"}], "rating": 4.0, "coordinates": {"latitude": 53.577296, "longitude": 9.988498}, "transactions": [], "price": "\u20ac\u20ac\u20ac", "location": {"address1": "Rothenbaumchaussee 185", "address2": null, "address3": null, "city": "Hamburg", "zip_code": "20149", "country": "DE", "state": "HH", "display_address": ["Rothenbaumchaussee 185", "20149 Hamburg", "Germany"]}, "phone": "+49404102277", "display_phone": "+49 40 4102277", "distance": 226.77813332168827}, {"id": "FFlGznV2sq4MDkUddVUAOw", "alias": "tiefenthal-hamburg", "name": "Tiefenthal", "image_url": "https://s3-media2.fl.yelpcdn.com/bphoto/bV9GuIdgPV6Nq4k0SIkqiA/o.jpg", "is_closed": false, "url": "https://www.yelp.com/biz/tiefenthal-hamburg?adjust_creative=hBJOknVQJ58S5goQyjmwRw&utm_campaign=yelp_api_v3&utm_medium=api_v3_business_search&utm_source=hBJOknVQJ58S5goQyjmwRw", "review_count": 105, "categories": [{"alias": "cocktailbars", "title": "Cocktail Bars"}, {"alias": "german", "title": "German"}], "rating": 4.0, "coordinates": {"latitude": 53.5837, "longitude": 9.9857099}, "transactions": [], "price": "\u20ac\u20ac\u20ac", "location": {"address1": "Isestr. 77", "address2": null, "address3": null, "city": "Hamburg", "zip_code": "20149", "country": "DE", "state": "HH", "display_address": ["Isestr. 77", "20149 Hamburg", "Germany"]}, "phone": "+494046961672", "display_phone": "+49 40 46961672", "distance": 713.4544909256277}, {"id": "FNTK2TF7HmeQUPLXxadN-g", "alias": "butchers-hamburg", "name": "Butcher's", "image_url": "https://s3-media3.fl.yelpcdn.com/bphoto/qG_HcNE_Ij0IFTrF9FThpA/o.jpg", "is_closed": false, "url": "https://www.yelp.com/biz/butchers-hamburg?adjust_creative=hBJOknVQJ58S5goQyjmwRw&utm_campaign=yelp_api_v3&utm_medium=api_v3_business_search&utm_source=hBJOknVQJ58S5goQyjmwRw", "review_count": 114, "categories": [{"alias": "steak", "title": "Steakhouses"}], "rating": 4.5, "coordinates": {"latitude": 53.57058, "longitude": 9.99721}, "transactions": [], "price": "\u20ac\u20ac\u20ac\u20ac", "location": {"address1": "Milchstr. 19", "address2": null, "address3": null, "city": "Hamburg", "zip_code": "20148", "country": "DE", "state": "HH", "display_address": ["Milchstr. 19", "20148 Hamburg", "Germany"]}, "phone": "+4940446082", "display_phone": "+49 40 446082", "distance": 945.3380487934728}, {"id": "jkRjz98q09lDgBLMPvwkAQ", "alias": "suliko-hamburg", "name": "Suliko", "image_url": "https://s3-media2.fl.yelpcdn.com/bphoto/3P2Sv__tmWO9rjIzhheCUQ/o.jpg", "is_closed": false, "url": "https://www.yelp.com/biz/suliko-hamburg?adjust_creative=hBJOknVQJ58S5goQyjmwRw&utm_campaign=yelp_api_v3&utm_medium=api_v3_business_search&utm_source=hBJOknVQJ58S5goQyjmwRw", "review_count": 4, "categories": [{"alias": "georgian", "title": "Georgian"}], "rating": 5.0, "coordinates": {"latitude": 53.56768, "longitude": 9.9954}, "transactions": [], "location": {"address1": "Mittelweg 24", "address2": "", "address3": null, "city": "Hamburg", "zip_code": "20148", "country": "DE", "state": "HH", "display_address": ["Mittelweg 24", "20148 Hamburg", "Germany"]}, "phone": "+494049201953", "display_phone": "+49 40 49201953", "distance": 1211.887712550149}, {"id": "YvgmTEMCuva0bVU3u0V9jQ", "alias": "engelke-hamburg-3", "name": "engelke", "image_url": "https://s3-media2.fl.yelpcdn.com/bphoto/eRk-5dzhp1mSYuXxvOY34g/o.jpg", "is_closed": false, "url": "https://www.yelp.com/biz/engelke-hamburg-3?adjust_creative=hBJOknVQJ58S5goQyjmwRw&utm_campaign=yelp_api_v3&utm_medium=api_v3_business_search&utm_source=hBJOknVQJ58S5goQyjmwRw", "review_count": 29, "categories": [{"alias": "cafes", "title": "Cafes"}, {"alias": "delicatessen", "title": "Delicatessen"}, {"alias": "breakfast_brunch", "title": "Breakfast & Brunch"}], "rating": 4.5, "coordinates": {"latitude": 53.583237, "longitude": 9.985835}, "transactions": [], "price": "\u20ac\u20ac", "location": {"address1": "Eppendorfer Baum 20", "address2": null, "address3": null, "city": "Hamburg", "zip_code": "20249", "country": "DE", "state": "HH", "display_address": ["Eppendorfer Baum 20", "20249 Hamburg", "Germany"]}, "phone": "+494063945857", "display_phone": "+49 40 63945857", "distance": 664.0805410337141}, {"id": "ordWXxpxFdt5O5qs7w1kDw", "alias": "osteria-da-francesco-hamburg", "name": "Osteria da Francesco", "image_url": "https://s3-media3.fl.yelpcdn.com/bphoto/gj3tAVfyjZdvZBHOxZNLCw/o.jpg", "is_closed": false, "url": "https://www.yelp.com/biz/osteria-da-francesco-hamburg?adjust_creative=hBJOknVQJ58S5goQyjmwRw&utm_campaign=yelp_api_v3&utm_medium=api_v3_business_search&utm_source=hBJOknVQJ58S5goQyjmwRw", "review_count": 7, "categories": [{"alias": "italian", "title": "Italian"}], "rating": 4.5, "coordinates": {"latitude": 53.57065, "longitude": 9.99639}, "transactions": [], "price": "\u20ac\u20ac\u20ac", "location": {"address1": "Milchstr. 3 - 4", "address2": "", "address3": "", "city": "Hamburg", "zip_code": "20148", "country": "DE", "state": "HH", "display_address": ["Milchstr. 3 - 4", "20148 Hamburg", "Germany"]}, "phone": "+494025304380", "display_phone": "+49 40 25304380", "distance": 900.5846608709941}, {"id": "FuLWLFHTVDp-07z1xyX_Fw", "alias": "louise-hamburg", "name": "Louise", "image_url": "https://s3-media2.fl.yelpcdn.com/bphoto/Fb-KcJ7tzdK4Gg2ERBz4Ig/o.jpg", "is_closed": false, "url": "https://www.yelp.com/biz/louise-hamburg?adjust_creative=hBJOknVQJ58S5goQyjmwRw&utm_campaign=yelp_api_v3&utm_medium=api_v3_business_search&utm_source=hBJOknVQJ58S5goQyjmwRw", "review_count": 24, "categories": [{"alias": "international", "title": "International"}], "rating": 4.5, "coordinates": {"latitude": 53.58425, "longitude": 9.99664}, "transactions": [], "price": "\u20ac\u20ac\u20ac", "location": {"address1": "Maria-Louisen-Str. 3", "address2": null, "address3": null, "city": "Hamburg", "zip_code": "22301", "country": "DE", "state": "HH", "display_address": ["Maria-Louisen-Str. 3", "22301 Hamburg", "Germany"]}, "phone": "+494085104842", "display_phone": "+49 40 85104842", "distance": 744.736112045058}, {"id": "dU33GrWidWdc-Cki5xoGkA", "alias": "positano-osteria-hamburg", "name": "Positano Osteria", "image_url": "https://s3-media1.fl.yelpcdn.com/bphoto/JZrtWLcSw06Zv0ry3T9Z2w/o.jpg", "is_closed": false, "url": "https://www.yelp.com/biz/positano-osteria-hamburg?adjust_creative=hBJOknVQJ58S5goQyjmwRw&utm_campaign=yelp_api_v3&utm_medium=api_v3_business_search&utm_source=hBJOknVQJ58S5goQyjmwRw", "review_count": 60, "categories": [{"alias": "italian", "title": "Italian"}], "rating": 4.0, "coordinates": {"latitude": 53.584069, "longitude": 9.992944}, "transactions": [], "price": "\u20ac\u20ac", "location": {"address1": "Isestr.147", "address2": null, "address3": null, "city": "Hamburg", "zip_code": "20149", "country": "DE", "state": "HH", "display_address": ["Isestr.147", "20149 Hamburg", "Germany"]}, "phone": "+494051326699", "display_phone": "+49 40 51326699", "distance": 647.587185959229}, {"id": "Y-cMLFrDqshw6iVOxqk5xQ", "alias": "funk-eck-hamburg", "name": "Funk-Eck", "image_url": "https://s3-media2.fl.yelpcdn.com/bphoto/VFCeuwuiAFRozfbZKIn5KA/o.jpg", "is_closed": false, "url": "https://www.yelp.com/biz/funk-eck-hamburg?adjust_creative=hBJOknVQJ58S5goQyjmwRw&utm_campaign=yelp_api_v3&utm_medium=api_v3_business_search&utm_source=hBJOknVQJ58S5goQyjmwRw", "review_count": 30, "categories": [{"alias": "cafes", "title": "Cafes"}, {"alias": "german", "title": "German"}, {"alias": "breakfast_brunch", "title": "Breakfast & Brunch"}], "rating": 3.5, "coordinates": {"latitude": 53.574139, "longitude": 9.9884933}, "transactions": [], "price": "\u20ac\u20ac", "location": {"address1": "Rothenbaumchaussee 137", "address2": null, "address3": null, "city": "Hamburg", "zip_code": "20149", "country": "DE", "state": "HH", "display_address": ["Rothenbaumchaussee 137", "20149 Hamburg", "Germany"]}, "phone": "+4940444174", "display_phone": "+49 40 444174", "distance": 503.96938010648097}, {"id": "g9PLNBNAIe9CRNYYYuT2Mw", "alias": "swedish-cream-hamburg", "name": "Swedish Cream", "image_url": "https://s3-media3.fl.yelpcdn.com/bphoto/gHr_Lm3DLOCh0sQMaNCyIg/o.jpg", "is_closed": false, "url": "https://www.yelp.com/biz/swedish-cream-hamburg?adjust_creative=hBJOknVQJ58S5goQyjmwRw&utm_campaign=yelp_api_v3&utm_medium=api_v3_business_search&utm_source=hBJOknVQJ58S5goQyjmwRw", "review_count": 43, "categories": [{"alias": "cafes", "title": "Cafes"}], "rating": 4.5, "coordinates": {"latitude": 53.57228, "longitude": 9.98933}, "transactions": [], "price": "\u20ac\u20ac", "location": {"address1": "Rothenbaumchaussee 78", "address2": "", "address3": "", "city": "Hamburg", "zip_code": "20148", "country": "DE", "state": "HH", "display_address": ["Rothenbaumchaussee 78", "20148 Hamburg", "Germany"]}, "phone": "+494041355403", "display_phone": "+49 40 41355403", "distance": 711.8158210845403}, {"id": "_KtCm7FAIf-NSNjgUWZnXg", "alias": "caf\u00e9-par-ici-hamburg", "name": "Caf\u00e9 par ici", "image_url": "https://s3-media1.fl.yelpcdn.com/bphoto/jkpxC-MMYgdrxEmwHkaF7w/o.jpg", "is_closed": false, "url": "https://www.yelp.com/biz/caf%C3%A9-par-ici-hamburg?adjust_creative=hBJOknVQJ58S5goQyjmwRw&utm_campaign=yelp_api_v3&utm_medium=api_v3_business_search&utm_source=hBJOknVQJ58S5goQyjmwRw", "review_count": 26, "categories": [{"alias": "cafes", "title": "Cafes"}, {"alias": "french", "title": "French"}, {"alias": "breakfast_brunch", "title": "Breakfast & Brunch"}], "rating": 4.5, "coordinates": {"latitude": 53.5840718327726, "longitude": 9.99617477909851}, "transactions": [], "price": "\u20ac\u20ac", "location": {"address1": "Maria-Louisen-Str. 1", "address2": null, "address3": "", "city": "Hamburg", "zip_code": "22301", "country": "DE", "state": "HH", "display_address": ["Maria-Louisen-Str. 1", "22301 Hamburg", "Germany"]}, "phone": "+494036160817", "display_phone": "+49 40 36160817", "distance": 711.7198702271484}, {"id": "wWJ5Gnrf0h4tM2JQgxz1sQ", "alias": "cucina-d-elisa-hamburg", "name": "Cucina d'Elisa", "image_url": "https://s3-media4.fl.yelpcdn.com/bphoto/QEIMMfCOcWqXp0HZZeOWzg/o.jpg", "is_closed": false, "url": "https://www.yelp.com/biz/cucina-d-elisa-hamburg?adjust_creative=hBJOknVQJ58S5goQyjmwRw&utm_campaign=yelp_api_v3&utm_medium=api_v3_business_search&utm_source=hBJOknVQJ58S5goQyjmwRw", "review_count": 51, "categories": [{"alias": "italian", "title": "Italian"}], "rating": 4.0, "coordinates": {"latitude": 53.57116, "longitude": 9.9884351}, "transactions": [], "price": "\u20ac\u20ac", "location": {"address1": "Rothenbaumchaussee 101", "address2": "", "address3": "", "city": "Hamburg", "zip_code": "20148", "country": "DE", "state": "HH", "display_address": ["Rothenbaumchaussee 101", "20148 Hamburg", "Germany"]}, "phone": "+4940451072", "display_phone": "+49 40 451072", "distance": 833.0860749294236}, {"id": "mSd42de0m8jfflbWilJzuw", "alias": "liebling-hamburg", "name": "Liebling", "image_url": "https://s3-media2.fl.yelpcdn.com/bphoto/yfsbo9O_uVm4rn9I6kWjdw/o.jpg", "is_closed": false, "url": "https://www.yelp.com/biz/liebling-hamburg?adjust_creative=hBJOknVQJ58S5goQyjmwRw&utm_campaign=yelp_api_v3&utm_medium=api_v3_business_search&utm_source=hBJOknVQJ58S5goQyjmwRw", "review_count": 20, "categories": [{"alias": "bistros", "title": "Bistros"}], "rating": 4.5, "coordinates": {"latitude": 53.57031, "longitude": 9.98587}, "transactions": [], "price": "\u20ac\u20ac", "location": {"address1": "Hartungstr. 18", "address2": "", "address3": "", "city": "Hamburg", "zip_code": "20146", "country": "DE", "state": "HH", "display_address": ["Hartungstr. 18", "20146 Hamburg", "Germany"]}, "phone": "+494027865979", "display_phone": "+49 40 27865979", "distance": 970.0368378674054}, {"id": "xLtc8ieVNYyjnCI06Ob79A", "alias": "sushi-l\u00f4-hamburg-2", "name": "Sushi L\u00f4", "image_url": "https://s3-media4.fl.yelpcdn.com/bphoto/-d0xIH3e8D17YuiebUIJAQ/o.jpg", "is_closed": false, "url": "https://www.yelp.com/biz/sushi-l%C3%B4-hamburg-2?adjust_creative=hBJOknVQJ58S5goQyjmwRw&utm_campaign=yelp_api_v3&utm_medium=api_v3_business_search&utm_source=hBJOknVQJ58S5goQyjmwRw", "review_count": 56, "categories": [{"alias": "sushi", "title": "Sushi Bars"}], "rating": 4.0, "coordinates": {"latitude": 53.57141, "longitude": 9.98824}, "transactions": [], "price": "\u20ac\u20ac", "location": {"address1": "Rothenbaumchaussee 105", "address2": "", "address3": "", "city": "Hamburg", "zip_code": "20148", "country": "DE", "state": "HH", "display_address": ["Rothenbaumchaussee 105", "20148 Hamburg", "Germany"]}, "phone": "+494041498804", "display_phone": "+49 40 41498804", "distance": 799.1746824756555}, {"id": "FOtSLCPpZ5VGBGgg6QUVZw", "alias": "valentinas-backsalon-hamburg", "name": "Valentinas BackSalon", "image_url": "https://s3-media4.fl.yelpcdn.com/bphoto/5KHdTr58WLV4NqR0vSOUYA/o.jpg", "is_closed": false, "url": "https://www.yelp.com/biz/valentinas-backsalon-hamburg?adjust_creative=hBJOknVQJ58S5goQyjmwRw&utm_campaign=yelp_api_v3&utm_medium=api_v3_business_search&utm_source=hBJOknVQJ58S5goQyjmwRw", "review_count": 7, "categories": [{"alias": "themedcafes", "title": "Themed Cafes"}], "rating": 5.0, "coordinates": {"latitude": 53.57081, "longitude": 9.98584}, "transactions": [], "price": "\u20ac", "location": {"address1": "Schl\u00fcterstr. 79", "address2": "", "address3": null, "city": "Hamburg", "zip_code": "20146", "country": "DE", "state": "HH", "display_address": ["Schl\u00fcterstr. 79", "20146 Hamburg", "Germany"]}, "phone": "+4917670891505", "display_phone": "+49 176 70891505", "distance": 915.364342644908}, {"id": "GMgXnnABJQ7toaUtgWkgTQ", "alias": "gurke-hamburg", "name": "Gurke", "image_url": "https://s3-media4.fl.yelpcdn.com/bphoto/g601CwnTo3s8naH3UcXtWQ/o.jpg", "is_closed": false, "url": "https://www.yelp.com/biz/gurke-hamburg?adjust_creative=hBJOknVQJ58S5goQyjmwRw&utm_campaign=yelp_api_v3&utm_medium=api_v3_business_search&utm_source=hBJOknVQJ58S5goQyjmwRw", "review_count": 28, "categories": [{"alias": "german", "title": "German"}], "rating": 3.5, "coordinates": {"latitude": 53.56882, "longitude": 9.9948599}, "transactions": [], "price": "\u20ac\u20ac", "location": {"address1": "Mittelweg 32", "address2": null, "address3": null, "city": "Hamburg", "zip_code": "20148", "country": "DE", "state": "HH", "display_address": ["Mittelweg 32", "20148 Hamburg", "Germany"]}, "phone": "+494041624898", "display_phone": "+49 40 41624898", "distance": 1072.8062668434713}, {"id": "kmbaYR6fMOy-NJpRlj_Z5g", "alias": "st\u00e4\u00e4bchens-hamburg", "name": "St\u00e4\u00e4bchens", "image_url": "https://s3-media2.fl.yelpcdn.com/bphoto/UG9_YqUI87qifvgKzNTnbg/o.jpg", "is_closed": false, "url": "https://www.yelp.com/biz/st%C3%A4%C3%A4bchens-hamburg?adjust_creative=hBJOknVQJ58S5goQyjmwRw&utm_campaign=yelp_api_v3&utm_medium=api_v3_business_search&utm_source=hBJOknVQJ58S5goQyjmwRw", "review_count": 9, "categories": [{"alias": "cafes", "title": "Cafes"}, {"alias": "breakfast_brunch", "title": "Breakfast & Brunch"}], "rating": 4.5, "coordinates": {"latitude": 53.58813, "longitude": 9.98635}, "transactions": [], "price": "\u20ac\u20ac", "location": {"address1": "Woldsenweg 1", "address2": "", "address3": null, "city": "Hamburg", "zip_code": "20249", "country": "DE", "state": "HH", "display_address": ["Woldsenweg 1", "20249 Hamburg", "Germany"]}, "phone": "+494050034567", "display_phone": "+49 40 50034567", "distance": 1159.6484967535569}, {"id": "okzOR3ucSiLP3QcaTimx0w", "alias": "bolero-hamburg", "name": "Bolero", "image_url": "https://s3-media2.fl.yelpcdn.com/bphoto/cR-8OgO96sRLa-KuzVz4hA/o.jpg", "is_closed": false, "url": "https://www.yelp.com/biz/bolero-hamburg?adjust_creative=hBJOknVQJ58S5goQyjmwRw&utm_campaign=yelp_api_v3&utm_medium=api_v3_business_search&utm_source=hBJOknVQJ58S5goQyjmwRw", "review_count": 101, "categories": [{"alias": "bars", "title": "Bars"}, {"alias": "mexican", "title": "Mexican"}], "rating": 3.0, "coordinates": {"latitude": 53.57228, "longitude": 9.98933}, "transactions": [], "price": "\u20ac\u20ac", "location": {"address1": "Rothenbaumchaussee 78", "address2": "", "address3": "", "city": "Hamburg", "zip_code": "20148", "country": "DE", "state": "HH", "display_address": ["Rothenbaumchaussee 78", "20148 Hamburg", "Germany"]}, "phone": "+494041497700", "display_phone": "+49 40 41497700", "distance": 711.8158210845403}, {"id": "z8tavSnQYSgL3ChKTkaquw", "alias": "cafe-allegro-hamburg", "name": "Cafe Allegro", "image_url": "https://s3-media1.fl.yelpcdn.com/bphoto/AR6op_10rpSYNvTo2MEY6Q/o.jpg", "is_closed": false, "url": "https://www.yelp.com/biz/cafe-allegro-hamburg?adjust_creative=hBJOknVQJ58S5goQyjmwRw&utm_campaign=yelp_api_v3&utm_medium=api_v3_business_search&utm_source=hBJOknVQJ58S5goQyjmwRw", "review_count": 1, "categories": [{"alias": "cafes", "title": "Cafes"}, {"alias": "coffee", "title": "Coffee & Tea"}], "rating": 4.0, "coordinates": {"latitude": 53.5713, "longitude": 9.99409}, "transactions": [], "location": {"address1": "Mittelweg 42", "address2": null, "address3": null, "city": "Hamburg", "zip_code": "20148", "country": "DE", "state": "HH", "display_address": ["Mittelweg 42", "20148 Hamburg", "Germany"]}, "phone": "", "display_phone": "", "distance": 798.3831824113805}, {"id": "af8cGWSlGRpPkj9rFZ94tw", "alias": "block-house-hamburg", "name": "Block House", "image_url": "https://s3-media4.fl.yelpcdn.com/bphoto/xpMDi7NaYea8kS1ENfLNmQ/o.jpg", "is_closed": false, "url": "https://www.yelp.com/biz/block-house-hamburg?adjust_creative=hBJOknVQJ58S5goQyjmwRw&utm_campaign=yelp_api_v3&utm_medium=api_v3_business_search&utm_source=hBJOknVQJ58S5goQyjmwRw", "review_count": 80, "categories": [{"alias": "steak", "title": "Steakhouses"}], "rating": 4.0, "coordinates": {"latitude": 53.5718162, "longitude": 9.9947468}, "transactions": [], "price": "\u20ac\u20ac", "location": {"address1": "Mittelweg 122", "address2": null, "address3": null, "city": "Hamburg", "zip_code": "20148", "country": "DE", "state": "HH", "display_address": ["Mittelweg 122", "20148 Hamburg", "Germany"]}, "phone": "+4940443130", "display_phone": "+49 40 443130", "distance": 753.6973491324229}, {"id": "ze8c6sJEWZwSlunr3uviHw", "alias": "st\u00fcffel-hamburg-3", "name": "St\u00fcffel", "image_url": "https://s3-media2.fl.yelpcdn.com/bphoto/ZmdOEiMBQPyQvvhmEilneQ/o.jpg", "is_closed": false, "url": "https://www.yelp.com/biz/st%C3%BCffel-hamburg-3?adjust_creative=hBJOknVQJ58S5goQyjmwRw&utm_campaign=yelp_api_v3&utm_medium=api_v3_business_search&utm_source=hBJOknVQJ58S5goQyjmwRw", "review_count": 4, "categories": [{"alias": "german", "title": "German"}, {"alias": "austrian", "title": "Austrian"}], "rating": 4.0, "coordinates": {"latitude": 53.58534, "longitude": 9.988829}, "transactions": [], "location": {"address1": "Isekai 1", "address2": "", "address3": null, "city": "Hamburg", "zip_code": "20249", "country": "DE", "state": "HH", "display_address": ["Isekai 1", "20249 Hamburg", "Germany"]}, "phone": "+494060902050", "display_phone": "+49 40 60902050", "distance": 792.0449096931386}, {"id": "aq4Sd6kEb9b2b2o2dV1wyg", "alias": "la-monella-hamburg", "name": "La Monella", "image_url": "https://s3-media2.fl.yelpcdn.com/bphoto/jTKkO3fAkDRJfQXJwacGcQ/o.jpg", "is_closed": false, "url": "https://www.yelp.com/biz/la-monella-hamburg?adjust_creative=hBJOknVQJ58S5goQyjmwRw&utm_campaign=yelp_api_v3&utm_medium=api_v3_business_search&utm_source=hBJOknVQJ58S5goQyjmwRw", "review_count": 85, "categories": [{"alias": "italian", "title": "Italian"}, {"alias": "vegetarian", "title": "Vegetarian"}, {"alias": "german", "title": "German"}], "rating": 4.5, "coordinates": {"latitude": 53.571963, "longitude": 9.986189}, "transactions": [], "price": "\u20ac\u20ac\u20ac", "location": {"address1": "Hallerplatz 12", "address2": "", "address3": "", "city": "Hamburg", "zip_code": "20146", "country": "DE", "state": "HH", "display_address": ["Hallerplatz 12", "20146 Hamburg", "Germany"]}, "phone": "+4940456162", "display_phone": "+49 40 456162", "distance": 783.9259478453677}, {"id": "qD1CGQH7gj_wQf4hLSJPmw", "alias": "anna-sgroi-hamburg", "name": "Anna Sgroi", "image_url": "https://s3-media2.fl.yelpcdn.com/bphoto/f6mwvW1g8eB9VxMxE7Zp9Q/o.jpg", "is_closed": false, "url": "https://www.yelp.com/biz/anna-sgroi-hamburg?adjust_creative=hBJOknVQJ58S5goQyjmwRw&utm_campaign=yelp_api_v3&utm_medium=api_v3_business_search&utm_source=hBJOknVQJ58S5goQyjmwRw", "review_count": 31, "categories": [{"alias": "italian", "title": "Italian"}], "rating": 3.5, "coordinates": {"latitude": 53.5709286, "longitude": 9.9973699}, "transactions": [], "price": "\u20ac\u20ac\u20ac\u20ac", "location": {"address1": "Milchstr. 7", "address2": "", "address3": "", "city": "Hamburg", "zip_code": "20148", "country": "DE", "state": "HH", "display_address": ["Milchstr. 7", "20148 Hamburg", "Germany"]}, "phone": "+494028003930", "display_phone": "+49 40 28003930", "distance": 908.3500590661163}, {"id": "gRM8I0j9Qqff90A21w6hOA", "alias": "dat-backhus-hamburg-7", "name": "Dat Backhus", "image_url": "https://s3-media4.fl.yelpcdn.com/bphoto/V-ZQxuX7iYKr0mtjMBCvtg/o.jpg", "is_closed": false, "url": "https://www.yelp.com/biz/dat-backhus-hamburg-7?adjust_creative=hBJOknVQJ58S5goQyjmwRw&utm_campaign=yelp_api_v3&utm_medium=api_v3_business_search&utm_source=hBJOknVQJ58S5goQyjmwRw", "review_count": 3, "categories": [{"alias": "bakeries", "title": "Bakeries"}, {"alias": "cafes", "title": "Cafes"}], "rating": 4.5, "coordinates": {"latitude": 53.56768, "longitude": 9.98804}, "transactions": [], "price": "\u20ac", "location": {"address1": "Rothenbaumchaussee 49", "address2": null, "address3": null, "city": "Hamburg", "zip_code": "20148", "country": "DE", "state": "HH", "display_address": ["Rothenbaumchaussee 49", "20148 Hamburg", "Germany"]}, "phone": "+49404106045", "display_phone": "+49 40 4106045", "distance": 1203.3012311861796}, {"id": "7Y9PDFuCisfawbNPHYVIjA", "alias": "la-tana-hamburg-2", "name": "La Tana", "image_url": "https://s3-media4.fl.yelpcdn.com/bphoto/ondOjLkVkWPfaDQanc-u7A/o.jpg", "is_closed": false, "url": "https://www.yelp.com/biz/la-tana-hamburg-2?adjust_creative=hBJOknVQJ58S5goQyjmwRw&utm_campaign=yelp_api_v3&utm_medium=api_v3_business_search&utm_source=hBJOknVQJ58S5goQyjmwRw", "review_count": 18, "categories": [{"alias": "italian", "title": "Italian"}], "rating": 4.0, "coordinates": {"latitude": 53.57047, "longitude": 9.99616}, "transactions": [], "price": "\u20ac\u20ac\u20ac", "location": {"address1": "Milchstr. 26", "address2": "", "address3": "", "city": "Hamburg", "zip_code": "20148", "country": "DE", "state": "HH", "display_address": ["Milchstr. 26", "20148 Hamburg", "Germany"]}, "phone": "+4940444385", "display_phone": "+49 40 444385", "distance": 926.8729905931302}, {"id": "HG6cYTGN67BXCPD6RzvpSg", "alias": "fische-schmidt-hamburg-2", "name": "Fische-Schmidt", "image_url": "https://s3-media1.fl.yelpcdn.com/bphoto/H3XWlfUO8iDLb2oUwJR4EQ/o.jpg", "is_closed": false, "url": "https://www.yelp.com/biz/fische-schmidt-hamburg-2?adjust_creative=hBJOknVQJ58S5goQyjmwRw&utm_campaign=yelp_api_v3&utm_medium=api_v3_business_search&utm_source=hBJOknVQJ58S5goQyjmwRw", "review_count": 16, "categories": [{"alias": "fishmonger", "title": "Fishmonger"}, {"alias": "salad", "title": "Salad"}, {"alias": "sushi", "title": "Sushi Bars"}], "rating": 4.5, "coordinates": {"latitude": 53.58301, "longitude": 9.98596}, "transactions": [], "price": "\u20ac\u20ac\u20ac", "location": {"address1": "Eppendorfer Baum 18", "address2": "", "address3": "", "city": "Hamburg", "zip_code": "20249", "country": "DE", "state": "HH", "display_address": ["Eppendorfer Baum 18", "20249 Hamburg", "Germany"]}, "phone": "+4940476208", "display_phone": "+49 40 476208", "distance": 638.9158543513378}, {"id": "W_jvF2Nk3xEdDcpsER__QA", "alias": "jerusalem-hamburg", "name": "Jerusalem", "image_url": "https://s3-media4.fl.yelpcdn.com/bphoto/P0dRGK5SRoVr3EjfuLKu8g/o.jpg", "is_closed": false, "url": "https://www.yelp.com/biz/jerusalem-hamburg?adjust_creative=hBJOknVQJ58S5goQyjmwRw&utm_campaign=yelp_api_v3&utm_medium=api_v3_business_search&utm_source=hBJOknVQJ58S5goQyjmwRw", "review_count": 6, "categories": [{"alias": "mediterranean", "title": "Mediterranean"}], "rating": 3.5, "coordinates": {"latitude": 53.57006, "longitude": 9.98551}, "transactions": [], "price": "\u20ac\u20ac", "location": {"address1": "Hamburger Kammerspiele", "address2": "Hartungstr. 9 - 11", "address3": "", "city": "Hamburg", "zip_code": "20146", "country": "DE", "state": "HH", "display_address": ["Hamburger Kammerspiele", "Hartungstr. 9 - 11", "20146 Hamburg", "Germany"]}, "phone": "+494041496977", "display_phone": "+49 40 41496977", "distance": 1007.4912220212143}, {"id": "VzTTFFMxROYzuFBIg2hieg", "alias": "bodega-castellana-hamburg", "name": "Bodega Castellana", "image_url": "", "is_closed": false, "url": "https://www.yelp.com/biz/bodega-castellana-hamburg?adjust_creative=hBJOknVQJ58S5goQyjmwRw&utm_campaign=yelp_api_v3&utm_medium=api_v3_business_search&utm_source=hBJOknVQJ58S5goQyjmwRw", "review_count": 3, "categories": [{"alias": "spanish", "title": "Spanish"}], "rating": 4.5, "coordinates": {"latitude": 53.5708, "longitude": 9.98569}, "transactions": [], "location": {"address1": "Schl\u00fcterstr. 79", "address2": null, "address3": null, "city": "Hamburg", "zip_code": "20146", "country": "DE", "state": "HH", "display_address": ["Schl\u00fcterstr. 79", "20146 Hamburg", "Germany"]}, "phone": "+49408452322", "display_phone": "+49 40 8452322", "distance": 918.4091111530612}, {"id": "IyHKXVYgVjF3uHl_x8BTug", "alias": "vapiano-hamburg-3", "name": "Vapiano", "image_url": "https://s3-media1.fl.yelpcdn.com/bphoto/l4Rsk1fYbzj01HPZaMs_rw/o.jpg", "is_closed": false, "url": "https://www.yelp.com/biz/vapiano-hamburg-3?adjust_creative=hBJOknVQJ58S5goQyjmwRw&utm_campaign=yelp_api_v3&utm_medium=api_v3_business_search&utm_source=hBJOknVQJ58S5goQyjmwRw", "review_count": 241, "categories": [{"alias": "italian", "title": "Italian"}], "rating": 3.0, "coordinates": {"latitude": 53.57141, "longitude": 9.98912}, "transactions": [], "price": "\u20ac\u20ac", "location": {"address1": "Rothenbaumchaussee 76", "address2": null, "address3": null, "city": "Hamburg", "zip_code": "20148", "country": "DE", "state": "HH", "display_address": ["Rothenbaumchaussee 76", "20148 Hamburg", "Germany"]}, "phone": "+494036111780", "display_phone": "+49 40 36111780", "distance": 781.0937920276652}, {"id": "EWmT7-Nwgm_wxz3V2OCkZQ", "alias": "mama-hamburg-3", "name": "Mama", "image_url": "https://s3-media4.fl.yelpcdn.com/bphoto/BniyMiyaMBRvLvc5pP6ldg/o.jpg", "is_closed": false, "url": "https://www.yelp.com/biz/mama-hamburg-3?adjust_creative=hBJOknVQJ58S5goQyjmwRw&utm_campaign=yelp_api_v3&utm_medium=api_v3_business_search&utm_source=hBJOknVQJ58S5goQyjmwRw", "review_count": 91, "categories": [{"alias": "italian", "title": "Italian"}], "rating": 3.0, "coordinates": {"latitude": 53.57064, "longitude": 9.99534}, "transactions": [], "price": "\u20ac\u20ac", "location": {"address1": "Mittelweg 138", "address2": null, "address3": null, "city": "Hamburg", "zip_code": "20148", "country": "DE", "state": "HH", "display_address": ["Mittelweg 138", "20148 Hamburg", "Germany"]}, "phone": "+494053779799", "display_phone": "+49 40 53779799", "distance": 881.2975561477521}, {"id": "Vi3oEqNkFv35LTcDQTbqDQ", "alias": "zala-hamburg-9", "name": "Zala", "image_url": "https://s3-media4.fl.yelpcdn.com/bphoto/09kD1Gms3h4yhBYa_NTSkg/o.jpg", "is_closed": false, "url": "https://www.yelp.com/biz/zala-hamburg-9?adjust_creative=hBJOknVQJ58S5goQyjmwRw&utm_campaign=yelp_api_v3&utm_medium=api_v3_business_search&utm_source=hBJOknVQJ58S5goQyjmwRw", "review_count": 117, "categories": [{"alias": "indpak", "title": "Indian"}], "rating": 3.0, "coordinates": {"latitude": 53.57163, "longitude": 9.98833}, "transactions": [], "price": "\u20ac\u20ac", "location": {"address1": "Rothenbaumchaussee 109", "address2": null, "address3": null, "city": "Hamburg", "zip_code": "20148", "country": "DE", "state": "HH", "display_address": ["Rothenbaumchaussee 109", "20148 Hamburg", "Germany"]}, "phone": "+494041338887", "display_phone": "+49 40 41338887", "distance": 777.7257744062053}, {"id": "6e9CeRpTcR_NVdP7wWka4A", "alias": "speisekai-hamburg-2", "name": "Speisekai", "image_url": "https://s3-media1.fl.yelpcdn.com/bphoto/NRf9c5pYcOkKlNI2wKjmtw/o.jpg", "is_closed": false, "url": "https://www.yelp.com/biz/speisekai-hamburg-2?adjust_creative=hBJOknVQJ58S5goQyjmwRw&utm_campaign=yelp_api_v3&utm_medium=api_v3_business_search&utm_source=hBJOknVQJ58S5goQyjmwRw", "review_count": 2, "categories": [{"alias": "venues", "title": "Venues & Event Spaces"}, {"alias": "german", "title": "German"}], "rating": 3.5, "coordinates": {"latitude": 53.5853697577104, "longitude": 9.99220374157033}, "transactions": [], "location": {"address1": "Isekai 12", "address2": null, "address3": "", "city": "Hamburg", "zip_code": "20249", "country": "DE", "state": "HH", "display_address": ["Isekai 12", "20249 Hamburg", "Germany"]}, "phone": "+494046090396", "display_phone": "+49 40 46090396", "distance": 786.4123478035427}, {"id": "Jis3EjsdBQbf6ddOf8Lhqg", "alias": "x-bar-hamburg", "name": "X Bar", "image_url": "https://s3-media1.fl.yelpcdn.com/bphoto/0C65C6_VU4RERg8xBY-DQA/o.jpg", "is_closed": false, "url": "https://www.yelp.com/biz/x-bar-hamburg?adjust_creative=hBJOknVQJ58S5goQyjmwRw&utm_campaign=yelp_api_v3&utm_medium=api_v3_business_search&utm_source=hBJOknVQJ58S5goQyjmwRw", "review_count": 6, "categories": [{"alias": "sushi", "title": "Sushi Bars"}], "rating": 4.0, "coordinates": {"latitude": 53.5704, "longitude": 9.9952}, "transactions": [], "price": "\u20ac\u20ac\u20ac", "location": {"address1": "Mittelweg 43 a", "address2": "", "address3": null, "city": "Hamburg", "zip_code": "20148", "country": "DE", "state": "HH", "display_address": ["Mittelweg 43 a", "20148 Hamburg", "Germany"]}, "phone": "+494086686934", "display_phone": "+49 40 86686934", "distance": 913.2940569022898}, {"id": "lWb5EWO3b54UcxZKRogyrw", "alias": "scaccia-pensieri-hamburg", "name": "Scaccia Pensieri", "image_url": "https://s3-media1.fl.yelpcdn.com/bphoto/BCP0qf1LlBA36z42jeVYmg/o.jpg", "is_closed": false, "url": "https://www.yelp.com/biz/scaccia-pensieri-hamburg?adjust_creative=hBJOknVQJ58S5goQyjmwRw&utm_campaign=yelp_api_v3&utm_medium=api_v3_business_search&utm_source=hBJOknVQJ58S5goQyjmwRw", "review_count": 2, "categories": [{"alias": "restaurants", "title": "Restaurants"}], "rating": 4.0, "coordinates": {"latitude": 53.5676, "longitude": 9.99461}, "transactions": [], "price": "\u20ac\u20ac", "location": {"address1": "Mittelweg 24", "address2": null, "address3": null, "city": "Hamburg", "zip_code": "20148", "country": "DE", "state": "HH", "display_address": ["Mittelweg 24", "20148 Hamburg", "Germany"]}, "phone": "+494087601340", "display_phone": "+49 40 87601340", "distance": 1208.77609090651}, {"id": "-OYxmJaQGBDjYhdfiFcP3w", "alias": "brians-steak-und-lobster-hamburg", "name": "Brian's Steak & Lobster", "image_url": "https://s3-media2.fl.yelpcdn.com/bphoto/BuXll-GNimd8Wkn5KpoRwg/o.jpg", "is_closed": false, "url": "https://www.yelp.com/biz/brians-steak-und-lobster-hamburg?adjust_creative=hBJOknVQJ58S5goQyjmwRw&utm_campaign=yelp_api_v3&utm_medium=api_v3_business_search&utm_source=hBJOknVQJ58S5goQyjmwRw", "review_count": 26, "categories": [{"alias": "steak", "title": "Steakhouses"}, {"alias": "seafood", "title": "Seafood"}], "rating": 3.5, "coordinates": {"latitude": 53.5702780643514, "longitude": 9.99659565353397}, "transactions": [], "price": "\u20ac\u20ac\u20ac", "location": {"address1": "Milchstr. 25", "address2": "", "address3": "", "city": "Hamburg", "zip_code": "20148", "country": "DE", "state": "HH", "display_address": ["Milchstr. 25", "20148 Hamburg", "Germany"]}, "phone": "+494057016737", "display_phone": "+49 40 57016737", "distance": 954.9480623404264}, {"id": "svS1byPUt9YZp_091LOkFg", "alias": "caf\u00e9-isekai-hamburg-4", "name": "Caf\u00e9 Isekai", "image_url": "https://s3-media2.fl.yelpcdn.com/bphoto/TU7f5ZlG7HnxloTevbN4Xg/o.jpg", "is_closed": false, "url": "https://www.yelp.com/biz/caf%C3%A9-isekai-hamburg-4?adjust_creative=hBJOknVQJ58S5goQyjmwRw&utm_campaign=yelp_api_v3&utm_medium=api_v3_business_search&utm_source=hBJOknVQJ58S5goQyjmwRw", "review_count": 18, "categories": [{"alias": "cafes", "title": "Cafes"}, {"alias": "breakfast_brunch", "title": "Breakfast & Brunch"}], "rating": 3.0, "coordinates": {"latitude": 53.5856, "longitude": 9.99313}, "transactions": [], "price": "\u20ac\u20ac\u20ac\u20ac", "location": {"address1": "Isekai \u00d6 13", "address2": null, "address3": "Supper Club", "city": "Hamburg", "zip_code": "20249", "country": "DE", "state": "HH", "display_address": ["Isekai \u00d6 13", "Supper Club", "20249 Hamburg", "Germany"]}, "phone": "+4940473461", "display_phone": "+49 40 473461", "distance": 817.8574041688069}, {"id": "KwA0K6CHXsqX0G6rGstTzA", "alias": "latte-macchiato-hamburg", "name": "Latte Macchiato", "image_url": "https://s3-media2.fl.yelpcdn.com/bphoto/KzJVa3o0eovGemlo_GEabg/o.jpg", "is_closed": false, "url": "https://www.yelp.com/biz/latte-macchiato-hamburg?adjust_creative=hBJOknVQJ58S5goQyjmwRw&utm_campaign=yelp_api_v3&utm_medium=api_v3_business_search&utm_source=hBJOknVQJ58S5goQyjmwRw", "review_count": 1, "categories": [{"alias": "cafes", "title": "Cafes"}], "rating": 3.0, "coordinates": {"latitude": 53.5681, "longitude": 9.99562}, "transactions": [], "location": {"address1": "Mittelweg 27", "address2": null, "address3": null, "city": "Hamburg", "zip_code": "20148", "country": "DE", "state": "HH", "display_address": ["Mittelweg 27", "20148 Hamburg", "Germany"]}, "phone": "", "display_phone": "", "distance": 1167.8322389220475}, {"id": "7WcpDpiJN3jwKovtKeJGTg", "alias": "schuberts-am-mittelweg-hamburg", "name": "Schuberts am Mittelweg", "image_url": "", "is_closed": false, "url": "https://www.yelp.com/biz/schuberts-am-mittelweg-hamburg?adjust_creative=hBJOknVQJ58S5goQyjmwRw&utm_campaign=yelp_api_v3&utm_medium=api_v3_business_search&utm_source=hBJOknVQJ58S5goQyjmwRw", "review_count": 1, "categories": [{"alias": "wine_bars", "title": "Wine Bars"}, {"alias": "german", "title": "German"}, {"alias": "mediterranean", "title": "Mediterranean"}], "rating": 1.0, "coordinates": {"latitude": 53.56766, "longitude": 9.99499}, "transactions": [], "location": {"address1": "Mittelweg 24", "address2": "", "address3": "", "city": "Hamburg", "zip_code": "20148", "country": "DE", "state": "HH", "display_address": ["Mittelweg 24", "20148 Hamburg", "Germany"]}, "phone": "+494087601340", "display_phone": "+49 40 87601340", "distance": 1206.772552706885}, {"id": "Mi7etCsNQSmJ7IGDkFFhnQ", "alias": "food-kontor-hamburg", "name": "Food Kontor", "image_url": "https://s3-media2.fl.yelpcdn.com/bphoto/7MgNGgc5eRISiRH6RICvkA/o.jpg", "is_closed": false, "url": "https://www.yelp.com/biz/food-kontor-hamburg?adjust_creative=hBJOknVQJ58S5goQyjmwRw&utm_campaign=yelp_api_v3&utm_medium=api_v3_business_search&utm_source=hBJOknVQJ58S5goQyjmwRw", "review_count": 3, "categories": [{"alias": "german", "title": "German"}, {"alias": "delicatessen", "title": "Delicatessen"}], "rating": 3.0, "coordinates": {"latitude": 53.5679588, "longitude": 9.9953098}, "transactions": [], "location": {"address1": "Mittelweg  25a", "address2": "", "address3": "", "city": "Hamburg", "zip_code": "20148", "country": "DE", "state": "HH", "display_address": ["Mittelweg  25a", "20148 Hamburg", "Germany"]}, "phone": "+494032846807", "display_phone": "+49 40 32846807", "distance": 1183.826539863999}, {"id": "rIcFAqPPy_KnZlSOgyL-bQ", "alias": "ristorantes-pizzeria-da-mario-hamburg", "name": "Ristorantes Pizzeria DA MARIO", "image_url": "https://s3-media1.fl.yelpcdn.com/bphoto/FyxtecUbodvxBknZAxM--Q/o.jpg", "is_closed": false, "url": "https://www.yelp.com/biz/ristorantes-pizzeria-da-mario-hamburg?adjust_creative=hBJOknVQJ58S5goQyjmwRw&utm_campaign=yelp_api_v3&utm_medium=api_v3_business_search&utm_source=hBJOknVQJ58S5goQyjmwRw", "review_count": 19, "categories": [{"alias": "italian", "title": "Italian"}], "rating": 3.0, "coordinates": {"latitude": 53.57045, "longitude": 9.9959399}, "transactions": [], "price": "\u20ac\u20ac", "location": {"address1": "Milchstr. 28", "address2": null, "address3": null, "city": "Hamburg", "zip_code": "20148", "country": "DE", "state": "HH", "display_address": ["Milchstr. 28", "20148 Hamburg", "Germany"]}, "phone": "+4940449918", "display_phone": "+49 40 449918", "distance": 950.8472183201994}, {"id": "XVTKL4URBAkgu12MfV3vtA", "alias": "twenty-six-hamburg", "name": "Twenty Six", "image_url": "https://s3-media3.fl.yelpcdn.com/bphoto/GWXU-zuzjAeoY1mudlJjdQ/o.jpg", "is_closed": false, "url": "https://www.yelp.com/biz/twenty-six-hamburg?adjust_creative=hBJOknVQJ58S5goQyjmwRw&utm_campaign=yelp_api_v3&utm_medium=api_v3_business_search&utm_source=hBJOknVQJ58S5goQyjmwRw", "review_count": 10, "categories": [{"alias": "international", "title": "International"}, {"alias": "cafes", "title": "Cafes"}, {"alias": "bars", "title": "Bars"}], "rating": 3.5, "coordinates": {"latitude": 53.5680113, "longitude": 9.9953401}, "transactions": [], "price": "\u20ac\u20ac\u20ac", "location": {"address1": "Mittelweg 26", "address2": "", "address3": "", "city": "Hamburg", "zip_code": "20148", "country": "DE", "state": "HH", "display_address": ["Mittelweg 26", "20148 Hamburg", "Germany"]}, "phone": "+494055893773", "display_phone": "+49 40 55893773", "distance": 1173.268200797043}, {"id": "YBJtUYtlBdEL6A9aJAt7mQ", "alias": "okzident-hamburg-2", "name": "Okzident", "image_url": "https://s3-media3.fl.yelpcdn.com/bphoto/iA8XDMl3FM0UtamY7i2VAw/o.jpg", "is_closed": false, "url": "https://www.yelp.com/biz/okzident-hamburg-2?adjust_creative=hBJOknVQJ58S5goQyjmwRw&utm_campaign=yelp_api_v3&utm_medium=api_v3_business_search&utm_source=hBJOknVQJ58S5goQyjmwRw", "review_count": 5, "categories": [{"alias": "oriental", "title": "Oriental"}, {"alias": "international", "title": "International"}], "rating": 2.5, "coordinates": {"latitude": 53.56855, "longitude": 9.98901}, "transactions": [], "location": {"address1": "Rothenbaumchaussee 64", "address2": "", "address3": "Museum f\u00fcr V\u00f6lkerkunde", "city": "Hamburg", "zip_code": "20148", "country": "DE", "state": "HH", "display_address": ["Rothenbaumchaussee 64", "Museum f\u00fcr V\u00f6lkerkunde", "20148 Hamburg", "Germany"]}, "phone": "+494043091362", "display_phone": "+49 40 43091362", "distance": 1096.1027086388403}, {"id": "SkIlFsdXxjqjv3NTWBVCXQ", "alias": "harbecks-henkelmann-hamburg", "name": "Harbeck's Henkelmann", "image_url": "https://s3-media3.fl.yelpcdn.com/bphoto/pakb1AojbZXAqFiAcOXh6w/o.jpg", "is_closed": false, "url": "https://www.yelp.com/biz/harbecks-henkelmann-hamburg?adjust_creative=hBJOknVQJ58S5goQyjmwRw&utm_campaign=yelp_api_v3&utm_medium=api_v3_business_search&utm_source=hBJOknVQJ58S5goQyjmwRw", "review_count": 5, "categories": [{"alias": "cafes", "title": "Cafes"}], "rating": 3.0, "coordinates": {"latitude": 53.56871, "longitude": 9.99506}, "transactions": [], "location": {"address1": "Mittelweg 31", "address2": "", "address3": null, "city": "Hamburg", "zip_code": "20148", "country": "DE", "state": "HH", "display_address": ["Mittelweg 31", "20148 Hamburg", "Germany"]}, "phone": "+494041622485", "display_phone": "+49 40 41622485", "distance": 1093.4142017750132}, {"id": "mB_bIcvDh2iUn_eAwo75aA", "alias": "la-bottega-hamburg", "name": "La Bottega", "image_url": "https://s3-media4.fl.yelpcdn.com/bphoto/1VljGeAkTqaNkfPslrycDw/o.jpg", "is_closed": false, "url": "https://www.yelp.com/biz/la-bottega-hamburg?adjust_creative=hBJOknVQJ58S5goQyjmwRw&utm_campaign=yelp_api_v3&utm_medium=api_v3_business_search&utm_source=hBJOknVQJ58S5goQyjmwRw", "review_count": 30, "categories": [{"alias": "italian", "title": "Italian"}], "rating": 3.0, "coordinates": {"latitude": 53.5676759405129, "longitude": 9.99544702470303}, "transactions": [], "price": "\u20ac\u20ac\u20ac", "location": {"address1": "Mittelweg 24", "address2": "", "address3": "", "city": "Hamburg", "zip_code": "20148", "country": "DE", "state": "HH", "display_address": ["Mittelweg 24", "20148 Hamburg", "Germany"]}, "phone": "+494041496311", "display_phone": "+49 40 41496311", "distance": 1211.202266723011}, {"id": "I2MVLBKrLaJ1WwrX1CLXhA", "alias": "blizzeria-hamburg", "name": "Blizzeria", "image_url": "https://s3-media2.fl.yelpcdn.com/bphoto/Zjh3q2YJehvz9In2z1xrwQ/o.jpg", "is_closed": false, "url": "https://www.yelp.com/biz/blizzeria-hamburg?adjust_creative=hBJOknVQJ58S5goQyjmwRw&utm_campaign=yelp_api_v3&utm_medium=api_v3_business_search&utm_source=hBJOknVQJ58S5goQyjmwRw", "review_count": 18, "categories": [{"alias": "pizza", "title": "Pizza"}], "rating": 3.0, "coordinates": {"latitude": 53.5712562574211, "longitude": 9.98605994137045}, "transactions": [], "price": "\u20ac\u20ac", "location": {"address1": "Schl\u00fcterstr. 86", "address2": null, "address3": null, "city": "Hamburg", "zip_code": "20146", "country": "DE", "state": "HH", "display_address": ["Schl\u00fcterstr. 86", "20146 Hamburg", "Germany"]}, "phone": "+494041624939", "display_phone": "+49 40 41624939", "distance": 862.1127614963367}]