[{"id": "n7W1ITUtp9K6w9kvV1Bcmw", "alias": "luna-hamburg-3", "name": "Luna", "image_url": "https://s3-media3.fl.yelpcdn.com/bphoto/JqUdwuBoeQGJ2_hEQelUDw/o.jpg", "is_closed": false, "url": "https://www.yelp.com/biz/luna-hamburg-3?adjust_creative=hBJOknVQJ58S5goQyjmwRw&utm_campaign=yelp_api_v3&utm_medium=api_v3_business_search&utm_source=hBJOknVQJ58S5goQyjmwRw", "review_count": 27, "categories": [{"alias": "italian", "title": "Italian"}], "rating": 4.5, "coordinates": {"latitude": 53.5873798815073, "longitude": 10.1283631958008}, "transactions": [], "price": "\u20ac\u20ac", "location": {"address1": "Tonndorfer Hauptstr. 96 a", "address2": null, "address3": null, "city": "Hamburg", "zip_code": "22045", "country": "DE", "state": "HH", "display_address": ["Tonndorfer Hauptstr. 96 a", "22045 Hamburg", "Germany"]}, "phone": "+49406535749", "display_phone": "+49 40 6535749", "distance": 1730.9318524920152}, {"id": "PwnixbNNj6YxpjgCZXA3lQ", "alias": "hoang-mai-hamburg-2", "name": "Hoang Mai", "image_url": "https://s3-media1.fl.yelpcdn.com/bphoto/awdWkMRK6HkE6VeRsgv5EQ/o.jpg", "is_closed": false, "url": "https://www.yelp.com/biz/hoang-mai-hamburg-2?adjust_creative=hBJOknVQJ58S5goQyjmwRw&utm_campaign=yelp_api_v3&utm_medium=api_v3_business_search&utm_source=hBJOknVQJ58S5goQyjmwRw", "review_count": 29, "categories": [{"alias": "vietnamese", "title": "Vietnamese"}], "rating": 4.5, "coordinates": {"latitude": 53.5704, "longitude": 10.1358}, "transactions": [], "price": "\u20ac", "location": {"address1": "\u00d6jendorfer Damm 42", "address2": null, "address3": null, "city": "Hamburg", "zip_code": "22043", "country": "DE", "state": "HH", "display_address": ["\u00d6jendorfer Damm 42", "22043 Hamburg", "Germany"]}, "phone": "+494063643661", "display_phone": "+49 40 63643661", "distance": 1092.0660930587924}, {"id": "wOkXiQHPzK0HX43phYsJGA", "alias": "aivy-c\u00e0-ph\u00ea-hamburg", "name": "Aivy C\u00e0 Ph\u00ea", "image_url": "https://s3-media1.fl.yelpcdn.com/bphoto/djbexpAiW5UpXns-kJ-ifA/o.jpg", "is_closed": false, "url": "https://www.yelp.com/biz/aivy-c%C3%A0-ph%C3%AA-hamburg?adjust_creative=hBJOknVQJ58S5goQyjmwRw&utm_campaign=yelp_api_v3&utm_medium=api_v3_business_search&utm_source=hBJOknVQJ58S5goQyjmwRw", "review_count": 1, "categories": [{"alias": "vietnamese", "title": "Vietnamese"}], "rating": 5.0, "coordinates": {"latitude": 53.58065, "longitude": 10.1268}, "transactions": [], "location": {"address1": "Jenfelder Allee 55", "address2": "", "address3": "", "city": "Hamburg", "zip_code": "22043", "country": "DE", "state": "HH", "display_address": ["Jenfelder Allee 55", "22043 Hamburg", "Germany"]}, "phone": "+4917637000370", "display_phone": "+49 176 37000370", "distance": 1014.672199973644}, {"id": "dbuDvcKN08AwyYSCumGXLw", "alias": "mr-grande-hamburg-3", "name": "Mr. Grande", "image_url": "https://s3-media4.fl.yelpcdn.com/bphoto/WonA8UDiFLw53BTfqLFcPg/o.jpg", "is_closed": false, "url": "https://www.yelp.com/biz/mr-grande-hamburg-3?adjust_creative=hBJOknVQJ58S5goQyjmwRw&utm_campaign=yelp_api_v3&utm_medium=api_v3_business_search&utm_source=hBJOknVQJ58S5goQyjmwRw", "review_count": 13, "categories": [{"alias": "tradamerican", "title": "American (Traditional)"}, {"alias": "steak", "title": "Steakhouses"}, {"alias": "bistros", "title": "Bistros"}], "rating": 4.0, "coordinates": {"latitude": 53.571000771076, "longitude": 10.1257433742285}, "transactions": [], "price": "\u20ac\u20ac", "location": {"address1": "Rodigallee 233", "address2": "", "address3": "", "city": "Hamburg", "zip_code": "22043", "country": "DE", "state": "HH", "display_address": ["Rodigallee 233", "22043 Hamburg", "Germany"]}, "phone": "+494065726655", "display_phone": "+49 40 65726655", "distance": 439.90176466860163}, {"id": "iJ_ll0vgvroDzBmPm7lncQ", "alias": "athen-palast-hamburg", "name": "Athen Palast", "image_url": "https://s3-media2.fl.yelpcdn.com/bphoto/HIJIJFHTZg4YodN1lKgeAA/o.jpg", "is_closed": false, "url": "https://www.yelp.com/biz/athen-palast-hamburg?adjust_creative=hBJOknVQJ58S5goQyjmwRw&utm_campaign=yelp_api_v3&utm_medium=api_v3_business_search&utm_source=hBJOknVQJ58S5goQyjmwRw", "review_count": 15, "categories": [{"alias": "greek", "title": "Greek"}], "rating": 4.5, "coordinates": {"latitude": 53.571, "longitude": 10.132}, "transactions": [], "price": "\u20ac\u20ac", "location": {"address1": "Rodigallee 294", "address2": null, "address3": null, "city": "Hamburg", "zip_code": "22043", "country": "DE", "state": "HH", "display_address": ["Rodigallee 294", "22043 Hamburg", "Germany"]}, "phone": "+494076976861", "display_phone": "+49 40 76976861", "distance": 832.5373265142184}, {"id": "tLqsWv6XgHjA1OSDUAxDEQ", "alias": "restaurant-tarantino-hamburg", "name": "Restaurant Tarantino", "image_url": "https://s3-media1.fl.yelpcdn.com/bphoto/EJRjyOv1CjjcGJikgtBmYg/o.jpg", "is_closed": false, "url": "https://www.yelp.com/biz/restaurant-tarantino-hamburg?adjust_creative=hBJOknVQJ58S5goQyjmwRw&utm_campaign=yelp_api_v3&utm_medium=api_v3_business_search&utm_source=hBJOknVQJ58S5goQyjmwRw", "review_count": 13, "categories": [{"alias": "italian", "title": "Italian"}], "rating": 4.5, "coordinates": {"latitude": 53.5824, "longitude": 10.1116}, "transactions": [], "price": "\u20ac\u20ac", "location": {"address1": "Ahrensburger Str. 170", "address2": null, "address3": null, "city": "Hamburg", "zip_code": "22045", "country": "DE", "state": "HH", "display_address": ["Ahrensburger Str. 170", "22045 Hamburg", "Germany"]}, "phone": "+49406562458", "display_phone": "+49 40 6562458", "distance": 1205.858109241964}, {"id": "YWK95x01CAG9IE-O5BqmPg", "alias": "trattoria-amarone-hamburg", "name": "Trattoria Amarone", "image_url": "https://s3-media4.fl.yelpcdn.com/bphoto/FtNlyKZ9E6igTRIN7y6RMg/o.jpg", "is_closed": false, "url": "https://www.yelp.com/biz/trattoria-amarone-hamburg?adjust_creative=hBJOknVQJ58S5goQyjmwRw&utm_campaign=yelp_api_v3&utm_medium=api_v3_business_search&utm_source=hBJOknVQJ58S5goQyjmwRw", "review_count": 2, "categories": [{"alias": "italian", "title": "Italian"}, {"alias": "wine_bars", "title": "Wine Bars"}], "rating": 4.5, "coordinates": {"latitude": 53.586013, "longitude": 10.123615}, "transactions": [], "location": {"address1": "Tonndorfer Hauptstr. 59", "address2": "", "address3": null, "city": "Hamburg", "zip_code": "22045", "country": "DE", "state": "HH", "display_address": ["Tonndorfer Hauptstr. 59", "22045 Hamburg", "Germany"]}, "phone": "+494063738879", "display_phone": "+49 40 63738879", "distance": 1504.2691830679908}, {"id": "X511PmuRIjSHaX7zw6-Zug", "alias": "porto-carras-hamburg", "name": "Porto Carras", "image_url": "https://s3-media4.fl.yelpcdn.com/bphoto/xsMWDM_pDE9wWDtaGfOOoA/o.jpg", "is_closed": false, "url": "https://www.yelp.com/biz/porto-carras-hamburg?adjust_creative=hBJOknVQJ58S5goQyjmwRw&utm_campaign=yelp_api_v3&utm_medium=api_v3_business_search&utm_source=hBJOknVQJ58S5goQyjmwRw", "review_count": 10, "categories": [{"alias": "greek", "title": "Greek"}], "rating": 4.5, "coordinates": {"latitude": 53.5925, "longitude": 10.1097}, "transactions": [], "price": "\u20ac\u20ac", "location": {"address1": "Berner Heerweg 7", "address2": null, "address3": null, "city": "Hamburg", "zip_code": "22159", "country": "DE", "state": "HH", "display_address": ["Berner Heerweg 7", "22159 Hamburg", "Germany"]}, "phone": "+494067599055", "display_phone": "+49 40 67599055", "distance": 2300.4239758802482}, {"id": "VYbmzsJOfBHnUZhLiuVr0w", "alias": "pad-thai-hamburg", "name": "Pad Thai", "image_url": "https://s3-media2.fl.yelpcdn.com/bphoto/qoQ0n2pI-C76XbPD_AEbLw/o.jpg", "is_closed": false, "url": "https://www.yelp.com/biz/pad-thai-hamburg?adjust_creative=hBJOknVQJ58S5goQyjmwRw&utm_campaign=yelp_api_v3&utm_medium=api_v3_business_search&utm_source=hBJOknVQJ58S5goQyjmwRw", "review_count": 20, "categories": [{"alias": "thai", "title": "Thai"}, {"alias": "panasian", "title": "Pan Asian"}], "rating": 4.5, "coordinates": {"latitude": 53.5995102, "longitude": 10.1181002}, "transactions": [], "price": "\u20ac", "location": {"address1": "Berner Heerweg 98", "address2": "", "address3": "", "city": "Hamburg", "zip_code": "22159", "country": "DE", "state": "HH", "display_address": ["Berner Heerweg 98", "22159 Hamburg", "Germany"]}, "phone": "+49406436499", "display_phone": "+49 40 6436499", "distance": 2984.1986682599445}, {"id": "3nKXBJvBXNiYggCiTC1dXw", "alias": "sunar-kebap-haus-hamburg", "name": "Sunar Kebap Haus", "image_url": "https://s3-media2.fl.yelpcdn.com/bphoto/QxvXwV4fZc6eF47X0rz4lw/o.jpg", "is_closed": false, "url": "https://www.yelp.com/biz/sunar-kebap-haus-hamburg?adjust_creative=hBJOknVQJ58S5goQyjmwRw&utm_campaign=yelp_api_v3&utm_medium=api_v3_business_search&utm_source=hBJOknVQJ58S5goQyjmwRw", "review_count": 2, "categories": [{"alias": "kebab", "title": "Kebab"}], "rating": 4.5, "coordinates": {"latitude": 53.5599, "longitude": 10.1086}, "transactions": [], "price": "\u20ac\u20ac", "location": {"address1": "Dannerallee 1a", "address2": null, "address3": null, "city": "Hamburg", "zip_code": "22119", "country": "DE", "state": "HH", "display_address": ["Dannerallee 1a", "22119 Hamburg", "Germany"]}, "phone": "+494088155672", "display_phone": "+49 40 88155672", "distance": 1599.8659658164538}, {"id": "swdw2KoEeSi2QLWHHltnZQ", "alias": "mylos-hamburg-2", "name": "Mylos", "image_url": "https://s3-media3.fl.yelpcdn.com/bphoto/IMDD4JGhAyDMV_W8A2ylbQ/o.jpg", "is_closed": false, "url": "https://www.yelp.com/biz/mylos-hamburg-2?adjust_creative=hBJOknVQJ58S5goQyjmwRw&utm_campaign=yelp_api_v3&utm_medium=api_v3_business_search&utm_source=hBJOknVQJ58S5goQyjmwRw", "review_count": 26, "categories": [{"alias": "greek", "title": "Greek"}], "rating": 4.5, "coordinates": {"latitude": 53.57593, "longitude": 10.099365}, "transactions": [], "price": "\u20ac\u20ac", "location": {"address1": "Ziethenstr. 12", "address2": null, "address3": null, "city": "Hamburg", "zip_code": "22041", "country": "DE", "state": "HH", "display_address": ["Ziethenstr. 12", "22041 Hamburg", "Germany"]}, "phone": "+494069798441", "display_phone": "+49 40 69798441", "distance": 1391.2095550170498}, {"id": "RPCwdpCqreC2CpGLipFuig", "alias": "mongolei-hamburg", "name": "Mongolei", "image_url": "https://s3-media2.fl.yelpcdn.com/bphoto/lrrogn1Lk72WxKYE-3mhtQ/o.jpg", "is_closed": false, "url": "https://www.yelp.com/biz/mongolei-hamburg?adjust_creative=hBJOknVQJ58S5goQyjmwRw&utm_campaign=yelp_api_v3&utm_medium=api_v3_business_search&utm_source=hBJOknVQJ58S5goQyjmwRw", "review_count": 52, "categories": [{"alias": "panasian", "title": "Pan Asian"}], "rating": 3.5, "coordinates": {"latitude": 53.5888895, "longitude": 10.098177}, "transactions": [], "price": "\u20ac\u20ac", "location": {"address1": "Friedrich-Ebert-Damm 143 - 145", "address2": "", "address3": "", "city": "Hamburg", "zip_code": "22047", "country": "DE", "state": "HH", "display_address": ["Friedrich-Ebert-Damm 143 - 145", "22047 Hamburg", "Germany"]}, "phone": "+494088234838", "display_phone": "+49 40 88234838", "distance": 2295.308797983311}, {"id": "7cmEUHIsFpaiEo8p7EFRag", "alias": "cafe-del-sol-hamburg-2", "name": "Cafe Del Sol", "image_url": "https://s3-media2.fl.yelpcdn.com/bphoto/VOKdSBA9DkdZ4ffBiN3WpQ/o.jpg", "is_closed": false, "url": "https://www.yelp.com/biz/cafe-del-sol-hamburg-2?adjust_creative=hBJOknVQJ58S5goQyjmwRw&utm_campaign=yelp_api_v3&utm_medium=api_v3_business_search&utm_source=hBJOknVQJ58S5goQyjmwRw", "review_count": 145, "categories": [{"alias": "german", "title": "German"}, {"alias": "breakfast_brunch", "title": "Breakfast & Brunch"}], "rating": 3.5, "coordinates": {"latitude": 53.58419, "longitude": 10.126157}, "transactions": [], "price": "\u20ac\u20ac", "location": {"address1": "Jenfelder Allee 80 A", "address2": "", "address3": null, "city": "Hamburg", "zip_code": "22045", "country": "DE", "state": "HH", "display_address": ["Jenfelder Allee 80 A", "22045 Hamburg", "Germany"]}, "phone": "+494066857534", "display_phone": "+49 40 66857534", "distance": 1297.7295876147368}, {"id": "BjfyGGgIDkVxmoneq1v7Nw", "alias": "ata-hamburg", "name": "Ata", "image_url": "https://s3-media2.fl.yelpcdn.com/bphoto/Z4kG4o9hOPBknlRq1cGFFQ/o.jpg", "is_closed": false, "url": "https://www.yelp.com/biz/ata-hamburg?adjust_creative=hBJOknVQJ58S5goQyjmwRw&utm_campaign=yelp_api_v3&utm_medium=api_v3_business_search&utm_source=hBJOknVQJ58S5goQyjmwRw", "review_count": 45, "categories": [{"alias": "turkish", "title": "Turkish"}], "rating": 4.5, "coordinates": {"latitude": 53.5939, "longitude": 10.0982}, "transactions": [], "price": "\u20ac\u20ac", "location": {"address1": "Am Stadtrand 66", "address2": null, "address3": null, "city": "Hamburg", "zip_code": "22047", "country": "DE", "state": "HH", "display_address": ["Am Stadtrand 66", "22047 Hamburg", "Germany"]}, "phone": "+494069641787", "display_phone": "+49 40 69641787", "distance": 2753.5690110166297}, {"id": "nUOFGotik8BYpYlFNev2wQ", "alias": "orkinus-fisch-grill-haus-hamburg", "name": "Orkinus Fisch-Grill-Haus", "image_url": "https://s3-media1.fl.yelpcdn.com/bphoto/hgzwti95kpzVl4LcuUSIew/o.jpg", "is_closed": false, "url": "https://www.yelp.com/biz/orkinus-fisch-grill-haus-hamburg?adjust_creative=hBJOknVQJ58S5goQyjmwRw&utm_campaign=yelp_api_v3&utm_medium=api_v3_business_search&utm_source=hBJOknVQJ58S5goQyjmwRw", "review_count": 36, "categories": [{"alias": "seafood", "title": "Seafood"}], "rating": 4.5, "coordinates": {"latitude": 53.5403374, "longitude": 10.1013957}, "transactions": [], "price": "\u20ac\u20ac", "location": {"address1": "Billstedter Hauptstr. 43", "address2": "", "address3": "", "city": "Hamburg", "zip_code": "22111", "country": "DE", "state": "HH", "display_address": ["Billstedter Hauptstr. 43", "22111 Hamburg", "Germany"]}, "phone": "+494032841201", "display_phone": "+49 40 32841201", "distance": 3794.901091537208}, {"id": "_qZTgjOKo5EyR8wl4VtzOw", "alias": "saigon-cuisine-hamburg-2", "name": "Saigon Cuisine", "image_url": "https://s3-media1.fl.yelpcdn.com/bphoto/-4oR_6QaJyFqUpOOVLMf7g/o.jpg", "is_closed": false, "url": "https://www.yelp.com/biz/saigon-cuisine-hamburg-2?adjust_creative=hBJOknVQJ58S5goQyjmwRw&utm_campaign=yelp_api_v3&utm_medium=api_v3_business_search&utm_source=hBJOknVQJ58S5goQyjmwRw", "review_count": 2, "categories": [{"alias": "vietnamese", "title": "Vietnamese"}], "rating": 2.0, "coordinates": {"latitude": 53.5846424024781, "longitude": 10.1334889233112}, "transactions": [], "location": {"address1": "Sch\u00f6neberger Str. 1", "address2": "", "address3": null, "city": "Hamburg", "zip_code": "22045", "country": "DE", "state": "HH", "display_address": ["Sch\u00f6neberger Str. 1", "22045 Hamburg", "Germany"]}, "phone": "+494066997688", "display_phone": "+49 40 66997688", "distance": 1610.8820265880909}, {"id": "OYQggP30PLAKb_DtaxLhzA", "alias": "qing-dao-hamburg", "name": "Qing Dao", "image_url": "https://s3-media2.fl.yelpcdn.com/bphoto/QilDd9pT_ZjLpBJiJkGMUw/o.jpg", "is_closed": false, "url": "https://www.yelp.com/biz/qing-dao-hamburg?adjust_creative=hBJOknVQJ58S5goQyjmwRw&utm_campaign=yelp_api_v3&utm_medium=api_v3_business_search&utm_source=hBJOknVQJ58S5goQyjmwRw", "review_count": 15, "categories": [{"alias": "chinese", "title": "Chinese"}, {"alias": "thai", "title": "Thai"}], "rating": 4.0, "coordinates": {"latitude": 53.5974, "longitude": 10.1026}, "transactions": [], "price": "\u20ac\u20ac", "location": {"address1": "Eckerkoppel 121", "address2": null, "address3": null, "city": "Hamburg", "zip_code": "22159", "country": "DE", "state": "HH", "display_address": ["Eckerkoppel 121", "22159 Hamburg", "Germany"]}, "phone": "+494064538989", "display_phone": "+49 40 64538989", "distance": 2971.3755400323166}, {"id": "PrvsgjS_h1jt_aC2dMhovQ", "alias": "restaurant-lindos-hamburg", "name": "Restaurant Lindos", "image_url": "https://s3-media1.fl.yelpcdn.com/bphoto/xk5nl3yE9qN-Gc0gyR5sCQ/o.jpg", "is_closed": false, "url": "https://www.yelp.com/biz/restaurant-lindos-hamburg?adjust_creative=hBJOknVQJ58S5goQyjmwRw&utm_campaign=yelp_api_v3&utm_medium=api_v3_business_search&utm_source=hBJOknVQJ58S5goQyjmwRw", "review_count": 1, "categories": [{"alias": "greek", "title": "Greek"}], "rating": 5.0, "coordinates": {"latitude": 53.57591, "longitude": 10.09919}, "transactions": [], "location": {"address1": "Ziethenstr. 12", "address2": null, "address3": null, "city": "Hamburg", "zip_code": "22041", "country": "DE", "state": "HH", "display_address": ["Ziethenstr. 12", "22041 Hamburg", "Germany"]}, "phone": "+49406565764", "display_phone": "+49 40 6565764", "distance": 1398.4656321515804}, {"id": "e1MAQ0OCg675wVd3DeB3Tw", "alias": "meram-restaurant-hamburg-2", "name": "Meram Restaurant", "image_url": "https://s3-media2.fl.yelpcdn.com/bphoto/wJV0u3WzHA11nTdGmfA9wg/o.jpg", "is_closed": false, "url": "https://www.yelp.com/biz/meram-restaurant-hamburg-2?adjust_creative=hBJOknVQJ58S5goQyjmwRw&utm_campaign=yelp_api_v3&utm_medium=api_v3_business_search&utm_source=hBJOknVQJ58S5goQyjmwRw", "review_count": 61, "categories": [{"alias": "turkish", "title": "Turkish"}], "rating": 4.0, "coordinates": {"latitude": 53.54025, "longitude": 10.10179}, "transactions": [], "price": "\u20ac\u20ac", "location": {"address1": "Billstedter Hauptstr. 47", "address2": "", "address3": null, "city": "Hamburg", "zip_code": "22111", "country": "DE", "state": "HH", "display_address": ["Billstedter Hauptstr. 47", "22111 Hamburg", "Germany"]}, "phone": "+49407314656", "display_phone": "+49 40 7314656", "distance": 3796.091733284517}, {"id": "JgAdQhdsjWBMXxqPTRTjTA", "alias": "chios-grill-hamburg-2", "name": "Chios Grill", "image_url": "https://s3-media3.fl.yelpcdn.com/bphoto/fZaJtT-ZO5Ivv4cdF_mRSA/o.jpg", "is_closed": false, "url": "https://www.yelp.com/biz/chios-grill-hamburg-2?adjust_creative=hBJOknVQJ58S5goQyjmwRw&utm_campaign=yelp_api_v3&utm_medium=api_v3_business_search&utm_source=hBJOknVQJ58S5goQyjmwRw", "review_count": 10, "categories": [{"alias": "greek", "title": "Greek"}], "rating": 4.5, "coordinates": {"latitude": 53.5924887, "longitude": 10.1373915}, "transactions": [], "price": "\u20ac\u20ac", "location": {"address1": "Tonndorfer Hauptstr. 176", "address2": "", "address3": "", "city": "Hamburg", "zip_code": "22045", "country": "DE", "state": "HH", "display_address": ["Tonndorfer Hauptstr. 176", "22045 Hamburg", "Germany"]}, "phone": "+494087093156", "display_phone": "+49 40 87093156", "distance": 2492.1922145077942}, {"id": "wQk9fn-Vh-TdrgC8j7m0lw", "alias": "imbiss-am-\u00f6jendorfer-park-hamburg", "name": "Imbiss am \u00d6jendorfer Park", "image_url": "https://s3-media3.fl.yelpcdn.com/bphoto/ooKVTJw1FvzHrke2_KOrug/o.jpg", "is_closed": false, "url": "https://www.yelp.com/biz/imbiss-am-%C3%B6jendorfer-park-hamburg?adjust_creative=hBJOknVQJ58S5goQyjmwRw&utm_campaign=yelp_api_v3&utm_medium=api_v3_business_search&utm_source=hBJOknVQJ58S5goQyjmwRw", "review_count": 3, "categories": [{"alias": "hotdogs", "title": "Fast Food"}], "rating": 4.0, "coordinates": {"latitude": 53.5645, "longitude": 10.1411}, "transactions": [], "location": {"address1": "Grootmoorredder", "address2": null, "address3": null, "city": "Hamburg", "zip_code": "22117", "country": "DE", "state": "HH", "display_address": ["Grootmoorredder", "22117 Hamburg", "Germany"]}, "phone": "+49407133270", "display_phone": "+49 40 7133270", "distance": 1680.0118267817795}, {"id": "EtyP2kB2FG6YiJTQxzV3mA", "alias": "sale-pepe-hamburg", "name": "Sale Pepe", "image_url": "https://s3-media2.fl.yelpcdn.com/bphoto/fRPybKpBBRPG8au-9RWuHA/o.jpg", "is_closed": false, "url": "https://www.yelp.com/biz/sale-pepe-hamburg?adjust_creative=hBJOknVQJ58S5goQyjmwRw&utm_campaign=yelp_api_v3&utm_medium=api_v3_business_search&utm_source=hBJOknVQJ58S5goQyjmwRw", "review_count": 2, "categories": [{"alias": "italian", "title": "Italian"}], "rating": 4.5, "coordinates": {"latitude": 53.6052, "longitude": 10.1183599}, "transactions": [], "price": "\u20ac\u20ac", "location": {"address1": "Berner Heerweg 173", "address2": "", "address3": "", "city": "Hamburg", "zip_code": "22159", "country": "DE", "state": "HH", "display_address": ["Berner Heerweg 173", "22159 Hamburg", "Germany"]}, "phone": "+494064533985", "display_phone": "+49 40 64533985", "distance": 3656.3574114139224}, {"id": "SNPvqQxaRxQIra7hgjev2Q", "alias": "zum-kl\u00f6nschnack-hamburg", "name": "Zum Kl\u00f6nschnack", "image_url": "", "is_closed": false, "url": "https://www.yelp.com/biz/zum-kl%C3%B6nschnack-hamburg?adjust_creative=hBJOknVQJ58S5goQyjmwRw&utm_campaign=yelp_api_v3&utm_medium=api_v3_business_search&utm_source=hBJOknVQJ58S5goQyjmwRw", "review_count": 1, "categories": [{"alias": "currysausage", "title": "Curry Sausage"}], "rating": 4.0, "coordinates": {"latitude": 53.5333, "longitude": 10.097}, "transactions": [], "price": "\u20ac\u20ac", "location": {"address1": "Moorfleeter Str. 25", "address2": null, "address3": null, "city": "Hamburg", "zip_code": "22113", "country": "DE", "state": "HH", "display_address": ["Moorfleeter Str. 25", "22113 Hamburg", "Germany"]}, "phone": "", "display_phone": "", "distance": 4629.269403517292}, {"id": "FRmfMd1RyzCEGobD0V4SwQ", "alias": "anatolya-grill-haus-hamburg", "name": "Anatolya Grill-Haus", "image_url": "https://s3-media2.fl.yelpcdn.com/bphoto/t5sUs72PtLkdRk7aAjl68A/o.jpg", "is_closed": false, "url": "https://www.yelp.com/biz/anatolya-grill-haus-hamburg?adjust_creative=hBJOknVQJ58S5goQyjmwRw&utm_campaign=yelp_api_v3&utm_medium=api_v3_business_search&utm_source=hBJOknVQJ58S5goQyjmwRw", "review_count": 2, "categories": [{"alias": "kebab", "title": "Kebab"}], "rating": 2.5, "coordinates": {"latitude": 53.5404, "longitude": 10.1012}, "transactions": [], "price": "\u20ac\u20ac", "location": {"address1": "Billstedter Hauptstr.", "address2": null, "address3": null, "city": "Hamburg", "zip_code": "22111", "country": "DE", "state": "HH", "display_address": ["Billstedter Hauptstr.", "22111 Hamburg", "Germany"]}, "phone": "", "display_phone": "", "distance": 3792.4526230130914}, {"id": "X2_8s7iOr4QzyWsh6fklsg", "alias": "ajs-colourful-kitchen-hamburg", "name": "AJs Colourful Kitchen", "image_url": "", "is_closed": false, "url": "https://www.yelp.com/biz/ajs-colourful-kitchen-hamburg?adjust_creative=hBJOknVQJ58S5goQyjmwRw&utm_campaign=yelp_api_v3&utm_medium=api_v3_business_search&utm_source=hBJOknVQJ58S5goQyjmwRw", "review_count": 1, "categories": [{"alias": "restaurants", "title": "Restaurants"}], "rating": 4.0, "coordinates": {"latitude": 53.600203, "longitude": 10.11779}, "transactions": [], "location": {"address1": "Berner Heerweg 111", "address2": "", "address3": null, "city": "Hamburg", "zip_code": "22159", "country": "DE", "state": "HH", "display_address": ["Berner Heerweg 111", "22159 Hamburg", "Germany"]}, "phone": "+491603518963", "display_phone": "+49 160 3518963", "distance": 3066.6871366009595}, {"id": "FvpTumAZMtccgdMlUkSr2A", "alias": "hallo-pizza-hamburg-7", "name": "Hallo Pizza!", "image_url": "https://s3-media2.fl.yelpcdn.com/bphoto/U-MQv6oe7Kn8i7P9yqdCUA/o.jpg", "is_closed": false, "url": "https://www.yelp.com/biz/hallo-pizza-hamburg-7?adjust_creative=hBJOknVQJ58S5goQyjmwRw&utm_campaign=yelp_api_v3&utm_medium=api_v3_business_search&utm_source=hBJOknVQJ58S5goQyjmwRw", "review_count": 7, "categories": [{"alias": "pizza", "title": "Pizza"}], "rating": 3.5, "coordinates": {"latitude": 53.5487, "longitude": 10.1089}, "transactions": [], "price": "\u20ac\u20ac", "location": {"address1": "Schiffbeker Weg 94", "address2": null, "address3": null, "city": "Hamburg", "zip_code": "22119", "country": "DE", "state": "HH", "display_address": ["Schiffbeker Weg 94", "22119 Hamburg", "Germany"]}, "phone": "+494081995800", "display_phone": "+49 40 81995800", "distance": 2760.9363916279435}, {"id": "XPuVFytYhvVWWXO01qGyew", "alias": "pascha-d\u00f6ner-hamburg", "name": "Pascha D\u00f6ner", "image_url": "https://s3-media3.fl.yelpcdn.com/bphoto/olRB1zRRp9rBuXoIrf9kKg/o.jpg", "is_closed": false, "url": "https://www.yelp.com/biz/pascha-d%C3%B6ner-hamburg?adjust_creative=hBJOknVQJ58S5goQyjmwRw&utm_campaign=yelp_api_v3&utm_medium=api_v3_business_search&utm_source=hBJOknVQJ58S5goQyjmwRw", "review_count": 2, "categories": [{"alias": "kebab", "title": "Kebab"}], "rating": 3.5, "coordinates": {"latitude": 53.53844, "longitude": 10.12413}, "transactions": [], "price": "\u20ac", "location": {"address1": "M\u00f6llner Landstr. 130", "address2": "", "address3": "", "city": "Hamburg", "zip_code": "22117", "country": "DE", "state": "HH", "display_address": ["M\u00f6llner Landstr. 130", "22117 Hamburg", "Germany"]}, "phone": "", "display_phone": "", "distance": 3818.9569937360334}, {"id": "qYozPFddHgpXS-_RSZ7Tgg", "alias": "corfu-grill-hamburg-4", "name": "Corfu Grill", "image_url": "https://s3-media3.fl.yelpcdn.com/bphoto/Xm2njL2L4yVCzk9AvmWJlQ/o.jpg", "is_closed": false, "url": "https://www.yelp.com/biz/corfu-grill-hamburg-4?adjust_creative=hBJOknVQJ58S5goQyjmwRw&utm_campaign=yelp_api_v3&utm_medium=api_v3_business_search&utm_source=hBJOknVQJ58S5goQyjmwRw", "review_count": 43, "categories": [{"alias": "greek", "title": "Greek"}], "rating": 4.5, "coordinates": {"latitude": 53.54598, "longitude": 10.106358}, "transactions": [], "price": "\u20ac\u20ac", "location": {"address1": "Schiffbeker Weg 66", "address2": "", "address3": "", "city": "Hamburg", "zip_code": "22119", "country": "DE", "state": "HH", "display_address": ["Schiffbeker Weg 66", "22119 Hamburg", "Germany"]}, "phone": "+494029810001", "display_phone": "+49 40 29810001", "distance": 3103.2151767173627}, {"id": "9nxX8JqkPfknCMZDoDQXbQ", "alias": "k\u00f6z-\u00e1-la-turca-hamburg-2", "name": "K\u00f6z \u00e1 la Turca", "image_url": "https://s3-media4.fl.yelpcdn.com/bphoto/Bie7L6e2PWZoKUBZ4GXgCw/o.jpg", "is_closed": false, "url": "https://www.yelp.com/biz/k%C3%B6z-%C3%A1-la-turca-hamburg-2?adjust_creative=hBJOknVQJ58S5goQyjmwRw&utm_campaign=yelp_api_v3&utm_medium=api_v3_business_search&utm_source=hBJOknVQJ58S5goQyjmwRw", "review_count": 2, "categories": [{"alias": "turkish", "title": "Turkish"}, {"alias": "mediterranean", "title": "Mediterranean"}], "rating": 5.0, "coordinates": {"latitude": 53.5401, "longitude": 10.1026}, "transactions": [], "price": "\u20ac\u20ac", "location": {"address1": "Billstedter Hauptstr. 53", "address2": null, "address3": null, "city": "Hamburg", "zip_code": "22111", "country": "DE", "state": "HH", "display_address": ["Billstedter Hauptstr. 53", "22111 Hamburg", "Germany"]}, "phone": "+494070296885", "display_phone": "+49 40 70296885", "distance": 3795.48328994377}, {"id": "RXRh4Wb1Os3YT2Fam1swVA", "alias": "sel-kebaps-hamburg-3", "name": "Sel Kebap's", "image_url": "https://s3-media4.fl.yelpcdn.com/bphoto/PUU457LahpNwzeysKymIJg/o.jpg", "is_closed": false, "url": "https://www.yelp.com/biz/sel-kebaps-hamburg-3?adjust_creative=hBJOknVQJ58S5goQyjmwRw&utm_campaign=yelp_api_v3&utm_medium=api_v3_business_search&utm_source=hBJOknVQJ58S5goQyjmwRw", "review_count": 1, "categories": [{"alias": "kebab", "title": "Kebab"}, {"alias": "turkish", "title": "Turkish"}], "rating": 5.0, "coordinates": {"latitude": 53.5400121164517, "longitude": 10.1023189723492}, "transactions": [], "location": {"address1": "Billstedter Hauptstr. 51", "address2": "", "address3": "", "city": "Hamburg", "zip_code": "22111", "country": "DE", "state": "HH", "display_address": ["Billstedter Hauptstr. 51", "22111 Hamburg", "Germany"]}, "phone": "", "display_phone": "", "distance": 3810.369963344712}, {"id": "gc1Qk_79IUVZcInyIm9PDA", "alias": "bolero-hamburg-5", "name": "Bolero", "image_url": "https://s3-media3.fl.yelpcdn.com/bphoto/F3OtYMrwt4TetFIzg55Tsg/o.jpg", "is_closed": false, "url": "https://www.yelp.com/biz/bolero-hamburg-5?adjust_creative=hBJOknVQJ58S5goQyjmwRw&utm_campaign=yelp_api_v3&utm_medium=api_v3_business_search&utm_source=hBJOknVQJ58S5goQyjmwRw", "review_count": 94, "categories": [{"alias": "mexican", "title": "Mexican"}, {"alias": "cocktailbars", "title": "Cocktail Bars"}], "rating": 3.0, "coordinates": {"latitude": 53.58824, "longitude": 10.09641}, "transactions": [], "price": "\u20ac\u20ac", "location": {"address1": "Friedrich-Ebert-Damm 128", "address2": null, "address3": null, "city": "Hamburg", "zip_code": "22047", "country": "DE", "state": "HH", "display_address": ["Friedrich-Ebert-Damm 128", "22047 Hamburg", "Germany"]}, "phone": "+494069691202", "display_phone": "+49 40 69691202", "distance": 2305.8169136946244}, {"id": "V4bKMm8OGNYtdGsZNyt5fg", "alias": "nordsee-hamburg-19", "name": "Nordsee", "image_url": "https://s3-media1.fl.yelpcdn.com/bphoto/zagNky8-J7YRTkIlytvZKA/o.jpg", "is_closed": false, "url": "https://www.yelp.com/biz/nordsee-hamburg-19?adjust_creative=hBJOknVQJ58S5goQyjmwRw&utm_campaign=yelp_api_v3&utm_medium=api_v3_business_search&utm_source=hBJOknVQJ58S5goQyjmwRw", "review_count": 5, "categories": [{"alias": "fischbroetchen", "title": "Fischbroetchen"}], "rating": 4.0, "coordinates": {"latitude": 53.5409, "longitude": 10.1055}, "transactions": [], "price": "\u20ac\u20ac", "location": {"address1": "M\u00f6llner Landstr. 3", "address2": "", "address3": null, "city": "Hamburg", "zip_code": "22111", "country": "DE", "state": "HH", "display_address": ["M\u00f6llner Landstr. 3", "22111 Hamburg", "Germany"]}, "phone": "+494073670510", "display_phone": "+49 40 73670510", "distance": 3656.8532870747904}, {"id": "ZCNX0Jow6YkO_HDoT0TewA", "alias": "luisenhof-und-dubrovnik-hamburg", "name": "Luisenhof & Dubrovnik", "image_url": "https://s3-media2.fl.yelpcdn.com/bphoto/zl1WpS75hZ9awDkAfTrSRQ/o.jpg", "is_closed": false, "url": "https://www.yelp.com/biz/luisenhof-und-dubrovnik-hamburg?adjust_creative=hBJOknVQJ58S5goQyjmwRw&utm_campaign=yelp_api_v3&utm_medium=api_v3_business_search&utm_source=hBJOknVQJ58S5goQyjmwRw", "review_count": 14, "categories": [{"alias": "international", "title": "International"}, {"alias": "german", "title": "German"}], "rating": 3.5, "coordinates": {"latitude": 53.6072, "longitude": 10.1165}, "transactions": [], "price": "\u20ac\u20ac", "location": {"address1": "Am Luisenhof 1", "address2": null, "address3": null, "city": "Hamburg", "zip_code": "22159", "country": "DE", "state": "HH", "display_address": ["Am Luisenhof 1", "22159 Hamburg", "Germany"]}, "phone": "+49406431071", "display_phone": "+49 40 6431071", "distance": 3843.8109543163678}, {"id": "Fay28Bc25iicsyM_EEI1tQ", "alias": "pink-balkan-imbiss-hamburg", "name": "Pink Balkan Imbiss", "image_url": "https://s3-media1.fl.yelpcdn.com/bphoto/-U63FrCtE8eUws3FvxF_9A/o.jpg", "is_closed": false, "url": "https://www.yelp.com/biz/pink-balkan-imbiss-hamburg?adjust_creative=hBJOknVQJ58S5goQyjmwRw&utm_campaign=yelp_api_v3&utm_medium=api_v3_business_search&utm_source=hBJOknVQJ58S5goQyjmwRw", "review_count": 12, "categories": [{"alias": "bbq", "title": "Barbeque"}, {"alias": "serbocroatian", "title": "Serbo Croatian"}], "rating": 4.0, "coordinates": {"latitude": 53.5562, "longitude": 10.0974}, "transactions": [], "price": "\u20ac\u20ac", "location": {"address1": "Manshardtstr. 66", "address2": null, "address3": null, "city": "Hamburg", "zip_code": "22119", "country": "DE", "state": "HH", "display_address": ["Manshardtstr. 66", "22119 Hamburg", "Germany"]}, "phone": "+494067109502", "display_phone": "+49 40 67109502", "distance": 2351.9205506404774}, {"id": "d3IaAPXLTYkqGqukAB81ig", "alias": "restaurant-rhodos-hamburg", "name": "Restaurant Rhodos", "image_url": "https://s3-media1.fl.yelpcdn.com/bphoto/BAyl-tsBuGD2Ja-FqHzoFQ/o.jpg", "is_closed": false, "url": "https://www.yelp.com/biz/restaurant-rhodos-hamburg?adjust_creative=hBJOknVQJ58S5goQyjmwRw&utm_campaign=yelp_api_v3&utm_medium=api_v3_business_search&utm_source=hBJOknVQJ58S5goQyjmwRw", "review_count": 12, "categories": [{"alias": "greek", "title": "Greek"}], "rating": 4.5, "coordinates": {"latitude": 53.5307, "longitude": 10.1257}, "transactions": [], "price": "\u20ac\u20ac", "location": {"address1": "Steinbeker Hauptstr. 75", "address2": "", "address3": null, "city": "Hamburg", "zip_code": "22117", "country": "DE", "state": "HH", "display_address": ["Steinbeker Hauptstr. 75", "22117 Hamburg", "Germany"]}, "phone": "+49407125732", "display_phone": "+49 40 7125732", "distance": 4685.165848610887}, {"id": "giwP6SI-BC0hwpzZeb1UxA", "alias": "china-restaurant-bi-hu-hamburg", "name": "China Restaurant BI HU", "image_url": "https://s3-media4.fl.yelpcdn.com/bphoto/PE98dBlMUxOLZtIgmwLbNw/o.jpg", "is_closed": false, "url": "https://www.yelp.com/biz/china-restaurant-bi-hu-hamburg?adjust_creative=hBJOknVQJ58S5goQyjmwRw&utm_campaign=yelp_api_v3&utm_medium=api_v3_business_search&utm_source=hBJOknVQJ58S5goQyjmwRw", "review_count": 8, "categories": [{"alias": "chinese", "title": "Chinese"}], "rating": 3.0, "coordinates": {"latitude": 53.5965, "longitude": 10.1167}, "transactions": [], "price": "\u20ac\u20ac", "location": {"address1": "Kupferdamm 1", "address2": null, "address3": null, "city": "Hamburg", "zip_code": "22159", "country": "DE", "state": "HH", "display_address": ["Kupferdamm 1", "22159 Hamburg", "Germany"]}, "phone": "+494066853540", "display_phone": "+49 40 66853540", "distance": 2655.6324952399054}, {"id": "U9PC9xkZgrE_sRpktMvnaA", "alias": "afghanische-konditorei-hamburg", "name": "Afghanische Konditorei", "image_url": "", "is_closed": false, "url": "https://www.yelp.com/biz/afghanische-konditorei-hamburg?adjust_creative=hBJOknVQJ58S5goQyjmwRw&utm_campaign=yelp_api_v3&utm_medium=api_v3_business_search&utm_source=hBJOknVQJ58S5goQyjmwRw", "review_count": 1, "categories": [{"alias": "cakeshop", "title": "Patisserie/Cake Shop"}, {"alias": "afghani", "title": "Afghan"}], "rating": 4.0, "coordinates": {"latitude": 53.5421384684295, "longitude": 10.0963474070709}, "transactions": [], "location": {"address1": "Billstedter Hauptstr. 12", "address2": "", "address3": null, "city": "Hamburg", "zip_code": "22111", "country": "DE", "state": "HH", "display_address": ["Billstedter Hauptstr. 12", "22111 Hamburg", "Germany"]}, "phone": "+494084709732", "display_phone": "+49 40 84709732", "distance": 3730.787854340318}, {"id": "SlTXq8HEtujfMAVIyvBYHg", "alias": "cevapcici-und-burek-hamburg", "name": "Cevapcici & Burek", "image_url": "https://s3-media3.fl.yelpcdn.com/bphoto/-TKeutnVAgeqUB9XllvCww/o.jpg", "is_closed": false, "url": "https://www.yelp.com/biz/cevapcici-und-burek-hamburg?adjust_creative=hBJOknVQJ58S5goQyjmwRw&utm_campaign=yelp_api_v3&utm_medium=api_v3_business_search&utm_source=hBJOknVQJ58S5goQyjmwRw", "review_count": 3, "categories": [{"alias": "german", "title": "German"}], "rating": 4.5, "coordinates": {"latitude": 53.54102, "longitude": 10.10102}, "transactions": [], "price": "\u20ac\u20ac", "location": {"address1": "Schiffbeker Weg 3", "address2": "", "address3": null, "city": "Hamburg", "zip_code": "22111", "country": "DE", "state": "HH", "display_address": ["Schiffbeker Weg 3", "22111 Hamburg", "Germany"]}, "phone": "+494023954224", "display_phone": "+49 40 23954224", "distance": 3744.6156936877383}, {"id": "YFiz5MT16IzUpEjkhoWxZw", "alias": "gastst\u00e4tte-herakles-hamburg", "name": "Gastst\u00e4tte Herakles", "image_url": "https://s3-media2.fl.yelpcdn.com/bphoto/DTHHFZtgNDo_AUv1b3dQOw/o.jpg", "is_closed": false, "url": "https://www.yelp.com/biz/gastst%C3%A4tte-herakles-hamburg?adjust_creative=hBJOknVQJ58S5goQyjmwRw&utm_campaign=yelp_api_v3&utm_medium=api_v3_business_search&utm_source=hBJOknVQJ58S5goQyjmwRw", "review_count": 4, "categories": [{"alias": "greek", "title": "Greek"}], "rating": 5.0, "coordinates": {"latitude": 53.5988, "longitude": 10.1174}, "transactions": [], "price": "\u20ac", "location": {"address1": "Berner Heerweg 90", "address2": null, "address3": null, "city": "Hamburg", "zip_code": "22159", "country": "DE", "state": "HH", "display_address": ["Berner Heerweg 90", "22159 Hamburg", "Germany"]}, "phone": "+49406682125", "display_phone": "+49 40 6682125", "distance": 2907.9309599189683}, {"id": "YljwUsa40IemittL_EO12w", "alias": "donja-hamburg", "name": "Donja", "image_url": "https://s3-media4.fl.yelpcdn.com/bphoto/IgSijvZnjPBzvHyEhYkT6g/o.jpg", "is_closed": false, "url": "https://www.yelp.com/biz/donja-hamburg?adjust_creative=hBJOknVQJ58S5goQyjmwRw&utm_campaign=yelp_api_v3&utm_medium=api_v3_business_search&utm_source=hBJOknVQJ58S5goQyjmwRw", "review_count": 9, "categories": [{"alias": "afghani", "title": "Afghan"}], "rating": 4.0, "coordinates": {"latitude": 53.54197, "longitude": 10.09844}, "transactions": [], "price": "\u20ac\u20ac", "location": {"address1": "Billstedter Hauptstr. 17", "address2": "", "address3": "", "city": "Hamburg", "zip_code": "22111", "country": "DE", "state": "HH", "display_address": ["Billstedter Hauptstr. 17", "22111 Hamburg", "Germany"]}, "phone": "+494073677417", "display_phone": "+49 40 73677417", "distance": 3718.7192425607354}, {"id": "4FpU3bFIM9Qg_WU--dIXMg", "alias": "asiahung-hamburg-18", "name": "asiahung", "image_url": "https://s3-media3.fl.yelpcdn.com/bphoto/xR3SsObZDqrBBHV7p-MkGA/o.jpg", "is_closed": false, "url": "https://www.yelp.com/biz/asiahung-hamburg-18?adjust_creative=hBJOknVQJ58S5goQyjmwRw&utm_campaign=yelp_api_v3&utm_medium=api_v3_business_search&utm_source=hBJOknVQJ58S5goQyjmwRw", "review_count": 8, "categories": [{"alias": "hotdogs", "title": "Fast Food"}, {"alias": "panasian", "title": "Pan Asian"}], "rating": 3.5, "coordinates": {"latitude": 53.5418, "longitude": 10.1061}, "transactions": [], "price": "\u20ac", "location": {"address1": "M\u00f6llner Landstr. 3", "address2": "", "address3": null, "city": "Hamburg", "zip_code": "22111", "country": "DE", "state": "HH", "display_address": ["M\u00f6llner Landstr. 3", "22111 Hamburg", "Germany"]}, "phone": "", "display_phone": "", "distance": 3549.9772295689554}, {"id": "K4B-CHJDsU_In3DP2LziiA", "alias": "call-a-pizza-hamburg-7", "name": "Call a Pizza", "image_url": "https://s3-media2.fl.yelpcdn.com/bphoto/rELdVa8hQyxKVegEi_LOnw/o.jpg", "is_closed": false, "url": "https://www.yelp.com/biz/call-a-pizza-hamburg-7?adjust_creative=hBJOknVQJ58S5goQyjmwRw&utm_campaign=yelp_api_v3&utm_medium=api_v3_business_search&utm_source=hBJOknVQJ58S5goQyjmwRw", "review_count": 5, "categories": [{"alias": "pizza", "title": "Pizza"}], "rating": 3.5, "coordinates": {"latitude": 53.5428429, "longitude": 10.1028221}, "transactions": [], "price": "\u20ac\u20ac", "location": {"address1": "Schiffbecker Weg 29", "address2": null, "address3": null, "city": "Hamburg", "zip_code": "22111", "country": "DE", "state": "HH", "display_address": ["Schiffbecker Weg 29", "22111 Hamburg", "Germany"]}, "phone": "+494073115181", "display_phone": "+49 40 73115181", "distance": 3500.792005025082}, {"id": "TGllMw7dQQtI2ZvtS868mA", "alias": "billstedter-biergarten-hamburg", "name": "Billstedter Biergarten", "image_url": "https://s3-media3.fl.yelpcdn.com/bphoto/e2ipBAodlvOB-8HO9oN5Hg/o.jpg", "is_closed": false, "url": "https://www.yelp.com/biz/billstedter-biergarten-hamburg?adjust_creative=hBJOknVQJ58S5goQyjmwRw&utm_campaign=yelp_api_v3&utm_medium=api_v3_business_search&utm_source=hBJOknVQJ58S5goQyjmwRw", "review_count": 2, "categories": [{"alias": "beergarden", "title": "Beer Garden"}], "rating": 4.0, "coordinates": {"latitude": 53.53841, "longitude": 10.10607}, "transactions": [], "price": "\u20ac\u20ac", "location": {"address1": "Billstedter Hauptstr. 73", "address2": "", "address3": null, "city": "Hamburg", "zip_code": "22111", "country": "DE", "state": "HH", "display_address": ["Billstedter Hauptstr. 73", "22111 Hamburg", "Germany"]}, "phone": "+49407337958", "display_phone": "+49 40 7337958", "distance": 3914.0823326276304}, {"id": "vk3-NnVUiAvUP38GlzQzGA", "alias": "stehcafe-melli-hamburg", "name": "Stehcafe Melli", "image_url": "", "is_closed": false, "url": "https://www.yelp.com/biz/stehcafe-melli-hamburg?adjust_creative=hBJOknVQJ58S5goQyjmwRw&utm_campaign=yelp_api_v3&utm_medium=api_v3_business_search&utm_source=hBJOknVQJ58S5goQyjmwRw", "review_count": 1, "categories": [{"alias": "cafes", "title": "Cafes"}], "rating": 5.0, "coordinates": {"latitude": 53.5395851251921, "longitude": 10.0954826433472}, "transactions": [], "location": {"address1": "Billstedter Hauptstr. 1 - 5", "address2": "", "address3": "", "city": "Hamburg", "zip_code": "22111", "country": "DE", "state": "HH", "display_address": ["Billstedter Hauptstr. 1 - 5", "22111 Hamburg", "Germany"]}, "phone": "+494087882430", "display_phone": "+49 40 87882430", "distance": 4013.453983351248}, {"id": "tgldf5W4qcSGZElSAqchMg", "alias": "l-italian-hamburg", "name": "L\u00b4Italian", "image_url": "https://s3-media4.fl.yelpcdn.com/bphoto/gYseBdz6ANtBBhY4wjEtcQ/o.jpg", "is_closed": false, "url": "https://www.yelp.com/biz/l-italian-hamburg?adjust_creative=hBJOknVQJ58S5goQyjmwRw&utm_campaign=yelp_api_v3&utm_medium=api_v3_business_search&utm_source=hBJOknVQJ58S5goQyjmwRw", "review_count": 4, "categories": [{"alias": "italian", "title": "Italian"}], "rating": 3.0, "coordinates": {"latitude": 53.53979, "longitude": 10.10457}, "transactions": [], "price": "\u20ac\u20ac", "location": {"address1": "M\u00f6llner Landstr. 3", "address2": "", "address3": "", "city": "Hamburg", "zip_code": "22111", "country": "DE", "state": "HH", "display_address": ["M\u00f6llner Landstr. 3", "22111 Hamburg", "Germany"]}, "phone": "", "display_phone": "", "distance": 3792.018454912577}, {"id": "sEkpM7--ZMmNjrVd6MNyOA", "alias": "knappis-imbiss-hamburg-3", "name": "Knappis Imbiss", "image_url": "https://s3-media1.fl.yelpcdn.com/bphoto/5oKcQAiuz9KcJT7y9Bc90g/o.jpg", "is_closed": false, "url": "https://www.yelp.com/biz/knappis-imbiss-hamburg-3?adjust_creative=hBJOknVQJ58S5goQyjmwRw&utm_campaign=yelp_api_v3&utm_medium=api_v3_business_search&utm_source=hBJOknVQJ58S5goQyjmwRw", "review_count": 1, "categories": [{"alias": "currysausage", "title": "Curry Sausage"}], "rating": 5.0, "coordinates": {"latitude": 53.5392586, "longitude": 10.1063802}, "transactions": [], "price": "\u20ac", "location": {"address1": "M\u00f6llner Landstra\u00dfe", "address2": null, "address3": null, "city": "Hamburg", "zip_code": "22111", "country": "DE", "state": "HH", "display_address": ["M\u00f6llner Landstra\u00dfe", "22111 Hamburg", "Germany"]}, "phone": "", "display_phone": "", "distance": 3819.7167676965055}, {"id": "EZILGQV8FIXerqudRluW4Q", "alias": "d\u00f6ner-company-hamburg-2", "name": "D\u00f6ner Company", "image_url": "https://s3-media1.fl.yelpcdn.com/bphoto/MyVEYS5Gdq5FSs6Za7M5kg/o.jpg", "is_closed": false, "url": "https://www.yelp.com/biz/d%C3%B6ner-company-hamburg-2?adjust_creative=hBJOknVQJ58S5goQyjmwRw&utm_campaign=yelp_api_v3&utm_medium=api_v3_business_search&utm_source=hBJOknVQJ58S5goQyjmwRw", "review_count": 6, "categories": [{"alias": "kebab", "title": "Kebab"}], "rating": 3.0, "coordinates": {"latitude": 53.54237, "longitude": 10.10559}, "transactions": [], "price": "\u20ac\u20ac", "location": {"address1": "Reclamstr. 2", "address2": null, "address3": null, "city": "Hamburg", "zip_code": "22111", "country": "DE", "state": "HH", "display_address": ["Reclamstr. 2", "22111 Hamburg", "Germany"]}, "phone": "+494089728833", "display_phone": "+49 40 89728833", "distance": 3570.389453994901}, {"id": "zDBc6IZrtooKf3VIjwNbIA", "alias": "apollo-pizza-hamburg", "name": "Apollo Pizza", "image_url": "https://s3-media3.fl.yelpcdn.com/bphoto/bmlAoSkT98rY5_ArvhGK8Q/o.jpg", "is_closed": false, "url": "https://www.yelp.com/biz/apollo-pizza-hamburg?adjust_creative=hBJOknVQJ58S5goQyjmwRw&utm_campaign=yelp_api_v3&utm_medium=api_v3_business_search&utm_source=hBJOknVQJ58S5goQyjmwRw", "review_count": 8, "categories": [{"alias": "pizza", "title": "Pizza"}], "rating": 3.0, "coordinates": {"latitude": 53.5377, "longitude": 10.1118}, "transactions": [], "price": "\u20ac", "location": {"address1": "Sp\u00f6kelbarg 20", "address2": null, "address3": null, "city": "Hamburg", "zip_code": "22117", "country": "DE", "state": "HH", "display_address": ["Sp\u00f6kelbarg 20", "22117 Hamburg", "Germany"]}, "phone": "+494021987411", "display_phone": "+49 40 21987411", "distance": 3925.0605854141236}, {"id": "Qmu-xTS39IvusBrpQyFjdQ", "alias": "tunicis-restaurant-dubrovnik-hamburg-2", "name": "Tunici's Restaurant Dubrovnik", "image_url": "https://s3-media2.fl.yelpcdn.com/bphoto/A4sPuzVGzxk8pafzIkrWkg/o.jpg", "is_closed": false, "url": "https://www.yelp.com/biz/tunicis-restaurant-dubrovnik-hamburg-2?adjust_creative=hBJOknVQJ58S5goQyjmwRw&utm_campaign=yelp_api_v3&utm_medium=api_v3_business_search&utm_source=hBJOknVQJ58S5goQyjmwRw", "review_count": 21, "categories": [{"alias": "serbocroatian", "title": "Serbo Croatian"}], "rating": 4.0, "coordinates": {"latitude": 53.5491, "longitude": 10.1088}, "transactions": [], "price": "\u20ac\u20ac", "location": {"address1": "Schiffbeker Weg 96", "address2": null, "address3": null, "city": "Hamburg", "zip_code": "22119", "country": "DE", "state": "HH", "display_address": ["Schiffbeker Weg 96", "22119 Hamburg", "Germany"]}, "phone": "+49407314788", "display_phone": "+49 40 7314788", "distance": 2719.739208548787}, {"id": "bgbZXdQLgDSqcy6OHZ3Pdw", "alias": "jacky-chang-hamburg", "name": "Jacky Chang", "image_url": "https://s3-media2.fl.yelpcdn.com/bphoto/Y8rROICVPApDteZXq30uAg/o.jpg", "is_closed": false, "url": "https://www.yelp.com/biz/jacky-chang-hamburg?adjust_creative=hBJOknVQJ58S5goQyjmwRw&utm_campaign=yelp_api_v3&utm_medium=api_v3_business_search&utm_source=hBJOknVQJ58S5goQyjmwRw", "review_count": 12, "categories": [{"alias": "panasian", "title": "Pan Asian"}], "rating": 3.0, "coordinates": {"latitude": 53.6052, "longitude": 10.1183599}, "transactions": [], "price": "\u20ac\u20ac", "location": {"address1": "Berner Heerweg 173", "address2": "", "address3": "", "city": "Hamburg", "zip_code": "22159", "country": "DE", "state": "HH", "display_address": ["Berner Heerweg 173", "22159 Hamburg", "Germany"]}, "phone": "+49406438850", "display_phone": "+49 40 6438850", "distance": 3656.3574114139224}, {"id": "Yesr7nanDZ6qj_B9KlTWUA", "alias": "vu-imbiss-hamburg-2", "name": "Vu Imbiss", "image_url": "https://s3-media3.fl.yelpcdn.com/bphoto/Efpa3Z_bih_XM9cE3XQEaQ/o.jpg", "is_closed": false, "url": "https://www.yelp.com/biz/vu-imbiss-hamburg-2?adjust_creative=hBJOknVQJ58S5goQyjmwRw&utm_campaign=yelp_api_v3&utm_medium=api_v3_business_search&utm_source=hBJOknVQJ58S5goQyjmwRw", "review_count": 1, "categories": [{"alias": "panasian", "title": "Pan Asian"}, {"alias": "hotdogs", "title": "Fast Food"}], "rating": 3.0, "coordinates": {"latitude": 53.5422748, "longitude": 10.1404382}, "transactions": [], "location": {"address1": "M\u00f6llner Landstr. 240", "address2": "", "address3": null, "city": "Hamburg", "zip_code": "22117", "country": "DE", "state": "HH", "display_address": ["M\u00f6llner Landstr. 240", "22117 Hamburg", "Germany"]}, "phone": "", "display_phone": "", "distance": 3647.9456976126817}, {"id": "veiIRrnbIIY3Udy0wRlpXw", "alias": "hallo-pizza-hamburg-12", "name": "Hallo Pizza!", "image_url": "https://s3-media3.fl.yelpcdn.com/bphoto/vn2q6AmBLXTUn0mkYIIPWQ/o.jpg", "is_closed": false, "url": "https://www.yelp.com/biz/hallo-pizza-hamburg-12?adjust_creative=hBJOknVQJ58S5goQyjmwRw&utm_campaign=yelp_api_v3&utm_medium=api_v3_business_search&utm_source=hBJOknVQJ58S5goQyjmwRw", "review_count": 6, "categories": [{"alias": "pizza", "title": "Pizza"}], "rating": 5.0, "coordinates": {"latitude": 53.58424, "longitude": 10.13803}, "transactions": [], "price": "\u20ac\u20ac\u20ac\u20ac", "location": {"address1": "Sch\u00f6neberger Str. 20", "address2": null, "address3": null, "city": "Hamburg", "zip_code": "22045", "country": "DE", "state": "HH", "display_address": ["Sch\u00f6neberger Str. 20", "22045 Hamburg", "Germany"]}, "phone": "+494052388700", "display_phone": "+49 40 52388700", "distance": 1764.393604388466}, {"id": "uowcUv_zNFP2MIHxcVMvwQ", "alias": "mcdonalds-hamburg-45", "name": "McDonald's", "image_url": "https://s3-media1.fl.yelpcdn.com/bphoto/81A7pzdZ0CM5ZZztlvbqyg/o.jpg", "is_closed": false, "url": "https://www.yelp.com/biz/mcdonalds-hamburg-45?adjust_creative=hBJOknVQJ58S5goQyjmwRw&utm_campaign=yelp_api_v3&utm_medium=api_v3_business_search&utm_source=hBJOknVQJ58S5goQyjmwRw", "review_count": 11, "categories": [{"alias": "burgers", "title": "Burgers"}, {"alias": "hotdogs", "title": "Fast Food"}], "rating": 2.5, "coordinates": {"latitude": 53.5415, "longitude": 10.0991}, "transactions": [], "price": "\u20ac\u20ac", "location": {"address1": "Billstedter Hauptstr. 23-25", "address2": null, "address3": null, "city": "Hamburg", "zip_code": "22111", "country": "DE", "state": "HH", "display_address": ["Billstedter Hauptstr. 23-25", "22111 Hamburg", "Germany"]}, "phone": "+494021987533", "display_phone": "+49 40 21987533", "distance": 3725.3106361919768}, {"id": "xwj4BT0-5XSoAJb03OJW0g", "alias": "kneipe-leos-hamburg", "name": "Kneipe Leo's", "image_url": "", "is_closed": false, "url": "https://www.yelp.com/biz/kneipe-leos-hamburg?adjust_creative=hBJOknVQJ58S5goQyjmwRw&utm_campaign=yelp_api_v3&utm_medium=api_v3_business_search&utm_source=hBJOknVQJ58S5goQyjmwRw", "review_count": 6, "categories": [{"alias": "divebars", "title": "Dive Bars"}, {"alias": "gastropubs", "title": "Gastropubs"}], "rating": 5.0, "coordinates": {"latitude": 53.5596114, "longitude": 10.0956549}, "transactions": [], "price": "\u20ac\u20ac\u20ac", "location": {"address1": "Stoltenstr. 26", "address2": "", "address3": null, "city": "Hamburg", "zip_code": "22119", "country": "DE", "state": "HH", "display_address": ["Stoltenstr. 26", "22119 Hamburg", "Germany"]}, "phone": "+49406513808", "display_phone": "+49 40 6513808", "distance": 2153.499908637408}, {"id": "6JEBAUugL1Rxwc3-NepyKQ", "alias": "dominos-hamburg-24", "name": "Domino's", "image_url": "", "is_closed": false, "url": "https://www.yelp.com/biz/dominos-hamburg-24?adjust_creative=hBJOknVQJ58S5goQyjmwRw&utm_campaign=yelp_api_v3&utm_medium=api_v3_business_search&utm_source=hBJOknVQJ58S5goQyjmwRw", "review_count": 1, "categories": [{"alias": "pizza", "title": "Pizza"}], "rating": 1.0, "coordinates": {"latitude": 53.55915, "longitude": 10.10594}, "transactions": [], "location": {"address1": "Manshardtstr. 107", "address2": null, "address3": null, "city": "Hamburg", "zip_code": "22119", "country": "DE", "state": "HH", "display_address": ["Manshardtstr. 107", "22119 Hamburg", "Germany"]}, "phone": "+4940777095", "display_phone": "+49 40 777095", "distance": 1756.6094622498256}, {"id": "RbgazphzWysS4xHd-TU1Bg", "alias": "filmkantine-hamburg", "name": "Filmkantine", "image_url": "https://s3-media2.fl.yelpcdn.com/bphoto/0i1NzGhMcO-WIwsKXppxhQ/o.jpg", "is_closed": false, "url": "https://www.yelp.com/biz/filmkantine-hamburg?adjust_creative=hBJOknVQJ58S5goQyjmwRw&utm_campaign=yelp_api_v3&utm_medium=api_v3_business_search&utm_source=hBJOknVQJ58S5goQyjmwRw", "review_count": 6, "categories": [{"alias": "canteen", "title": "Canteen"}], "rating": 3.5, "coordinates": {"latitude": 53.586, "longitude": 10.1269}, "transactions": [], "price": "\u20ac\u20ac\u20ac", "location": {"address1": "Studio Hamburg", "address2": "Jenfelder Allee 80", "address3": null, "city": "Hamburg", "zip_code": "22039", "country": "DE", "state": "HH", "display_address": ["Studio Hamburg", "Jenfelder Allee 80", "22039 Hamburg", "Germany"]}, "phone": "+4966885310", "display_phone": "+49 6688 5310", "distance": 1554.7536428418482}, {"id": "6LuUJRK8mOPCsvhtllB1Jw", "alias": "bravi-ragazzi-hamburg", "name": "Bravi Ragazzi", "image_url": "", "is_closed": false, "url": "https://www.yelp.com/biz/bravi-ragazzi-hamburg?adjust_creative=hBJOknVQJ58S5goQyjmwRw&utm_campaign=yelp_api_v3&utm_medium=api_v3_business_search&utm_source=hBJOknVQJ58S5goQyjmwRw", "review_count": 1, "categories": [{"alias": "pizza", "title": "Pizza"}, {"alias": "italian", "title": "Italian"}], "rating": 5.0, "coordinates": {"latitude": 53.599692, "longitude": 10.118151}, "transactions": [], "location": {"address1": "Berner Heerweg 100", "address2": "", "address3": null, "city": "Hamburg", "zip_code": "22159", "country": "DE", "state": "HH", "display_address": ["Berner Heerweg 100", "22159 Hamburg", "Germany"]}, "phone": "+494034866926", "display_phone": "+49 40 34866926", "distance": 3004.873437505652}, {"id": "iky1wcqgbisBxoQR-AS4kQ", "alias": "ach-der-deniz-hamburg-3", "name": "Ach Der Deniz", "image_url": "https://s3-media3.fl.yelpcdn.com/bphoto/Lhdt9WtcMIaKKNkqKqIAzw/o.jpg", "is_closed": false, "url": "https://www.yelp.com/biz/ach-der-deniz-hamburg-3?adjust_creative=hBJOknVQJ58S5goQyjmwRw&utm_campaign=yelp_api_v3&utm_medium=api_v3_business_search&utm_source=hBJOknVQJ58S5goQyjmwRw", "review_count": 2, "categories": [{"alias": "kebab", "title": "Kebab"}], "rating": 3.5, "coordinates": {"latitude": 53.538735, "longitude": 10.122476}, "transactions": [], "location": {"address1": "M\u00f6llner Landstr. 123", "address2": "", "address3": null, "city": "Hamburg", "zip_code": "22117", "country": "DE", "state": "HH", "display_address": ["M\u00f6llner Landstr. 123", "22117 Hamburg", "Germany"]}, "phone": "", "display_phone": "", "distance": 3779.1535007499883}, {"id": "4GAAQpwe0kigUeNlvASv7A", "alias": "mundfein-pizzawerkstatt-hamburg-4", "name": "Mundfein Pizzawerkstatt", "image_url": "https://s3-media1.fl.yelpcdn.com/bphoto/MGq7H1dYvxL6OfY-yswVqQ/o.jpg", "is_closed": false, "url": "https://www.yelp.com/biz/mundfein-pizzawerkstatt-hamburg-4?adjust_creative=hBJOknVQJ58S5goQyjmwRw&utm_campaign=yelp_api_v3&utm_medium=api_v3_business_search&utm_source=hBJOknVQJ58S5goQyjmwRw", "review_count": 24, "categories": [{"alias": "pizza", "title": "Pizza"}], "rating": 4.0, "coordinates": {"latitude": 53.5805, "longitude": 10.1028}, "transactions": [], "price": "\u20ac\u20ac", "location": {"address1": "Ahrensburger Str. 110", "address2": null, "address3": null, "city": "Hamburg", "zip_code": "22045", "country": "DE", "state": "HH", "display_address": ["Ahrensburger Str. 110", "22045 Hamburg", "Germany"]}, "phone": "+494088305335", "display_phone": "+49 40 88305335", "distance": 1415.0373808406573}, {"id": "BpSJW907Ej6BBEXxNG2gAw", "alias": "suja-hamburg-3", "name": "Suja", "image_url": "https://s3-media3.fl.yelpcdn.com/bphoto/fCqhAhrNmcf_dgzMif1rvQ/o.jpg", "is_closed": false, "url": "https://www.yelp.com/biz/suja-hamburg-3?adjust_creative=hBJOknVQJ58S5goQyjmwRw&utm_campaign=yelp_api_v3&utm_medium=api_v3_business_search&utm_source=hBJOknVQJ58S5goQyjmwRw", "review_count": 4, "categories": [{"alias": "indpak", "title": "Indian"}, {"alias": "fooddeliveryservices", "title": "Food Delivery Services"}], "rating": 2.5, "coordinates": {"latitude": 53.54013, "longitude": 10.10337}, "transactions": [], "price": "\u20ac\u20ac", "location": {"address1": "M\u00f6llner Landstr. 3", "address2": "", "address3": "1. OG", "city": "Hamburg", "zip_code": "22111", "country": "DE", "state": "HH", "display_address": ["M\u00f6llner Landstr. 3", "1. OG", "22111 Hamburg", "Germany"]}, "phone": "+494022610860", "display_phone": "+49 40 22610860", "distance": 3672.6275882288546}, {"id": "7N9yEdpjKU2hFEhuKJDUsw", "alias": "betriebsrestaurant-billstedt-hamburg", "name": "Betriebsrestaurant Billstedt", "image_url": "https://s3-media2.fl.yelpcdn.com/bphoto/9b8pnnOHIYREqx3PKzBwOg/o.jpg", "is_closed": false, "url": "https://www.yelp.com/biz/betriebsrestaurant-billstedt-hamburg?adjust_creative=hBJOknVQJ58S5goQyjmwRw&utm_campaign=yelp_api_v3&utm_medium=api_v3_business_search&utm_source=hBJOknVQJ58S5goQyjmwRw", "review_count": 2, "categories": [{"alias": "canteen", "title": "Canteen"}], "rating": 4.0, "coordinates": {"latitude": 53.5404399, "longitude": 10.10682}, "transactions": [], "price": "\u20ac", "location": {"address1": "\u00d6jendorferweg 9", "address2": "", "address3": "", "city": "Hamburg", "zip_code": "22111", "country": "DE", "state": "HH", "display_address": ["\u00d6jendorferweg 9", "22111 Hamburg", "Germany"]}, "phone": "+49407314900", "display_phone": "+49 40 7314900", "distance": 3712.244887675955}, {"id": "zvkheD2NuYxCvxKCJP_RKA", "alias": "croque-und-crepes-hamburg-7", "name": "Croque & Crepes", "image_url": "https://s3-media1.fl.yelpcdn.com/bphoto/elc2YImmdAXulRwXzRpceQ/o.jpg", "is_closed": false, "url": "https://www.yelp.com/biz/croque-und-crepes-hamburg-7?adjust_creative=hBJOknVQJ58S5goQyjmwRw&utm_campaign=yelp_api_v3&utm_medium=api_v3_business_search&utm_source=hBJOknVQJ58S5goQyjmwRw", "review_count": 28, "categories": [{"alias": "sandwiches", "title": "Sandwiches"}, {"alias": "creperies", "title": "Creperies"}], "rating": 4.5, "coordinates": {"latitude": 53.6068, "longitude": 10.119}, "transactions": [], "price": "\u20ac\u20ac", "location": {"address1": "August-Krogmannstr. 2", "address2": null, "address3": null, "city": "Hamburg", "zip_code": "22159", "country": "DE", "state": "HH", "display_address": ["August-Krogmannstr. 2", "22159 Hamburg", "Germany"]}, "phone": "+49406430900", "display_phone": "+49 40 6430900", "distance": 3793.766351233687}, {"id": "gIrRs118ZpavQ1dFibXAlA", "alias": "rose-rote-veranstaltungs-center-hamburg", "name": "Rose Rote Veranstaltungs Center", "image_url": "", "is_closed": false, "url": "https://www.yelp.com/biz/rose-rote-veranstaltungs-center-hamburg?adjust_creative=hBJOknVQJ58S5goQyjmwRw&utm_campaign=yelp_api_v3&utm_medium=api_v3_business_search&utm_source=hBJOknVQJ58S5goQyjmwRw", "review_count": 1, "categories": [{"alias": "hotelstravel", "title": "Hotels & Travel"}, {"alias": "restaurants", "title": "Restaurants"}], "rating": 4.0, "coordinates": {"latitude": 53.5401, "longitude": 10.1024}, "transactions": [], "price": "\u20ac", "location": {"address1": "Billstedter Hauptstr. 51", "address2": null, "address3": null, "city": "Hamburg", "zip_code": "22111", "country": "DE", "state": "HH", "display_address": ["Billstedter Hauptstr. 51", "22111 Hamburg", "Germany"]}, "phone": "", "display_phone": "", "distance": 3799.4389663361476}, {"id": "02tJXWUwOkLqFCIuESVXqw", "alias": "b\u00e4ckerei-caf\u00e9-konditorei-bohnenkamp-hamburg", "name": "B\u00e4ckerei-Caf\u00e9-Konditorei Bohnenkamp", "image_url": "https://s3-media3.fl.yelpcdn.com/bphoto/q110h-dkTJR0w43r6AkTEA/o.jpg", "is_closed": false, "url": "https://www.yelp.com/biz/b%C3%A4ckerei-caf%C3%A9-konditorei-bohnenkamp-hamburg?adjust_creative=hBJOknVQJ58S5goQyjmwRw&utm_campaign=yelp_api_v3&utm_medium=api_v3_business_search&utm_source=hBJOknVQJ58S5goQyjmwRw", "review_count": 9, "categories": [{"alias": "bakeries", "title": "Bakeries"}, {"alias": "cafes", "title": "Cafes"}, {"alias": "cakeshop", "title": "Patisserie/Cake Shop"}], "rating": 4.5, "coordinates": {"latitude": 53.5467, "longitude": 10.1067}, "transactions": [], "price": "\u20ac\u20ac", "location": {"address1": "Schiffbeker Weg 72", "address2": null, "address3": null, "city": "Hamburg", "zip_code": "22119", "country": "DE", "state": "HH", "display_address": ["Schiffbeker Weg 72", "22119 Hamburg", "Germany"]}, "phone": "+494073113790", "display_phone": "+49 40 73113790", "distance": 3014.4891575877446}, {"id": "gVp3MTlFvgnRDJ2a7XMFTA", "alias": "hei\u00dfe-ecke-hamburg-3", "name": "Hei\u00dfe Ecke", "image_url": "https://s3-media3.fl.yelpcdn.com/bphoto/nWgKWIU6H7_71HmesOjoBQ/o.jpg", "is_closed": false, "url": "https://www.yelp.com/biz/hei%C3%9Fe-ecke-hamburg-3?adjust_creative=hBJOknVQJ58S5goQyjmwRw&utm_campaign=yelp_api_v3&utm_medium=api_v3_business_search&utm_source=hBJOknVQJ58S5goQyjmwRw", "review_count": 11, "categories": [{"alias": "kebab", "title": "Kebab"}], "rating": 3.5, "coordinates": {"latitude": 53.6076288663775, "longitude": 10.1169973611832}, "transactions": [], "price": "\u20ac", "location": {"address1": "August-Krogmannstr. 22", "address2": "", "address3": "", "city": "Hamburg", "zip_code": "22159", "country": "DE", "state": "HH", "display_address": ["August-Krogmannstr. 22", "22159 Hamburg", "Germany"]}, "phone": "", "display_phone": "", "distance": 3889.7751943363014}, {"id": "yqk1NxWrR6Jp3IOyks0cSQ", "alias": "schweinske-hamburg-29", "name": "Schweinske", "image_url": "https://s3-media3.fl.yelpcdn.com/bphoto/LWx1Qfrr6CLbQoqxc7GUAQ/o.jpg", "is_closed": false, "url": "https://www.yelp.com/biz/schweinske-hamburg-29?adjust_creative=hBJOknVQJ58S5goQyjmwRw&utm_campaign=yelp_api_v3&utm_medium=api_v3_business_search&utm_source=hBJOknVQJ58S5goQyjmwRw", "review_count": 26, "categories": [{"alias": "german", "title": "German"}], "rating": 2.5, "coordinates": {"latitude": 53.5386279623028, "longitude": 10.1104775816202}, "transactions": [], "price": "\u20ac", "location": {"address1": "M\u00f6llner Landstr. 2", "address2": "", "address3": null, "city": "Hamburg", "zip_code": "22111", "country": "DE", "state": "HH", "display_address": ["M\u00f6llner Landstr. 2", "22111 Hamburg", "Germany"]}, "phone": "+494073433380", "display_phone": "+49 40 73433380", "distance": 3835.741279141101}, {"id": "jEVrKVGGr50sba9op8A3sw", "alias": "china-boy-hamburg", "name": "China Boy", "image_url": "https://s3-media4.fl.yelpcdn.com/bphoto/gAf1fNaZvBXueIQ-3Vw4Yw/o.jpg", "is_closed": false, "url": "https://www.yelp.com/biz/china-boy-hamburg?adjust_creative=hBJOknVQJ58S5goQyjmwRw&utm_campaign=yelp_api_v3&utm_medium=api_v3_business_search&utm_source=hBJOknVQJ58S5goQyjmwRw", "review_count": 22, "categories": [{"alias": "panasian", "title": "Pan Asian"}], "rating": 3.0, "coordinates": {"latitude": 53.6057, "longitude": 10.1187}, "transactions": [], "price": "\u20ac\u20ac", "location": {"address1": "Berner Heerweg 175", "address2": null, "address3": null, "city": "Hamburg", "zip_code": "22159", "country": "DE", "state": "HH", "display_address": ["Berner Heerweg 175", "22159 Hamburg", "Germany"]}, "phone": "+49406451611", "display_phone": "+49 40 6451611", "distance": 3671.769582974994}, {"id": "SGap-Co7AAtFf9Oe8GfH5g", "alias": "palastk\u00fcche-hamburg", "name": "Palastk\u00fcche", "image_url": "https://s3-media1.fl.yelpcdn.com/bphoto/YrX_qatf2-B9JfySCxzD0g/o.jpg", "is_closed": false, "url": "https://www.yelp.com/biz/palastk%C3%BCche-hamburg?adjust_creative=hBJOknVQJ58S5goQyjmwRw&utm_campaign=yelp_api_v3&utm_medium=api_v3_business_search&utm_source=hBJOknVQJ58S5goQyjmwRw", "review_count": 3, "categories": [{"alias": "german", "title": "German"}], "rating": 4.0, "coordinates": {"latitude": 53.54228, "longitude": 10.11027}, "transactions": [], "price": "\u20ac\u20ac\u20ac", "location": {"address1": "\u00d6jendorfer Weg 30 A", "address2": "", "address3": null, "city": "Hamburg", "zip_code": "22119", "country": "DE", "state": "HH", "display_address": ["\u00d6jendorfer Weg 30 A", "22119 Hamburg", "Germany"]}, "phone": "+494028407777", "display_phone": "+49 40 28407777", "distance": 3453.620167602804}, {"id": "LH5ahW4cXmyBSr1D4dSeHA", "alias": "dominos-hamburg-9", "name": "Domino's", "image_url": "https://s3-media1.fl.yelpcdn.com/bphoto/FCXTVrzDPp-nKJjDZzUr0A/o.jpg", "is_closed": false, "url": "https://www.yelp.com/biz/dominos-hamburg-9?adjust_creative=hBJOknVQJ58S5goQyjmwRw&utm_campaign=yelp_api_v3&utm_medium=api_v3_business_search&utm_source=hBJOknVQJ58S5goQyjmwRw", "review_count": 1, "categories": [{"alias": "pizza", "title": "Pizza"}], "rating": 5.0, "coordinates": {"latitude": 53.60255, "longitude": 10.14512}, "transactions": [], "location": {"address1": "Bargteheider Str. 75", "address2": "", "address3": null, "city": "Hamburg", "zip_code": "22143", "country": "DE", "state": "HH", "display_address": ["Bargteheider Str. 75", "22143 Hamburg", "Germany"]}, "phone": "+49406736070", "display_phone": "+49 40 6736070", "distance": 3704.780745520498}, {"id": "HNqlIYhxzjON1G_cQ6ilbw", "alias": "kapelleneck-hamburg", "name": "Kapelleneck", "image_url": "https://s3-media2.fl.yelpcdn.com/bphoto/kGZCIcicPFPngv0eUX0pXQ/o.jpg", "is_closed": false, "url": "https://www.yelp.com/biz/kapelleneck-hamburg?adjust_creative=hBJOknVQJ58S5goQyjmwRw&utm_campaign=yelp_api_v3&utm_medium=api_v3_business_search&utm_source=hBJOknVQJ58S5goQyjmwRw", "review_count": 2, "categories": [{"alias": "gastropubs", "title": "Gastropubs"}, {"alias": "divebars", "title": "Dive Bars"}], "rating": 2.0, "coordinates": {"latitude": 53.53252, "longitude": 10.12782}, "transactions": [], "price": "\u20ac\u20ac", "location": {"address1": "Kapellenstr. 101", "address2": "", "address3": "", "city": "Hamburg", "zip_code": "22117", "country": "DE", "state": "HH", "display_address": ["Kapellenstr. 101", "22117 Hamburg", "Germany"]}, "phone": "", "display_phone": "", "distance": 4492.465590664486}, {"id": "nNbSvvMMKcvhIioI8bkMCw", "alias": "yummy-deli-hamburg", "name": "Yummy Deli", "image_url": "", "is_closed": false, "url": "https://www.yelp.com/biz/yummy-deli-hamburg?adjust_creative=hBJOknVQJ58S5goQyjmwRw&utm_campaign=yelp_api_v3&utm_medium=api_v3_business_search&utm_source=hBJOknVQJ58S5goQyjmwRw", "review_count": 3, "categories": [{"alias": "vietnamese", "title": "Vietnamese"}, {"alias": "sushi", "title": "Sushi Bars"}], "rating": 3.5, "coordinates": {"latitude": 53.586710289306, "longitude": 10.125789642334}, "transactions": [], "location": {"address1": "Tonndorfer Hauptstr. 69 - 71", "address2": "", "address3": "Im Rewe Center", "city": "Hamburg", "zip_code": "22045", "country": "DE", "state": "HH", "display_address": ["Tonndorfer Hauptstr. 69 - 71", "Im Rewe Center", "22045 Hamburg", "Germany"]}, "phone": "+494018230060", "display_phone": "+49 40 18230060", "distance": 1610.342675106237}, {"id": "A8N57ICSJD8o7yw5XrY9Gg", "alias": "zum-\u00f6sterreicher-hamburg", "name": "Zum \u00d6sterreicher", "image_url": "https://s3-media1.fl.yelpcdn.com/bphoto/s8GD9zEsmwMJcwUt1gfYig/o.jpg", "is_closed": false, "url": "https://www.yelp.com/biz/zum-%C3%B6sterreicher-hamburg?adjust_creative=hBJOknVQJ58S5goQyjmwRw&utm_campaign=yelp_api_v3&utm_medium=api_v3_business_search&utm_source=hBJOknVQJ58S5goQyjmwRw", "review_count": 20, "categories": [{"alias": "austrian", "title": "Austrian"}], "rating": 3.0, "coordinates": {"latitude": 53.5704, "longitude": 10.1432}, "transactions": [], "price": "\u20ac\u20ac", "location": {"address1": "Barsb\u00fctteler Str. 43", "address2": null, "address3": null, "city": "Hamburg", "zip_code": "22043", "country": "DE", "state": "HH", "display_address": ["Barsb\u00fctteler Str. 43", "22043 Hamburg", "Germany"]}, "phone": "+49406545362", "display_phone": "+49 40 6545362", "distance": 1571.3982710860312}, {"id": "YegaVSTIXDOqvF4UKbRrwA", "alias": "pizza-max-hamburg-3", "name": "Pizza Max", "image_url": "https://s3-media3.fl.yelpcdn.com/bphoto/6EOS5sWgPWoDUmpMNGtc1Q/o.jpg", "is_closed": false, "url": "https://www.yelp.com/biz/pizza-max-hamburg-3?adjust_creative=hBJOknVQJ58S5goQyjmwRw&utm_campaign=yelp_api_v3&utm_medium=api_v3_business_search&utm_source=hBJOknVQJ58S5goQyjmwRw", "review_count": 27, "categories": [{"alias": "pizza", "title": "Pizza"}, {"alias": "burgers", "title": "Burgers"}], "rating": 3.5, "coordinates": {"latitude": 53.54304, "longitude": 10.09595}, "transactions": [], "price": "\u20ac\u20ac", "location": {"address1": "Washingtonallee 111", "address2": "", "address3": "", "city": "Hamburg", "zip_code": "22111", "country": "DE", "state": "HH", "display_address": ["Washingtonallee 111", "22111 Hamburg", "Germany"]}, "phone": "+494073670849", "display_phone": "+49 40 73670849", "distance": 3647.768684975712}, {"id": "oohAJFC5eClaPZO9dcsrsw", "alias": "taverna-bei-anna-hamburg", "name": "Taverna Bei Anna", "image_url": "https://s3-media2.fl.yelpcdn.com/bphoto/4r4ro1JOdeeszyl0G917-w/o.jpg", "is_closed": false, "url": "https://www.yelp.com/biz/taverna-bei-anna-hamburg?adjust_creative=hBJOknVQJ58S5goQyjmwRw&utm_campaign=yelp_api_v3&utm_medium=api_v3_business_search&utm_source=hBJOknVQJ58S5goQyjmwRw", "review_count": 24, "categories": [{"alias": "greek", "title": "Greek"}], "rating": 3.5, "coordinates": {"latitude": 53.6141, "longitude": 10.1357}, "transactions": [], "price": "\u20ac\u20ac", "location": {"address1": "Bekassinenau 67", "address2": null, "address3": null, "city": "Hamburg", "zip_code": "22147", "country": "DE", "state": "HH", "display_address": ["Bekassinenau 67", "22147 Hamburg", "Germany"]}, "phone": "+49406471357", "display_phone": "+49 40 6471357", "distance": 4724.486480142464}, {"id": "UOx3hj4sG6RfCz62aM71YA", "alias": "pizza-max-hamburg-8", "name": "Pizza Max", "image_url": "https://s3-media3.fl.yelpcdn.com/bphoto/uyVp2-8OqiDz5-y5gYo94Q/o.jpg", "is_closed": false, "url": "https://www.yelp.com/biz/pizza-max-hamburg-8?adjust_creative=hBJOknVQJ58S5goQyjmwRw&utm_campaign=yelp_api_v3&utm_medium=api_v3_business_search&utm_source=hBJOknVQJ58S5goQyjmwRw", "review_count": 5, "categories": [{"alias": "pizza", "title": "Pizza"}], "rating": 3.5, "coordinates": {"latitude": 53.5882, "longitude": 10.1239}, "transactions": [], "price": "\u20ac\u20ac", "location": {"address1": "Stein-Hardenberg-Str. 83", "address2": null, "address3": null, "city": "Hamburg", "zip_code": "22045", "country": "DE", "state": "HH", "display_address": ["Stein-Hardenberg-Str. 83", "22045 Hamburg", "Germany"]}, "phone": "+494082299250", "display_phone": "+49 40 82299250", "distance": 1747.2350545588577}, {"id": "FgojWBNCA17-6GbHsrDHrQ", "alias": "crazy-croque-hamburg-4", "name": "Crazy Croque", "image_url": "https://s3-media1.fl.yelpcdn.com/bphoto/N8RMFIvPcA3rbOVQbD05_Q/o.jpg", "is_closed": false, "url": "https://www.yelp.com/biz/crazy-croque-hamburg-4?adjust_creative=hBJOknVQJ58S5goQyjmwRw&utm_campaign=yelp_api_v3&utm_medium=api_v3_business_search&utm_source=hBJOknVQJ58S5goQyjmwRw", "review_count": 14, "categories": [{"alias": "sandwiches", "title": "Sandwiches"}, {"alias": "baguettes", "title": "Baguettes"}], "rating": 4.0, "coordinates": {"latitude": 53.5592435, "longitude": 10.1084427}, "transactions": [], "price": "\u20ac", "location": {"address1": "Manshardtstr. 117", "address2": null, "address3": null, "city": "Hamburg", "zip_code": "22119", "country": "DE", "state": "HH", "display_address": ["Manshardtstr. 117", "22119 Hamburg", "Germany"]}, "phone": "+49406532211", "display_phone": "+49 40 6532211", "distance": 1669.674165204763}, {"id": "M511DBafDIvUcOODPUeVdQ", "alias": "bistro-sc-condor-hamburg", "name": "Bistro SC Condor", "image_url": "https://s3-media2.fl.yelpcdn.com/bphoto/zI9qACggFCfiCnd6n304PA/o.jpg", "is_closed": false, "url": "https://www.yelp.com/biz/bistro-sc-condor-hamburg?adjust_creative=hBJOknVQJ58S5goQyjmwRw&utm_campaign=yelp_api_v3&utm_medium=api_v3_business_search&utm_source=hBJOknVQJ58S5goQyjmwRw", "review_count": 1, "categories": [{"alias": "bistros", "title": "Bistros"}], "rating": 5.0, "coordinates": {"latitude": 53.6079, "longitude": 10.1226}, "transactions": [], "price": "\u20ac", "location": {"address1": "Berner Heerweg 188", "address2": null, "address3": null, "city": "Hamburg", "zip_code": "22159", "country": "DE", "state": "HH", "display_address": ["Berner Heerweg 188", "22159 Hamburg", "Germany"]}, "phone": "+49406451848", "display_phone": "+49 40 6451848", "distance": 3920.415560923786}, {"id": "rAsVelSwPKX0rwgdY9du6A", "alias": "athina-hamburg-2", "name": "Athina", "image_url": "https://s3-media1.fl.yelpcdn.com/bphoto/neJUJ1smDqW-T2KDiInYrw/o.jpg", "is_closed": false, "url": "https://www.yelp.com/biz/athina-hamburg-2?adjust_creative=hBJOknVQJ58S5goQyjmwRw&utm_campaign=yelp_api_v3&utm_medium=api_v3_business_search&utm_source=hBJOknVQJ58S5goQyjmwRw", "review_count": 11, "categories": [{"alias": "greek", "title": "Greek"}], "rating": 3.5, "coordinates": {"latitude": 53.5399168041103, "longitude": 10.1349412213544}, "transactions": [], "price": "\u20ac\u20ac", "location": {"address1": "Wegkoppel 3", "address2": null, "address3": null, "city": "Hamburg", "zip_code": "22117", "country": "DE", "state": "HH", "display_address": ["Wegkoppel 3", "22117 Hamburg", "Germany"]}, "phone": "+494063655580", "display_phone": "+49 40 63655580", "distance": 3779.857987796502}, {"id": "TUy7lxoCFE8JYsEdnFBedw", "alias": "tonndorf-grill-d\u00f6ner-hamburg", "name": "tonndorf grill d\u00f6ner", "image_url": "", "is_closed": false, "url": "https://www.yelp.com/biz/tonndorf-grill-d%C3%B6ner-hamburg?adjust_creative=hBJOknVQJ58S5goQyjmwRw&utm_campaign=yelp_api_v3&utm_medium=api_v3_business_search&utm_source=hBJOknVQJ58S5goQyjmwRw", "review_count": 1, "categories": [{"alias": "kebab", "title": "Kebab"}], "rating": 4.0, "coordinates": {"latitude": 53.5803430024439, "longitude": 10.1042160847894}, "transactions": [], "location": {"address1": "Ahrensburger Str. 111", "address2": "", "address3": null, "city": "Hamburg", "zip_code": "22045", "country": "DE", "state": "HH", "display_address": ["Ahrensburger Str. 111", "22045 Hamburg", "Germany"]}, "phone": "+494064220601", "display_phone": "+49 40 64220601", "distance": 1331.250049218745}, {"id": "RCuRvwrnJcs-hutrCnoJCQ", "alias": "krox-hamburg-5", "name": "Krox", "image_url": "https://s3-media3.fl.yelpcdn.com/bphoto/j1LB_yAyZfpH8UUabjcxeA/o.jpg", "is_closed": false, "url": "https://www.yelp.com/biz/krox-hamburg-5?adjust_creative=hBJOknVQJ58S5goQyjmwRw&utm_campaign=yelp_api_v3&utm_medium=api_v3_business_search&utm_source=hBJOknVQJ58S5goQyjmwRw", "review_count": 6, "categories": [{"alias": "sandwiches", "title": "Sandwiches"}, {"alias": "creperies", "title": "Creperies"}, {"alias": "pizza", "title": "Pizza"}], "rating": 4.0, "coordinates": {"latitude": 53.58847, "longitude": 10.12383}, "transactions": [], "location": {"address1": "Sonnenweg 15", "address2": "", "address3": "", "city": "Hamburg", "zip_code": "22045", "country": "DE", "state": "HH", "display_address": ["Sonnenweg 15", "22045 Hamburg", "Germany"]}, "phone": "+4940660066", "display_phone": "+49 40 660066", "distance": 1785.3521064164124}, {"id": "t-8RttB1p7LGZ96k3mLZJg", "alias": "asia-bistro-saigon-hamburg", "name": "Asia Bistro Saigon", "image_url": "https://s3-media1.fl.yelpcdn.com/bphoto/wV6V5DfgSvT2QrkqUvU8gA/o.jpg", "is_closed": false, "url": "https://www.yelp.com/biz/asia-bistro-saigon-hamburg?adjust_creative=hBJOknVQJ58S5goQyjmwRw&utm_campaign=yelp_api_v3&utm_medium=api_v3_business_search&utm_source=hBJOknVQJ58S5goQyjmwRw", "review_count": 9, "categories": [{"alias": "chinese", "title": "Chinese"}, {"alias": "panasian", "title": "Pan Asian"}], "rating": 4.5, "coordinates": {"latitude": 53.6, "longitude": 10.1394}, "transactions": [], "price": "\u20ac\u20ac", "location": {"address1": "Scharbeutzer Str. 85", "address2": null, "address3": null, "city": "Hamburg", "zip_code": "22147", "country": "DE", "state": "HH", "display_address": ["Scharbeutzer Str. 85", "22147 Hamburg", "Germany"]}, "phone": "+49406431206", "display_phone": "+49 40 6431206", "distance": 3303.6090527639576}, {"id": "ZowjZ9bdVgxpVWOM4k-1UA", "alias": "subway-hamburg-29", "name": "Subway", "image_url": "https://s3-media2.fl.yelpcdn.com/bphoto/F9xIvjrCfpEPDoFbegH5Dg/o.jpg", "is_closed": false, "url": "https://www.yelp.com/biz/subway-hamburg-29?adjust_creative=hBJOknVQJ58S5goQyjmwRw&utm_campaign=yelp_api_v3&utm_medium=api_v3_business_search&utm_source=hBJOknVQJ58S5goQyjmwRw", "review_count": 7, "categories": [{"alias": "sandwiches", "title": "Sandwiches"}, {"alias": "hotdogs", "title": "Fast Food"}], "rating": 4.0, "coordinates": {"latitude": 53.539943, "longitude": 10.103886}, "transactions": [], "price": "\u20ac\u20ac\u20ac\u20ac", "location": {"address1": "M\u00f6llner Landstr. 3", "address2": "", "address3": "", "city": "Hamburg", "zip_code": "22111", "country": "DE", "state": "HH", "display_address": ["M\u00f6llner Landstr. 3", "22111 Hamburg", "Germany"]}, "phone": "+494033428595", "display_phone": "+49 40 33428595", "distance": 3787.831628833745}, {"id": "W1elnIGTIpBmYCn11yhzRQ", "alias": "adriatik-hamburg", "name": "Adriatik", "image_url": "", "is_closed": false, "url": "https://www.yelp.com/biz/adriatik-hamburg?adjust_creative=hBJOknVQJ58S5goQyjmwRw&utm_campaign=yelp_api_v3&utm_medium=api_v3_business_search&utm_source=hBJOknVQJ58S5goQyjmwRw", "review_count": 2, "categories": [{"alias": "german", "title": "German"}], "rating": 4.5, "coordinates": {"latitude": 53.559, "longitude": 10.1079}, "transactions": [], "location": {"address1": "Manshardtstr. 115", "address2": null, "address3": null, "city": "Hamburg", "zip_code": "22119", "country": "DE", "state": "HH", "display_address": ["Manshardtstr. 115", "22119 Hamburg", "Germany"]}, "phone": "+494065491678", "display_phone": "+49 40 65491678", "distance": 1710.0062842237985}, {"id": "CAsdxz7NDDTmobcMTR9adQ", "alias": "peters-h\u00e4hnchen-grill-hamburg-2", "name": "Peter's H\u00e4hnchen Grill", "image_url": "https://s3-media2.fl.yelpcdn.com/bphoto/bCTklMfBHdjSSHRJaPG7Jg/o.jpg", "is_closed": false, "url": "https://www.yelp.com/biz/peters-h%C3%A4hnchen-grill-hamburg-2?adjust_creative=hBJOknVQJ58S5goQyjmwRw&utm_campaign=yelp_api_v3&utm_medium=api_v3_business_search&utm_source=hBJOknVQJ58S5goQyjmwRw", "review_count": 14, "categories": [{"alias": "hotdogs", "title": "Fast Food"}], "rating": 2.0, "coordinates": {"latitude": 53.58432, "longitude": 10.14268}, "transactions": [], "price": "\u20ac\u20ac", "location": {"address1": "Berliner Platz 19", "address2": "", "address3": null, "city": "Hamburg", "zip_code": "22045", "country": "DE", "state": "HH", "display_address": ["Berliner Platz 19", "22045 Hamburg", "Germany"]}, "phone": "+49406533121", "display_phone": "+49 40 6533121", "distance": 1985.8321854758785}, {"id": "P8P5_LvPRtGXRGJyMs6skg", "alias": "baustellen-casino-hamburg", "name": "Baustellen Casino", "image_url": "https://s3-media4.fl.yelpcdn.com/bphoto/q5Q3sJTyy275JykHLwxJxA/o.jpg", "is_closed": false, "url": "https://www.yelp.com/biz/baustellen-casino-hamburg?adjust_creative=hBJOknVQJ58S5goQyjmwRw&utm_campaign=yelp_api_v3&utm_medium=api_v3_business_search&utm_source=hBJOknVQJ58S5goQyjmwRw", "review_count": 1, "categories": [{"alias": "german", "title": "German"}], "rating": 4.0, "coordinates": {"latitude": 53.542219, "longitude": 10.1101957}, "transactions": [], "price": "\u20ac", "location": {"address1": "\u00d6jendorfer Weg 30a", "address2": null, "address3": null, "city": "Hamburg", "zip_code": "22119", "country": "DE", "state": "HH", "display_address": ["\u00d6jendorfer Weg 30a", "22119 Hamburg", "Germany"]}, "phone": "+494071404155", "display_phone": "+49 40 71404155", "distance": 3445.4510668435246}, {"id": "qV3uV0Qds1DSvMobqqNBLA", "alias": "smileys-hamburg-10", "name": "Smiley's", "image_url": "", "is_closed": false, "url": "https://www.yelp.com/biz/smileys-hamburg-10?adjust_creative=hBJOknVQJ58S5goQyjmwRw&utm_campaign=yelp_api_v3&utm_medium=api_v3_business_search&utm_source=hBJOknVQJ58S5goQyjmwRw", "review_count": 14, "categories": [{"alias": "pizza", "title": "Pizza"}], "rating": 3.0, "coordinates": {"latitude": 53.5475, "longitude": 10.1069}, "transactions": [], "price": "\u20ac\u20ac\u20ac", "location": {"address1": "Schiffbeker Weg 85", "address2": null, "address3": null, "city": "Hamburg", "zip_code": "22119", "country": "DE", "state": "HH", "display_address": ["Schiffbeker Weg 85", "22119 Hamburg", "Germany"]}, "phone": "+49407331586", "display_phone": "+49 40 7331586", "distance": 2925.485083092175}, {"id": "ctCDPQumN0wiEQqkEk0Jzw", "alias": "emir-d\u00f6ner-hamburg", "name": "Emir D\u00f6ner", "image_url": "https://s3-media4.fl.yelpcdn.com/bphoto/aID8KlC8L2TLKWGkdpMJIw/o.jpg", "is_closed": false, "url": "https://www.yelp.com/biz/emir-d%C3%B6ner-hamburg?adjust_creative=hBJOknVQJ58S5goQyjmwRw&utm_campaign=yelp_api_v3&utm_medium=api_v3_business_search&utm_source=hBJOknVQJ58S5goQyjmwRw", "review_count": 2, "categories": [{"alias": "kebab", "title": "Kebab"}, {"alias": "cafes", "title": "Cafes"}], "rating": 2.5, "coordinates": {"latitude": 53.5402543935662, "longitude": 10.1050699129701}, "transactions": [], "price": "\u20ac\u20ac", "location": {"address1": "M\u00f6llner Landstr. 3", "address2": "", "address3": "", "city": "Hamburg", "zip_code": "22111", "country": "DE", "state": "HH", "display_address": ["M\u00f6llner Landstr. 3", "22111 Hamburg", "Germany"]}, "phone": "+494023498049", "display_phone": "+49 40 23498049", "distance": 3733.541570575875}, {"id": "5-vRbfPX0iOM9gLdSuLD0Q", "alias": "zum-hufschlag-hamburg", "name": "Zum Hufschlag", "image_url": "https://s3-media1.fl.yelpcdn.com/bphoto/kt22PQzKgB4-7QraMsv7fA/o.jpg", "is_closed": false, "url": "https://www.yelp.com/biz/zum-hufschlag-hamburg?adjust_creative=hBJOknVQJ58S5goQyjmwRw&utm_campaign=yelp_api_v3&utm_medium=api_v3_business_search&utm_source=hBJOknVQJ58S5goQyjmwRw", "review_count": 11, "categories": [{"alias": "german", "title": "German"}, {"alias": "cafes", "title": "Cafes"}], "rating": 4.0, "coordinates": {"latitude": 53.61071, "longitude": 10.09427}, "transactions": [], "price": "\u20ac\u20ac", "location": {"address1": "Fahrenkr\u00f6n 56", "address2": "", "address3": "", "city": "Hamburg", "zip_code": "22179", "country": "DE", "state": "HH", "display_address": ["Fahrenkr\u00f6n 56", "22179 Hamburg", "Germany"]}, "phone": "+494063129499", "display_phone": "+49 40 63129499", "distance": 4565.612819130504}, {"id": "MCQIuPcvqwbCJPy7ccJ18A", "alias": "sushi-corner-hamburg", "name": "Sushi Corner", "image_url": "https://s3-media3.fl.yelpcdn.com/bphoto/y7ESuSffrY0D0NafEcUyeg/o.jpg", "is_closed": false, "url": "https://www.yelp.com/biz/sushi-corner-hamburg?adjust_creative=hBJOknVQJ58S5goQyjmwRw&utm_campaign=yelp_api_v3&utm_medium=api_v3_business_search&utm_source=hBJOknVQJ58S5goQyjmwRw", "review_count": 2, "categories": [{"alias": "sushi", "title": "Sushi Bars"}], "rating": 2.5, "coordinates": {"latitude": 53.55937, "longitude": 10.10743}, "transactions": [], "location": {"address1": "Manshardtstr. 115 A", "address2": "", "address3": "", "city": "Hamburg", "zip_code": "22119", "country": "DE", "state": "HH", "display_address": ["Manshardtstr. 115 A", "22119 Hamburg", "Germany"]}, "phone": "+494068284641", "display_phone": "+49 40 68284641", "distance": 1699.1919636875764}, {"id": "e0VSS8cgiOI05OFDJTtcJA", "alias": "zum-pr\u00f6sterchen-hamburg", "name": "Zum Pr\u00f6sterchen", "image_url": "https://s3-media2.fl.yelpcdn.com/bphoto/-Fs69fMD4Vm4XESapntCkQ/o.jpg", "is_closed": false, "url": "https://www.yelp.com/biz/zum-pr%C3%B6sterchen-hamburg?adjust_creative=hBJOknVQJ58S5goQyjmwRw&utm_campaign=yelp_api_v3&utm_medium=api_v3_business_search&utm_source=hBJOknVQJ58S5goQyjmwRw", "review_count": 1, "categories": [{"alias": "beerbar", "title": "Beer Bar"}, {"alias": "northerngerman", "title": "Northern German"}], "rating": 4.0, "coordinates": {"latitude": 53.53928, "longitude": 10.1057}, "transactions": [], "price": "\u20ac", "location": {"address1": "M\u00f6llner Landstr. 18", "address2": "", "address3": null, "city": "Hamburg", "zip_code": "22111", "country": "DE", "state": "HH", "display_address": ["M\u00f6llner Landstr. 18", "22111 Hamburg", "Germany"]}, "phone": "+49407314698", "display_phone": "+49 40 7314698", "distance": 3840.610244876763}, {"id": "vrlAmOoaKTGM_b4_FMaRdQ", "alias": "h\u00e4hnchen-grill-hamburg", "name": "H\u00e4hnchen Grill", "image_url": "https://s3-media2.fl.yelpcdn.com/bphoto/vAQnrItTD_GSC9Xj0rNbEg/o.jpg", "is_closed": false, "url": "https://www.yelp.com/biz/h%C3%A4hnchen-grill-hamburg?adjust_creative=hBJOknVQJ58S5goQyjmwRw&utm_campaign=yelp_api_v3&utm_medium=api_v3_business_search&utm_source=hBJOknVQJ58S5goQyjmwRw", "review_count": 4, "categories": [{"alias": "hotdogs", "title": "Fast Food"}, {"alias": "kebab", "title": "Kebab"}], "rating": 3.5, "coordinates": {"latitude": 53.5726, "longitude": 10.1362}, "transactions": [], "location": {"address1": "Bei den H\u00f6fen 82", "address2": null, "address3": null, "city": "Hamburg", "zip_code": "22043", "country": "DE", "state": "HH", "display_address": ["Bei den H\u00f6fen 82", "22043 Hamburg", "Germany"]}, "phone": "+494049297744", "display_phone": "+49 40 49297744", "distance": 1088.5366895305651}, {"id": "BFSov6Q4m4OGbudFU3DvZA", "alias": "mcdonalds-hamburg-52", "name": "McDonald's", "image_url": "https://s3-media4.fl.yelpcdn.com/bphoto/9z82e7Vdha91FAaOWNZImw/o.jpg", "is_closed": false, "url": "https://www.yelp.com/biz/mcdonalds-hamburg-52?adjust_creative=hBJOknVQJ58S5goQyjmwRw&utm_campaign=yelp_api_v3&utm_medium=api_v3_business_search&utm_source=hBJOknVQJ58S5goQyjmwRw", "review_count": 2, "categories": [{"alias": "hotdogs", "title": "Fast Food"}, {"alias": "burgers", "title": "Burgers"}], "rating": 2.5, "coordinates": {"latitude": 53.5395934, "longitude": 10.1047763}, "transactions": [], "location": {"address1": "M\u00f6llner Landstr. 7a", "address2": null, "address3": null, "city": "Hamburg", "zip_code": "22111", "country": "DE", "state": "HH", "display_address": ["M\u00f6llner Landstr. 7a", "22111 Hamburg", "Germany"]}, "phone": "+49407325722", "display_phone": "+49 40 7325722", "distance": 3801.8692508155723}, {"id": "Rb1tYn5UC6Re9nZvD7hkJg", "alias": "thai-und-wok-hamburg", "name": "Thai & Wok", "image_url": "https://s3-media1.fl.yelpcdn.com/bphoto/ZHkaIOAAntArKo1JVSbZFA/o.jpg", "is_closed": false, "url": "https://www.yelp.com/biz/thai-und-wok-hamburg?adjust_creative=hBJOknVQJ58S5goQyjmwRw&utm_campaign=yelp_api_v3&utm_medium=api_v3_business_search&utm_source=hBJOknVQJ58S5goQyjmwRw", "review_count": 8, "categories": [{"alias": "thai", "title": "Thai"}, {"alias": "wok", "title": "Wok"}], "rating": 2.0, "coordinates": {"latitude": 53.5594, "longitude": 10.1076}, "transactions": [], "price": "\u20ac", "location": {"address1": "Manshardtstr. 115", "address2": null, "address3": null, "city": "Hamburg", "zip_code": "22119", "country": "DE", "state": "HH", "display_address": ["Manshardtstr. 115", "22119 Hamburg", "Germany"]}, "phone": "+494068284641", "display_phone": "+49 40 68284641", "distance": 1679.8934991546453}, {"id": "iHJu41roXfxTfqW8EifbVA", "alias": "dolce-italia-hamburg", "name": "Dolce Italia", "image_url": "", "is_closed": false, "url": "https://www.yelp.com/biz/dolce-italia-hamburg?adjust_creative=hBJOknVQJ58S5goQyjmwRw&utm_campaign=yelp_api_v3&utm_medium=api_v3_business_search&utm_source=hBJOknVQJ58S5goQyjmwRw", "review_count": 4, "categories": [{"alias": "italian", "title": "Italian"}], "rating": 4.0, "coordinates": {"latitude": 53.559, "longitude": 10.107}, "transactions": [], "location": {"address1": "Manshardtstr. 111", "address2": null, "address3": null, "city": "Hamburg", "zip_code": "22119", "country": "DE", "state": "HH", "display_address": ["Manshardtstr. 111", "22119 Hamburg", "Germany"]}, "phone": "", "display_phone": "", "distance": 1737.9291370778647}, {"id": "TGlVX1NeqMNA95qxbES1Rg", "alias": "caf\u00e9-winter-hamburg", "name": "Caf\u00e9 Winter", "image_url": "https://s3-media1.fl.yelpcdn.com/bphoto/ia4QVOBTLuG2yoMpxlaicQ/o.jpg", "is_closed": false, "url": "https://www.yelp.com/biz/caf%C3%A9-winter-hamburg?adjust_creative=hBJOknVQJ58S5goQyjmwRw&utm_campaign=yelp_api_v3&utm_medium=api_v3_business_search&utm_source=hBJOknVQJ58S5goQyjmwRw", "review_count": 2, "categories": [{"alias": "cafes", "title": "Cafes"}, {"alias": "cakeshop", "title": "Patisserie/Cake Shop"}], "rating": 3.5, "coordinates": {"latitude": 53.5403885, "longitude": 10.1359522}, "transactions": [], "location": {"address1": "M\u00f6llner Landstr. 202", "address2": "", "address3": "", "city": "Hamburg", "zip_code": "22117", "country": "DE", "state": "HH", "display_address": ["M\u00f6llner Landstr. 202", "22117 Hamburg", "Germany"]}, "phone": "+49407123388", "display_phone": "+49 40 7123388", "distance": 3747.884473291178}, {"id": "smxdoZuHpRCuDDVqCaqcDQ", "alias": "zenthai-hamburg-3", "name": "Zenthai", "image_url": "https://s3-media3.fl.yelpcdn.com/bphoto/231WD874e1FRLV5x669NlA/o.jpg", "is_closed": false, "url": "https://www.yelp.com/biz/zenthai-hamburg-3?adjust_creative=hBJOknVQJ58S5goQyjmwRw&utm_campaign=yelp_api_v3&utm_medium=api_v3_business_search&utm_source=hBJOknVQJ58S5goQyjmwRw", "review_count": 6, "categories": [{"alias": "panasian", "title": "Pan Asian"}], "rating": 3.0, "coordinates": {"latitude": 53.5397891, "longitude": 10.1045729}, "transactions": [], "price": "\u20ac\u20ac", "location": {"address1": "M\u00f6llner Landstr. 3", "address2": "", "address3": "1. OG", "city": "Hamburg", "zip_code": "22111", "country": "DE", "state": "HH", "display_address": ["M\u00f6llner Landstr. 3", "1. OG", "22111 Hamburg", "Germany"]}, "phone": "+494073675939", "display_phone": "+49 40 73675939", "distance": 3792.0644608021344}, {"id": "Sj3UwAhi9vGlIKnXqkeRxQ", "alias": "grill-j\u00fcrs-hamburg", "name": "Grill J\u00fcrs", "image_url": "https://s3-media3.fl.yelpcdn.com/bphoto/-lm-EJQXLT887MJqjQObXw/o.jpg", "is_closed": false, "url": "https://www.yelp.com/biz/grill-j%C3%BCrs-hamburg?adjust_creative=hBJOknVQJ58S5goQyjmwRw&utm_campaign=yelp_api_v3&utm_medium=api_v3_business_search&utm_source=hBJOknVQJ58S5goQyjmwRw", "review_count": 3, "categories": [{"alias": "chickenshop", "title": "Chicken Shop"}, {"alias": "hotdogs", "title": "Fast Food"}], "rating": 2.5, "coordinates": {"latitude": 53.53276, "longitude": 10.127}, "transactions": [], "price": "\u20ac\u20ac", "location": {"address1": "Kapellenstr. 95", "address2": "", "address3": null, "city": "Hamburg", "zip_code": "22117", "country": "DE", "state": "HH", "display_address": ["Kapellenstr. 95", "22117 Hamburg", "Germany"]}, "phone": "", "display_phone": "", "distance": 4465.471761965929}, {"id": "2eayVcKqiIuDVdb5Qqt-Fg", "alias": "zenthai-hamburg-4", "name": "Zenthai", "image_url": "https://s3-media3.fl.yelpcdn.com/bphoto/2lF3e6Ej5DQ70NJdZEIGGg/o.jpg", "is_closed": false, "url": "https://www.yelp.com/biz/zenthai-hamburg-4?adjust_creative=hBJOknVQJ58S5goQyjmwRw&utm_campaign=yelp_api_v3&utm_medium=api_v3_business_search&utm_source=hBJOknVQJ58S5goQyjmwRw", "review_count": 3, "categories": [{"alias": "sushi", "title": "Sushi Bars"}, {"alias": "panasian", "title": "Pan Asian"}], "rating": 2.0, "coordinates": {"latitude": 53.60681, "longitude": 10.11904}, "transactions": [], "price": "\u20ac", "location": {"address1": "August-Krogmann-Str. 2", "address2": "", "address3": "", "city": "Hamburg", "zip_code": "22159", "country": "DE", "state": "HH", "display_address": ["August-Krogmann-Str. 2", "22159 Hamburg", "Germany"]}, "phone": "", "display_phone": "", "distance": 3816.7540631941615}, {"id": "cVtqr-CLZgOP7-5DzRs-FQ", "alias": "asia-wok-leviet-hamburg", "name": "Asia Wok Leviet", "image_url": "https://s3-media1.fl.yelpcdn.com/bphoto/HvgxnIlIqtwPUvmoanLiwA/o.jpg", "is_closed": false, "url": "https://www.yelp.com/biz/asia-wok-leviet-hamburg?adjust_creative=hBJOknVQJ58S5goQyjmwRw&utm_campaign=yelp_api_v3&utm_medium=api_v3_business_search&utm_source=hBJOknVQJ58S5goQyjmwRw", "review_count": 2, "categories": [{"alias": "chinese", "title": "Chinese"}], "rating": 2.5, "coordinates": {"latitude": 53.5711, "longitude": 10.1355}, "transactions": [], "price": "\u20ac", "location": {"address1": "Rodigallee 303", "address2": null, "address3": null, "city": "Hamburg", "zip_code": "22043", "country": "DE", "state": "HH", "display_address": ["Rodigallee 303", "22043 Hamburg", "Germany"]}, "phone": "+494088305569", "display_phone": "+49 40 88305569", "distance": 1057.0804834409766}, {"id": "05yN6vX4GZjaksTXtS9yoA", "alias": "mcdonalds-hamburg-54", "name": "McDonald's", "image_url": "", "is_closed": false, "url": "https://www.yelp.com/biz/mcdonalds-hamburg-54?adjust_creative=hBJOknVQJ58S5goQyjmwRw&utm_campaign=yelp_api_v3&utm_medium=api_v3_business_search&utm_source=hBJOknVQJ58S5goQyjmwRw", "review_count": 8, "categories": [{"alias": "hotdogs", "title": "Fast Food"}, {"alias": "burgers", "title": "Burgers"}], "rating": 2.0, "coordinates": {"latitude": 53.5704, "longitude": 10.144}, "transactions": [], "price": "\u20ac\u20ac\u20ac", "location": {"address1": "Barsb\u00fctteler Str. 45", "address2": null, "address3": null, "city": "Hamburg", "zip_code": "22043", "country": "DE", "state": "HH", "display_address": ["Barsb\u00fctteler Str. 45", "22043 Hamburg", "Germany"]}, "phone": "+494071403859", "display_phone": "+49 40 71403859", "distance": 1623.5496241124786}, {"id": "Ct8p-l9z7Irdh6DK6ujlkg", "alias": "smileys-hamburg", "name": "Smiley's", "image_url": "https://s3-media4.fl.yelpcdn.com/bphoto/ZeAhxSEvejN5QMK3EBRGjA/o.jpg", "is_closed": false, "url": "https://www.yelp.com/biz/smileys-hamburg?adjust_creative=hBJOknVQJ58S5goQyjmwRw&utm_campaign=yelp_api_v3&utm_medium=api_v3_business_search&utm_source=hBJOknVQJ58S5goQyjmwRw", "review_count": 23, "categories": [{"alias": "pizza", "title": "Pizza"}], "rating": 3.5, "coordinates": {"latitude": 53.60262, "longitude": 10.1291}, "transactions": [], "price": "\u20ac\u20ac", "location": {"address1": "Alter Zollweg 192", "address2": null, "address3": null, "city": "Hamburg", "zip_code": "22147", "country": "DE", "state": "HH", "display_address": ["Alter Zollweg 192", "22147 Hamburg", "Germany"]}, "phone": "+494064539560", "display_phone": "+49 40 64539560", "distance": 3415.823916949527}, {"id": "QKXV1M2pdEvzJTtJf4ctEA", "alias": "restaurant-panorama-hamburg", "name": "Restaurant Panorama", "image_url": "", "is_closed": false, "url": "https://www.yelp.com/biz/restaurant-panorama-hamburg?adjust_creative=hBJOknVQJ58S5goQyjmwRw&utm_campaign=yelp_api_v3&utm_medium=api_v3_business_search&utm_source=hBJOknVQJ58S5goQyjmwRw", "review_count": 1, "categories": [{"alias": "german", "title": "German"}], "rating": 4.0, "coordinates": {"latitude": 53.5397, "longitude": 10.1014}, "transactions": [], "location": {"address1": "Hotel Panorama Billstedt", "address2": "Billstedter Hauptstr. 44", "address3": null, "city": "Hamburg", "zip_code": "22111", "country": "DE", "state": "HH", "display_address": ["Hotel Panorama Billstedt", "Billstedter Hauptstr. 44", "22111 Hamburg", "Germany"]}, "phone": "+4940733590", "display_phone": "+49 40 733590", "distance": 3862.0572344352317}, {"id": "JbC6Cvbi4Gr5V6iAXB-0VA", "alias": "crazy-croque-hamburg", "name": "Crazy Croque", "image_url": "https://s3-media2.fl.yelpcdn.com/bphoto/Tmm8hEvPXRWQxtY2jHvYaA/o.jpg", "is_closed": false, "url": "https://www.yelp.com/biz/crazy-croque-hamburg?adjust_creative=hBJOknVQJ58S5goQyjmwRw&utm_campaign=yelp_api_v3&utm_medium=api_v3_business_search&utm_source=hBJOknVQJ58S5goQyjmwRw", "review_count": 54, "categories": [{"alias": "sandwiches", "title": "Sandwiches"}], "rating": 4.0, "coordinates": {"latitude": 53.58855, "longitude": 10.09947}, "transactions": [], "price": "\u20ac\u20ac", "location": {"address1": "Friedrich-Ebert-Damm 160 a", "address2": null, "address3": null, "city": "Hamburg", "zip_code": "22047", "country": "DE", "state": "HH", "display_address": ["Friedrich-Ebert-Damm 160 a", "22047 Hamburg", "Germany"]}, "phone": "+49406939900", "display_phone": "+49 40 6939900", "distance": 2186.204744809989}, {"id": "mcoIIcxFqpgcsQsSB7w4gg", "alias": "sel-chicken-hamburg", "name": "Sel Chicken", "image_url": "", "is_closed": false, "url": "https://www.yelp.com/biz/sel-chicken-hamburg?adjust_creative=hBJOknVQJ58S5goQyjmwRw&utm_campaign=yelp_api_v3&utm_medium=api_v3_business_search&utm_source=hBJOknVQJ58S5goQyjmwRw", "review_count": 1, "categories": [{"alias": "chicken_wings", "title": "Chicken Wings"}, {"alias": "hotdogs", "title": "Fast Food"}], "rating": 1.0, "coordinates": {"latitude": 53.540088, "longitude": 10.102545}, "transactions": [], "price": "\u20ac\u20ac", "location": {"address1": "Billstedter Hauptstr. 51", "address2": "", "address3": null, "city": "Hamburg", "zip_code": "22111", "country": "DE", "state": "HH", "display_address": ["Billstedter Hauptstr. 51", "22111 Hamburg", "Germany"]}, "phone": "", "display_phone": "", "distance": 3797.8404116605334}, {"id": "5Sn38ahcsarLwL27Rsy5NQ", "alias": "urfa-sofrasi-hamburg", "name": "Urfa Sofrasi", "image_url": "", "is_closed": false, "url": "https://www.yelp.com/biz/urfa-sofrasi-hamburg?adjust_creative=hBJOknVQJ58S5goQyjmwRw&utm_campaign=yelp_api_v3&utm_medium=api_v3_business_search&utm_source=hBJOknVQJ58S5goQyjmwRw", "review_count": 2, "categories": [{"alias": "turkish", "title": "Turkish"}, {"alias": "hotdogs", "title": "Fast Food"}], "rating": 3.0, "coordinates": {"latitude": 53.5709, "longitude": 10.1364}, "transactions": [], "location": {"address1": "Barsb\u00fctteler Str. 2", "address2": null, "address3": null, "city": "Hamburg", "zip_code": "22043", "country": "DE", "state": "HH", "display_address": ["Barsb\u00fctteler Str. 2", "22043 Hamburg", "Germany"]}, "phone": "", "display_phone": "", "distance": 1119.4490462286979}, {"id": "_KEs5iyxsJzhE6dmiur-_Q", "alias": "corfu-grill-hamburg-6", "name": "Corfu Grill", "image_url": "https://s3-media1.fl.yelpcdn.com/bphoto/PjW1pXfqtgldYbIZW1EB3A/o.jpg", "is_closed": false, "url": "https://www.yelp.com/biz/corfu-grill-hamburg-6?adjust_creative=hBJOknVQJ58S5goQyjmwRw&utm_campaign=yelp_api_v3&utm_medium=api_v3_business_search&utm_source=hBJOknVQJ58S5goQyjmwRw", "review_count": 14, "categories": [{"alias": "greek", "title": "Greek"}, {"alias": "hotdogs", "title": "Fast Food"}], "rating": 3.5, "coordinates": {"latitude": 53.6034816, "longitude": 10.1304022}, "transactions": [], "price": "\u20ac\u20ac\u20ac", "location": {"address1": "Alter Zollweg 197", "address2": "", "address3": "", "city": "Hamburg", "zip_code": "22147", "country": "DE", "state": "HH", "display_address": ["Alter Zollweg 197", "22147 Hamburg", "Germany"]}, "phone": "+49406470946", "display_phone": "+49 40 6470946", "distance": 3496.3857982943896}, {"id": "aGGb59d0pgT-pDWSis-EVg", "alias": "braaker-m\u00fchle-hamburg-6", "name": "Braaker M\u00fchle", "image_url": "https://s3-media3.fl.yelpcdn.com/bphoto/q3mc4HvwxlqUP_d5kOWFIQ/o.jpg", "is_closed": false, "url": "https://www.yelp.com/biz/braaker-m%C3%BChle-hamburg-6?adjust_creative=hBJOknVQJ58S5goQyjmwRw&utm_campaign=yelp_api_v3&utm_medium=api_v3_business_search&utm_source=hBJOknVQJ58S5goQyjmwRw", "review_count": 1, "categories": [{"alias": "bakeries", "title": "Bakeries"}, {"alias": "cakeshop", "title": "Patisserie/Cake Shop"}, {"alias": "cafes", "title": "Cafes"}], "rating": 5.0, "coordinates": {"latitude": 53.6071291, "longitude": 10.1182898}, "transactions": [], "location": {"address1": "August-Krogmann-Str. 10", "address2": null, "address3": null, "city": "Hamburg", "zip_code": "22159", "country": "DE", "state": "HH", "display_address": ["August-Krogmann-Str. 10", "22159 Hamburg", "Germany"]}, "phone": "+494064422123", "display_phone": "+49 40 64422123", "distance": 3831.221624326985}, {"id": "2ncLFilbbL3p2VwDs9fpGQ", "alias": "meyns-hamburg-2", "name": "Meyns", "image_url": "https://s3-media4.fl.yelpcdn.com/bphoto/KpQEGi338DIWzv1yBI2VEQ/o.jpg", "is_closed": false, "url": "https://www.yelp.com/biz/meyns-hamburg-2?adjust_creative=hBJOknVQJ58S5goQyjmwRw&utm_campaign=yelp_api_v3&utm_medium=api_v3_business_search&utm_source=hBJOknVQJ58S5goQyjmwRw", "review_count": 2, "categories": [{"alias": "cafes", "title": "Cafes"}], "rating": 4.5, "coordinates": {"latitude": 53.542, "longitude": 10.1392}, "transactions": [], "price": "\u20ac\u20ac", "location": {"address1": "M\u00f6llner Landstr. 229", "address2": null, "address3": null, "city": "Hamburg", "zip_code": "22117", "country": "DE", "state": "HH", "display_address": ["M\u00f6llner Landstr. 229", "22117 Hamburg", "Germany"]}, "phone": "+494089708422", "display_phone": "+49 40 89708422", "distance": 3646.626974355491}, {"id": "HObQtAcQIPyQujRCkY9yug", "alias": "mon-ami-hamburg", "name": "Mon Ami", "image_url": "https://s3-media4.fl.yelpcdn.com/bphoto/_OUmVcRqI51CCbAa3NQ6gw/o.jpg", "is_closed": false, "url": "https://www.yelp.com/biz/mon-ami-hamburg?adjust_creative=hBJOknVQJ58S5goQyjmwRw&utm_campaign=yelp_api_v3&utm_medium=api_v3_business_search&utm_source=hBJOknVQJ58S5goQyjmwRw", "review_count": 1, "categories": [{"alias": "seafood", "title": "Seafood"}, {"alias": "mediterranean", "title": "Mediterranean"}, {"alias": "pizza", "title": "Pizza"}], "rating": 1.0, "coordinates": {"latitude": 53.5710073412351, "longitude": 10.111719109118}, "transactions": [], "price": "\u20ac\u20ac\u20ac", "location": {"address1": "Rodigallee 139", "address2": "", "address3": "", "city": "Hamburg", "zip_code": "22043", "country": "DE", "state": "HH", "display_address": ["Rodigallee 139", "22043 Hamburg", "Germany"]}, "phone": "+494068946363", "display_phone": "+49 40 68946363", "distance": 559.9021683528266}, {"id": "H0k-5wLsmRWkAPdYB3iAdw", "alias": "maxburger-hamburg", "name": "Maxburger", "image_url": "", "is_closed": false, "url": "https://www.yelp.com/biz/maxburger-hamburg?adjust_creative=hBJOknVQJ58S5goQyjmwRw&utm_campaign=yelp_api_v3&utm_medium=api_v3_business_search&utm_source=hBJOknVQJ58S5goQyjmwRw", "review_count": 3, "categories": [{"alias": "burgers", "title": "Burgers"}], "rating": 3.0, "coordinates": {"latitude": 53.5880935, "longitude": 10.12411}, "transactions": [], "location": {"address1": "Stein-Hardenberg-Str. 83", "address2": null, "address3": null, "city": "Hamburg", "zip_code": "22045", "country": "DE", "state": "HH", "display_address": ["Stein-Hardenberg-Str. 83", "22045 Hamburg", "Germany"]}, "phone": "+494082299250", "display_phone": "+49 40 82299250", "distance": 1737.8038564574952}, {"id": "il8FEDFNPrw_B8UfjigGkw", "alias": "back-lava-hamburg-3", "name": "Back-Lava", "image_url": "https://s3-media2.fl.yelpcdn.com/bphoto/4dED60GL0dQuN4slUM0Fpg/o.jpg", "is_closed": false, "url": "https://www.yelp.com/biz/back-lava-hamburg-3?adjust_creative=hBJOknVQJ58S5goQyjmwRw&utm_campaign=yelp_api_v3&utm_medium=api_v3_business_search&utm_source=hBJOknVQJ58S5goQyjmwRw", "review_count": 1, "categories": [{"alias": "bakeries", "title": "Bakeries"}, {"alias": "turkish", "title": "Turkish"}, {"alias": "cakeshop", "title": "Patisserie/Cake Shop"}], "rating": 2.0, "coordinates": {"latitude": 53.54084, "longitude": 10.10021}, "transactions": [], "location": {"address1": "Billstedter Hauptstr. 35", "address2": null, "address3": null, "city": "Hamburg", "zip_code": "22111", "country": "DE", "state": "HH", "display_address": ["Billstedter Hauptstr. 35", "22111 Hamburg", "Germany"]}, "phone": "+494051907247", "display_phone": "+49 40 51907247", "distance": 3768.0258562219515}, {"id": "d2O1JjjiV91LmgqkMYWGPg", "alias": "mcdonalds-hamburg-42", "name": "McDonald's", "image_url": "https://s3-media3.fl.yelpcdn.com/bphoto/OdGo7sTqg26QCDf0Zwsvtw/o.jpg", "is_closed": false, "url": "https://www.yelp.com/biz/mcdonalds-hamburg-42?adjust_creative=hBJOknVQJ58S5goQyjmwRw&utm_campaign=yelp_api_v3&utm_medium=api_v3_business_search&utm_source=hBJOknVQJ58S5goQyjmwRw", "review_count": 15, "categories": [{"alias": "hotdogs", "title": "Fast Food"}, {"alias": "burgers", "title": "Burgers"}], "rating": 2.0, "coordinates": {"latitude": 53.5817, "longitude": 10.1089}, "transactions": [], "price": "\u20ac", "location": {"address1": "Ahrensburger Str. 156", "address2": null, "address3": null, "city": "Hamburg", "zip_code": "22045", "country": "DE", "state": "HH", "display_address": ["Ahrensburger Str. 156", "22045 Hamburg", "Germany"]}, "phone": "+4940661881", "display_phone": "+49 40 661881", "distance": 1230.7518757488035}, {"id": "MmYbD5eULMcs2pgW3hOrCw", "alias": "alaturca-hamburg", "name": "Alaturca", "image_url": "https://s3-media4.fl.yelpcdn.com/bphoto/oAaKUiu9XWJcj6VL2F2Ohw/o.jpg", "is_closed": false, "url": "https://www.yelp.com/biz/alaturca-hamburg?adjust_creative=hBJOknVQJ58S5goQyjmwRw&utm_campaign=yelp_api_v3&utm_medium=api_v3_business_search&utm_source=hBJOknVQJ58S5goQyjmwRw", "review_count": 18, "categories": [{"alias": "turkish", "title": "Turkish"}, {"alias": "kebab", "title": "Kebab"}], "rating": 3.0, "coordinates": {"latitude": 53.53974, "longitude": 10.10145}, "transactions": [], "price": "\u20ac\u20ac\u20ac", "location": {"address1": "Billstedter Hauptstr. 48 53", "address2": null, "address3": null, "city": "Hamburg", "zip_code": "22111", "country": "DE", "state": "HH", "display_address": ["Billstedter Hauptstr. 48 53", "22111 Hamburg", "Germany"]}, "phone": "+494070296885", "display_phone": "+49 40 70296885", "distance": 3856.798971640402}, {"id": "pf_RiSbOuQKLkhDodWf4Zg", "alias": "schweinske-hamburg-15", "name": "Schweinske", "image_url": "https://s3-media4.fl.yelpcdn.com/bphoto/sCaYsSGos8klABFJQtC-Sg/o.jpg", "is_closed": false, "url": "https://www.yelp.com/biz/schweinske-hamburg-15?adjust_creative=hBJOknVQJ58S5goQyjmwRw&utm_campaign=yelp_api_v3&utm_medium=api_v3_business_search&utm_source=hBJOknVQJ58S5goQyjmwRw", "review_count": 61, "categories": [{"alias": "german", "title": "German"}, {"alias": "breakfast_brunch", "title": "Breakfast & Brunch"}], "rating": 3.0, "coordinates": {"latitude": 53.608071, "longitude": 10.11642}, "transactions": [], "price": "\u20ac\u20ac", "location": {"address1": "August-Krogmann-Str. 25", "address2": null, "address3": null, "city": "Hamburg", "zip_code": "22159", "country": "DE", "state": "HH", "display_address": ["August-Krogmann-Str. 25", "22159 Hamburg", "Germany"]}, "phone": "+494064537516", "display_phone": "+49 40 64537516", "distance": 3941.2292527698096}, {"id": "ugQlHvgEVolXPln9jsmenA", "alias": "baris-grillhaus-hamburg", "name": "Baris Grillhaus", "image_url": "https://s3-media3.fl.yelpcdn.com/bphoto/XLzCcvgXVZ9_rntj2NZ5aA/o.jpg", "is_closed": false, "url": "https://www.yelp.com/biz/baris-grillhaus-hamburg?adjust_creative=hBJOknVQJ58S5goQyjmwRw&utm_campaign=yelp_api_v3&utm_medium=api_v3_business_search&utm_source=hBJOknVQJ58S5goQyjmwRw", "review_count": 9, "categories": [{"alias": "kebab", "title": "Kebab"}], "rating": 3.0, "coordinates": {"latitude": 53.6071, "longitude": 10.11808}, "transactions": [], "price": "\u20ac\u20ac", "location": {"address1": "August-Krogmannstr. 12", "address2": "", "address3": "", "city": "Hamburg", "zip_code": "22159", "country": "DE", "state": "HH", "display_address": ["August-Krogmannstr. 12", "22159 Hamburg", "Germany"]}, "phone": "+494069464336", "display_phone": "+49 40 69464336", "distance": 3822.0409970643336}, {"id": "0E6MSfGiFGVRqcp2U5mTFA", "alias": "burger-king-hamburg-2", "name": "Burger King", "image_url": "https://s3-media2.fl.yelpcdn.com/bphoto/gkIdKVwfl1R2DEnu_5LRoQ/o.jpg", "is_closed": false, "url": "https://www.yelp.com/biz/burger-king-hamburg-2?adjust_creative=hBJOknVQJ58S5goQyjmwRw&utm_campaign=yelp_api_v3&utm_medium=api_v3_business_search&utm_source=hBJOknVQJ58S5goQyjmwRw", "review_count": 48, "categories": [{"alias": "hotdogs", "title": "Fast Food"}, {"alias": "burgers", "title": "Burgers"}], "rating": 2.0, "coordinates": {"latitude": 53.58894, "longitude": 10.100627}, "transactions": [], "price": "\u20ac\u20ac", "location": {"address1": "Friedrich-Ebert-Damm 166", "address2": null, "address3": null, "city": "Hamburg", "zip_code": "22047", "country": "DE", "state": "HH", "display_address": ["Friedrich-Ebert-Damm 166", "22047 Hamburg", "Germany"]}, "phone": "+494046631170", "display_phone": "+49 40 46631170", "distance": 2195.9278792210134}, {"id": "tw9C5ljsuxZHQK4s89LpvA", "alias": "billstedter-bierstube-hamburg", "name": "Billstedter Bierstube", "image_url": "https://s3-media2.fl.yelpcdn.com/bphoto/y60neRVTsKgjRKUp3pZkNA/o.jpg", "is_closed": false, "url": "https://www.yelp.com/biz/billstedter-bierstube-hamburg?adjust_creative=hBJOknVQJ58S5goQyjmwRw&utm_campaign=yelp_api_v3&utm_medium=api_v3_business_search&utm_source=hBJOknVQJ58S5goQyjmwRw", "review_count": 1, "categories": [{"alias": "pubs", "title": "Pubs"}, {"alias": "restaurants", "title": "Restaurants"}], "rating": 3.0, "coordinates": {"latitude": 53.5396, "longitude": 10.1025}, "transactions": [], "location": {"address1": "Billstedter Hauptstr. 52", "address2": null, "address3": null, "city": "Hamburg", "zip_code": "22111", "country": "DE", "state": "HH", "display_address": ["Billstedter Hauptstr. 52", "22111 Hamburg", "Germany"]}, "phone": "+494028097339", "display_phone": "+49 40 28097339", "distance": 3850.540339090049}, {"id": "3YztXT5dmOGD-i9ZwYfDWw", "alias": "burger-king-hamburg-12", "name": "Burger King", "image_url": "https://s3-media3.fl.yelpcdn.com/bphoto/_7T-i176DAQ09IW_u9oq3A/o.jpg", "is_closed": false, "url": "https://www.yelp.com/biz/burger-king-hamburg-12?adjust_creative=hBJOknVQJ58S5goQyjmwRw&utm_campaign=yelp_api_v3&utm_medium=api_v3_business_search&utm_source=hBJOknVQJ58S5goQyjmwRw", "review_count": 5, "categories": [{"alias": "burgers", "title": "Burgers"}, {"alias": "hotdogs", "title": "Fast Food"}], "rating": 2.5, "coordinates": {"latitude": 53.54013, "longitude": 10.10337}, "transactions": [], "price": "\u20ac\u20ac", "location": {"address1": "M\u00f6llner Landstr. 3", "address2": "", "address3": null, "city": "Hamburg", "zip_code": "22111", "country": "DE", "state": "HH", "display_address": ["M\u00f6llner Landstr. 3", "22111 Hamburg", "Germany"]}, "phone": "+494073679659", "display_phone": "+49 40 73679659", "distance": 3672.6275882288546}, {"id": "CbAt26AJcBJR4EHcqltEeg", "alias": "zorbas-hamburg-2", "name": "Zorbas", "image_url": "", "is_closed": false, "url": "https://www.yelp.com/biz/zorbas-hamburg-2?adjust_creative=hBJOknVQJ58S5goQyjmwRw&utm_campaign=yelp_api_v3&utm_medium=api_v3_business_search&utm_source=hBJOknVQJ58S5goQyjmwRw", "review_count": 1, "categories": [{"alias": "greek", "title": "Greek"}], "rating": 2.0, "coordinates": {"latitude": 53.6046, "longitude": 10.1176}, "transactions": [], "price": "\u20ac\u20ac", "location": {"address1": "Berner Heerweg 173", "address2": null, "address3": null, "city": "Hamburg", "zip_code": "22159", "country": "DE", "state": "HH", "display_address": ["Berner Heerweg 173", "22159 Hamburg", "Germany"]}, "phone": "+49406454823", "display_phone": "+49 40 6454823", "distance": 3551.5880152118057}, {"id": "aNWnsNOYLimm6JLwGHrGUA", "alias": "mcdonalds-hamburg-4", "name": "McDonald's", "image_url": "https://s3-media3.fl.yelpcdn.com/bphoto/LH31L8wi2eVgxSfd8jgFQg/o.jpg", "is_closed": false, "url": "https://www.yelp.com/biz/mcdonalds-hamburg-4?adjust_creative=hBJOknVQJ58S5goQyjmwRw&utm_campaign=yelp_api_v3&utm_medium=api_v3_business_search&utm_source=hBJOknVQJ58S5goQyjmwRw", "review_count": 6, "categories": [{"alias": "burgers", "title": "Burgers"}, {"alias": "hotdogs", "title": "Fast Food"}], "rating": 3.0, "coordinates": {"latitude": 53.60704, "longitude": 10.11837}, "transactions": [], "price": "\u20ac\u20ac", "location": {"address1": "August-Krogmann-Str. 10", "address2": "", "address3": "", "city": "Hamburg", "zip_code": "22159", "country": "DE", "state": "HH", "display_address": ["August-Krogmann-Str. 10", "22159 Hamburg", "Germany"]}, "phone": "+494053304204", "display_phone": "+49 40 53304204", "distance": 3830.0757301182534}, {"id": "Z9ed1JBXupt9ULdZXNRbNg", "alias": "asialong-hamburg", "name": "asialong", "image_url": "", "is_closed": false, "url": "https://www.yelp.com/biz/asialong-hamburg?adjust_creative=hBJOknVQJ58S5goQyjmwRw&utm_campaign=yelp_api_v3&utm_medium=api_v3_business_search&utm_source=hBJOknVQJ58S5goQyjmwRw", "review_count": 4, "categories": [{"alias": "vietnamese", "title": "Vietnamese"}, {"alias": "panasian", "title": "Pan Asian"}], "rating": 3.5, "coordinates": {"latitude": 53.6000801166592, "longitude": 10.1389519202378}, "transactions": [], "location": {"address1": "Scharbeutzer Str. 85", "address2": null, "address3": "", "city": "Hamburg", "zip_code": "22147", "country": "DE", "state": "HH", "display_address": ["Scharbeutzer Str. 85", "22147 Hamburg", "Germany"]}, "phone": "+494088187329", "display_phone": "+49 40 88187329", "distance": 3300.3091152674056}, {"id": "THiQx27gTKO93V2VwDRcOw", "alias": "lounge-caf\u00e9-hamburg", "name": "Lounge Caf\u00e9", "image_url": "https://s3-media3.fl.yelpcdn.com/bphoto/c8LvIhVRdsNrgQGxYohjcg/o.jpg", "is_closed": false, "url": "https://www.yelp.com/biz/lounge-caf%C3%A9-hamburg?adjust_creative=hBJOknVQJ58S5goQyjmwRw&utm_campaign=yelp_api_v3&utm_medium=api_v3_business_search&utm_source=hBJOknVQJ58S5goQyjmwRw", "review_count": 1, "categories": [{"alias": "cafes", "title": "Cafes"}, {"alias": "coffee", "title": "Coffee & Tea"}], "rating": 1.0, "coordinates": {"latitude": 53.587841213227, "longitude": 10.0959847784911}, "transactions": [], "price": "\u20ac\u20ac", "location": {"address1": "Helbingtwiete 7", "address2": "", "address3": "", "city": "Hamburg", "zip_code": "22047", "country": "DE", "state": "HH", "display_address": ["Helbingtwiete 7", "22047 Hamburg", "Germany"]}, "phone": "", "display_phone": "", "distance": 2300.974395528853}, {"id": "xwYBQiBbAXJl3sAZwwsaUg", "alias": "krox-hamburg-7", "name": "Krox", "image_url": "https://s3-media3.fl.yelpcdn.com/bphoto/BHWjik_D16JK44ObnGav7Q/o.jpg", "is_closed": false, "url": "https://www.yelp.com/biz/krox-hamburg-7?adjust_creative=hBJOknVQJ58S5goQyjmwRw&utm_campaign=yelp_api_v3&utm_medium=api_v3_business_search&utm_source=hBJOknVQJ58S5goQyjmwRw", "review_count": 17, "categories": [{"alias": "sandwiches", "title": "Sandwiches"}, {"alias": "creperies", "title": "Creperies"}, {"alias": "pizza", "title": "Pizza"}], "rating": 3.0, "coordinates": {"latitude": 53.538735, "longitude": 10.122476}, "transactions": [], "price": "\u20ac\u20ac", "location": {"address1": "M\u00f6llner Landstr. 123", "address2": "", "address3": "", "city": "Hamburg", "zip_code": "22117", "country": "DE", "state": "HH", "display_address": ["M\u00f6llner Landstr. 123", "22117 Hamburg", "Germany"]}, "phone": "+49407133310", "display_phone": "+49 40 7133310", "distance": 3779.1535007499883}, {"id": "RydfOmd5cLtqBxE80Q_CGg", "alias": "burger-king-hamburg-17", "name": "Burger King", "image_url": "https://s3-media1.fl.yelpcdn.com/bphoto/U5O-x4_5xKBA5hylh5eMXg/o.jpg", "is_closed": false, "url": "https://www.yelp.com/biz/burger-king-hamburg-17?adjust_creative=hBJOknVQJ58S5goQyjmwRw&utm_campaign=yelp_api_v3&utm_medium=api_v3_business_search&utm_source=hBJOknVQJ58S5goQyjmwRw", "review_count": 6, "categories": [{"alias": "burgers", "title": "Burgers"}, {"alias": "hotdogs", "title": "Fast Food"}], "rating": 2.5, "coordinates": {"latitude": 53.6052, "longitude": 10.1183599}, "transactions": [], "price": "\u20ac\u20ac", "location": {"address1": "Berner Heerweg 173-175", "address2": "", "address3": "", "city": "Hamburg", "zip_code": "22159", "country": "DE", "state": "HH", "display_address": ["Berner Heerweg 173-175", "22159 Hamburg", "Germany"]}, "phone": "+494041541333", "display_phone": "+49 40 41541333", "distance": 3597.2002205832246}]