[{"id": "ZoWqPEXDg4bWWo5ZgVj62A", "alias": "take-home-reinbek", "name": "Take Home", "image_url": "", "is_closed": false, "url": "https://www.yelp.com/biz/take-home-reinbek?adjust_creative=hBJOknVQJ58S5goQyjmwRw&utm_campaign=yelp_api_v3&utm_medium=api_v3_business_search&utm_source=hBJOknVQJ58S5goQyjmwRw", "review_count": 3, "categories": [{"alias": "restaurants", "title": "Restaurants"}], "rating": 3.0, "coordinates": {"latitude": 53.5526, "longitude": 10.2507}, "transactions": [], "location": {"address1": "M\u00f6llner Landstr. 4", "address2": null, "address3": null, "city": "Reinbek", "zip_code": "21465", "country": "DE", "state": "SH", "display_address": ["M\u00f6llner Landstr. 4", "21465 Reinbek", "Germany"]}, "phone": "+494081975888", "display_phone": "+49 40 81975888", "distance": 2451.532486226657}, {"id": "l6PcEyzNyDJnCKs74Ox7GQ", "alias": "restaurant-niemanns-gasthof-reinbek", "name": "Restaurant Niemann's Gasthof", "image_url": "https://s3-media3.fl.yelpcdn.com/bphoto/WZdTCXcgl6WRGT8wxomqAw/o.jpg", "is_closed": false, "url": "https://www.yelp.com/biz/restaurant-niemanns-gasthof-reinbek?adjust_creative=hBJOknVQJ58S5goQyjmwRw&utm_campaign=yelp_api_v3&utm_medium=api_v3_business_search&utm_source=hBJOknVQJ58S5goQyjmwRw", "review_count": 21, "categories": [{"alias": "german", "title": "German"}], "rating": 3.5, "coordinates": {"latitude": 53.53, "longitude": 10.2778}, "transactions": [], "price": "\u20ac\u20ac\u20ac", "location": {"address1": "Silk 5", "address2": null, "address3": null, "city": "Reinbek", "zip_code": "21465", "country": "DE", "state": "SH", "display_address": ["Silk 5", "21465 Reinbek", "Germany"]}, "phone": "+4941042391", "display_phone": "+49 4104 2391", "distance": 4602.553755715864}, {"id": "u3ub5f0MS4qY67Q8XF9ZoA", "alias": "sodemanns-fisch-kutter-nr-1-hamburg", "name": "Sodemann's Fisch-Kutter Nr. 1", "image_url": "https://s3-media3.fl.yelpcdn.com/bphoto/BlysP6fVPaL0eEjKvEbByw/o.jpg", "is_closed": false, "url": "https://www.yelp.com/biz/sodemanns-fisch-kutter-nr-1-hamburg?adjust_creative=hBJOknVQJ58S5goQyjmwRw&utm_campaign=yelp_api_v3&utm_medium=api_v3_business_search&utm_source=hBJOknVQJ58S5goQyjmwRw", "review_count": 3, "categories": [{"alias": "foodtrucks", "title": "Food Trucks"}, {"alias": "fischbroetchen", "title": "Fischbroetchen"}], "rating": 5.0, "coordinates": {"latitude": 53.5537490844727, "longitude": 9.99182987213135}, "transactions": [], "price": "\u20ac\u20ac", "location": {"address1": "", "address2": null, "address3": "", "city": "Hamburg", "zip_code": "", "country": "DE", "state": "HH", "display_address": ["Hamburg", "Germany"]}, "phone": "+491773606663", "display_phone": "+49 177 3606663", "distance": 18431.306398223343}, {"id": "SSmt7U3dGAV6o0_8WTF-yQ", "alias": "kleiner-rasthof-reinbek", "name": "Kleiner Rasthof", "image_url": "", "is_closed": false, "url": "https://www.yelp.com/biz/kleiner-rasthof-reinbek?adjust_creative=hBJOknVQJ58S5goQyjmwRw&utm_campaign=yelp_api_v3&utm_medium=api_v3_business_search&utm_source=hBJOknVQJ58S5goQyjmwRw", "review_count": 1, "categories": [{"alias": "restaurants", "title": "Restaurants"}], "rating": 2.0, "coordinates": {"latitude": 53.5306, "longitude": 10.2518}, "transactions": [], "location": {"address1": "Dorfstr. 36", "address2": null, "address3": null, "city": "Reinbek", "zip_code": "21465", "country": "DE", "state": "SH", "display_address": ["Dorfstr. 36", "21465 Reinbek", "Germany"]}, "phone": "+494073597973", "display_phone": "+49 40 73597973", "distance": 4681.278436778014}, {"id": "APvIA_7ssxgC0atmQEFMcg", "alias": "burgerkultour-food-truck-hamburg-2", "name": "BurgerKultour Food Truck", "image_url": "https://s3-media4.fl.yelpcdn.com/bphoto/KoAuwalMnlAO8139MmdYBQ/o.jpg", "is_closed": false, "url": "https://www.yelp.com/biz/burgerkultour-food-truck-hamburg-2?adjust_creative=hBJOknVQJ58S5goQyjmwRw&utm_campaign=yelp_api_v3&utm_medium=api_v3_business_search&utm_source=hBJOknVQJ58S5goQyjmwRw", "review_count": 3, "categories": [{"alias": "foodtrucks", "title": "Food Trucks"}, {"alias": "burgers", "title": "Burgers"}], "rating": 4.5, "coordinates": {"latitude": 53.57154, "longitude": 9.95575}, "transactions": [], "price": "\u20ac\u20ac", "location": {"address1": "", "address2": "", "address3": "", "city": "Hamburg", "zip_code": "20259", "country": "DE", "state": "HH", "display_address": ["20259 Hamburg", "Germany"]}, "phone": "+4917626055122", "display_phone": "+49 176 26055122", "distance": 20755.187432509283}, {"id": "cGIKCcR0wZszz8VldC2-7g", "alias": "currywerk-hamburg", "name": "curryWERK", "image_url": "https://s3-media4.fl.yelpcdn.com/bphoto/j_ZPQAB6JrAru84VDuLiRA/o.jpg", "is_closed": false, "url": "https://www.yelp.com/biz/currywerk-hamburg?adjust_creative=hBJOknVQJ58S5goQyjmwRw&utm_campaign=yelp_api_v3&utm_medium=api_v3_business_search&utm_source=hBJOknVQJ58S5goQyjmwRw", "review_count": 1, "categories": [{"alias": "foodtrucks", "title": "Food Trucks"}, {"alias": "currysausage", "title": "Curry Sausage"}], "rating": 4.0, "coordinates": {"latitude": 53.5498886108398, "longitude": 9.94732189178467}, "transactions": [], "price": "\u20ac\u20ac", "location": {"address1": "", "address2": "", "address3": "", "city": "Hamburg", "zip_code": "22767", "country": "DE", "state": "HH", "display_address": ["22767 Hamburg", "Germany"]}, "phone": "+4917632443433", "display_phone": "+49 176 32443433", "distance": 21810.482992672907}]