[{"id": "aj7kgNjE8WU01wP9IY01Ig", "alias": "liman-fischrestaurant-hamburg", "name": "Liman Fischrestaurant", "image_url": "https://s3-media3.fl.yelpcdn.com/bphoto/Nw7yKUA-T3Dus9Dxn-uiPw/o.jpg", "is_closed": false, "url": "https://www.yelp.com/biz/liman-fischrestaurant-hamburg?adjust_creative=hBJOknVQJ58S5goQyjmwRw&utm_campaign=yelp_api_v3&utm_medium=api_v3_business_search&utm_source=hBJOknVQJ58S5goQyjmwRw", "review_count": 216, "categories": [{"alias": "seafood", "title": "Seafood"}, {"alias": "fishnchips", "title": "Fish & Chips"}, {"alias": "mediterranean", "title": "Mediterranean"}], "rating": 4.5, "coordinates": {"latitude": 53.58086, "longitude": 10.01226}, "transactions": [], "price": "\u20ac\u20ac", "location": {"address1": "M\u00fchlenkamp 16", "address2": "", "address3": "", "city": "Hamburg", "zip_code": "22303", "country": "DE", "state": "HH", "display_address": ["M\u00fchlenkamp 16", "22303 Hamburg", "Germany"]}, "phone": "+494037085653", "display_phone": "+49 40 37085653", "distance": 484.7494137450264}, {"id": "3-unnNEGztL1GdgxR0dN0A", "alias": "kleiner-speisesaal-hamburg", "name": "Kleiner Speisesaal", "image_url": "https://s3-media4.fl.yelpcdn.com/bphoto/k7ABPgthvdCoZZKW4dON0w/o.jpg", "is_closed": false, "url": "https://www.yelp.com/biz/kleiner-speisesaal-hamburg?adjust_creative=hBJOknVQJ58S5goQyjmwRw&utm_campaign=yelp_api_v3&utm_medium=api_v3_business_search&utm_source=hBJOknVQJ58S5goQyjmwRw", "review_count": 82, "categories": [{"alias": "german", "title": "German"}], "rating": 4.5, "coordinates": {"latitude": 53.58121, "longitude": 10.00927}, "transactions": [], "price": "\u20ac\u20ac", "location": {"address1": "Dorotheenstr. 33", "address2": "", "address3": "", "city": "Hamburg", "zip_code": "22301", "country": "DE", "state": "HH", "display_address": ["Dorotheenstr. 33", "22301 Hamburg", "Germany"]}, "phone": "+494030330331", "display_phone": "+49 40 30330331", "distance": 378.80831180363595}, {"id": "08QLRswtTVje66VgQxku_w", "alias": "vous-hamburg", "name": "VOUS", "image_url": "https://s3-media2.fl.yelpcdn.com/bphoto/Tx5tYc6NN8qJoSzUqd5Q_Q/o.jpg", "is_closed": false, "url": "https://www.yelp.com/biz/vous-hamburg?adjust_creative=hBJOknVQJ58S5goQyjmwRw&utm_campaign=yelp_api_v3&utm_medium=api_v3_business_search&utm_source=hBJOknVQJ58S5goQyjmwRw", "review_count": 10, "categories": [{"alias": "asianfusion", "title": "Asian Fusion"}], "rating": 4.5, "coordinates": {"latitude": 53.581547, "longitude": 10.012785}, "transactions": [], "location": {"address1": "Gertigstr. 7", "address2": "", "address3": null, "city": "Hamburg", "zip_code": "22303", "country": "DE", "state": "HH", "display_address": ["Gertigstr. 7", "22303 Hamburg", "Germany"]}, "phone": "+494036901488", "display_phone": "+49 40 36901488", "distance": 554.6703274709014}, {"id": "-icaqeiKFODBwdvuqMS_gg", "alias": "die-boutique-hamburg", "name": "Die Boutique", "image_url": "https://s3-media4.fl.yelpcdn.com/bphoto/TRzs7TYAWwqVqmTBkKZKXw/o.jpg", "is_closed": false, "url": "https://www.yelp.com/biz/die-boutique-hamburg?adjust_creative=hBJOknVQJ58S5goQyjmwRw&utm_campaign=yelp_api_v3&utm_medium=api_v3_business_search&utm_source=hBJOknVQJ58S5goQyjmwRw", "review_count": 20, "categories": [{"alias": "modern_european", "title": "Modern European"}], "rating": 4.5, "coordinates": {"latitude": 53.58099, "longitude": 10.00759}, "transactions": [], "price": "\u20ac\u20ac", "location": {"address1": "P\u00f6lchaukamp 24", "address2": null, "address3": null, "city": "Hamburg", "zip_code": "22301", "country": "DE", "state": "HH", "display_address": ["P\u00f6lchaukamp 24", "22301 Hamburg", "Germany"]}, "phone": "+494069656396", "display_phone": "+49 40 69656396", "distance": 319.0277442575359}, {"id": "FMNrFftlD6WfQU7J2gy_WA", "alias": "made-in-italy-hamburg", "name": "Made in Italy", "image_url": "https://s3-media2.fl.yelpcdn.com/bphoto/_SQZ19atXScWSEwbDf8tFQ/o.jpg", "is_closed": false, "url": "https://www.yelp.com/biz/made-in-italy-hamburg?adjust_creative=hBJOknVQJ58S5goQyjmwRw&utm_campaign=yelp_api_v3&utm_medium=api_v3_business_search&utm_source=hBJOknVQJ58S5goQyjmwRw", "review_count": 16, "categories": [{"alias": "italian", "title": "Italian"}], "rating": 5.0, "coordinates": {"latitude": 53.5792985, "longitude": 10.0087166}, "transactions": [], "price": "\u20ac\u20ac\u20ac", "location": {"address1": "Sierichstr. 22", "address2": null, "address3": null, "city": "Hamburg", "zip_code": "22301", "country": "DE", "state": "HH", "display_address": ["Sierichstr. 22", "22301 Hamburg", "Germany"]}, "phone": "+4940222701", "display_phone": "+49 40 222701", "distance": 187.78343344782672}, {"id": "LsHq8TJU3-rZqikI7Cn7xA", "alias": "paledo-hamburg-2", "name": "Paledo", "image_url": "https://s3-media3.fl.yelpcdn.com/bphoto/f14YULY-xhs83lEDfVgNHw/o.jpg", "is_closed": false, "url": "https://www.yelp.com/biz/paledo-hamburg-2?adjust_creative=hBJOknVQJ58S5goQyjmwRw&utm_campaign=yelp_api_v3&utm_medium=api_v3_business_search&utm_source=hBJOknVQJ58S5goQyjmwRw", "review_count": 5, "categories": [{"alias": "gluten_free", "title": "Gluten-Free"}], "rating": 4.0, "coordinates": {"latitude": 53.5799499741106, "longitude": 10.0124901160598}, "transactions": [], "price": "\u20ac\u20ac", "location": {"address1": "M\u00fchlenkamp 1", "address2": "", "address3": null, "city": "Hamburg", "zip_code": "22303", "country": "DE", "state": "HH", "display_address": ["M\u00fchlenkamp 1", "22303 Hamburg", "Germany"]}, "phone": "+494069454466", "display_phone": "+49 40 69454466", "distance": 436.8424586785679}, {"id": "oaD5yNLPSvjSUuUkt7CykQ", "alias": "edelsatt-hamburg", "name": "Edelsatt", "image_url": "https://s3-media1.fl.yelpcdn.com/bphoto/3S8om8vvhIffJr7Y6ii9vg/o.jpg", "is_closed": false, "url": "https://www.yelp.com/biz/edelsatt-hamburg?adjust_creative=hBJOknVQJ58S5goQyjmwRw&utm_campaign=yelp_api_v3&utm_medium=api_v3_business_search&utm_source=hBJOknVQJ58S5goQyjmwRw", "review_count": 34, "categories": [{"alias": "burgers", "title": "Burgers"}], "rating": 4.0, "coordinates": {"latitude": 53.5803299, "longitude": 10.01268}, "transactions": [], "price": "\u20ac\u20ac", "location": {"address1": "M\u00fchlenkamp 8", "address2": "", "address3": "", "city": "Hamburg", "zip_code": "22303", "country": "DE", "state": "HH", "display_address": ["M\u00fchlenkamp 8", "22303 Hamburg", "Germany"]}, "phone": "+494069644306", "display_phone": "+49 40 69644306", "distance": 477.6263778177252}, {"id": "p0U0OTu9LvEXYIrNMEzj_A", "alias": "alster-cliff-hamburg", "name": "Alster Cliff", "image_url": "https://s3-media4.fl.yelpcdn.com/bphoto/Y99WKc6TR59_O2u1_uUEAw/o.jpg", "is_closed": false, "url": "https://www.yelp.com/biz/alster-cliff-hamburg?adjust_creative=hBJOknVQJ58S5goQyjmwRw&utm_campaign=yelp_api_v3&utm_medium=api_v3_business_search&utm_source=hBJOknVQJ58S5goQyjmwRw", "review_count": 185, "categories": [{"alias": "cafes", "title": "Cafes"}], "rating": 2.5, "coordinates": {"latitude": 53.57399, "longitude": 10.00215}, "transactions": [], "price": "\u20ac\u20ac\u20ac", "location": {"address1": "F\u00e4hrdamm 13", "address2": null, "address3": null, "city": "Hamburg", "zip_code": "20148", "country": "DE", "state": "HH", "display_address": ["F\u00e4hrdamm 13", "20148 Hamburg", "Germany"]}, "phone": "+4940442719", "display_phone": "+49 40 442719", "distance": 547.5539010377352}, {"id": "xNajXLK9aLc1aKUpMWszXA", "alias": "hensel-was-sonst-hamburg", "name": "Hensel, was sonst", "image_url": "https://s3-media3.fl.yelpcdn.com/bphoto/-9E7sIJg9RMeiWIogazjAA/o.jpg", "is_closed": false, "url": "https://www.yelp.com/biz/hensel-was-sonst-hamburg?adjust_creative=hBJOknVQJ58S5goQyjmwRw&utm_campaign=yelp_api_v3&utm_medium=api_v3_business_search&utm_source=hBJOknVQJ58S5goQyjmwRw", "review_count": 57, "categories": [{"alias": "burgers", "title": "Burgers"}], "rating": 4.0, "coordinates": {"latitude": 53.5805999, "longitude": 10.01247}, "transactions": [], "price": "\u20ac\u20ac", "location": {"address1": "M\u00fchlenkamp 12", "address2": null, "address3": "", "city": "Hamburg", "zip_code": "22303", "country": "DE", "state": "HH", "display_address": ["M\u00fchlenkamp 12", "22303 Hamburg", "Germany"]}, "phone": "+4940637970312", "display_phone": "+49 40 637970312", "distance": 473.7586030941421}, {"id": "hCZAQRKMeomyxL8GY2beiQ", "alias": "goldbeker-hamburg", "name": "Goldbeker", "image_url": "https://s3-media4.fl.yelpcdn.com/bphoto/VyPWYhoWYXGsyNar83LBGA/o.jpg", "is_closed": false, "url": "https://www.yelp.com/biz/goldbeker-hamburg?adjust_creative=hBJOknVQJ58S5goQyjmwRw&utm_campaign=yelp_api_v3&utm_medium=api_v3_business_search&utm_source=hBJOknVQJ58S5goQyjmwRw", "review_count": 92, "categories": [{"alias": "german", "title": "German"}], "rating": 4.0, "coordinates": {"latitude": 53.5842274, "longitude": 10.0118355}, "transactions": [], "price": "\u20ac\u20ac", "location": {"address1": "Schinkelstr. 20", "address2": null, "address3": null, "city": "Hamburg", "zip_code": "22303", "country": "DE", "state": "HH", "display_address": ["Schinkelstr. 20", "22303 Hamburg", "Germany"]}, "phone": "+494033428092", "display_phone": "+49 40 33428092", "distance": 756.2610586159982}, {"id": "IFlktnEnljg-rrhDyireaQ", "alias": "patio-hamburg-3", "name": "Patio", "image_url": "https://s3-media1.fl.yelpcdn.com/bphoto/YzhHRj4lOOFa6nSyq6S8Hw/o.jpg", "is_closed": false, "url": "https://www.yelp.com/biz/patio-hamburg-3?adjust_creative=hBJOknVQJ58S5goQyjmwRw&utm_campaign=yelp_api_v3&utm_medium=api_v3_business_search&utm_source=hBJOknVQJ58S5goQyjmwRw", "review_count": 10, "categories": [{"alias": "bars", "title": "Bars"}, {"alias": "international", "title": "International"}, {"alias": "tapas", "title": "Tapas Bars"}], "rating": 4.0, "coordinates": {"latitude": 53.58061, "longitude": 10.00687}, "transactions": [], "price": "\u20ac\u20ac\u20ac", "location": {"address1": "Poelchaukamp 33", "address2": "", "address3": "", "city": "Hamburg", "zip_code": "22301", "country": "DE", "state": "HH", "display_address": ["Poelchaukamp 33", "22301 Hamburg", "Germany"]}, "phone": "+494041498842", "display_phone": "+49 40 41498842", "distance": 268.68413814616883}, {"id": "uequmVCSuU0YSc8_qHza-w", "alias": "piu-hamburg", "name": "Piu", "image_url": "https://s3-media4.fl.yelpcdn.com/bphoto/jt3eXvyBag-YqC6pOSM9vA/o.jpg", "is_closed": false, "url": "https://www.yelp.com/biz/piu-hamburg?adjust_creative=hBJOknVQJ58S5goQyjmwRw&utm_campaign=yelp_api_v3&utm_medium=api_v3_business_search&utm_source=hBJOknVQJ58S5goQyjmwRw", "review_count": 23, "categories": [{"alias": "cafes", "title": "Cafes"}, {"alias": "italian", "title": "Italian"}], "rating": 4.5, "coordinates": {"latitude": 53.5804, "longitude": 10.01221}, "transactions": [], "price": "\u20ac", "location": {"address1": "M\u00fchlenkamp 9", "address2": "", "address3": "", "city": "Hamburg", "zip_code": "22303", "country": "DE", "state": "HH", "display_address": ["M\u00fchlenkamp 9", "22303 Hamburg", "Germany"]}, "phone": "+494018046372", "display_phone": "+49 40 18046372", "distance": 445.01339037077497}, {"id": "0_hXBqzH3fViTmlOJxlZxg", "alias": "misaki-sushi-hamburg", "name": "Misaki Sushi", "image_url": "https://s3-media2.fl.yelpcdn.com/bphoto/J5Z1n_POTv6gxsau07Lk8g/o.jpg", "is_closed": false, "url": "https://www.yelp.com/biz/misaki-sushi-hamburg?adjust_creative=hBJOknVQJ58S5goQyjmwRw&utm_campaign=yelp_api_v3&utm_medium=api_v3_business_search&utm_source=hBJOknVQJ58S5goQyjmwRw", "review_count": 27, "categories": [{"alias": "sushi", "title": "Sushi Bars"}, {"alias": "panasian", "title": "Pan Asian"}], "rating": 4.5, "coordinates": {"latitude": 53.5887, "longitude": 10.0043}, "transactions": [], "price": "\u20ac\u20ac", "location": {"address1": "Dorotheenstr. 142", "address2": null, "address3": null, "city": "Hamburg", "zip_code": "22299", "country": "DE", "state": "HH", "display_address": ["Dorotheenstr. 142", "22299 Hamburg", "Germany"]}, "phone": "+494022613596", "display_phone": "+49 40 22613596", "distance": 1178.9167477583637}, {"id": "p9vwC-OdJ-1kkzjVzgw71A", "alias": "frau-larsson-hamburg", "name": "Frau Larsson", "image_url": "https://s3-media3.fl.yelpcdn.com/bphoto/AwxKaVgw3xLkH4X6FOrp2A/o.jpg", "is_closed": false, "url": "https://www.yelp.com/biz/frau-larsson-hamburg?adjust_creative=hBJOknVQJ58S5goQyjmwRw&utm_campaign=yelp_api_v3&utm_medium=api_v3_business_search&utm_source=hBJOknVQJ58S5goQyjmwRw", "review_count": 101, "categories": [{"alias": "cafes", "title": "Cafes"}, {"alias": "scandinavian", "title": "Scandinavian"}], "rating": 4.0, "coordinates": {"latitude": 53.58337, "longitude": 10.01297}, "transactions": [], "price": "\u20ac\u20ac", "location": {"address1": "Peter-Marquard-Str. 13", "address2": "", "address3": "", "city": "Hamburg", "zip_code": "22303", "country": "DE", "state": "HH", "display_address": ["Peter-Marquard-Str. 13", "22303 Hamburg", "Germany"]}, "phone": "+494076979357", "display_phone": "+49 40 76979357", "distance": 721.7948966832504}, {"id": "X_cH2rr0TgFVgzLxu2n6EQ", "alias": "tr\u00fcffelschwein-hamburg", "name": "Tr\u00fcffelSchwein", "image_url": "https://s3-media2.fl.yelpcdn.com/bphoto/YTAnPFvLGyJROHcUcPXY-Q/o.jpg", "is_closed": false, "url": "https://www.yelp.com/biz/tr%C3%BCffelschwein-hamburg?adjust_creative=hBJOknVQJ58S5goQyjmwRw&utm_campaign=yelp_api_v3&utm_medium=api_v3_business_search&utm_source=hBJOknVQJ58S5goQyjmwRw", "review_count": 28, "categories": [{"alias": "modern_european", "title": "Modern European"}], "rating": 4.5, "coordinates": {"latitude": 53.5835, "longitude": 10.00979}, "transactions": [], "price": "\u20ac\u20ac\u20ac", "location": {"address1": "M\u00fchlenkamp 54", "address2": "", "address3": "", "city": "Hamburg", "zip_code": "22303", "country": "DE", "state": "HH", "display_address": ["M\u00fchlenkamp 54", "22303 Hamburg", "Germany"]}, "phone": "+494069656450", "display_phone": "+49 40 69656450", "distance": 627.928224533759}, {"id": "ghlgTowEluO3XIp-lHQ0mg", "alias": "trattoria-rosati-hamburg", "name": "Trattoria Rosati", "image_url": "https://s3-media3.fl.yelpcdn.com/bphoto/lPrzo0EMlfCqNCJX4gLl4Q/o.jpg", "is_closed": false, "url": "https://www.yelp.com/biz/trattoria-rosati-hamburg?adjust_creative=hBJOknVQJ58S5goQyjmwRw&utm_campaign=yelp_api_v3&utm_medium=api_v3_business_search&utm_source=hBJOknVQJ58S5goQyjmwRw", "review_count": 25, "categories": [{"alias": "italian", "title": "Italian"}], "rating": 4.5, "coordinates": {"latitude": 53.5857303, "longitude": 10.0060135}, "transactions": [], "price": "\u20ac\u20ac", "location": {"address1": "Dorotheenstr. 97 a", "address2": "", "address3": "", "city": "Hamburg", "zip_code": "22301", "country": "DE", "state": "HH", "display_address": ["Dorotheenstr. 97 a", "22301 Hamburg", "Germany"]}, "phone": "+494069691898", "display_phone": "+49 40 69691898", "distance": 839.8938656455031}, {"id": "NAwPucNdEJiJKJRZPliICA", "alias": "pasta-e-vino-hamburg-2", "name": "Pasta e vino", "image_url": "https://s3-media4.fl.yelpcdn.com/bphoto/yv_JtcCy8ukaG_SHAcPoYQ/o.jpg", "is_closed": false, "url": "https://www.yelp.com/biz/pasta-e-vino-hamburg-2?adjust_creative=hBJOknVQJ58S5goQyjmwRw&utm_campaign=yelp_api_v3&utm_medium=api_v3_business_search&utm_source=hBJOknVQJ58S5goQyjmwRw", "review_count": 30, "categories": [{"alias": "italian", "title": "Italian"}], "rating": 4.0, "coordinates": {"latitude": 53.58095, "longitude": 10.00806}, "transactions": [], "price": "\u20ac\u20ac", "location": {"address1": "Poelchaukamp 25", "address2": null, "address3": null, "city": "Hamburg", "zip_code": "22301", "country": "DE", "state": "HH", "display_address": ["Poelchaukamp 25", "22301 Hamburg", "Germany"]}, "phone": "+494027880024", "display_phone": "+49 40 27880024", "distance": 324.80894576749375}, {"id": "9Ap8e5eOvuwGB4nKiAs_ew", "alias": "bonbao-hamburg", "name": "Bonbao", "image_url": "https://s3-media1.fl.yelpcdn.com/bphoto/AkhAW61GkZG9jj29TWpiLg/o.jpg", "is_closed": false, "url": "https://www.yelp.com/biz/bonbao-hamburg?adjust_creative=hBJOknVQJ58S5goQyjmwRw&utm_campaign=yelp_api_v3&utm_medium=api_v3_business_search&utm_source=hBJOknVQJ58S5goQyjmwRw", "review_count": 106, "categories": [{"alias": "panasian", "title": "Pan Asian"}], "rating": 3.0, "coordinates": {"latitude": 53.58087, "longitude": 10.01186}, "transactions": [], "price": "\u20ac\u20ac", "location": {"address1": "M\u00fchlenkamp 19", "address2": "", "address3": "", "city": "Hamburg", "zip_code": "22303", "country": "DE", "state": "HH", "display_address": ["M\u00fchlenkamp 19", "22303 Hamburg", "Germany"]}, "phone": "+494069646121", "display_phone": "+49 40 69646121", "distance": 460.2743864117848}, {"id": "8Aw11-5MADXsebSXzUYW0g", "alias": "piff-paff-pok\u00e9-hamburg", "name": "Piff Paff Pok\u00e9", "image_url": "https://s3-media4.fl.yelpcdn.com/bphoto/Cy91rfGb9do6sRUfs7i1AA/o.jpg", "is_closed": false, "url": "https://www.yelp.com/biz/piff-paff-pok%C3%A9-hamburg?adjust_creative=hBJOknVQJ58S5goQyjmwRw&utm_campaign=yelp_api_v3&utm_medium=api_v3_business_search&utm_source=hBJOknVQJ58S5goQyjmwRw", "review_count": 4, "categories": [{"alias": "hawaiian", "title": "Hawaiian"}], "rating": 4.0, "coordinates": {"latitude": 53.581011, "longitude": 10.012274}, "transactions": [], "location": {"address1": "M\u00fchlenkamp 18", "address2": "", "address3": null, "city": "Hamburg", "zip_code": "22303", "country": "DE", "state": "HH", "display_address": ["M\u00fchlenkamp 18", "22303 Hamburg", "Germany"]}, "phone": "+494035621240", "display_phone": "+49 40 35621240", "distance": 491.42765356482744}, {"id": "mjAj5oycqwNpwsx2C0PeaA", "alias": "caf\u00e9-clara-hamburg-2", "name": "Caf\u00e9 Clara", "image_url": "https://s3-media4.fl.yelpcdn.com/bphoto/zOTm74tbF74QCS3Xli9a8Q/o.jpg", "is_closed": false, "url": "https://www.yelp.com/biz/caf%C3%A9-clara-hamburg-2?adjust_creative=hBJOknVQJ58S5goQyjmwRw&utm_campaign=yelp_api_v3&utm_medium=api_v3_business_search&utm_source=hBJOknVQJ58S5goQyjmwRw", "review_count": 1, "categories": [{"alias": "cafes", "title": "Cafes"}, {"alias": "breakfast_brunch", "title": "Breakfast & Brunch"}, {"alias": "buffets", "title": "Buffets"}], "rating": 5.0, "coordinates": {"latitude": 53.583149, "longitude": 10.010422}, "transactions": [], "location": {"address1": "M\u00fchlenkamp 48", "address2": "", "address3": null, "city": "Hamburg", "zip_code": "22303", "country": "DE", "state": "HH", "display_address": ["M\u00fchlenkamp 48", "22303 Hamburg", "Germany"]}, "phone": "+494027872073", "display_phone": "+49 40 27872073", "distance": 607.5430251056716}, {"id": "z_ioeIKBZm46O_wLfIJX0g", "alias": "wafflicius-hamburg", "name": "Wafflicius", "image_url": "https://s3-media4.fl.yelpcdn.com/bphoto/gUIGNAijMRgIOUZr9NgLpw/o.jpg", "is_closed": false, "url": "https://www.yelp.com/biz/wafflicius-hamburg?adjust_creative=hBJOknVQJ58S5goQyjmwRw&utm_campaign=yelp_api_v3&utm_medium=api_v3_business_search&utm_source=hBJOknVQJ58S5goQyjmwRw", "review_count": 1, "categories": [{"alias": "waffles", "title": "Waffles"}], "rating": 4.0, "coordinates": {"latitude": 53.5831152060911, "longitude": 10.0102461129427}, "transactions": [], "location": {"address1": "M\u00fchlenkamp 53", "address2": "", "address3": null, "city": "Hamburg", "zip_code": "22303", "country": "DE", "state": "HH", "display_address": ["M\u00fchlenkamp 53", "22303 Hamburg", "Germany"]}, "phone": "", "display_phone": "", "distance": 599.3472968281942}, {"id": "ptmt6BIPu21oGBQsUGTlQw", "alias": "marbella-hamburg", "name": "Marbella", "image_url": "https://s3-media3.fl.yelpcdn.com/bphoto/95kFOithGZPmfFkT90nLRQ/o.jpg", "is_closed": false, "url": "https://www.yelp.com/biz/marbella-hamburg?adjust_creative=hBJOknVQJ58S5goQyjmwRw&utm_campaign=yelp_api_v3&utm_medium=api_v3_business_search&utm_source=hBJOknVQJ58S5goQyjmwRw", "review_count": 22, "categories": [{"alias": "spanish", "title": "Spanish"}], "rating": 4.5, "coordinates": {"latitude": 53.5864199, "longitude": 10.00585}, "transactions": [], "price": "\u20ac\u20ac\u20ac", "location": {"address1": "Dorotheenstr. 104", "address2": null, "address3": null, "city": "Hamburg", "zip_code": "22301", "country": "DE", "state": "HH", "display_address": ["Dorotheenstr. 104", "22301 Hamburg", "Germany"]}, "phone": "+4940275757", "display_phone": "+49 40 275757", "distance": 921.7292054543252}, {"id": "L5y6V82yw0SsJ3gy0eq4wQ", "alias": "bonsai-hamburg", "name": "Bonsai", "image_url": "https://s3-media3.fl.yelpcdn.com/bphoto/R16rQ1ecZB9VGHH6ZCGnlA/o.jpg", "is_closed": false, "url": "https://www.yelp.com/biz/bonsai-hamburg?adjust_creative=hBJOknVQJ58S5goQyjmwRw&utm_campaign=yelp_api_v3&utm_medium=api_v3_business_search&utm_source=hBJOknVQJ58S5goQyjmwRw", "review_count": 6, "categories": [{"alias": "sushi", "title": "Sushi Bars"}], "rating": 4.0, "coordinates": {"latitude": 53.5804, "longitude": 10.01221}, "transactions": [], "location": {"address1": "M\u00fchlenkamp 9", "address2": "", "address3": null, "city": "Hamburg", "zip_code": "22303", "country": "DE", "state": "HH", "display_address": ["M\u00fchlenkamp 9", "22303 Hamburg", "Germany"]}, "phone": "+494020201422", "display_phone": "+49 40 20201422", "distance": 445.01339037077497}, {"id": "tgJGHZb-6otC1x-1KQCMcA", "alias": "l\u00fcttn-komb\u00fcse-hamburg", "name": "L\u00fctt'n Komb\u00fcse", "image_url": "https://s3-media1.fl.yelpcdn.com/bphoto/VTNd_pCoWMQEJo-_b3Olow/o.jpg", "is_closed": false, "url": "https://www.yelp.com/biz/l%C3%BCttn-komb%C3%BCse-hamburg?adjust_creative=hBJOknVQJ58S5goQyjmwRw&utm_campaign=yelp_api_v3&utm_medium=api_v3_business_search&utm_source=hBJOknVQJ58S5goQyjmwRw", "review_count": 2, "categories": [{"alias": "hotdogs", "title": "Fast Food"}], "rating": 4.5, "coordinates": {"latitude": 53.580494, "longitude": 10.0125706}, "transactions": [], "location": {"address1": "M\u00fchlenkamp 10d", "address2": null, "address3": null, "city": "Hamburg", "zip_code": "22303", "country": "DE", "state": "HH", "display_address": ["M\u00fchlenkamp 10d", "22303 Hamburg", "Germany"]}, "phone": "+4915141346530", "display_phone": "+49 1514 1346530", "distance": 471.61008677079326}, {"id": "c5lgXXVz9l9o7XTrncAvTQ", "alias": "ristorante-salentino-hamburg", "name": "Ristorante Salentino", "image_url": "https://s3-media4.fl.yelpcdn.com/bphoto/S3M7aRHiuINfOh-COpOW1w/o.jpg", "is_closed": false, "url": "https://www.yelp.com/biz/ristorante-salentino-hamburg?adjust_creative=hBJOknVQJ58S5goQyjmwRw&utm_campaign=yelp_api_v3&utm_medium=api_v3_business_search&utm_source=hBJOknVQJ58S5goQyjmwRw", "review_count": 19, "categories": [{"alias": "italian", "title": "Italian"}], "rating": 4.0, "coordinates": {"latitude": 53.5816698, "longitude": 10.0108076}, "transactions": [], "price": "\u20ac\u20ac\u20ac\u20ac", "location": {"address1": "Poelchaukamp 1", "address2": "", "address3": "", "city": "Hamburg", "zip_code": "22301", "country": "DE", "state": "HH", "display_address": ["Poelchaukamp 1", "22301 Hamburg", "Germany"]}, "phone": "+494068991808", "display_phone": "+49 40 68991808", "distance": 477.6311313629229}, {"id": "PhHHFtUIG4fSbw0ea8p27g", "alias": "limon-hamburg-2", "name": "Limon", "image_url": "", "is_closed": false, "url": "https://www.yelp.com/biz/limon-hamburg-2?adjust_creative=hBJOknVQJ58S5goQyjmwRw&utm_campaign=yelp_api_v3&utm_medium=api_v3_business_search&utm_source=hBJOknVQJ58S5goQyjmwRw", "review_count": 4, "categories": [{"alias": "turkish", "title": "Turkish"}, {"alias": "hotdogs", "title": "Fast Food"}], "rating": 3.0, "coordinates": {"latitude": 53.5810236556414, "longitude": 10.0122835859656}, "transactions": [], "location": {"address1": "M\u00fchlenkamp 18", "address2": "", "address3": null, "city": "Hamburg", "zip_code": "22303", "country": "DE", "state": "HH", "display_address": ["M\u00fchlenkamp 18", "22303 Hamburg", "Germany"]}, "phone": "+494068878784", "display_phone": "+49 40 68878784", "distance": 491.4288340372492}, {"id": "y8tghfhGavRrZfq1V-fo0A", "alias": "cafe-confiserie-hosch-hamburg", "name": "Cafe Confiserie Hosch", "image_url": "https://s3-media1.fl.yelpcdn.com/bphoto/lnizDbolHveFZAvUxjfraA/o.jpg", "is_closed": false, "url": "https://www.yelp.com/biz/cafe-confiserie-hosch-hamburg?adjust_creative=hBJOknVQJ58S5goQyjmwRw&utm_campaign=yelp_api_v3&utm_medium=api_v3_business_search&utm_source=hBJOknVQJ58S5goQyjmwRw", "review_count": 2, "categories": [{"alias": "cafes", "title": "Cafes"}, {"alias": "breakfast_brunch", "title": "Breakfast & Brunch"}], "rating": 4.5, "coordinates": {"latitude": 53.5810830584997, "longitude": 10.0086372748688}, "transactions": [], "location": {"address1": "Poelchaukamp 19", "address2": null, "address3": "", "city": "Hamburg", "zip_code": "22301", "country": "DE", "state": "HH", "display_address": ["Poelchaukamp 19", "22301 Hamburg", "Germany"]}, "phone": "+494028464666", "display_phone": "+49 40 28464666", "distance": 349.7877630460465}, {"id": "w1UWfeIGNYz8lEu-C4HLNg", "alias": "mega-croque-hamburg", "name": "Mega Croque", "image_url": "https://s3-media2.fl.yelpcdn.com/bphoto/DYYr77qQN-ROTQm84RTquQ/o.jpg", "is_closed": false, "url": "https://www.yelp.com/biz/mega-croque-hamburg?adjust_creative=hBJOknVQJ58S5goQyjmwRw&utm_campaign=yelp_api_v3&utm_medium=api_v3_business_search&utm_source=hBJOknVQJ58S5goQyjmwRw", "review_count": 60, "categories": [{"alias": "hotdogs", "title": "Fast Food"}, {"alias": "sandwiches", "title": "Sandwiches"}], "rating": 4.5, "coordinates": {"latitude": 53.58574, "longitude": 10.00848}, "transactions": [], "price": "\u20ac\u20ac", "location": {"address1": "Po\u00dfmoorweg 11", "address2": "", "address3": null, "city": "Hamburg", "zip_code": "22301", "country": "DE", "state": "HH", "display_address": ["Po\u00dfmoorweg 11", "22301 Hamburg", "Germany"]}, "phone": "+49402705640", "display_phone": "+49 40 2705640", "distance": 853.4138908991013}, {"id": "KpbVTR1C216UbEbBPy6UHA", "alias": "sushi-yami-hamburg", "name": "Sushi Yami", "image_url": "https://s3-media2.fl.yelpcdn.com/bphoto/HoFFPbKlKTC1jNqE2b2iKw/o.jpg", "is_closed": false, "url": "https://www.yelp.com/biz/sushi-yami-hamburg?adjust_creative=hBJOknVQJ58S5goQyjmwRw&utm_campaign=yelp_api_v3&utm_medium=api_v3_business_search&utm_source=hBJOknVQJ58S5goQyjmwRw", "review_count": 31, "categories": [{"alias": "sushi", "title": "Sushi Bars"}], "rating": 3.0, "coordinates": {"latitude": 53.5812, "longitude": 10.0083}, "transactions": [], "price": "\u20ac\u20ac", "location": {"address1": "Poelchaukamp 20", "address2": null, "address3": null, "city": "Hamburg", "zip_code": "22301", "country": "DE", "state": "HH", "display_address": ["Poelchaukamp 20", "22301 Hamburg", "Germany"]}, "phone": "+494069691747", "display_phone": "+49 40 69691747", "distance": 354.0444026909556}, {"id": "gZQ2HALIdsKpkGQXG66n9A", "alias": "peter-pane-hamburg-10", "name": "Peter Pane", "image_url": "https://s3-media3.fl.yelpcdn.com/bphoto/ugWaQuy087Fpp_35HQU5WQ/o.jpg", "is_closed": false, "url": "https://www.yelp.com/biz/peter-pane-hamburg-10?adjust_creative=hBJOknVQJ58S5goQyjmwRw&utm_campaign=yelp_api_v3&utm_medium=api_v3_business_search&utm_source=hBJOknVQJ58S5goQyjmwRw", "review_count": 23, "categories": [{"alias": "burgers", "title": "Burgers"}, {"alias": "bars", "title": "Bars"}], "rating": 3.5, "coordinates": {"latitude": 53.58381, "longitude": 10.00918}, "transactions": [], "price": "\u20ac\u20ac", "location": {"address1": "Goldbekplatz 1", "address2": "", "address3": null, "city": "Hamburg", "zip_code": "22303", "country": "DE", "state": "HH", "display_address": ["Goldbekplatz 1", "22303 Hamburg", "Germany"]}, "phone": "+494069212438", "display_phone": "+49 40 69212438", "distance": 629.9340810752607}, {"id": "-XXSrNTTuxj1_AVqXFHN8Q", "alias": "bistro-kitchen-53gradnord-hamburg", "name": "Bistro Kitchen 53gradnord", "image_url": "https://s3-media4.fl.yelpcdn.com/bphoto/WVqCF2I2cPOOm7QxEhoQAA/o.jpg", "is_closed": false, "url": "https://www.yelp.com/biz/bistro-kitchen-53gradnord-hamburg?adjust_creative=hBJOknVQJ58S5goQyjmwRw&utm_campaign=yelp_api_v3&utm_medium=api_v3_business_search&utm_source=hBJOknVQJ58S5goQyjmwRw", "review_count": 1, "categories": [{"alias": "bistros", "title": "Bistros"}], "rating": 5.0, "coordinates": {"latitude": 53.58849, "longitude": 10.01119}, "transactions": [], "price": "\u20ac\u20ac", "location": {"address1": "Gottschedstr. 13", "address2": null, "address3": null, "city": "Hamburg", "zip_code": "22301", "country": "DE", "state": "HH", "display_address": ["Gottschedstr. 13", "22301 Hamburg", "Germany"]}, "phone": "+4940274966", "display_phone": "+49 40 274966", "distance": 1185.664093916776}, {"id": "ZFXOtabmqIRD2XY75Q9oug", "alias": "marktkaffee-hamburg", "name": "Marktkaffee", "image_url": "https://s3-media3.fl.yelpcdn.com/bphoto/9RWIOI9IvKYBiDEi5l9RTA/o.jpg", "is_closed": false, "url": "https://www.yelp.com/biz/marktkaffee-hamburg?adjust_creative=hBJOknVQJ58S5goQyjmwRw&utm_campaign=yelp_api_v3&utm_medium=api_v3_business_search&utm_source=hBJOknVQJ58S5goQyjmwRw", "review_count": 10, "categories": [{"alias": "cafes", "title": "Cafes"}, {"alias": "breakfast_brunch", "title": "Breakfast & Brunch"}], "rating": 4.0, "coordinates": {"latitude": 53.58425, "longitude": 10.01007}, "transactions": [], "price": "\u20ac", "location": {"address1": "Goldbekplatz 5", "address2": null, "address3": null, "city": "Hamburg", "zip_code": "22303", "country": "DE", "state": "HH", "display_address": ["Goldbekplatz 5", "22303 Hamburg", "Germany"]}, "phone": "+494027885663", "display_phone": "+49 40 27885663", "distance": 712.7490504812877}, {"id": "vW1FHswDrws6gbeIUdLpQw", "alias": "caf\u00e9-froyowelt-hamburg", "name": "Caf\u00e9 Froyowelt", "image_url": "https://s3-media4.fl.yelpcdn.com/bphoto/I3YF808eJEfECQRqq-AAjw/o.jpg", "is_closed": false, "url": "https://www.yelp.com/biz/caf%C3%A9-froyowelt-hamburg?adjust_creative=hBJOknVQJ58S5goQyjmwRw&utm_campaign=yelp_api_v3&utm_medium=api_v3_business_search&utm_source=hBJOknVQJ58S5goQyjmwRw", "review_count": 19, "categories": [{"alias": "cafes", "title": "Cafes"}, {"alias": "icecream", "title": "Ice Cream & Frozen Yogurt"}], "rating": 4.0, "coordinates": {"latitude": 53.5861104, "longitude": 10.0055716}, "transactions": [], "price": "\u20ac\u20ac", "location": {"address1": "Dorotheenstr. 99", "address2": "", "address3": "", "city": "Hamburg", "zip_code": "22301", "country": "DE", "state": "HH", "display_address": ["Dorotheenstr. 99", "22301 Hamburg", "Germany"]}, "phone": "+494029813934", "display_phone": "+49 40 29813934", "distance": 883.8342861220752}, {"id": "9i25b2m9RMvvVOTJB7ZTCg", "alias": "pittarello-hamburg-2", "name": "Pittarello", "image_url": "https://s3-media3.fl.yelpcdn.com/bphoto/0l714D-goPoRFf0qPJOHYA/o.jpg", "is_closed": false, "url": "https://www.yelp.com/biz/pittarello-hamburg-2?adjust_creative=hBJOknVQJ58S5goQyjmwRw&utm_campaign=yelp_api_v3&utm_medium=api_v3_business_search&utm_source=hBJOknVQJ58S5goQyjmwRw", "review_count": 5, "categories": [{"alias": "italian", "title": "Italian"}], "rating": 4.0, "coordinates": {"latitude": 53.580391, "longitude": 10.012749}, "transactions": [], "location": {"address1": "M\u00fchlenkamp 8", "address2": "", "address3": "", "city": "Hamburg", "zip_code": "22303", "country": "DE", "state": "HH", "display_address": ["M\u00fchlenkamp 8", "22303 Hamburg", "Germany"]}, "phone": "+494069456969", "display_phone": "+49 40 69456969", "distance": 477.6263778177252}, {"id": "PW-Xd7KqWQpTAhmMWBYubA", "alias": "caf\u00e9-gerngeschehen-hamburg", "name": "Caf\u00e9 Gerngeschehen", "image_url": "https://s3-media2.fl.yelpcdn.com/bphoto/_jU6ng3dOKC8TOiPczJe0w/o.jpg", "is_closed": false, "url": "https://www.yelp.com/biz/caf%C3%A9-gerngeschehen-hamburg?adjust_creative=hBJOknVQJ58S5goQyjmwRw&utm_campaign=yelp_api_v3&utm_medium=api_v3_business_search&utm_source=hBJOknVQJ58S5goQyjmwRw", "review_count": 5, "categories": [{"alias": "cafes", "title": "Cafes"}, {"alias": "breakfast_brunch", "title": "Breakfast & Brunch"}, {"alias": "cocktailbars", "title": "Cocktail Bars"}], "rating": 3.0, "coordinates": {"latitude": 53.5816, "longitude": 10.00896}, "transactions": [], "price": "\u20ac", "location": {"address1": "Dorotheenstr. 37", "address2": null, "address3": "", "city": "Hamburg", "zip_code": "22301", "country": "DE", "state": "HH", "display_address": ["Dorotheenstr. 37", "22301 Hamburg", "Germany"]}, "phone": "+494037612901", "display_phone": "+49 40 37612901", "distance": 410.33544956780725}, {"id": "LYmTfZoKLN6UkYF9VSJM8w", "alias": "caruso-hamburg", "name": "Caruso", "image_url": "https://s3-media1.fl.yelpcdn.com/bphoto/peekFTiUL_zx0X667EDOlA/o.jpg", "is_closed": false, "url": "https://www.yelp.com/biz/caruso-hamburg?adjust_creative=hBJOknVQJ58S5goQyjmwRw&utm_campaign=yelp_api_v3&utm_medium=api_v3_business_search&utm_source=hBJOknVQJ58S5goQyjmwRw", "review_count": 3, "categories": [{"alias": "italian", "title": "Italian"}, {"alias": "pizza", "title": "Pizza"}], "rating": 3.5, "coordinates": {"latitude": 53.5826100428411, "longitude": 10.0086599215865}, "transactions": [], "location": {"address1": "Dorotheenstr. 54", "address2": "", "address3": "", "city": "Hamburg", "zip_code": "22301", "country": "DE", "state": "HH", "display_address": ["Dorotheenstr. 54", "22301 Hamburg", "Germany"]}, "phone": "+494068878620", "display_phone": "+49 40 68878620", "distance": 510.9230500001984}, {"id": "6wIYLv51uAtEpm7oVz8VjQ", "alias": "block-house-hamburg-8", "name": "Block House", "image_url": "https://s3-media4.fl.yelpcdn.com/bphoto/P_XlmnzHGMoatI-KHU212w/o.jpg", "is_closed": false, "url": "https://www.yelp.com/biz/block-house-hamburg-8?adjust_creative=hBJOknVQJ58S5goQyjmwRw&utm_campaign=yelp_api_v3&utm_medium=api_v3_business_search&utm_source=hBJOknVQJ58S5goQyjmwRw", "review_count": 61, "categories": [{"alias": "steak", "title": "Steakhouses"}], "rating": 4.5, "coordinates": {"latitude": 53.5829285, "longitude": 10.0078201}, "transactions": [], "price": "\u20ac\u20ac", "location": {"address1": "Dorotheenstr. 57", "address2": null, "address3": null, "city": "Hamburg", "zip_code": "22301", "country": "DE", "state": "HH", "display_address": ["Dorotheenstr. 57", "22301 Hamburg", "Germany"]}, "phone": "+4940277846", "display_phone": "+49 40 277846", "distance": 533.8436671107546}, {"id": "wVxujh6aGU5_fin1FXuZnA", "alias": "chapeau-hamburg", "name": "Chapeau!", "image_url": "https://s3-media2.fl.yelpcdn.com/bphoto/E-6gtaJH7zereKv8fiVDTA/o.jpg", "is_closed": false, "url": "https://www.yelp.com/biz/chapeau-hamburg?adjust_creative=hBJOknVQJ58S5goQyjmwRw&utm_campaign=yelp_api_v3&utm_medium=api_v3_business_search&utm_source=hBJOknVQJ58S5goQyjmwRw", "review_count": 46, "categories": [{"alias": "bars", "title": "Bars"}, {"alias": "tradamerican", "title": "American (Traditional)"}, {"alias": "steak", "title": "Steakhouses"}], "rating": 2.5, "coordinates": {"latitude": 53.5849626429687, "longitude": 10.0088865682483}, "transactions": [], "price": "\u20ac\u20ac\u20ac", "location": {"address1": "Moorfuhrweg 9", "address2": "", "address3": "", "city": "Hamburg", "zip_code": "22301", "country": "DE", "state": "HH", "display_address": ["Moorfuhrweg 9", "22301 Hamburg", "Germany"]}, "phone": "+494027075444", "display_phone": "+49 40 27075444", "distance": 768.945046459425}, {"id": "x12EcgDuCtVxyxbJYqCIPA", "alias": "gallo-nero-hamburg-2", "name": "Gallo Nero", "image_url": "https://s3-media1.fl.yelpcdn.com/bphoto/UiajfeOqjYhZaBebQO1PBQ/o.jpg", "is_closed": false, "url": "https://www.yelp.com/biz/gallo-nero-hamburg-2?adjust_creative=hBJOknVQJ58S5goQyjmwRw&utm_campaign=yelp_api_v3&utm_medium=api_v3_business_search&utm_source=hBJOknVQJ58S5goQyjmwRw", "review_count": 102, "categories": [{"alias": "italian", "title": "Italian"}], "rating": 3.5, "coordinates": {"latitude": 53.5811599, "longitude": 10.00756}, "transactions": [], "price": "\u20ac\u20ac\u20ac", "location": {"address1": "Sierichstr. 46", "address2": null, "address3": null, "city": "Hamburg", "zip_code": "22301", "country": "DE", "state": "HH", "display_address": ["Sierichstr. 46", "22301 Hamburg", "Germany"]}, "phone": "+494027092229", "display_phone": "+49 40 27092229", "distance": 328.5203541154151}, {"id": "MIPDolzFO3ElzddIbxRavQ", "alias": "pizza-social-club-hamburg-2", "name": "Pizza Social Club", "image_url": "https://s3-media1.fl.yelpcdn.com/bphoto/7aHRym-mldogPgCz_LoExw/o.jpg", "is_closed": false, "url": "https://www.yelp.com/biz/pizza-social-club-hamburg-2?adjust_creative=hBJOknVQJ58S5goQyjmwRw&utm_campaign=yelp_api_v3&utm_medium=api_v3_business_search&utm_source=hBJOknVQJ58S5goQyjmwRw", "review_count": 6, "categories": [{"alias": "pizza", "title": "Pizza"}, {"alias": "wine_bars", "title": "Wine Bars"}, {"alias": "cocktailbars", "title": "Cocktail Bars"}], "rating": 3.5, "coordinates": {"latitude": 53.581329, "longitude": 10.011444}, "transactions": [], "location": {"address1": "M\u00fchlenkamp 29", "address2": "", "address3": null, "city": "Hamburg", "zip_code": "22303", "country": "DE", "state": "HH", "display_address": ["M\u00fchlenkamp 29", "22303 Hamburg", "Germany"]}, "phone": "", "display_phone": "", "distance": 470.0293041651828}, {"id": "vZmhg-_glXH8aba7AtQ_pA", "alias": "caf\u00e9-canale-hamburg-2", "name": "Caf\u00e9 Canale", "image_url": "https://s3-media1.fl.yelpcdn.com/bphoto/ERFtWYRSssVi3GDaAVv1Sg/o.jpg", "is_closed": false, "url": "https://www.yelp.com/biz/caf%C3%A9-canale-hamburg-2?adjust_creative=hBJOknVQJ58S5goQyjmwRw&utm_campaign=yelp_api_v3&utm_medium=api_v3_business_search&utm_source=hBJOknVQJ58S5goQyjmwRw", "review_count": 46, "categories": [{"alias": "cafes", "title": "Cafes"}], "rating": 3.0, "coordinates": {"latitude": 53.58151, "longitude": 10.01021}, "transactions": [], "price": "\u20ac\u20ac", "location": {"address1": "Poelchaukamp 7", "address2": null, "address3": null, "city": "Hamburg", "zip_code": "22301", "country": "DE", "state": "HH", "display_address": ["Poelchaukamp 7", "22301 Hamburg", "Germany"]}, "phone": "+49402700101", "display_phone": "+49 40 2700101", "distance": 440.30581003322726}, {"id": "2jFikAjNj_lPgb5aGkmCgQ", "alias": "asia-wok-hamburg-8", "name": "Asia Wok", "image_url": "https://s3-media2.fl.yelpcdn.com/bphoto/jPAEVqqjf2roUtJlnAs1Vw/o.jpg", "is_closed": false, "url": "https://www.yelp.com/biz/asia-wok-hamburg-8?adjust_creative=hBJOknVQJ58S5goQyjmwRw&utm_campaign=yelp_api_v3&utm_medium=api_v3_business_search&utm_source=hBJOknVQJ58S5goQyjmwRw", "review_count": 26, "categories": [{"alias": "panasian", "title": "Pan Asian"}], "rating": 3.5, "coordinates": {"latitude": 53.5797, "longitude": 10.0084}, "transactions": [], "price": "\u20ac\u20ac", "location": {"address1": "Sierichstr. 30", "address2": null, "address3": null, "city": "Hamburg", "zip_code": "22301", "country": "DE", "state": "HH", "display_address": ["Sierichstr. 30", "22301 Hamburg", "Germany"]}, "phone": "+494027808086", "display_phone": "+49 40 27808086", "distance": 207.01304392796908}, {"id": "qfOWajP7prKrB1ZZ8fEJ7A", "alias": "madrigal-hamburg", "name": "Madrigal", "image_url": "https://s3-media1.fl.yelpcdn.com/bphoto/QD71UCwAdqN_7PIUhaao7Q/o.jpg", "is_closed": false, "url": "https://www.yelp.com/biz/madrigal-hamburg?adjust_creative=hBJOknVQJ58S5goQyjmwRw&utm_campaign=yelp_api_v3&utm_medium=api_v3_business_search&utm_source=hBJOknVQJ58S5goQyjmwRw", "review_count": 76, "categories": [{"alias": "spanish", "title": "Spanish"}, {"alias": "tapasmallplates", "title": "Tapas/Small Plates"}], "rating": 3.5, "coordinates": {"latitude": 53.58369, "longitude": 10.01053}, "transactions": [], "price": "\u20ac\u20ac", "location": {"address1": "Semperstr. 4", "address2": "", "address3": "", "city": "Hamburg", "zip_code": "22303", "country": "DE", "state": "HH", "display_address": ["Semperstr. 4", "22303 Hamburg", "Germany"]}, "phone": "+494027075838", "display_phone": "+49 40 27075838", "distance": 661.3133023609794}, {"id": "CJlTbvqxcSItdjgw5WnZYg", "alias": "caff\u00e9-42-hamburg-2", "name": "Caff\u00e9 42", "image_url": "https://s3-media3.fl.yelpcdn.com/bphoto/huUoSIKK0UCBYeiAvHdKcw/o.jpg", "is_closed": false, "url": "https://www.yelp.com/biz/caff%C3%A9-42-hamburg-2?adjust_creative=hBJOknVQJ58S5goQyjmwRw&utm_campaign=yelp_api_v3&utm_medium=api_v3_business_search&utm_source=hBJOknVQJ58S5goQyjmwRw", "review_count": 41, "categories": [{"alias": "cafes", "title": "Cafes"}], "rating": 3.5, "coordinates": {"latitude": 53.5827471, "longitude": 10.0106206}, "transactions": [], "price": "\u20ac\u20ac", "location": {"address1": "M\u00fchlenkamp 42", "address2": "", "address3": "", "city": "Hamburg", "zip_code": "22303", "country": "DE", "state": "HH", "display_address": ["M\u00fchlenkamp 42", "22303 Hamburg", "Germany"]}, "phone": "+494027880642", "display_phone": "+49 40 27880642", "distance": 573.2280523625253}, {"id": "M2R99dh79REWiLxFoFOLiw", "alias": "gallo-nero-alimentari-con-cucina-hamburg-3", "name": "Gallo Nero - Alimentari con Cucina", "image_url": "https://s3-media2.fl.yelpcdn.com/bphoto/CUpSK_losdYzASalAMV0Vg/o.jpg", "is_closed": false, "url": "https://www.yelp.com/biz/gallo-nero-alimentari-con-cucina-hamburg-3?adjust_creative=hBJOknVQJ58S5goQyjmwRw&utm_campaign=yelp_api_v3&utm_medium=api_v3_business_search&utm_source=hBJOknVQJ58S5goQyjmwRw", "review_count": 1, "categories": [{"alias": "delicatessen", "title": "Delicatessen"}, {"alias": "italian", "title": "Italian"}], "rating": 5.0, "coordinates": {"latitude": 53.58113, "longitude": 10.00787}, "transactions": [], "location": {"address1": "Poelchaukamp 24", "address2": "", "address3": null, "city": "Hamburg", "zip_code": "22301", "country": "DE", "state": "HH", "display_address": ["Poelchaukamp 24", "22301 Hamburg", "Germany"]}, "phone": "+494069456448", "display_phone": "+49 40 69456448", "distance": 338.3944890427332}, {"id": "mZTH1ZwvFlYCqWyh7VTf4Q", "alias": "la-bruschetta-hamburg", "name": "La Bruschetta", "image_url": "https://s3-media2.fl.yelpcdn.com/bphoto/jfuSwBrzUPaVevNCT6lXgw/o.jpg", "is_closed": false, "url": "https://www.yelp.com/biz/la-bruschetta-hamburg?adjust_creative=hBJOknVQJ58S5goQyjmwRw&utm_campaign=yelp_api_v3&utm_medium=api_v3_business_search&utm_source=hBJOknVQJ58S5goQyjmwRw", "review_count": 73, "categories": [{"alias": "italian", "title": "Italian"}], "rating": 3.5, "coordinates": {"latitude": 53.58148, "longitude": 10.00905}, "transactions": [], "price": "\u20ac\u20ac\u20ac", "location": {"address1": "Dorotheenstr. 35", "address2": null, "address3": null, "city": "Hamburg", "zip_code": "22301", "country": "DE", "state": "HH", "display_address": ["Dorotheenstr. 35", "22301 Hamburg", "Germany"]}, "phone": "+4940276661", "display_phone": "+49 40 276661", "distance": 404.1407859738136}, {"id": "qvQarxB95EbT04HGfY1UzA", "alias": "ristorante-portici-hamburg", "name": "Ristorante Portici", "image_url": "https://s3-media3.fl.yelpcdn.com/bphoto/NihKeiFH6hxW8mxk4Dpbhw/o.jpg", "is_closed": false, "url": "https://www.yelp.com/biz/ristorante-portici-hamburg?adjust_creative=hBJOknVQJ58S5goQyjmwRw&utm_campaign=yelp_api_v3&utm_medium=api_v3_business_search&utm_source=hBJOknVQJ58S5goQyjmwRw", "review_count": 55, "categories": [{"alias": "italian", "title": "Italian"}], "rating": 3.0, "coordinates": {"latitude": 53.57965, "longitude": 10.01261}, "transactions": [], "price": "\u20ac\u20ac", "location": {"address1": "K\u00f6rnerstr. 2", "address2": null, "address3": null, "city": "Hamburg", "zip_code": "22301", "country": "DE", "state": "HH", "display_address": ["K\u00f6rnerstr. 2", "22301 Hamburg", "Germany"]}, "phone": "+494075119656", "display_phone": "+49 40 75119656", "distance": 433.45259730581165}, {"id": "t_E51vVG884eVkbKw6Omng", "alias": "caf\u00e9-sera-bel-hamburg-2", "name": "Caf\u00e9 Sera Bel", "image_url": "https://s3-media4.fl.yelpcdn.com/bphoto/1tYKrRiGN639XrgemuA60A/o.jpg", "is_closed": false, "url": "https://www.yelp.com/biz/caf%C3%A9-sera-bel-hamburg-2?adjust_creative=hBJOknVQJ58S5goQyjmwRw&utm_campaign=yelp_api_v3&utm_medium=api_v3_business_search&utm_source=hBJOknVQJ58S5goQyjmwRw", "review_count": 4, "categories": [{"alias": "cafes", "title": "Cafes"}], "rating": 4.5, "coordinates": {"latitude": 53.58806, "longitude": 10.00475}, "transactions": [], "price": "\u20ac\u20ac", "location": {"address1": "Dorotheenstr. 136", "address2": "", "address3": "", "city": "Hamburg", "zip_code": "22301", "country": "DE", "state": "HH", "display_address": ["Dorotheenstr. 136", "22301 Hamburg", "Germany"]}, "phone": "+49402799536", "display_phone": "+49 40 2799536", "distance": 1103.554169479033}, {"id": "_dmV3Dc3cVLsD1el3wDDOg", "alias": "asia-quick-hamburg-6", "name": "Asia Quick", "image_url": "https://s3-media3.fl.yelpcdn.com/bphoto/am0bsY86QjDieM9Hqx0Rpw/o.jpg", "is_closed": false, "url": "https://www.yelp.com/biz/asia-quick-hamburg-6?adjust_creative=hBJOknVQJ58S5goQyjmwRw&utm_campaign=yelp_api_v3&utm_medium=api_v3_business_search&utm_source=hBJOknVQJ58S5goQyjmwRw", "review_count": 19, "categories": [{"alias": "indpak", "title": "Indian"}, {"alias": "himalayan", "title": "Himalayan/Nepalese"}], "rating": 2.5, "coordinates": {"latitude": 53.5857, "longitude": 10.0067}, "transactions": [], "price": "\u20ac\u20ac", "location": {"address1": "Po\u00dfmoorweg 2", "address2": "", "address3": null, "city": "Hamburg", "zip_code": "22301", "country": "DE", "state": "HH", "display_address": ["Po\u00dfmoorweg 2", "22301 Hamburg", "Germany"]}, "phone": "", "display_phone": "", "distance": 835.7330063194628}, {"id": "S3nCmgSpJmsThVwAcf9Opw", "alias": "caf\u00e9-hansa-steg-hamburg-2", "name": "Caf\u00e9 Hansa Steg", "image_url": "https://s3-media2.fl.yelpcdn.com/bphoto/n0ndWRR8Wtuzhn_gqNxZjg/o.jpg", "is_closed": false, "url": "https://www.yelp.com/biz/caf%C3%A9-hansa-steg-hamburg-2?adjust_creative=hBJOknVQJ58S5goQyjmwRw&utm_campaign=yelp_api_v3&utm_medium=api_v3_business_search&utm_source=hBJOknVQJ58S5goQyjmwRw", "review_count": 22, "categories": [{"alias": "restaurants", "title": "Restaurants"}], "rating": 2.5, "coordinates": {"latitude": 53.57027, "longitude": 10.01042}, "transactions": [], "price": "\u20ac\u20ac\u20ac", "location": {"address1": "Sch\u00f6ne Aussicht 20A", "address2": null, "address3": null, "city": "Hamburg", "zip_code": "22085", "country": "DE", "state": "HH", "display_address": ["Sch\u00f6ne Aussicht 20A", "22085 Hamburg", "Germany"]}, "phone": "+49402200030", "display_phone": "+49 40 2200030", "distance": 948.6660574249869}, {"id": "8KtmN5wFq90yJmChfu8bRw", "alias": "miss-sofie-hamburg-2", "name": "Miss Sofie", "image_url": "https://s3-media3.fl.yelpcdn.com/bphoto/h-xwesV5BjnaJX8Sx0_HRw/o.jpg", "is_closed": false, "url": "https://www.yelp.com/biz/miss-sofie-hamburg-2?adjust_creative=hBJOknVQJ58S5goQyjmwRw&utm_campaign=yelp_api_v3&utm_medium=api_v3_business_search&utm_source=hBJOknVQJ58S5goQyjmwRw", "review_count": 1, "categories": [{"alias": "icecream", "title": "Ice Cream & Frozen Yogurt"}, {"alias": "hotdog", "title": "Hot Dogs"}], "rating": 4.0, "coordinates": {"latitude": 53.5836331016267, "longitude": 10.0099822506309}, "transactions": [], "price": "\u20ac", "location": {"address1": "M\u00fchlenkamp", "address2": "", "address3": "", "city": "Hamburg", "zip_code": "22303", "country": "DE", "state": "HH", "display_address": ["M\u00fchlenkamp", "22303 Hamburg", "Germany"]}, "phone": "+4917621534267", "display_phone": "+49 176 21534267", "distance": 646.1812620902181}, {"id": "CEc1RhQk_Dz4zHePyREykQ", "alias": "gastst\u00e4tte-schinkelkrug-hamburg", "name": "Gastst\u00e4tte Schinkelkrug", "image_url": "https://s3-media2.fl.yelpcdn.com/bphoto/Aibe8Ugzx9_ZfGP-PhOZTA/o.jpg", "is_closed": false, "url": "https://www.yelp.com/biz/gastst%C3%A4tte-schinkelkrug-hamburg?adjust_creative=hBJOknVQJ58S5goQyjmwRw&utm_campaign=yelp_api_v3&utm_medium=api_v3_business_search&utm_source=hBJOknVQJ58S5goQyjmwRw", "review_count": 2, "categories": [{"alias": "restaurants", "title": "Restaurants"}], "rating": 2.5, "coordinates": {"latitude": 53.58314, "longitude": 10.01224}, "transactions": [], "location": {"address1": "Peter-Marquard-Str. 9", "address2": null, "address3": null, "city": "Hamburg", "zip_code": "22303", "country": "DE", "state": "HH", "display_address": ["Peter-Marquard-Str. 9", "22303 Hamburg", "Germany"]}, "phone": "+4940273793", "display_phone": "+49 40 273793", "distance": 670.0833508631292}, {"id": "VWvY16pNb1diqValOKbJwg", "alias": "call-a-pizza-hamburg-3", "name": "Call a Pizza", "image_url": "https://s3-media2.fl.yelpcdn.com/bphoto/lLwFI7dp3o3tjX4tkT8F3g/o.jpg", "is_closed": false, "url": "https://www.yelp.com/biz/call-a-pizza-hamburg-3?adjust_creative=hBJOknVQJ58S5goQyjmwRw&utm_campaign=yelp_api_v3&utm_medium=api_v3_business_search&utm_source=hBJOknVQJ58S5goQyjmwRw", "review_count": 23, "categories": [{"alias": "pizza", "title": "Pizza"}], "rating": 2.5, "coordinates": {"latitude": 53.58836, "longitude": 10.00455}, "transactions": [], "price": "\u20ac\u20ac", "location": {"address1": "Dorotheenstr. 140", "address2": "", "address3": null, "city": "Hamburg", "zip_code": "22301", "country": "DE", "state": "HH", "display_address": ["Dorotheenstr. 140", "22301 Hamburg", "Germany"]}, "phone": "+4940271025", "display_phone": "+49 40 271025", "distance": 1139.3722899423067}]