[{"id": "uwwwsqHVlGQoVy6Nbqln7A", "alias": "schramme-10-hamburg", "name": "Schramme 10", "image_url": "https://s3-media3.fl.yelpcdn.com/bphoto/DsiUsqbwfJKgElkj4RtAgg/o.jpg", "is_closed": false, "url": "https://www.yelp.com/biz/schramme-10-hamburg?adjust_creative=hBJOknVQJ58S5goQyjmwRw&utm_campaign=yelp_api_v3&utm_medium=api_v3_business_search&utm_source=hBJOknVQJ58S5goQyjmwRw", "review_count": 65, "categories": [{"alias": "bars", "title": "Bars"}, {"alias": "international", "title": "International"}], "rating": 4.5, "coordinates": {"latitude": 53.5906612551736, "longitude": 9.9889269076689}, "transactions": [], "price": "\u20ac", "location": {"address1": "Schrammsweg 10", "address2": null, "address3": null, "city": "Hamburg", "zip_code": "20249", "country": "DE", "state": "HH", "display_address": ["Schrammsweg 10", "20249 Hamburg", "Germany"]}, "phone": "+494023801625", "display_phone": "+49 40 23801625", "distance": 416.05060367565466}, {"id": "eoL1qr4RMpfRbSguTiSvwQ", "alias": "mau-hamburg", "name": "MAU", "image_url": "https://s3-media2.fl.yelpcdn.com/bphoto/BEFyDOm0TqqkhTaXLj2HRg/o.jpg", "is_closed": false, "url": "https://www.yelp.com/biz/mau-hamburg?adjust_creative=hBJOknVQJ58S5goQyjmwRw&utm_campaign=yelp_api_v3&utm_medium=api_v3_business_search&utm_source=hBJOknVQJ58S5goQyjmwRw", "review_count": 1, "categories": [{"alias": "vietnamese", "title": "Vietnamese"}], "rating": 5.0, "coordinates": {"latitude": 53.592792, "longitude": 9.986743}, "transactions": [], "location": {"address1": "Martinistr. 14", "address2": "", "address3": null, "city": "Hamburg", "zip_code": "20251", "country": "DE", "state": "HH", "display_address": ["Martinistr. 14", "20251 Hamburg", "Germany"]}, "phone": "+494032860288", "display_phone": "+49 40 32860288", "distance": 689.9922854183832}, {"id": "HbcCzYodz6eFisY8J1ffuw", "alias": "caycay-hamburg", "name": "CayCay", "image_url": "https://s3-media4.fl.yelpcdn.com/bphoto/b50wibUIHAksD2kW9xjvPw/o.jpg", "is_closed": false, "url": "https://www.yelp.com/biz/caycay-hamburg?adjust_creative=hBJOknVQJ58S5goQyjmwRw&utm_campaign=yelp_api_v3&utm_medium=api_v3_business_search&utm_source=hBJOknVQJ58S5goQyjmwRw", "review_count": 5, "categories": [{"alias": "panasian", "title": "Pan Asian"}], "rating": 5.0, "coordinates": {"latitude": 53.5941720084402, "longitude": 9.98742499150727}, "transactions": [], "price": "\u20ac", "location": {"address1": "Erikastr. 70", "address2": "", "address3": null, "city": "Hamburg", "zip_code": "20251", "country": "DE", "state": "HH", "display_address": ["Erikastr. 70", "20251 Hamburg", "Germany"]}, "phone": "+494028473095", "display_phone": "+49 40 28473095", "distance": 814.5274971587992}, {"id": "u3HOMS0TWUw2qT0wiUOnGw", "alias": "kyodai-hamburg", "name": "Kyodai", "image_url": "https://s3-media3.fl.yelpcdn.com/bphoto/-g2yXTai4KcmfuVTStmbqA/o.jpg", "is_closed": false, "url": "https://www.yelp.com/biz/kyodai-hamburg?adjust_creative=hBJOknVQJ58S5goQyjmwRw&utm_campaign=yelp_api_v3&utm_medium=api_v3_business_search&utm_source=hBJOknVQJ58S5goQyjmwRw", "review_count": 23, "categories": [{"alias": "sushi", "title": "Sushi Bars"}, {"alias": "panasian", "title": "Pan Asian"}], "rating": 4.0, "coordinates": {"latitude": 53.59247, "longitude": 9.99229}, "transactions": [], "price": "\u20ac\u20ac", "location": {"address1": "Ludolfstr. 60", "address2": "", "address3": "", "city": "Hamburg", "zip_code": "20249", "country": "DE", "state": "HH", "display_address": ["Ludolfstr. 60", "20249 Hamburg", "Germany"]}, "phone": "+494036035333", "display_phone": "+49 40 36035333", "distance": 560.6516046178942}, {"id": "t6_yOLXBOwfxef9d7i-26Q", "alias": "ruby-hamburg", "name": "Ruby", "image_url": "https://s3-media2.fl.yelpcdn.com/bphoto/VCMPAwWzxHzcFE86rgq5SQ/o.jpg", "is_closed": false, "url": "https://www.yelp.com/biz/ruby-hamburg?adjust_creative=hBJOknVQJ58S5goQyjmwRw&utm_campaign=yelp_api_v3&utm_medium=api_v3_business_search&utm_source=hBJOknVQJ58S5goQyjmwRw", "review_count": 4, "categories": [{"alias": "vietnamese", "title": "Vietnamese"}, {"alias": "panasian", "title": "Pan Asian"}], "rating": 5.0, "coordinates": {"latitude": 53.5934540184053, "longitude": 9.98951670673814}, "transactions": [], "price": "\u20ac\u20ac", "location": {"address1": "Eppendorfer Marktplatz 12", "address2": "", "address3": null, "city": "Hamburg", "zip_code": "20251", "country": "DE", "state": "HH", "display_address": ["Eppendorfer Marktplatz 12", "20251 Hamburg", "Germany"]}, "phone": "+494094772493", "display_phone": "+49 40 94772493", "distance": 699.3910553043856}, {"id": "jm_3lM8Q0hU_O3bDZbZ06g", "alias": "kailua-pok\u00e9-hamburg", "name": "Kailua Pok\u00e9", "image_url": "https://s3-media1.fl.yelpcdn.com/bphoto/xfcle0HQIYwJR5LOT6g7Eg/o.jpg", "is_closed": false, "url": "https://www.yelp.com/biz/kailua-pok%C3%A9-hamburg?adjust_creative=hBJOknVQJ58S5goQyjmwRw&utm_campaign=yelp_api_v3&utm_medium=api_v3_business_search&utm_source=hBJOknVQJ58S5goQyjmwRw", "review_count": 29, "categories": [{"alias": "hawaiian", "title": "Hawaiian"}], "rating": 4.5, "coordinates": {"latitude": 53.59649, "longitude": 9.9976299}, "transactions": [], "price": "\u20ac\u20ac", "location": {"address1": "Himmelstr. 45", "address2": "", "address3": null, "city": "Hamburg", "zip_code": "22299", "country": "DE", "state": "HH", "display_address": ["Himmelstr. 45", "22299 Hamburg", "Germany"]}, "phone": "+494036035780", "display_phone": "+49 40 36035780", "distance": 1095.2677229138537}, {"id": "CeHsFlk6QQAR5_cQ7JMwEw", "alias": "chicago-meatpackers-hamburg", "name": "Chicago Meatpackers", "image_url": "https://s3-media4.fl.yelpcdn.com/bphoto/NzwEmZPYJ0Qg7f9RdoR_oQ/o.jpg", "is_closed": false, "url": "https://www.yelp.com/biz/chicago-meatpackers-hamburg?adjust_creative=hBJOknVQJ58S5goQyjmwRw&utm_campaign=yelp_api_v3&utm_medium=api_v3_business_search&utm_source=hBJOknVQJ58S5goQyjmwRw", "review_count": 117, "categories": [{"alias": "tradamerican", "title": "American (Traditional)"}, {"alias": "diners", "title": "Diners"}, {"alias": "burgers", "title": "Burgers"}], "rating": 3.5, "coordinates": {"latitude": 53.59246, "longitude": 9.98655}, "transactions": [], "price": "\u20ac\u20ac", "location": {"address1": "Martinistr. 11", "address2": "", "address3": "", "city": "Hamburg", "zip_code": "20251", "country": "DE", "state": "HH", "display_address": ["Martinistr. 11", "20251 Hamburg", "Germany"]}, "phone": "+494046775689", "display_phone": "+49 40 46775689", "distance": 667.3905153980252}, {"id": "0PJKzQFEOTt51xtMJxiACg", "alias": "entflammbar-hamburg-2", "name": "entflammBAR", "image_url": "https://s3-media3.fl.yelpcdn.com/bphoto/l4lpttDHdTRx-U52Krusmg/o.jpg", "is_closed": false, "url": "https://www.yelp.com/biz/entflammbar-hamburg-2?adjust_creative=hBJOknVQJ58S5goQyjmwRw&utm_campaign=yelp_api_v3&utm_medium=api_v3_business_search&utm_source=hBJOknVQJ58S5goQyjmwRw", "review_count": 52, "categories": [{"alias": "cocktailbars", "title": "Cocktail Bars"}, {"alias": "flatbread", "title": "Flatbread"}], "rating": 4.5, "coordinates": {"latitude": 53.593898, "longitude": 9.98866}, "transactions": [], "price": "\u20ac\u20ac", "location": {"address1": "Eppendorfer Marktplatz 21", "address2": null, "address3": null, "city": "Hamburg", "zip_code": "20251", "country": "DE", "state": "HH", "display_address": ["Eppendorfer Marktplatz 21", "20251 Hamburg", "Germany"]}, "phone": "+494046863388", "display_phone": "+49 40 46863388", "distance": 760.6440428704599}, {"id": "ba57C6ukcPF8TbvXa_Jikg", "alias": "bobbys-burger-hamburg", "name": "Bobby's Burger", "image_url": "https://s3-media2.fl.yelpcdn.com/bphoto/9GUteRI37boeh8OgnE2l4Q/o.jpg", "is_closed": false, "url": "https://www.yelp.com/biz/bobbys-burger-hamburg?adjust_creative=hBJOknVQJ58S5goQyjmwRw&utm_campaign=yelp_api_v3&utm_medium=api_v3_business_search&utm_source=hBJOknVQJ58S5goQyjmwRw", "review_count": 40, "categories": [{"alias": "burgers", "title": "Burgers"}, {"alias": "cocktailbars", "title": "Cocktail Bars"}], "rating": 4.0, "coordinates": {"latitude": 53.59425, "longitude": 9.9982}, "transactions": [], "price": "\u20ac\u20ac", "location": {"address1": "Hudtwalckerstr. 28", "address2": "", "address3": null, "city": "Hamburg", "zip_code": "22299", "country": "DE", "state": "HH", "display_address": ["Hudtwalckerstr. 28", "22299 Hamburg", "Germany"]}, "phone": "+494046653907", "display_phone": "+49 40 46653907", "distance": 873.9229176975638}, {"id": "lIpPv6slkK9qCrEdU94b7w", "alias": "estancia-la-sabrina-hamburg", "name": "Estancia La Sabrina", "image_url": "https://s3-media3.fl.yelpcdn.com/bphoto/S26uJe5yVN9ATts4xX65Uw/o.jpg", "is_closed": false, "url": "https://www.yelp.com/biz/estancia-la-sabrina-hamburg?adjust_creative=hBJOknVQJ58S5goQyjmwRw&utm_campaign=yelp_api_v3&utm_medium=api_v3_business_search&utm_source=hBJOknVQJ58S5goQyjmwRw", "review_count": 50, "categories": [{"alias": "argentine", "title": "Argentine"}, {"alias": "steak", "title": "Steakhouses"}], "rating": 4.5, "coordinates": {"latitude": 53.59572, "longitude": 9.98659}, "transactions": [], "price": "\u20ac\u20ac", "location": {"address1": "Erikastr. 81 A", "address2": "", "address3": null, "city": "Hamburg", "zip_code": "20251", "country": "DE", "state": "HH", "display_address": ["Erikastr. 81 A", "20251 Hamburg", "Germany"]}, "phone": "+4940463755", "display_phone": "+49 40 463755", "distance": 995.1249430008576}, {"id": "FuLWLFHTVDp-07z1xyX_Fw", "alias": "louise-hamburg", "name": "Louise", "image_url": "https://s3-media2.fl.yelpcdn.com/bphoto/Fb-KcJ7tzdK4Gg2ERBz4Ig/o.jpg", "is_closed": false, "url": "https://www.yelp.com/biz/louise-hamburg?adjust_creative=hBJOknVQJ58S5goQyjmwRw&utm_campaign=yelp_api_v3&utm_medium=api_v3_business_search&utm_source=hBJOknVQJ58S5goQyjmwRw", "review_count": 24, "categories": [{"alias": "international", "title": "International"}], "rating": 4.5, "coordinates": {"latitude": 53.58425, "longitude": 9.99664}, "transactions": [], "price": "\u20ac\u20ac\u20ac", "location": {"address1": "Maria-Louisen-Str. 3", "address2": null, "address3": null, "city": "Hamburg", "zip_code": "22301", "country": "DE", "state": "HH", "display_address": ["Maria-Louisen-Str. 3", "22301 Hamburg", "Germany"]}, "phone": "+494085104842", "display_phone": "+49 40 85104842", "distance": 463.962463118337}, {"id": "-ZbVwBZKyHQ6cRa8hB1SjA", "alias": "lucacelli-hamburg-2", "name": "Lucacelli", "image_url": "https://s3-media1.fl.yelpcdn.com/bphoto/tPAqnaheV3xmM-vLvJtQZg/o.jpg", "is_closed": false, "url": "https://www.yelp.com/biz/lucacelli-hamburg-2?adjust_creative=hBJOknVQJ58S5goQyjmwRw&utm_campaign=yelp_api_v3&utm_medium=api_v3_business_search&utm_source=hBJOknVQJ58S5goQyjmwRw", "review_count": 3, "categories": [{"alias": "italian", "title": "Italian"}], "rating": 4.0, "coordinates": {"latitude": 53.592233, "longitude": 9.987829}, "transactions": [], "price": "\u20ac\u20ac", "location": {"address1": "Eppendorfer Landstr. 95", "address2": "", "address3": null, "city": "Hamburg", "zip_code": "20249", "country": "DE", "state": "HH", "display_address": ["Eppendorfer Landstr. 95", "20249 Hamburg", "Germany"]}, "phone": "+494088185944", "display_phone": "+49 40 88185944", "distance": 608.651944763881}, {"id": "rZrxMVflFsXJrmr3bBV9iQ", "alias": "das-bistro-hamburg-2", "name": "Das Bistro", "image_url": "https://s3-media4.fl.yelpcdn.com/bphoto/Dkd1HJvj_TqJuwChzVXRVw/o.jpg", "is_closed": false, "url": "https://www.yelp.com/biz/das-bistro-hamburg-2?adjust_creative=hBJOknVQJ58S5goQyjmwRw&utm_campaign=yelp_api_v3&utm_medium=api_v3_business_search&utm_source=hBJOknVQJ58S5goQyjmwRw", "review_count": 160, "categories": [{"alias": "italian", "title": "Italian"}, {"alias": "bistros", "title": "Bistros"}, {"alias": "cafes", "title": "Cafes"}], "rating": 4.5, "coordinates": {"latitude": 53.5965599, "longitude": 9.9970757}, "transactions": [], "price": "\u20ac\u20ac", "location": {"address1": "Alsterdorfer Str. 37", "address2": "", "address3": null, "city": "Hamburg", "zip_code": "22299", "country": "DE", "state": "HH", "display_address": ["Alsterdorfer Str. 37", "22299 Hamburg", "Germany"]}, "phone": "+494020201060", "display_phone": "+49 40 20201060", "distance": 1089.556119120541}, {"id": "FFlGznV2sq4MDkUddVUAOw", "alias": "tiefenthal-hamburg", "name": "Tiefenthal", "image_url": "https://s3-media2.fl.yelpcdn.com/bphoto/bV9GuIdgPV6Nq4k0SIkqiA/o.jpg", "is_closed": false, "url": "https://www.yelp.com/biz/tiefenthal-hamburg?adjust_creative=hBJOknVQJ58S5goQyjmwRw&utm_campaign=yelp_api_v3&utm_medium=api_v3_business_search&utm_source=hBJOknVQJ58S5goQyjmwRw", "review_count": 105, "categories": [{"alias": "cocktailbars", "title": "Cocktail Bars"}, {"alias": "german", "title": "German"}], "rating": 4.0, "coordinates": {"latitude": 53.5837, "longitude": 9.9857099}, "transactions": [], "price": "\u20ac\u20ac\u20ac", "location": {"address1": "Isestr. 77", "address2": null, "address3": null, "city": "Hamburg", "zip_code": "20149", "country": "DE", "state": "HH", "display_address": ["Isestr. 77", "20149 Hamburg", "Germany"]}, "phone": "+494046961672", "display_phone": "+49 40 46961672", "distance": 543.7214225075601}, {"id": "82dOefeRVtepc-E0C-auOA", "alias": "winterhuder-f\u00e4hrhaus-hamburg", "name": "Winterhuder F\u00e4hrhaus", "image_url": "https://s3-media1.fl.yelpcdn.com/bphoto/7MmrDembptI23oWaL5mbFA/o.jpg", "is_closed": false, "url": "https://www.yelp.com/biz/winterhuder-f%C3%A4hrhaus-hamburg?adjust_creative=hBJOknVQJ58S5goQyjmwRw&utm_campaign=yelp_api_v3&utm_medium=api_v3_business_search&utm_source=hBJOknVQJ58S5goQyjmwRw", "review_count": 9, "categories": [{"alias": "northerngerman", "title": "Northern German"}, {"alias": "cafes", "title": "Cafes"}], "rating": 4.5, "coordinates": {"latitude": 53.5933765948905, "longitude": 9.99418772757053}, "transactions": [], "price": "\u20ac\u20ac", "location": {"address1": "Hudtwalckerstr. 13", "address2": "", "address3": "", "city": "Hamburg", "zip_code": "22299", "country": "DE", "state": "HH", "display_address": ["Hudtwalckerstr. 13", "22299 Hamburg", "Germany"]}, "phone": "+4940351747", "display_phone": "+49 40 351747", "distance": 695.7797240403321}, {"id": "dU33GrWidWdc-Cki5xoGkA", "alias": "positano-osteria-hamburg", "name": "Positano Osteria", "image_url": "https://s3-media1.fl.yelpcdn.com/bphoto/JZrtWLcSw06Zv0ry3T9Z2w/o.jpg", "is_closed": false, "url": "https://www.yelp.com/biz/positano-osteria-hamburg?adjust_creative=hBJOknVQJ58S5goQyjmwRw&utm_campaign=yelp_api_v3&utm_medium=api_v3_business_search&utm_source=hBJOknVQJ58S5goQyjmwRw", "review_count": 60, "categories": [{"alias": "italian", "title": "Italian"}], "rating": 4.0, "coordinates": {"latitude": 53.584069, "longitude": 9.992944}, "transactions": [], "price": "\u20ac\u20ac", "location": {"address1": "Isestr.147", "address2": null, "address3": null, "city": "Hamburg", "zip_code": "20149", "country": "DE", "state": "HH", "display_address": ["Isestr.147", "20149 Hamburg", "Germany"]}, "phone": "+494051326699", "display_phone": "+49 40 51326699", "distance": 368.46121625589393}, {"id": "kmbaYR6fMOy-NJpRlj_Z5g", "alias": "st\u00e4\u00e4bchens-hamburg", "name": "St\u00e4\u00e4bchens", "image_url": "https://s3-media2.fl.yelpcdn.com/bphoto/UG9_YqUI87qifvgKzNTnbg/o.jpg", "is_closed": false, "url": "https://www.yelp.com/biz/st%C3%A4%C3%A4bchens-hamburg?adjust_creative=hBJOknVQJ58S5goQyjmwRw&utm_campaign=yelp_api_v3&utm_medium=api_v3_business_search&utm_source=hBJOknVQJ58S5goQyjmwRw", "review_count": 9, "categories": [{"alias": "cafes", "title": "Cafes"}, {"alias": "breakfast_brunch", "title": "Breakfast & Brunch"}], "rating": 4.5, "coordinates": {"latitude": 53.58813, "longitude": 9.98635}, "transactions": [], "price": "\u20ac\u20ac", "location": {"address1": "Woldsenweg 1", "address2": "", "address3": null, "city": "Hamburg", "zip_code": "20249", "country": "DE", "state": "HH", "display_address": ["Woldsenweg 1", "20249 Hamburg", "Germany"]}, "phone": "+494050034567", "display_phone": "+49 40 50034567", "distance": 370.82424642137096}, {"id": "-3sW6WK3k8T-uTmHilGeHA", "alias": "karl-g\u00fcnter-und-marie-hamburg", "name": "Karl, G\u00fcnter und Marie", "image_url": "https://s3-media1.fl.yelpcdn.com/bphoto/X0ogIaCffCI1b7-4EJkWig/o.jpg", "is_closed": false, "url": "https://www.yelp.com/biz/karl-g%C3%BCnter-und-marie-hamburg?adjust_creative=hBJOknVQJ58S5goQyjmwRw&utm_campaign=yelp_api_v3&utm_medium=api_v3_business_search&utm_source=hBJOknVQJ58S5goQyjmwRw", "review_count": 1, "categories": [{"alias": "cafes", "title": "Cafes"}, {"alias": "breakfast_brunch", "title": "Breakfast & Brunch"}], "rating": 5.0, "coordinates": {"latitude": 53.5933236366725, "longitude": 9.98708566558261}, "transactions": [], "location": {"address1": "Erikastr. 47", "address2": "", "address3": null, "city": "Hamburg", "zip_code": "20251", "country": "DE", "state": "HH", "display_address": ["Erikastr. 47", "20251 Hamburg", "Germany"]}, "phone": "+491728536261", "display_phone": "+49 172 8536261", "distance": 735.6930731416136}, {"id": "T1fj3vdJR7ZEZK8YeT1YZw", "alias": "trattoria-campo-da-franco-hamburg", "name": "Trattoria Campo da Franco", "image_url": "https://s3-media1.fl.yelpcdn.com/bphoto/ey6XK3eZWosy6QwbO2C7tg/o.jpg", "is_closed": false, "url": "https://www.yelp.com/biz/trattoria-campo-da-franco-hamburg?adjust_creative=hBJOknVQJ58S5goQyjmwRw&utm_campaign=yelp_api_v3&utm_medium=api_v3_business_search&utm_source=hBJOknVQJ58S5goQyjmwRw", "review_count": 54, "categories": [{"alias": "italian", "title": "Italian"}], "rating": 4.0, "coordinates": {"latitude": 53.59283, "longitude": 9.99215}, "transactions": [], "price": "\u20ac\u20ac", "location": {"address1": "Ludolfstr. 43", "address2": "", "address3": "", "city": "Hamburg", "zip_code": "20249", "country": "DE", "state": "HH", "display_address": ["Ludolfstr. 43", "20249 Hamburg", "Germany"]}, "phone": "+494038642968", "display_phone": "+49 40 38642968", "distance": 622.4559288230618}, {"id": "z6MkcEHpNwqKByqm3zCr1w", "alias": "campus-hamburg", "name": "Campus", "image_url": "https://s3-media1.fl.yelpcdn.com/bphoto/gO_gER3tcGrCC-1dtijdDg/o.jpg", "is_closed": false, "url": "https://www.yelp.com/biz/campus-hamburg?adjust_creative=hBJOknVQJ58S5goQyjmwRw&utm_campaign=yelp_api_v3&utm_medium=api_v3_business_search&utm_source=hBJOknVQJ58S5goQyjmwRw", "review_count": 20, "categories": [{"alias": "bistros", "title": "Bistros"}], "rating": 4.0, "coordinates": {"latitude": 53.5908, "longitude": 9.99018}, "transactions": [], "price": "\u20ac\u20ac", "location": {"address1": "Schrammsweg 21", "address2": null, "address3": null, "city": "Hamburg", "zip_code": "20249", "country": "DE", "state": "HH", "display_address": ["Schrammsweg 21", "20249 Hamburg", "Germany"]}, "phone": "+494046773446", "display_phone": "+49 40 46773446", "distance": 401.95723765450026}, {"id": "YvgmTEMCuva0bVU3u0V9jQ", "alias": "engelke-hamburg-3", "name": "engelke", "image_url": "https://s3-media2.fl.yelpcdn.com/bphoto/eRk-5dzhp1mSYuXxvOY34g/o.jpg", "is_closed": false, "url": "https://www.yelp.com/biz/engelke-hamburg-3?adjust_creative=hBJOknVQJ58S5goQyjmwRw&utm_campaign=yelp_api_v3&utm_medium=api_v3_business_search&utm_source=hBJOknVQJ58S5goQyjmwRw", "review_count": 29, "categories": [{"alias": "cafes", "title": "Cafes"}, {"alias": "delicatessen", "title": "Delicatessen"}, {"alias": "breakfast_brunch", "title": "Breakfast & Brunch"}], "rating": 4.5, "coordinates": {"latitude": 53.583237, "longitude": 9.985835}, "transactions": [], "price": "\u20ac\u20ac", "location": {"address1": "Eppendorfer Baum 20", "address2": null, "address3": null, "city": "Hamburg", "zip_code": "20249", "country": "DE", "state": "HH", "display_address": ["Eppendorfer Baum 20", "20249 Hamburg", "Germany"]}, "phone": "+494063945857", "display_phone": "+49 40 63945857", "distance": 601.6673908661168}, {"id": "pyr-Ihj9vSnvKDwKVtEUBQ", "alias": "brechtmanns-bistro-hamburg", "name": "Brechtmanns Bistro", "image_url": "https://s3-media3.fl.yelpcdn.com/bphoto/Pq3H07FBX8h0iID7gPpjxQ/o.jpg", "is_closed": false, "url": "https://www.yelp.com/biz/brechtmanns-bistro-hamburg?adjust_creative=hBJOknVQJ58S5goQyjmwRw&utm_campaign=yelp_api_v3&utm_medium=api_v3_business_search&utm_source=hBJOknVQJ58S5goQyjmwRw", "review_count": 12, "categories": [{"alias": "asianfusion", "title": "Asian Fusion"}, {"alias": "german", "title": "German"}], "rating": 4.5, "coordinates": {"latitude": 53.5930647410399, "longitude": 9.98690571320554}, "transactions": [], "price": "\u20ac\u20ac\u20ac", "location": {"address1": "Erikastr. 43", "address2": "", "address3": null, "city": "Hamburg", "zip_code": "20251", "country": "DE", "state": "HH", "display_address": ["Erikastr. 43", "20251 Hamburg", "Germany"]}, "phone": "+494041305888", "display_phone": "+49 40 41305888", "distance": 714.738909491163}, {"id": "_KtCm7FAIf-NSNjgUWZnXg", "alias": "caf\u00e9-par-ici-hamburg", "name": "Caf\u00e9 par ici", "image_url": "https://s3-media1.fl.yelpcdn.com/bphoto/jkpxC-MMYgdrxEmwHkaF7w/o.jpg", "is_closed": false, "url": "https://www.yelp.com/biz/caf%C3%A9-par-ici-hamburg?adjust_creative=hBJOknVQJ58S5goQyjmwRw&utm_campaign=yelp_api_v3&utm_medium=api_v3_business_search&utm_source=hBJOknVQJ58S5goQyjmwRw", "review_count": 26, "categories": [{"alias": "cafes", "title": "Cafes"}, {"alias": "french", "title": "French"}, {"alias": "breakfast_brunch", "title": "Breakfast & Brunch"}], "rating": 4.5, "coordinates": {"latitude": 53.5840718327726, "longitude": 9.99617477909851}, "transactions": [], "price": "\u20ac\u20ac", "location": {"address1": "Maria-Louisen-Str. 1", "address2": null, "address3": "", "city": "Hamburg", "zip_code": "22301", "country": "DE", "state": "HH", "display_address": ["Maria-Louisen-Str. 1", "22301 Hamburg", "Germany"]}, "phone": "+494036160817", "display_phone": "+49 40 36160817", "distance": 465.1554903712557}, {"id": "_ihH8K40gBF6zbzs9BShqA", "alias": "taverna-symposion-hamburg", "name": "Taverna Symposion", "image_url": "https://s3-media2.fl.yelpcdn.com/bphoto/cj536W_-bOGUk0R6wA475Q/o.jpg", "is_closed": false, "url": "https://www.yelp.com/biz/taverna-symposion-hamburg?adjust_creative=hBJOknVQJ58S5goQyjmwRw&utm_campaign=yelp_api_v3&utm_medium=api_v3_business_search&utm_source=hBJOknVQJ58S5goQyjmwRw", "review_count": 29, "categories": [{"alias": "greek", "title": "Greek"}, {"alias": "mediterranean", "title": "Mediterranean"}], "rating": 4.0, "coordinates": {"latitude": 53.59431, "longitude": 9.98741}, "transactions": [], "price": "\u20ac\u20ac", "location": {"address1": "Erikastr. 74", "address2": "", "address3": "", "city": "Hamburg", "zip_code": "20251", "country": "DE", "state": "HH", "display_address": ["Erikastr. 74", "20251 Hamburg", "Germany"]}, "phone": "+4940477241", "display_phone": "+49 40 477241", "distance": 828.4265478657138}, {"id": "qhvu8CsZxUUPobjf2t7fiw", "alias": "raw-like-sushi-und-more-hamburg", "name": "raw like sushi & more", "image_url": "https://s3-media3.fl.yelpcdn.com/bphoto/ETYMRd8kKLdVDgSQ1vEdAQ/o.jpg", "is_closed": false, "url": "https://www.yelp.com/biz/raw-like-sushi-und-more-hamburg?adjust_creative=hBJOknVQJ58S5goQyjmwRw&utm_campaign=yelp_api_v3&utm_medium=api_v3_business_search&utm_source=hBJOknVQJ58S5goQyjmwRw", "review_count": 130, "categories": [{"alias": "sushi", "title": "Sushi Bars"}, {"alias": "panasian", "title": "Pan Asian"}], "rating": 4.5, "coordinates": {"latitude": 53.59227, "longitude": 9.98719}, "transactions": [], "price": "\u20ac\u20ac\u20ac", "location": {"address1": "Martinistr. 5", "address2": "", "address3": "", "city": "Hamburg", "zip_code": "20251", "country": "DE", "state": "HH", "display_address": ["Martinistr. 5", "20251 Hamburg", "Germany"]}, "phone": "+4940476731", "display_phone": "+49 40 476731", "distance": 623.5136308752626}, {"id": "ViYfJSwyihg261ray_RmZg", "alias": "barmeiers-gartencaf\u00e9-hamburg-2", "name": "Barmeiers Gartencaf\u00e9", "image_url": "https://s3-media3.fl.yelpcdn.com/bphoto/saIP0UtoP2X-Rq9b7m1NoQ/o.jpg", "is_closed": false, "url": "https://www.yelp.com/biz/barmeiers-gartencaf%C3%A9-hamburg-2?adjust_creative=hBJOknVQJ58S5goQyjmwRw&utm_campaign=yelp_api_v3&utm_medium=api_v3_business_search&utm_source=hBJOknVQJ58S5goQyjmwRw", "review_count": 14, "categories": [{"alias": "bistros", "title": "Bistros"}, {"alias": "cafes", "title": "Cafes"}], "rating": 4.5, "coordinates": {"latitude": 53.59724, "longitude": 9.98962}, "transactions": [], "price": "\u20ac\u20ac", "location": {"address1": "Eppendorfer Landstr. 180", "address2": "", "address3": "", "city": "Hamburg", "zip_code": "20251", "country": "DE", "state": "HH", "display_address": ["Eppendorfer Landstr. 180", "20251 Hamburg", "Germany"]}, "phone": "+491707669400", "display_phone": "+49 170 7669400", "distance": 1113.6537443742648}, {"id": "KJ3-rPeiJcETLoTMpb9amQ", "alias": "schuback-am-park-hamburg", "name": "Schuback am Park", "image_url": "https://s3-media3.fl.yelpcdn.com/bphoto/4i3CNqmL3Xo5TxBz7GssIw/o.jpg", "is_closed": false, "url": "https://www.yelp.com/biz/schuback-am-park-hamburg?adjust_creative=hBJOknVQJ58S5goQyjmwRw&utm_campaign=yelp_api_v3&utm_medium=api_v3_business_search&utm_source=hBJOknVQJ58S5goQyjmwRw", "review_count": 15, "categories": [{"alias": "german", "title": "German"}], "rating": 4.0, "coordinates": {"latitude": 53.596235, "longitude": 9.987534}, "transactions": [], "price": "\u20ac\u20ac", "location": {"address1": "Eppendorfer Landstr. 165", "address2": "", "address3": "", "city": "Hamburg", "zip_code": "20251", "country": "DE", "state": "HH", "display_address": ["Eppendorfer Landstr. 165", "20251 Hamburg", "Germany"]}, "phone": "+4940476670", "display_phone": "+49 40 476670", "distance": 1030.9059113417711}, {"id": "0NpMMnais3qIa_V-tt1Zqg", "alias": "elion-hamburg", "name": "Elion", "image_url": "https://s3-media1.fl.yelpcdn.com/bphoto/Ohxv_iQCCMaqGGiU2rRpDw/o.jpg", "is_closed": false, "url": "https://www.yelp.com/biz/elion-hamburg?adjust_creative=hBJOknVQJ58S5goQyjmwRw&utm_campaign=yelp_api_v3&utm_medium=api_v3_business_search&utm_source=hBJOknVQJ58S5goQyjmwRw", "review_count": 2, "categories": [{"alias": "greek", "title": "Greek"}], "rating": 5.0, "coordinates": {"latitude": 53.5897, "longitude": 9.98895}, "transactions": [], "price": "\u20ac\u20ac", "location": {"address1": "Goernestr. 19", "address2": "", "address3": null, "city": "Hamburg", "zip_code": "20249", "country": "DE", "state": "HH", "display_address": ["Goernestr. 19", "20249 Hamburg", "Germany"]}, "phone": "", "display_phone": "", "distance": 319.8827699535411}, {"id": "QMyqN_zpqhRYfIj0g_mPaw", "alias": "mem-open-kitchen-hamburg-2", "name": "Mem Open Kitchen", "image_url": "https://s3-media1.fl.yelpcdn.com/bphoto/H5rDTn3y9iIGlvJ-NWdtcw/o.jpg", "is_closed": false, "url": "https://www.yelp.com/biz/mem-open-kitchen-hamburg-2?adjust_creative=hBJOknVQJ58S5goQyjmwRw&utm_campaign=yelp_api_v3&utm_medium=api_v3_business_search&utm_source=hBJOknVQJ58S5goQyjmwRw", "review_count": 50, "categories": [{"alias": "mediterranean", "title": "Mediterranean"}, {"alias": "international", "title": "International"}], "rating": 4.5, "coordinates": {"latitude": 53.5966, "longitude": 9.99728}, "transactions": [], "price": "\u20ac\u20ac\u20ac", "location": {"address1": "Alsterdorfer Str. 34", "address2": null, "address3": null, "city": "Hamburg", "zip_code": "22299", "country": "DE", "state": "HH", "display_address": ["Alsterdorfer Str. 34", "22299 Hamburg", "Germany"]}, "phone": "+494028787582", "display_phone": "+49 40 28787582", "distance": 1098.2289995970434}, {"id": "zMy7sfaE2fR0T9sz53wwxw", "alias": "coffee-al-volo-hamburg-2", "name": "coffee al volo", "image_url": "https://s3-media2.fl.yelpcdn.com/bphoto/uYA9XCVdtxfZB5RQdMFpoA/o.jpg", "is_closed": false, "url": "https://www.yelp.com/biz/coffee-al-volo-hamburg-2?adjust_creative=hBJOknVQJ58S5goQyjmwRw&utm_campaign=yelp_api_v3&utm_medium=api_v3_business_search&utm_source=hBJOknVQJ58S5goQyjmwRw", "review_count": 43, "categories": [{"alias": "cafes", "title": "Cafes"}], "rating": 4.0, "coordinates": {"latitude": 53.594039, "longitude": 9.996757}, "transactions": [], "price": "\u20ac\u20ac", "location": {"address1": "Hudtwalcker Str. 18", "address2": "", "address3": "", "city": "Hamburg", "zip_code": "22299", "country": "DE", "state": "HH", "display_address": ["Hudtwalcker Str. 18", "22299 Hamburg", "Germany"]}, "phone": "+494018077803", "display_phone": "+49 40 18077803", "distance": 820.057766496283}, {"id": "ze8c6sJEWZwSlunr3uviHw", "alias": "st\u00fcffel-hamburg-3", "name": "St\u00fcffel", "image_url": "https://s3-media2.fl.yelpcdn.com/bphoto/ZmdOEiMBQPyQvvhmEilneQ/o.jpg", "is_closed": false, "url": "https://www.yelp.com/biz/st%C3%BCffel-hamburg-3?adjust_creative=hBJOknVQJ58S5goQyjmwRw&utm_campaign=yelp_api_v3&utm_medium=api_v3_business_search&utm_source=hBJOknVQJ58S5goQyjmwRw", "review_count": 4, "categories": [{"alias": "german", "title": "German"}, {"alias": "austrian", "title": "Austrian"}], "rating": 4.0, "coordinates": {"latitude": 53.58534, "longitude": 9.988829}, "transactions": [], "location": {"address1": "Isekai 1", "address2": "", "address3": null, "city": "Hamburg", "zip_code": "20249", "country": "DE", "state": "HH", "display_address": ["Isekai 1", "20249 Hamburg", "Germany"]}, "phone": "+494060902050", "display_phone": "+49 40 60902050", "distance": 286.0452028225033}, {"id": "FB8cidTBgiodCjJq8Xn-WA", "alias": "yorisa-hamburg", "name": "Yorisa", "image_url": "https://s3-media2.fl.yelpcdn.com/bphoto/kcn4YL3ROn_beOYBFCLeew/o.jpg", "is_closed": false, "url": "https://www.yelp.com/biz/yorisa-hamburg?adjust_creative=hBJOknVQJ58S5goQyjmwRw&utm_campaign=yelp_api_v3&utm_medium=api_v3_business_search&utm_source=hBJOknVQJ58S5goQyjmwRw", "review_count": 2, "categories": [{"alias": "korean", "title": "Korean"}, {"alias": "japanese", "title": "Japanese"}], "rating": 4.5, "coordinates": {"latitude": 53.594245, "longitude": 9.998188}, "transactions": [], "location": {"address1": "Hudtwalckerstr. 28", "address2": "", "address3": null, "city": "Hamburg", "zip_code": "22299", "country": "DE", "state": "HH", "display_address": ["Hudtwalckerstr. 28", "22299 Hamburg", "Germany"]}, "phone": "+4915224866413", "display_phone": "+49 1522 4866413", "distance": 873.9229176975638}, {"id": "t84wVEJL0Xw3qThaxGA1lw", "alias": "borchers-hamburg", "name": "Borchers", "image_url": "https://s3-media4.fl.yelpcdn.com/bphoto/XmWb8GAsBegL9ueblLaQ6w/o.jpg", "is_closed": false, "url": "https://www.yelp.com/biz/borchers-hamburg?adjust_creative=hBJOknVQJ58S5goQyjmwRw&utm_campaign=yelp_api_v3&utm_medium=api_v3_business_search&utm_source=hBJOknVQJ58S5goQyjmwRw", "review_count": 126, "categories": [{"alias": "cafes", "title": "Cafes"}, {"alias": "bistros", "title": "Bistros"}, {"alias": "international", "title": "International"}], "rating": 3.5, "coordinates": {"latitude": 53.59432, "longitude": 9.98695}, "transactions": [], "price": "\u20ac\u20ac", "location": {"address1": "Geschwister-Scholl-Str.1-3", "address2": null, "address3": null, "city": "Hamburg", "zip_code": "20251", "country": "DE", "state": "HH", "display_address": ["Geschwister-Scholl-Str.1-3", "20251 Hamburg", "Germany"]}, "phone": "+4940462677", "display_phone": "+49 40 462677", "distance": 843.1116445342118}, {"id": "L3kzjOmJsfuImwYiIyjbOQ", "alias": "tan-d\u00f6ner-hamburg", "name": "Tan D\u00f6ner", "image_url": "https://s3-media2.fl.yelpcdn.com/bphoto/JE09f1QnZo0S1H6r1LD7zA/o.jpg", "is_closed": false, "url": "https://www.yelp.com/biz/tan-d%C3%B6ner-hamburg?adjust_creative=hBJOknVQJ58S5goQyjmwRw&utm_campaign=yelp_api_v3&utm_medium=api_v3_business_search&utm_source=hBJOknVQJ58S5goQyjmwRw", "review_count": 1, "categories": [{"alias": "kebab", "title": "Kebab"}, {"alias": "turkish", "title": "Turkish"}], "rating": 4.0, "coordinates": {"latitude": 53.59299, "longitude": 9.98749}, "transactions": [], "location": {"address1": "Erikastr. 46", "address2": "", "address3": null, "city": "Hamburg", "zip_code": "20251", "country": "DE", "state": "HH", "display_address": ["Erikastr. 46", "20251 Hamburg", "Germany"]}, "phone": "+4915254736577", "display_phone": "+49 1525 4736577", "distance": 693.9884896236747}, {"id": "ROjjU9R4yuQFO-Nmu4x9tA", "alias": "kochhaus-hamburg-7", "name": "Kochhaus", "image_url": "https://s3-media2.fl.yelpcdn.com/bphoto/-M-CMJag7hLeNyJ3V-s4HQ/o.jpg", "is_closed": false, "url": "https://www.yelp.com/biz/kochhaus-hamburg-7?adjust_creative=hBJOknVQJ58S5goQyjmwRw&utm_campaign=yelp_api_v3&utm_medium=api_v3_business_search&utm_source=hBJOknVQJ58S5goQyjmwRw", "review_count": 7, "categories": [{"alias": "delicatessen", "title": "Delicatessen"}, {"alias": "cafes", "title": "Cafes"}], "rating": 4.5, "coordinates": {"latitude": 53.59072, "longitude": 9.98773}, "transactions": [], "price": "\u20ac\u20ac", "location": {"address1": "Eppendorfer Landstr. 86", "address2": "", "address3": "", "city": "Hamburg", "zip_code": "20249", "country": "DE", "state": "HH", "display_address": ["Eppendorfer Landstr. 86", "20249 Hamburg", "Germany"]}, "phone": "+4930577089100", "display_phone": "+49 30 577089100", "distance": 461.58746855710734}, {"id": "DG0K3nFGgFfudCax2MCvkw", "alias": "shukria-restaurant-hamburg", "name": "Shukria Restaurant", "image_url": "https://s3-media4.fl.yelpcdn.com/bphoto/nDBgXkrqOXSHrcQPhK5Enw/o.jpg", "is_closed": false, "url": "https://www.yelp.com/biz/shukria-restaurant-hamburg?adjust_creative=hBJOknVQJ58S5goQyjmwRw&utm_campaign=yelp_api_v3&utm_medium=api_v3_business_search&utm_source=hBJOknVQJ58S5goQyjmwRw", "review_count": 48, "categories": [{"alias": "indpak", "title": "Indian"}], "rating": 3.5, "coordinates": {"latitude": 53.5932706, "longitude": 9.9895094}, "transactions": [], "price": "\u20ac\u20ac", "location": {"address1": "Eppendorfer Marktplatz 8", "address2": null, "address3": null, "city": "Hamburg", "zip_code": "20251", "country": "DE", "state": "HH", "display_address": ["Eppendorfer Marktplatz 8", "20251 Hamburg", "Germany"]}, "phone": "+49404801147", "display_phone": "+49 40 4801147", "distance": 679.5435026817614}, {"id": "3Prf03yFidtVfaJQobvmLw", "alias": "hermitage-caf\u00e9-und-bar-hamburg-2", "name": "Hermitage Caf\u00e9 & Bar", "image_url": "https://s3-media4.fl.yelpcdn.com/bphoto/0MDoqD0m7nMIHpcSrBD5Cg/o.jpg", "is_closed": false, "url": "https://www.yelp.com/biz/hermitage-caf%C3%A9-und-bar-hamburg-2?adjust_creative=hBJOknVQJ58S5goQyjmwRw&utm_campaign=yelp_api_v3&utm_medium=api_v3_business_search&utm_source=hBJOknVQJ58S5goQyjmwRw", "review_count": 2, "categories": [{"alias": "cafes", "title": "Cafes"}, {"alias": "sportsbars", "title": "Sports Bars"}], "rating": 4.5, "coordinates": {"latitude": 53.592676, "longitude": 9.987871}, "transactions": [], "location": {"address1": "Martinistr. 6", "address2": null, "address3": "", "city": "Hamburg", "zip_code": "20251", "country": "DE", "state": "HH", "display_address": ["Martinistr. 6", "20251 Hamburg", "Germany"]}, "phone": "+494084309290", "display_phone": "+49 40 84309290", "distance": 648.9390284166374}, {"id": "S_5-0aPJ9hmUh0-gFJdRLQ", "alias": "pizzeria-mario-hamburg", "name": "Pizzeria MARIO", "image_url": "https://s3-media1.fl.yelpcdn.com/bphoto/8FAQSSl218gD5Hgc_MqvZw/o.jpg", "is_closed": false, "url": "https://www.yelp.com/biz/pizzeria-mario-hamburg?adjust_creative=hBJOknVQJ58S5goQyjmwRw&utm_campaign=yelp_api_v3&utm_medium=api_v3_business_search&utm_source=hBJOknVQJ58S5goQyjmwRw", "review_count": 26, "categories": [{"alias": "italian", "title": "Italian"}], "rating": 4.0, "coordinates": {"latitude": 53.58988, "longitude": 9.98599}, "transactions": [], "price": "\u20ac\u20ac", "location": {"address1": "Robert-Koch-Str. 36", "address2": null, "address3": null, "city": "Hamburg", "zip_code": "20249", "country": "DE", "state": "HH", "display_address": ["Robert-Koch-Str. 36", "20249 Hamburg", "Germany"]}, "phone": "+494046858651", "display_phone": "+49 40 46858651", "distance": 465.9420180190898}, {"id": "3b97h5GBAa6mqxrpxlV98Q", "alias": "kirat-asia-imbiss-hamburg", "name": "Kirat Asia Imbiss", "image_url": "https://s3-media3.fl.yelpcdn.com/bphoto/ZkxQ1vERftXp1JeZu8ypPQ/o.jpg", "is_closed": false, "url": "https://www.yelp.com/biz/kirat-asia-imbiss-hamburg?adjust_creative=hBJOknVQJ58S5goQyjmwRw&utm_campaign=yelp_api_v3&utm_medium=api_v3_business_search&utm_source=hBJOknVQJ58S5goQyjmwRw", "review_count": 82, "categories": [{"alias": "sushi", "title": "Sushi Bars"}, {"alias": "panasian", "title": "Pan Asian"}], "rating": 4.0, "coordinates": {"latitude": 53.59723, "longitude": 9.99714}, "transactions": [], "price": "\u20ac", "location": {"address1": "Alsterdorfer Str. 50", "address2": "", "address3": "", "city": "Hamburg", "zip_code": "22299", "country": "DE", "state": "HH", "display_address": ["Alsterdorfer Str. 50", "22299 Hamburg", "Germany"]}, "phone": "+494059353147", "display_phone": "+49 40 59353147", "distance": 1159.3486920395144}, {"id": "IUPHudgUpSt8BHv46i0-uQ", "alias": "cornelia-poletto-hamburg", "name": "Cornelia Poletto", "image_url": "https://s3-media1.fl.yelpcdn.com/bphoto/26IHvlHv8SVx3dB7jIBWhQ/o.jpg", "is_closed": false, "url": "https://www.yelp.com/biz/cornelia-poletto-hamburg?adjust_creative=hBJOknVQJ58S5goQyjmwRw&utm_campaign=yelp_api_v3&utm_medium=api_v3_business_search&utm_source=hBJOknVQJ58S5goQyjmwRw", "review_count": 27, "categories": [{"alias": "italian", "title": "Italian"}], "rating": 3.5, "coordinates": {"latitude": 53.590297, "longitude": 9.987549}, "transactions": [], "price": "\u20ac\u20ac\u20ac\u20ac", "location": {"address1": "Eppendorfer Landstr. 80", "address2": "", "address3": "", "city": "Hamburg", "zip_code": "20249", "country": "DE", "state": "HH", "display_address": ["Eppendorfer Landstr. 80", "20249 Hamburg", "Germany"]}, "phone": "+49404802159", "display_phone": "+49 40 4802159", "distance": 431.1183875239938}, {"id": "_4zidViOu2PIFQbo8oT_MA", "alias": "bottega-palermo-2-hamburg", "name": "Bottega Palermo 2", "image_url": "https://s3-media4.fl.yelpcdn.com/bphoto/LgWFSdiq0X4u2ZLCVP36jg/o.jpg", "is_closed": false, "url": "https://www.yelp.com/biz/bottega-palermo-2-hamburg?adjust_creative=hBJOknVQJ58S5goQyjmwRw&utm_campaign=yelp_api_v3&utm_medium=api_v3_business_search&utm_source=hBJOknVQJ58S5goQyjmwRw", "review_count": 2, "categories": [{"alias": "bistros", "title": "Bistros"}, {"alias": "italian", "title": "Italian"}], "rating": 3.0, "coordinates": {"latitude": 53.5898097407653, "longitude": 9.9884957447648}, "transactions": [], "location": {"address1": "Goernestr. 15", "address2": "", "address3": "", "city": "Hamburg", "zip_code": "20249", "country": "DE", "state": "HH", "display_address": ["Goernestr. 15", "20249 Hamburg", "Germany"]}, "phone": "+494021903546", "display_phone": "+49 40 21903546", "distance": 349.88812875034773}, {"id": "C3fFQeHTkk-nMTN4b4vxVw", "alias": "caf\u00e9-fabric-hamburg", "name": "Caf\u00e9 Fabric", "image_url": "https://s3-media1.fl.yelpcdn.com/bphoto/qVGBzBHhnhAlXi9qU6kKXg/o.jpg", "is_closed": false, "url": "https://www.yelp.com/biz/caf%C3%A9-fabric-hamburg?adjust_creative=hBJOknVQJ58S5goQyjmwRw&utm_campaign=yelp_api_v3&utm_medium=api_v3_business_search&utm_source=hBJOknVQJ58S5goQyjmwRw", "review_count": 2, "categories": [{"alias": "cafes", "title": "Cafes"}], "rating": 5.0, "coordinates": {"latitude": 53.596058, "longitude": 9.997398}, "transactions": [], "location": {"address1": "Alsterdorfer Str. 27", "address2": "", "address3": null, "city": "Hamburg", "zip_code": "22299", "country": "DE", "state": "HH", "display_address": ["Alsterdorfer Str. 27", "22299 Hamburg", "Germany"]}, "phone": "+4915118487573", "display_phone": "+49 1511 8487573", "distance": 1045.7285064048474}, {"id": "6e9CeRpTcR_NVdP7wWka4A", "alias": "speisekai-hamburg-2", "name": "Speisekai", "image_url": "https://s3-media1.fl.yelpcdn.com/bphoto/NRf9c5pYcOkKlNI2wKjmtw/o.jpg", "is_closed": false, "url": "https://www.yelp.com/biz/speisekai-hamburg-2?adjust_creative=hBJOknVQJ58S5goQyjmwRw&utm_campaign=yelp_api_v3&utm_medium=api_v3_business_search&utm_source=hBJOknVQJ58S5goQyjmwRw", "review_count": 2, "categories": [{"alias": "venues", "title": "Venues & Event Spaces"}, {"alias": "german", "title": "German"}], "rating": 3.5, "coordinates": {"latitude": 53.5853697577104, "longitude": 9.99220374157033}, "transactions": [], "location": {"address1": "Isekai 12", "address2": null, "address3": "", "city": "Hamburg", "zip_code": "20249", "country": "DE", "state": "HH", "display_address": ["Isekai 12", "20249 Hamburg", "Germany"]}, "phone": "+494046090396", "display_phone": "+49 40 46090396", "distance": 217.06262195006664}, {"id": "LMdAEJ3NqqnBykzjM-y94Q", "alias": "palazzo-hamburg-2", "name": "Palazzo", "image_url": "https://s3-media2.fl.yelpcdn.com/bphoto/Lp45um7gNVAhJx_NKWI55g/o.jpg", "is_closed": false, "url": "https://www.yelp.com/biz/palazzo-hamburg-2?adjust_creative=hBJOknVQJ58S5goQyjmwRw&utm_campaign=yelp_api_v3&utm_medium=api_v3_business_search&utm_source=hBJOknVQJ58S5goQyjmwRw", "review_count": 36, "categories": [{"alias": "italian", "title": "Italian"}], "rating": 4.0, "coordinates": {"latitude": 53.577296, "longitude": 9.988498}, "transactions": [], "price": "\u20ac\u20ac\u20ac", "location": {"address1": "Rothenbaumchaussee 185", "address2": null, "address3": null, "city": "Hamburg", "zip_code": "20149", "country": "DE", "state": "HH", "display_address": ["Rothenbaumchaussee 185", "20149 Hamburg", "Germany"]}, "phone": "+49404102277", "display_phone": "+49 40 4102277", "distance": 1131.9021437796648}, {"id": "VEQsRMk4MNEKQ7WlF0cZ8g", "alias": "delikate-hamburg", "name": "DeliKate", "image_url": "https://s3-media2.fl.yelpcdn.com/bphoto/CrSs2q7HU79SAN8_EXoEqg/o.jpg", "is_closed": false, "url": "https://www.yelp.com/biz/delikate-hamburg?adjust_creative=hBJOknVQJ58S5goQyjmwRw&utm_campaign=yelp_api_v3&utm_medium=api_v3_business_search&utm_source=hBJOknVQJ58S5goQyjmwRw", "review_count": 5, "categories": [{"alias": "cafes", "title": "Cafes"}], "rating": 4.5, "coordinates": {"latitude": 53.59643634327, "longitude": 9.98727305363323}, "transactions": [], "price": "\u20ac\u20ac", "location": {"address1": "Schubackstr. 4", "address2": "", "address3": "", "city": "Hamburg", "zip_code": "20251", "country": "DE", "state": "HH", "display_address": ["Schubackstr. 4", "20251 Hamburg", "Germany"]}, "phone": "+494046647422", "display_phone": "+49 40 46647422", "distance": 1057.1215652228018}, {"id": "q2FT7udMd3rOozorZjPNUQ", "alias": "konditorei-lindtner-hamburg", "name": "Konditorei Lindtner", "image_url": "https://s3-media4.fl.yelpcdn.com/bphoto/7jagGPIPb1oqQywVRGEMkQ/o.jpg", "is_closed": false, "url": "https://www.yelp.com/biz/konditorei-lindtner-hamburg?adjust_creative=hBJOknVQJ58S5goQyjmwRw&utm_campaign=yelp_api_v3&utm_medium=api_v3_business_search&utm_source=hBJOknVQJ58S5goQyjmwRw", "review_count": 75, "categories": [{"alias": "cafes", "title": "Cafes"}, {"alias": "cakeshop", "title": "Patisserie/Cake Shop"}], "rating": 4.0, "coordinates": {"latitude": 53.591162, "longitude": 9.988049}, "transactions": [], "price": "\u20ac\u20ac\u20ac", "location": {"address1": "Eppendorfer Landstr. 88", "address2": null, "address3": null, "city": "Hamburg", "zip_code": "20249", "country": "DE", "state": "HH", "display_address": ["Eppendorfer Landstr. 88", "20249 Hamburg", "Germany"]}, "phone": "+49404806000", "display_phone": "+49 40 4806000", "distance": 493.4320925986538}, {"id": "HG6cYTGN67BXCPD6RzvpSg", "alias": "fische-schmidt-hamburg-2", "name": "Fische-Schmidt", "image_url": "https://s3-media1.fl.yelpcdn.com/bphoto/H3XWlfUO8iDLb2oUwJR4EQ/o.jpg", "is_closed": false, "url": "https://www.yelp.com/biz/fische-schmidt-hamburg-2?adjust_creative=hBJOknVQJ58S5goQyjmwRw&utm_campaign=yelp_api_v3&utm_medium=api_v3_business_search&utm_source=hBJOknVQJ58S5goQyjmwRw", "review_count": 16, "categories": [{"alias": "fishmonger", "title": "Fishmonger"}, {"alias": "salad", "title": "Salad"}, {"alias": "sushi", "title": "Sushi Bars"}], "rating": 4.5, "coordinates": {"latitude": 53.58301, "longitude": 9.98596}, "transactions": [], "price": "\u20ac\u20ac\u20ac", "location": {"address1": "Eppendorfer Baum 18", "address2": "", "address3": "", "city": "Hamburg", "zip_code": "20249", "country": "DE", "state": "HH", "display_address": ["Eppendorfer Baum 18", "20249 Hamburg", "Germany"]}, "phone": "+4940476208", "display_phone": "+49 40 476208", "distance": 602.2434436161744}, {"id": "yGH3q9Xi4s-xV0Gf3QG9wg", "alias": "ristorante-sardegna-paolino-hamburg-2", "name": "Ristorante Sardegna Paolino", "image_url": "https://s3-media1.fl.yelpcdn.com/bphoto/1cXH9S6TYOVfNccsDJL8Nw/o.jpg", "is_closed": false, "url": "https://www.yelp.com/biz/ristorante-sardegna-paolino-hamburg-2?adjust_creative=hBJOknVQJ58S5goQyjmwRw&utm_campaign=yelp_api_v3&utm_medium=api_v3_business_search&utm_source=hBJOknVQJ58S5goQyjmwRw", "review_count": 32, "categories": [{"alias": "pizza", "title": "Pizza"}, {"alias": "italian", "title": "Italian"}], "rating": 4.5, "coordinates": {"latitude": 53.593959, "longitude": 9.9963974}, "transactions": [], "price": "\u20ac\u20ac\u20ac", "location": {"address1": "Hudtwalckerstr. 16", "address2": null, "address3": null, "city": "Hamburg", "zip_code": "22229", "country": "DE", "state": "HH", "display_address": ["Hudtwalckerstr. 16", "22229 Hamburg", "Germany"]}, "phone": "+494033983018", "display_phone": "+49 40 33983018", "distance": 803.266402987147}, {"id": "rvjYhKGxhimg2ooWEpMINQ", "alias": "selcuk-imbiss-hamburg", "name": "Selcuk Imbiss", "image_url": "https://s3-media4.fl.yelpcdn.com/bphoto/3XMB03EAI16iwf693LSf8w/o.jpg", "is_closed": false, "url": "https://www.yelp.com/biz/selcuk-imbiss-hamburg?adjust_creative=hBJOknVQJ58S5goQyjmwRw&utm_campaign=yelp_api_v3&utm_medium=api_v3_business_search&utm_source=hBJOknVQJ58S5goQyjmwRw", "review_count": 21, "categories": [{"alias": "kebab", "title": "Kebab"}, {"alias": "hotdogs", "title": "Fast Food"}], "rating": 3.0, "coordinates": {"latitude": 53.5928612705664, "longitude": 9.98866478055513}, "transactions": [], "price": "\u20ac\u20ac", "location": {"address1": "Eppendorfer Marktplatz", "address2": "", "address3": "", "city": "Hamburg", "zip_code": "20251", "country": "DE", "state": "HH", "display_address": ["Eppendorfer Marktplatz", "20251 Hamburg", "Germany"]}, "phone": "", "display_phone": "", "distance": 650.0254723628428}, {"id": "svS1byPUt9YZp_091LOkFg", "alias": "caf\u00e9-isekai-hamburg-4", "name": "Caf\u00e9 Isekai", "image_url": "https://s3-media2.fl.yelpcdn.com/bphoto/TU7f5ZlG7HnxloTevbN4Xg/o.jpg", "is_closed": false, "url": "https://www.yelp.com/biz/caf%C3%A9-isekai-hamburg-4?adjust_creative=hBJOknVQJ58S5goQyjmwRw&utm_campaign=yelp_api_v3&utm_medium=api_v3_business_search&utm_source=hBJOknVQJ58S5goQyjmwRw", "review_count": 18, "categories": [{"alias": "cafes", "title": "Cafes"}, {"alias": "breakfast_brunch", "title": "Breakfast & Brunch"}], "rating": 3.0, "coordinates": {"latitude": 53.5856, "longitude": 9.99313}, "transactions": [], "price": "\u20ac\u20ac\u20ac\u20ac", "location": {"address1": "Isekai \u00d6 13", "address2": null, "address3": "Supper Club", "city": "Hamburg", "zip_code": "20249", "country": "DE", "state": "HH", "display_address": ["Isekai \u00d6 13", "Supper Club", "20249 Hamburg", "Germany"]}, "phone": "+4940473461", "display_phone": "+49 40 473461", "distance": 211.40847615486126}, {"id": "2_J7aspVLP73qAgJR5gppQ", "alias": "bar-italia-hamburg", "name": "Bar Italia", "image_url": "https://s3-media2.fl.yelpcdn.com/bphoto/RTF_gBBe5miKIIi4EU4Yeg/o.jpg", "is_closed": false, "url": "https://www.yelp.com/biz/bar-italia-hamburg?adjust_creative=hBJOknVQJ58S5goQyjmwRw&utm_campaign=yelp_api_v3&utm_medium=api_v3_business_search&utm_source=hBJOknVQJ58S5goQyjmwRw", "review_count": 18, "categories": [{"alias": "italian", "title": "Italian"}, {"alias": "venues", "title": "Venues & Event Spaces"}, {"alias": "mediterranean", "title": "Mediterranean"}], "rating": 3.5, "coordinates": {"latitude": 53.589708856102, "longitude": 9.9864195804654}, "transactions": [], "price": "\u20ac\u20ac", "location": {"address1": "Eppendorfer Landstr. 61", "address2": "", "address3": "", "city": "Hamburg", "zip_code": "20249", "country": "DE", "state": "HH", "display_address": ["Eppendorfer Landstr. 61", "20249 Hamburg", "Germany"]}, "phone": "+494042916590", "display_phone": "+49 40 42916590", "distance": 439.0992056048865}, {"id": "JIThYw-XIOq3KTc8GObjVQ", "alias": "caf\u00e9-gal\u00e3o-hamburg-4", "name": "Caf\u00e9 Gal\u00e3o", "image_url": "https://s3-media2.fl.yelpcdn.com/bphoto/ytj-LEtKovkQUC8YPWvFQw/o.jpg", "is_closed": false, "url": "https://www.yelp.com/biz/caf%C3%A9-gal%C3%A3o-hamburg-4?adjust_creative=hBJOknVQJ58S5goQyjmwRw&utm_campaign=yelp_api_v3&utm_medium=api_v3_business_search&utm_source=hBJOknVQJ58S5goQyjmwRw", "review_count": 23, "categories": [{"alias": "cafes", "title": "Cafes"}], "rating": 4.5, "coordinates": {"latitude": 53.597, "longitude": 9.99704}, "transactions": [], "price": "\u20ac", "location": {"address1": "Alsterdorfer Str. 48", "address2": null, "address3": null, "city": "Hamburg", "zip_code": "22299", "country": "DE", "state": "HH", "display_address": ["Alsterdorfer Str. 48", "22299 Hamburg", "Germany"]}, "phone": "+494076997650", "display_phone": "+49 40 76997650", "distance": 1135.1902375617296}, {"id": "IIx4UEuS0cJkSYsc7nAS6g", "alias": "memorandum-hamburg", "name": "Memorandum", "image_url": "https://s3-media2.fl.yelpcdn.com/bphoto/RyGWc2Bj11afVWrJV1gozA/o.jpg", "is_closed": false, "url": "https://www.yelp.com/biz/memorandum-hamburg?adjust_creative=hBJOknVQJ58S5goQyjmwRw&utm_campaign=yelp_api_v3&utm_medium=api_v3_business_search&utm_source=hBJOknVQJ58S5goQyjmwRw", "review_count": 29, "categories": [{"alias": "cafes", "title": "Cafes"}, {"alias": "mediterranean", "title": "Mediterranean"}], "rating": 3.5, "coordinates": {"latitude": 53.5976799, "longitude": 9.99631}, "transactions": [], "price": "\u20ac\u20ac", "location": {"address1": "Lattenkamp 8", "address2": "", "address3": "", "city": "Hamburg", "zip_code": "22299", "country": "DE", "state": "HH", "display_address": ["Lattenkamp 8", "22299 Hamburg", "Germany"]}, "phone": "+49405133828", "display_phone": "+49 40 5133828", "distance": 1219.843858747099}, {"id": "gKzynGB6ECQi0-zLK9DSGA", "alias": "galerieka-hamburg", "name": "Galerieka", "image_url": "https://s3-media1.fl.yelpcdn.com/bphoto/V1R2Xy2pvedeNtApXMVZSA/o.jpg", "is_closed": false, "url": "https://www.yelp.com/biz/galerieka-hamburg?adjust_creative=hBJOknVQJ58S5goQyjmwRw&utm_campaign=yelp_api_v3&utm_medium=api_v3_business_search&utm_source=hBJOknVQJ58S5goQyjmwRw", "review_count": 2, "categories": [{"alias": "cafes", "title": "Cafes"}, {"alias": "galleries", "title": "Art Galleries"}], "rating": 4.5, "coordinates": {"latitude": 53.5924025257496, "longitude": 9.99243725091219}, "transactions": [], "location": {"address1": "Ludolfstr. 60", "address2": "", "address3": "", "city": "Hamburg", "zip_code": "20249", "country": "DE", "state": "HH", "display_address": ["Ludolfstr. 60", "20249 Hamburg", "Germany"]}, "phone": "+4915221973968", "display_phone": "+49 1522 1973968", "distance": 569.7772982198135}, {"id": "sCPSeN2dV1xhvK9kNCF00g", "alias": "bio-imbiss-metzgerei-dreymann-hamburg-2", "name": "Bio Imbiss Metzgerei Dreymann", "image_url": "https://s3-media3.fl.yelpcdn.com/bphoto/JSQ8B3wDazItEsH42A-O1g/o.jpg", "is_closed": false, "url": "https://www.yelp.com/biz/bio-imbiss-metzgerei-dreymann-hamburg-2?adjust_creative=hBJOknVQJ58S5goQyjmwRw&utm_campaign=yelp_api_v3&utm_medium=api_v3_business_search&utm_source=hBJOknVQJ58S5goQyjmwRw", "review_count": 2, "categories": [{"alias": "foodstands", "title": "Food Stands"}], "rating": 5.0, "coordinates": {"latitude": 53.5904397989848, "longitude": 9.98642574547728}, "transactions": [], "price": "\u20ac\u20ac\u20ac", "location": {"address1": "\u00d6ko-Wochenmarkt", "address2": "Marie-Jonas-Platz", "address3": null, "city": "Hamburg", "zip_code": "20249", "country": "DE", "state": "HH", "display_address": ["\u00d6ko-Wochenmarkt", "Marie-Jonas-Platz", "20249 Hamburg", "Germany"]}, "phone": "", "display_phone": "", "distance": 492.6570288814673}, {"id": "388auqX2eYriHHCmRz82OA", "alias": "restaurant-and-catering-k\u00f6pke-hamburg", "name": "Restaurant & Catering K\u00f6pke", "image_url": "https://s3-media4.fl.yelpcdn.com/bphoto/jMGiXhD8E4H6L-6KgIzMug/o.jpg", "is_closed": false, "url": "https://www.yelp.com/biz/restaurant-and-catering-k%C3%B6pke-hamburg?adjust_creative=hBJOknVQJ58S5goQyjmwRw&utm_campaign=yelp_api_v3&utm_medium=api_v3_business_search&utm_source=hBJOknVQJ58S5goQyjmwRw", "review_count": 16, "categories": [{"alias": "catering", "title": "Caterers"}, {"alias": "german", "title": "German"}], "rating": 4.5, "coordinates": {"latitude": 53.59073, "longitude": 9.98882}, "transactions": [], "price": "\u20ac\u20ac\u20ac", "location": {"address1": "Schrammsweg 10", "address2": null, "address3": null, "city": "Hamburg", "zip_code": "20249", "country": "DE", "state": "HH", "display_address": ["Schrammsweg 10", "20249 Hamburg", "Germany"]}, "phone": "+494047193881", "display_phone": "+49 40 47193881", "distance": 424.52944090162293}, {"id": "HZMyK16lEgXppYOxwW8JnA", "alias": "ristorante-franco-hamburg", "name": "Ristorante Franco", "image_url": "https://s3-media3.fl.yelpcdn.com/bphoto/tzFBEc9y1ZIH3hn1UePvdQ/o.jpg", "is_closed": false, "url": "https://www.yelp.com/biz/ristorante-franco-hamburg?adjust_creative=hBJOknVQJ58S5goQyjmwRw&utm_campaign=yelp_api_v3&utm_medium=api_v3_business_search&utm_source=hBJOknVQJ58S5goQyjmwRw", "review_count": 36, "categories": [{"alias": "italian", "title": "Italian"}], "rating": 3.5, "coordinates": {"latitude": 53.5898, "longitude": 9.9872}, "transactions": [], "price": "\u20ac\u20ac\u20ac", "location": {"address1": "Eppendorfer Landstr. 74", "address2": null, "address3": null, "city": "Hamburg", "zip_code": "20249", "country": "DE", "state": "HH", "display_address": ["Eppendorfer Landstr. 74", "20249 Hamburg", "Germany"]}, "phone": "+4940476948", "display_phone": "+49 40 476948", "distance": 406.4154098549879}, {"id": "h-eNEal78U93PwHQDwOo9w", "alias": "shukria-quick-hamburg", "name": "Shukria Quick", "image_url": "https://s3-media3.fl.yelpcdn.com/bphoto/8beYh9CAGcErBiFzmUMAqg/o.jpg", "is_closed": false, "url": "https://www.yelp.com/biz/shukria-quick-hamburg?adjust_creative=hBJOknVQJ58S5goQyjmwRw&utm_campaign=yelp_api_v3&utm_medium=api_v3_business_search&utm_source=hBJOknVQJ58S5goQyjmwRw", "review_count": 25, "categories": [{"alias": "indpak", "title": "Indian"}, {"alias": "bistros", "title": "Bistros"}], "rating": 3.5, "coordinates": {"latitude": 53.5932829, "longitude": 9.98947}, "transactions": [], "price": "\u20ac\u20ac", "location": {"address1": "Heinickestr. 1", "address2": "", "address3": "", "city": "Hamburg", "zip_code": "20249", "country": "DE", "state": "HH", "display_address": ["Heinickestr. 1", "20249 Hamburg", "Germany"]}, "phone": "+49404801147", "display_phone": "+49 40 4801147", "distance": 681.4342292011586}, {"id": "lWoNBmT3DHDA8c47d25Q_g", "alias": "cafe-leinpfad-hamburg", "name": "Cafe Leinpfad", "image_url": "https://s3-media4.fl.yelpcdn.com/bphoto/EyoEsIILZgtAj-B6589x8g/o.jpg", "is_closed": false, "url": "https://www.yelp.com/biz/cafe-leinpfad-hamburg?adjust_creative=hBJOknVQJ58S5goQyjmwRw&utm_campaign=yelp_api_v3&utm_medium=api_v3_business_search&utm_source=hBJOknVQJ58S5goQyjmwRw", "review_count": 60, "categories": [{"alias": "cafes", "title": "Cafes"}], "rating": 3.0, "coordinates": {"latitude": 53.5930878482935, "longitude": 9.99417940831216}, "transactions": [], "price": "\u20ac\u20ac", "location": {"address1": "Leinpfad/Hudtwalckerstra\u00dfe", "address2": "", "address3": null, "city": "Hamburg", "zip_code": "22299", "country": "DE", "state": "HH", "display_address": ["Leinpfad/Hudtwalckerstra\u00dfe", "22299 Hamburg", "Germany"]}, "phone": "+4940464856", "display_phone": "+49 40 464856", "distance": 664.4957849172262}, {"id": "q1qIhi3FKmlU_uts5ZeeSQ", "alias": "die-pizzeria-hamburg", "name": "Die Pizzeria", "image_url": "https://s3-media1.fl.yelpcdn.com/bphoto/K5-kAvo_xgkxv14YErwq3g/o.jpg", "is_closed": false, "url": "https://www.yelp.com/biz/die-pizzeria-hamburg?adjust_creative=hBJOknVQJ58S5goQyjmwRw&utm_campaign=yelp_api_v3&utm_medium=api_v3_business_search&utm_source=hBJOknVQJ58S5goQyjmwRw", "review_count": 66, "categories": [{"alias": "italian", "title": "Italian"}, {"alias": "pizza", "title": "Pizza"}], "rating": 3.5, "coordinates": {"latitude": 53.59625, "longitude": 9.98775}, "transactions": [], "price": "\u20ac\u20ac", "location": {"address1": "Eppendorfer Landstr. 165", "address2": "", "address3": "", "city": "Hamburg", "zip_code": "20251", "country": "DE", "state": "HH", "display_address": ["Eppendorfer Landstr. 165", "20251 Hamburg", "Germany"]}, "phone": "+494046776566", "display_phone": "+49 40 46776566", "distance": 1030.2646776278166}, {"id": "O6FJZNJUZowqRJX7Q1nUvw", "alias": "cafe-echtzeit-studio-hamburg", "name": "Cafe Echtzeit-Studio", "image_url": "https://s3-media3.fl.yelpcdn.com/bphoto/T-K7b-JWaLlRxBg48WaMTA/o.jpg", "is_closed": false, "url": "https://www.yelp.com/biz/cafe-echtzeit-studio-hamburg?adjust_creative=hBJOknVQJ58S5goQyjmwRw&utm_campaign=yelp_api_v3&utm_medium=api_v3_business_search&utm_source=hBJOknVQJ58S5goQyjmwRw", "review_count": 5, "categories": [{"alias": "theater", "title": "Performing Arts"}, {"alias": "cafes", "title": "Cafes"}], "rating": 4.0, "coordinates": {"latitude": 53.5956356, "longitude": 9.99768857301638}, "transactions": [], "price": "\u20ac", "location": {"address1": "Alsterdorfer Str. 15", "address2": null, "address3": null, "city": "Hamburg", "zip_code": "22299", "country": "DE", "state": "HH", "display_address": ["Alsterdorfer Str. 15", "22299 Hamburg", "Germany"]}, "phone": "+494024863972", "display_phone": "+49 40 24863972", "distance": 1008.1650055022508}, {"id": "pbkgSowYJvfe4kwSAqQ7hw", "alias": "zur-alten-m\u00fchle-hamburg", "name": "Zur Alten M\u00fchle", "image_url": "https://s3-media1.fl.yelpcdn.com/bphoto/2QyB6Zi4h2_NBvQMPoFilQ/o.jpg", "is_closed": false, "url": "https://www.yelp.com/biz/zur-alten-m%C3%BChle-hamburg?adjust_creative=hBJOknVQJ58S5goQyjmwRw&utm_campaign=yelp_api_v3&utm_medium=api_v3_business_search&utm_source=hBJOknVQJ58S5goQyjmwRw", "review_count": 45, "categories": [{"alias": "german", "title": "German"}], "rating": 2.5, "coordinates": {"latitude": 53.59741, "longitude": 9.9893699}, "transactions": [], "price": "\u20ac\u20ac", "location": {"address1": "Eppendorfer Landstr. 176", "address2": null, "address3": null, "city": "Hamburg", "zip_code": "20251", "country": "DE", "state": "HH", "display_address": ["Eppendorfer Landstr. 176", "20251 Hamburg", "Germany"]}, "phone": "+4940517820", "display_phone": "+49 40 517820", "distance": 1129.8652667714211}, {"id": "jcOFRJkeu8v2VIvLuM0inQ", "alias": "dat-backhus-hamburg-25", "name": "Dat Backhus", "image_url": "https://s3-media3.fl.yelpcdn.com/bphoto/rMOdLrKADCDFa3lD2oxFXQ/o.jpg", "is_closed": false, "url": "https://www.yelp.com/biz/dat-backhus-hamburg-25?adjust_creative=hBJOknVQJ58S5goQyjmwRw&utm_campaign=yelp_api_v3&utm_medium=api_v3_business_search&utm_source=hBJOknVQJ58S5goQyjmwRw", "review_count": 5, "categories": [{"alias": "bakeries", "title": "Bakeries"}, {"alias": "cafes", "title": "Cafes"}], "rating": 3.5, "coordinates": {"latitude": 53.59050937742, "longitude": 9.985628359248}, "transactions": [], "price": "\u20ac\u20ac", "location": {"address1": "K\u00fcmmelstr. 4-8", "address2": "", "address3": "", "city": "Hamburg", "zip_code": "20249", "country": "DE", "state": "HH", "display_address": ["K\u00fcmmelstr. 4-8", "20249 Hamburg", "Germany"]}, "phone": "+494030031791", "display_phone": "+49 40 30031791", "distance": 536.1965967292325}, {"id": "LYzLKGQ4I3BrOIk-nnk4OQ", "alias": "yoko-sushi-hamburg-4", "name": "Yoko Sushi", "image_url": "https://s3-media3.fl.yelpcdn.com/bphoto/WMHvVuXgXAMb1wOWcNLYIQ/o.jpg", "is_closed": false, "url": "https://www.yelp.com/biz/yoko-sushi-hamburg-4?adjust_creative=hBJOknVQJ58S5goQyjmwRw&utm_campaign=yelp_api_v3&utm_medium=api_v3_business_search&utm_source=hBJOknVQJ58S5goQyjmwRw", "review_count": 7, "categories": [{"alias": "sushi", "title": "Sushi Bars"}], "rating": 3.5, "coordinates": {"latitude": 53.593023, "longitude": 9.991811}, "transactions": [], "price": "\u20ac\u20ac", "location": {"address1": "Ludolfstr. 41", "address2": "", "address3": "", "city": "Hamburg", "zip_code": "20249", "country": "DE", "state": "HH", "display_address": ["Ludolfstr. 41", "20249 Hamburg", "Germany"]}, "phone": "+494054803750", "display_phone": "+49 40 54803750", "distance": 630.8626509739332}]