[{"id": "4qtnwieUmJW_1vNb-OJ1WQ", "alias": "trattoria-calabria-hamburg", "name": "Trattoria Calabria", "image_url": "https://s3-media3.fl.yelpcdn.com/bphoto/7NeRBgmKWaIhy7QbgXohiA/o.jpg", "is_closed": false, "url": "https://www.yelp.com/biz/trattoria-calabria-hamburg?adjust_creative=hBJOknVQJ58S5goQyjmwRw&utm_campaign=yelp_api_v3&utm_medium=api_v3_business_search&utm_source=hBJOknVQJ58S5goQyjmwRw", "review_count": 17, "categories": [{"alias": "italian", "title": "Italian"}], "rating": 4.5, "coordinates": {"latitude": 53.5808631, "longitude": 9.9644952}, "transactions": [], "price": "\u20ac\u20ac", "location": {"address1": "G\u00e4rtnerstr. 76", "address2": "", "address3": "", "city": "Hamburg", "zip_code": "20253", "country": "DE", "state": "HH", "display_address": ["G\u00e4rtnerstr. 76", "20253 Hamburg", "Germany"]}, "phone": "+494069081378", "display_phone": "+49 40 69081378", "distance": 769.1252304269786}, {"id": "3_VR_A6uszfkvrqsJnVhhQ", "alias": "gl\u00fcck-und-selig-hamburg", "name": "Gl\u00fcck Und Selig", "image_url": "https://s3-media3.fl.yelpcdn.com/bphoto/ANXjPzbS89gj96b0nZHTnQ/o.jpg", "is_closed": false, "url": "https://www.yelp.com/biz/gl%C3%BCck-und-selig-hamburg?adjust_creative=hBJOknVQJ58S5goQyjmwRw&utm_campaign=yelp_api_v3&utm_medium=api_v3_business_search&utm_source=hBJOknVQJ58S5goQyjmwRw", "review_count": 152, "categories": [{"alias": "cafes", "title": "Cafes"}, {"alias": "breakfast_brunch", "title": "Breakfast & Brunch"}], "rating": 4.5, "coordinates": {"latitude": 53.579781, "longitude": 9.95596}, "transactions": [], "price": "\u20ac\u20ac", "location": {"address1": "Heu\u00dfweg 97", "address2": "", "address3": "", "city": "Hamburg", "zip_code": "20255", "country": "DE", "state": "HH", "display_address": ["Heu\u00dfweg 97", "20255 Hamburg", "Germany"]}, "phone": "+494032518975", "display_phone": "+49 40 32518975", "distance": 936.9721671871304}, {"id": "yzA1A8EEffkWO58vhNc03A", "alias": "s-und-s-grill-hamburg", "name": "S&S Grill", "image_url": "https://s3-media2.fl.yelpcdn.com/bphoto/7DGYjbz-mALAhCm67gewuQ/o.jpg", "is_closed": false, "url": "https://www.yelp.com/biz/s-und-s-grill-hamburg?adjust_creative=hBJOknVQJ58S5goQyjmwRw&utm_campaign=yelp_api_v3&utm_medium=api_v3_business_search&utm_source=hBJOknVQJ58S5goQyjmwRw", "review_count": 40, "categories": [{"alias": "kebab", "title": "Kebab"}], "rating": 4.5, "coordinates": {"latitude": 53.5830419557893, "longitude": 9.96663606664801}, "transactions": [], "price": "\u20ac", "location": {"address1": "Wrangelstr. 101", "address2": "", "address3": "", "city": "Hamburg", "zip_code": "20253", "country": "DE", "state": "HH", "display_address": ["Wrangelstr. 101", "20253 Hamburg", "Germany"]}, "phone": "+49404228508", "display_phone": "+49 40 4228508", "distance": 605.3936087722412}, {"id": "ZxkuTIJSHKsGse1PJuq_MA", "alias": "casa-deonila-hamburg", "name": "Casa Deonila", "image_url": "https://s3-media1.fl.yelpcdn.com/bphoto/4CwJ14izBbmRxr1bsm5KWw/o.jpg", "is_closed": false, "url": "https://www.yelp.com/biz/casa-deonila-hamburg?adjust_creative=hBJOknVQJ58S5goQyjmwRw&utm_campaign=yelp_api_v3&utm_medium=api_v3_business_search&utm_source=hBJOknVQJ58S5goQyjmwRw", "review_count": 3, "categories": [{"alias": "brazilian", "title": "Brazilian"}, {"alias": "delicatessen", "title": "Delicatessen"}], "rating": 4.0, "coordinates": {"latitude": 53.59324, "longitude": 9.967177}, "transactions": [], "price": "\u20ac\u20ac", "location": {"address1": "Lokstedter Steindamm 55 b", "address2": "", "address3": "", "city": "Hamburg", "zip_code": "22529", "country": "DE", "state": "HH", "display_address": ["Lokstedter Steindamm 55 b", "22529 Hamburg", "Germany"]}, "phone": "+494037026800", "display_phone": "+49 40 37026800", "distance": 731.8935835980975}, {"id": "FtF0QcERssPbj4scLs2C6g", "alias": "hatari-hamburg-3", "name": "Hatari", "image_url": "https://s3-media3.fl.yelpcdn.com/bphoto/clohXl0WeNssvGx8jQmtFw/o.jpg", "is_closed": false, "url": "https://www.yelp.com/biz/hatari-hamburg-3?adjust_creative=hBJOknVQJ58S5goQyjmwRw&utm_campaign=yelp_api_v3&utm_medium=api_v3_business_search&utm_source=hBJOknVQJ58S5goQyjmwRw", "review_count": 98, "categories": [{"alias": "palatine", "title": "Palatine"}], "rating": 4.0, "coordinates": {"latitude": 53.5805, "longitude": 9.95711}, "transactions": [], "price": "\u20ac\u20ac", "location": {"address1": "Eidelstedter Weg 1", "address2": "", "address3": "", "city": "Hamburg", "zip_code": "20255", "country": "DE", "state": "HH", "display_address": ["Eidelstedter Weg 1", "20255 Hamburg", "Germany"]}, "phone": "+494043216059", "display_phone": "+49 40 43216059", "distance": 842.102795015065}, {"id": "2aiKx4k-XzACd5iLkvsuWQ", "alias": "gaumenschmaus-h\u00e4hnchengrill-hamburg", "name": "Gaumenschmaus - H\u00e4hnchengrill", "image_url": "https://s3-media4.fl.yelpcdn.com/bphoto/RubgsBZX2FmIxa1hAr-QfA/o.jpg", "is_closed": false, "url": "https://www.yelp.com/biz/gaumenschmaus-h%C3%A4hnchengrill-hamburg?adjust_creative=hBJOknVQJ58S5goQyjmwRw&utm_campaign=yelp_api_v3&utm_medium=api_v3_business_search&utm_source=hBJOknVQJ58S5goQyjmwRw", "review_count": 1, "categories": [{"alias": "foodstands", "title": "Food Stands"}], "rating": 4.0, "coordinates": {"latitude": 53.5849, "longitude": 9.96434}, "transactions": [], "location": {"address1": "Troplowitzstr. 8", "address2": null, "address3": null, "city": "Hamburg", "zip_code": "22529", "country": "DE", "state": "HH", "display_address": ["Troplowitzstr. 8", "22529 Hamburg", "Germany"]}, "phone": "", "display_phone": "", "distance": 349.4420489317867}, {"id": "G_w1POAZFjpSKNKdGlgqGQ", "alias": "mokis-goodies-hamburg-4", "name": "Moki's Goodies", "image_url": "https://s3-media3.fl.yelpcdn.com/bphoto/P-xyDe-O3djPqAsRZKgm0w/o.jpg", "is_closed": false, "url": "https://www.yelp.com/biz/mokis-goodies-hamburg-4?adjust_creative=hBJOknVQJ58S5goQyjmwRw&utm_campaign=yelp_api_v3&utm_medium=api_v3_business_search&utm_source=hBJOknVQJ58S5goQyjmwRw", "review_count": 36, "categories": [{"alias": "cafes", "title": "Cafes"}, {"alias": "breakfast_brunch", "title": "Breakfast & Brunch"}], "rating": 4.5, "coordinates": {"latitude": 53.5796940756179, "longitude": 9.96637894973753}, "transactions": [], "price": "\u20ac\u20ac", "location": {"address1": "Eppendorfer Weg 171", "address2": "", "address3": "", "city": "Hamburg", "zip_code": "20253", "country": "DE", "state": "HH", "display_address": ["Eppendorfer Weg 171", "20253 Hamburg", "Germany"]}, "phone": "+494084890833", "display_phone": "+49 40 84890833", "distance": 930.8958186531742}, {"id": "AX0fRgOTub9JfGMEB7Apog", "alias": "mama-rosa-hamburg", "name": "Mama Rosa", "image_url": "https://s3-media3.fl.yelpcdn.com/bphoto/YbLzWlikRF3bv3tCbghznw/o.jpg", "is_closed": false, "url": "https://www.yelp.com/biz/mama-rosa-hamburg?adjust_creative=hBJOknVQJ58S5goQyjmwRw&utm_campaign=yelp_api_v3&utm_medium=api_v3_business_search&utm_source=hBJOknVQJ58S5goQyjmwRw", "review_count": 33, "categories": [{"alias": "italian", "title": "Italian"}, {"alias": "bars", "title": "Bars"}], "rating": 4.0, "coordinates": {"latitude": 53.5801494086517, "longitude": 9.96144614549446}, "transactions": [], "price": "\u20ac", "location": {"address1": "Heckscherstr. 1 a", "address2": "", "address3": "", "city": "Hamburg", "zip_code": "20253", "country": "DE", "state": "HH", "display_address": ["Heckscherstr. 1 a", "20253 Hamburg", "Germany"]}, "phone": "+494043282977", "display_phone": "+49 40 43282977", "distance": 822.275482137269}, {"id": "QrSwuLyQ5G2vLD_7QmC--w", "alias": "zipang-hamburg-2", "name": "Zipang", "image_url": "https://s3-media3.fl.yelpcdn.com/bphoto/JcQ5z12w94lV_-oEypMscw/o.jpg", "is_closed": false, "url": "https://www.yelp.com/biz/zipang-hamburg-2?adjust_creative=hBJOknVQJ58S5goQyjmwRw&utm_campaign=yelp_api_v3&utm_medium=api_v3_business_search&utm_source=hBJOknVQJ58S5goQyjmwRw", "review_count": 40, "categories": [{"alias": "japanese", "title": "Japanese"}], "rating": 4.5, "coordinates": {"latitude": 53.57969, "longitude": 9.96634}, "transactions": [], "price": "\u20ac\u20ac\u20ac", "location": {"address1": "Eppendorfer Weg 171", "address2": null, "address3": null, "city": "Hamburg", "zip_code": "20253", "country": "DE", "state": "HH", "display_address": ["Eppendorfer Weg 171", "20253 Hamburg", "Germany"]}, "phone": "+494043280032", "display_phone": "+49 40 43280032", "distance": 934.6957080685562}, {"id": "c6dhfuYvkp6Hq11JNe3cxw", "alias": "rio-grande-hamburg-5", "name": "Rio Grande", "image_url": "https://s3-media3.fl.yelpcdn.com/bphoto/XyiotFMNhaRfQ3yOZR9eaQ/o.jpg", "is_closed": false, "url": "https://www.yelp.com/biz/rio-grande-hamburg-5?adjust_creative=hBJOknVQJ58S5goQyjmwRw&utm_campaign=yelp_api_v3&utm_medium=api_v3_business_search&utm_source=hBJOknVQJ58S5goQyjmwRw", "review_count": 29, "categories": [{"alias": "international", "title": "International"}], "rating": 4.0, "coordinates": {"latitude": 53.5982, "longitude": 9.96564}, "transactions": [], "price": "\u20ac\u20ac", "location": {"address1": "Lokstedter Steindamm 7", "address2": null, "address3": null, "city": "Hamburg", "zip_code": "22529", "country": "DE", "state": "HH", "display_address": ["Lokstedter Steindamm 7", "22529 Hamburg", "Germany"]}, "phone": "+49405533669", "display_phone": "+49 40 5533669", "distance": 1216.2615396969052}, {"id": "ydoXPuXk6zt4Hq9F7n-jfQ", "alias": "doy-doy-kebap-house-hamburg", "name": "Doy Doy Kebap House", "image_url": "https://s3-media2.fl.yelpcdn.com/bphoto/eA9bQxDrLQqz2aPFo_uftQ/o.jpg", "is_closed": false, "url": "https://www.yelp.com/biz/doy-doy-kebap-house-hamburg?adjust_creative=hBJOknVQJ58S5goQyjmwRw&utm_campaign=yelp_api_v3&utm_medium=api_v3_business_search&utm_source=hBJOknVQJ58S5goQyjmwRw", "review_count": 29, "categories": [{"alias": "kebab", "title": "Kebab"}, {"alias": "turkish", "title": "Turkish"}, {"alias": "foodstands", "title": "Food Stands"}], "rating": 4.5, "coordinates": {"latitude": 53.57998, "longitude": 9.96675}, "transactions": [], "price": "\u20ac", "location": {"address1": "Kottwitzstr. 43", "address2": "", "address3": "", "city": "Hamburg", "zip_code": "20253", "country": "DE", "state": "HH", "display_address": ["Kottwitzstr. 43", "20253 Hamburg", "Germany"]}, "phone": "+494079300876", "display_phone": "+49 40 79300876", "distance": 909.7439994888645}, {"id": "xmGxeYgv13cZvnlWnsLH0g", "alias": "china-restaurant-hong-kong-hamburg-2", "name": "China Restaurant - Hong Kong", "image_url": "https://s3-media4.fl.yelpcdn.com/bphoto/_ZUiWerFu-DM35-up5aj3Q/o.jpg", "is_closed": false, "url": "https://www.yelp.com/biz/china-restaurant-hong-kong-hamburg-2?adjust_creative=hBJOknVQJ58S5goQyjmwRw&utm_campaign=yelp_api_v3&utm_medium=api_v3_business_search&utm_source=hBJOknVQJ58S5goQyjmwRw", "review_count": 13, "categories": [{"alias": "chinese", "title": "Chinese"}], "rating": 4.5, "coordinates": {"latitude": 53.5798, "longitude": 9.96431}, "transactions": [], "price": "\u20ac", "location": {"address1": "G\u00e4rtnerstr. 103", "address2": null, "address3": null, "city": "Hamburg", "zip_code": "20253", "country": "DE", "state": "HH", "display_address": ["G\u00e4rtnerstr. 103", "20253 Hamburg", "Germany"]}, "phone": "+4940400417", "display_phone": "+49 40 400417", "distance": 881.1650199397427}, {"id": "zsnxSf0IOTcdUD3gmkUzIw", "alias": "elianes-esszimmer-hamburg", "name": "Elianes Esszimmer", "image_url": "https://s3-media2.fl.yelpcdn.com/bphoto/81_7SoPBKVhXII3DMB9v4g/o.jpg", "is_closed": false, "url": "https://www.yelp.com/biz/elianes-esszimmer-hamburg?adjust_creative=hBJOknVQJ58S5goQyjmwRw&utm_campaign=yelp_api_v3&utm_medium=api_v3_business_search&utm_source=hBJOknVQJ58S5goQyjmwRw", "review_count": 6, "categories": [{"alias": "german", "title": "German"}], "rating": 4.5, "coordinates": {"latitude": 53.58203, "longitude": 9.96609}, "transactions": [], "price": "\u20ac\u20ac", "location": {"address1": "G\u00e4rtnerstr. 54", "address2": "", "address3": null, "city": "Hamburg", "zip_code": "20253", "country": "DE", "state": "HH", "display_address": ["G\u00e4rtnerstr. 54", "20253 Hamburg", "Germany"]}, "phone": "+491754354263", "display_phone": "+49 175 4354263", "distance": 675.617489070616}, {"id": "GH8CU9yfTMhssX_XiV7XRQ", "alias": "taverna-akropolis-hamburg", "name": "Taverna Akropolis", "image_url": "https://s3-media1.fl.yelpcdn.com/bphoto/6VaMuxHyr8vzbBJ8Frumyg/o.jpg", "is_closed": false, "url": "https://www.yelp.com/biz/taverna-akropolis-hamburg?adjust_creative=hBJOknVQJ58S5goQyjmwRw&utm_campaign=yelp_api_v3&utm_medium=api_v3_business_search&utm_source=hBJOknVQJ58S5goQyjmwRw", "review_count": 42, "categories": [{"alias": "greek", "title": "Greek"}], "rating": 4.5, "coordinates": {"latitude": 53.57881, "longitude": 9.96438}, "transactions": [], "price": "\u20ac\u20ac", "location": {"address1": "Eppendorfer Weg 159", "address2": null, "address3": null, "city": "Hamburg", "zip_code": "20253", "country": "DE", "state": "HH", "display_address": ["Eppendorfer Weg 159", "20253 Hamburg", "Germany"]}, "phone": "+494049222169", "display_phone": "+49 40 49222169", "distance": 974.2607638255381}, {"id": "W80A2u3AY88OYqbuRFTM1w", "alias": "anboard-hamburg-3", "name": "Anboard", "image_url": "https://s3-media1.fl.yelpcdn.com/bphoto/nYej1L31wBIlOGDQcpigWQ/o.jpg", "is_closed": false, "url": "https://www.yelp.com/biz/anboard-hamburg-3?adjust_creative=hBJOknVQJ58S5goQyjmwRw&utm_campaign=yelp_api_v3&utm_medium=api_v3_business_search&utm_source=hBJOknVQJ58S5goQyjmwRw", "review_count": 1, "categories": [{"alias": "pizza", "title": "Pizza"}, {"alias": "cocktailbars", "title": "Cocktail Bars"}], "rating": 5.0, "coordinates": {"latitude": 53.58308, "longitude": 9.96692}, "transactions": [], "location": {"address1": "G\u00e4rtnerstr. 32", "address2": "", "address3": null, "city": "Hamburg", "zip_code": "20253", "country": "DE", "state": "HH", "display_address": ["G\u00e4rtnerstr. 32", "20253 Hamburg", "Germany"]}, "phone": "+494084209442", "display_phone": "+49 40 84209442", "distance": 603.6483017580867}, {"id": "382D0bpFOaHaB0fwAm83qQ", "alias": "sushi-up-hamburg", "name": "Sushi Up", "image_url": "https://s3-media4.fl.yelpcdn.com/bphoto/VrB9HxFfttxbuVG4xEwT7Q/o.jpg", "is_closed": false, "url": "https://www.yelp.com/biz/sushi-up-hamburg?adjust_creative=hBJOknVQJ58S5goQyjmwRw&utm_campaign=yelp_api_v3&utm_medium=api_v3_business_search&utm_source=hBJOknVQJ58S5goQyjmwRw", "review_count": 1, "categories": [{"alias": "sushi", "title": "Sushi Bars"}], "rating": 5.0, "coordinates": {"latitude": 53.58117, "longitude": 9.9648299}, "transactions": [], "location": {"address1": "G\u00e4rtnerstr. 68 B", "address2": null, "address3": "", "city": "Hamburg", "zip_code": "20253", "country": "DE", "state": "HH", "display_address": ["G\u00e4rtnerstr. 68 B", "20253 Hamburg", "Germany"]}, "phone": "+494046647842", "display_phone": "+49 40 46647842", "distance": 697.4080586888782}, {"id": "NiDhEkDB_OaVr_MtjXa8mw", "alias": "taverna-arhontiko-hamburg", "name": "Taverna Arhontiko", "image_url": "https://s3-media4.fl.yelpcdn.com/bphoto/nagnnIdpSf0Qo0cqWBJgOw/o.jpg", "is_closed": false, "url": "https://www.yelp.com/biz/taverna-arhontiko-hamburg?adjust_creative=hBJOknVQJ58S5goQyjmwRw&utm_campaign=yelp_api_v3&utm_medium=api_v3_business_search&utm_source=hBJOknVQJ58S5goQyjmwRw", "review_count": 8, "categories": [{"alias": "greek", "title": "Greek"}], "rating": 4.0, "coordinates": {"latitude": 53.585941, "longitude": 9.967115}, "transactions": [], "price": "\u20ac\u20ac", "location": {"address1": "Troplowitzstr. 2", "address2": "", "address3": "", "city": "Hamburg", "zip_code": "22529", "country": "DE", "state": "HH", "display_address": ["Troplowitzstr. 2", "22529 Hamburg", "Germany"]}, "phone": "+494020911038", "display_phone": "+49 40 20911038", "distance": 416.94890201110815}, {"id": "G_fT74JDYxe0te7WtHEA0g", "alias": "mittagstisch-imbiss-grill-hamburg", "name": "Mittagstisch-Imbiss-Grill", "image_url": "https://s3-media1.fl.yelpcdn.com/bphoto/SSCirgTrK19EWeS_nxMlpg/o.jpg", "is_closed": false, "url": "https://www.yelp.com/biz/mittagstisch-imbiss-grill-hamburg?adjust_creative=hBJOknVQJ58S5goQyjmwRw&utm_campaign=yelp_api_v3&utm_medium=api_v3_business_search&utm_source=hBJOknVQJ58S5goQyjmwRw", "review_count": 17, "categories": [{"alias": "hotdogs", "title": "Fast Food"}, {"alias": "bbq", "title": "Barbeque"}], "rating": 4.5, "coordinates": {"latitude": 53.5826111197191, "longitude": 9.96698830833859}, "transactions": [], "price": "\u20ac", "location": {"address1": "G\u00e4rtnerstr.39", "address2": "", "address3": "", "city": "Hamburg", "zip_code": "20253", "country": "DE", "state": "HH", "display_address": ["G\u00e4rtnerstr.39", "20253 Hamburg", "Germany"]}, "phone": "+49404205140", "display_phone": "+49 40 4205140", "distance": 658.1297404343554}, {"id": "YHaE8oGwIVdxrriy30iTCQ", "alias": "cafe-im-park-hamburg-2", "name": "Cafe im Park", "image_url": "https://s3-media4.fl.yelpcdn.com/bphoto/o-gZ0WLu8VTbXF0qlwpEwg/o.jpg", "is_closed": false, "url": "https://www.yelp.com/biz/cafe-im-park-hamburg-2?adjust_creative=hBJOknVQJ58S5goQyjmwRw&utm_campaign=yelp_api_v3&utm_medium=api_v3_business_search&utm_source=hBJOknVQJ58S5goQyjmwRw", "review_count": 31, "categories": [{"alias": "cafes", "title": "Cafes"}], "rating": 4.5, "coordinates": {"latitude": 53.5774268206918, "longitude": 9.96115238366701}, "transactions": [], "price": "\u20ac\u20ac", "location": {"address1": "Im Geh\u00f6lz gegen\u00fcber Nr. 7", "address2": "", "address3": "", "city": "Hamburg", "zip_code": "20255", "country": "DE", "state": "HH", "display_address": ["Im Geh\u00f6lz gegen\u00fcber Nr. 7", "20255 Hamburg", "Germany"]}, "phone": "", "display_phone": "", "distance": 1125.2171553435173}, {"id": "kH7EH2UpQQAiP57a65-0Og", "alias": "imbiss-fantasia-hamburg", "name": "Imbiss Fantasia", "image_url": "", "is_closed": false, "url": "https://www.yelp.com/biz/imbiss-fantasia-hamburg?adjust_creative=hBJOknVQJ58S5goQyjmwRw&utm_campaign=yelp_api_v3&utm_medium=api_v3_business_search&utm_source=hBJOknVQJ58S5goQyjmwRw", "review_count": 1, "categories": [{"alias": "kebab", "title": "Kebab"}], "rating": 4.0, "coordinates": {"latitude": 53.5831, "longitude": 9.9664}, "transactions": [], "price": "\u20ac", "location": {"address1": "Wrangelstr. 101", "address2": null, "address3": null, "city": "Hamburg", "zip_code": "20253", "country": "DE", "state": "HH", "display_address": ["Wrangelstr. 101", "20253 Hamburg", "Germany"]}, "phone": "+49404224165", "display_phone": "+49 40 4224165", "distance": 591.3672499073261}, {"id": "nou_ID9sZFfVciYA5GD_pA", "alias": "astakos-hamburg-2", "name": "Astakos", "image_url": "https://s3-media1.fl.yelpcdn.com/bphoto/0hNkKzqyepQ5liVqrQOrTA/o.jpg", "is_closed": false, "url": "https://www.yelp.com/biz/astakos-hamburg-2?adjust_creative=hBJOknVQJ58S5goQyjmwRw&utm_campaign=yelp_api_v3&utm_medium=api_v3_business_search&utm_source=hBJOknVQJ58S5goQyjmwRw", "review_count": 11, "categories": [{"alias": "greek", "title": "Greek"}], "rating": 4.5, "coordinates": {"latitude": 53.57967, "longitude": 9.96724}, "transactions": [], "price": "\u20ac\u20ac", "location": {"address1": "Eppendorfer Weg 164", "address2": "", "address3": "", "city": "Hamburg", "zip_code": "20253", "country": "DE", "state": "HH", "display_address": ["Eppendorfer Weg 164", "20253 Hamburg", "Germany"]}, "phone": "+49404222020", "display_phone": "+49 40 4222020", "distance": 960.1392179373114}, {"id": "Kv8jCFkgKsej5jtzTECt4Q", "alias": "beiersdorf-coffeeshop-hamburg", "name": "Beiersdorf CoffeeShop", "image_url": "https://s3-media3.fl.yelpcdn.com/bphoto/xE0heEVlYeIqVTUf0QNnqA/o.jpg", "is_closed": false, "url": "https://www.yelp.com/biz/beiersdorf-coffeeshop-hamburg?adjust_creative=hBJOknVQJ58S5goQyjmwRw&utm_campaign=yelp_api_v3&utm_medium=api_v3_business_search&utm_source=hBJOknVQJ58S5goQyjmwRw", "review_count": 1, "categories": [{"alias": "canteen", "title": "Canteen"}], "rating": 5.0, "coordinates": {"latitude": 53.579181, "longitude": 9.959536}, "transactions": [], "location": {"address1": "Unnastr. 48", "address2": "", "address3": "", "city": "Hamburg", "zip_code": "20253", "country": "DE", "state": "HH", "display_address": ["Unnastr. 48", "20253 Hamburg", "Germany"]}, "phone": "", "display_phone": "", "distance": 938.7603059457526}, {"id": "4rSi2CeOJU-HvNaJDPsZHw", "alias": "fadda-hamburg", "name": "Fadda", "image_url": "https://s3-media4.fl.yelpcdn.com/bphoto/RBNCiAYAc2XtF__ApSMS0g/o.jpg", "is_closed": false, "url": "https://www.yelp.com/biz/fadda-hamburg?adjust_creative=hBJOknVQJ58S5goQyjmwRw&utm_campaign=yelp_api_v3&utm_medium=api_v3_business_search&utm_source=hBJOknVQJ58S5goQyjmwRw", "review_count": 35, "categories": [{"alias": "italian", "title": "Italian"}, {"alias": "gourmet", "title": "Specialty Food"}], "rating": 3.5, "coordinates": {"latitude": 53.57883, "longitude": 9.95512}, "transactions": [], "price": "\u20ac\u20ac\u20ac", "location": {"address1": "Heu\u00dfweg 90", "address2": null, "address3": null, "city": "Hamburg", "zip_code": "20255", "country": "DE", "state": "HH", "display_address": ["Heu\u00dfweg 90", "20255 Hamburg", "Germany"]}, "phone": "+49404320850", "display_phone": "+49 40 4320850", "distance": 1056.0064189496165}, {"id": "a3NwmecwsGa--y7hK3Mh9g", "alias": "forum-bistro-hamburg", "name": "Forum Bistro", "image_url": "", "is_closed": false, "url": "https://www.yelp.com/biz/forum-bistro-hamburg?adjust_creative=hBJOknVQJ58S5goQyjmwRw&utm_campaign=yelp_api_v3&utm_medium=api_v3_business_search&utm_source=hBJOknVQJ58S5goQyjmwRw", "review_count": 1, "categories": [{"alias": "bistros", "title": "Bistros"}], "rating": 4.0, "coordinates": {"latitude": 53.5913082, "longitude": 9.9581828}, "transactions": [], "location": {"address1": "Betriebskantine Dello", "address2": "Nedderfeld 91", "address3": null, "city": "Hamburg", "zip_code": "22529", "country": "DE", "state": "HH", "display_address": ["Betriebskantine Dello", "Nedderfeld 91", "22529 Hamburg", "Germany"]}, "phone": "+494047122761", "display_phone": "+49 40 47122761", "distance": 471.70236978642976}, {"id": "2KOyCxU5OmaKszENGc9Jow", "alias": "le-croque-hamburg", "name": "Le Croque", "image_url": "https://s3-media4.fl.yelpcdn.com/bphoto/Ii28bHl62Nno0E5Qjt1EgA/o.jpg", "is_closed": false, "url": "https://www.yelp.com/biz/le-croque-hamburg?adjust_creative=hBJOknVQJ58S5goQyjmwRw&utm_campaign=yelp_api_v3&utm_medium=api_v3_business_search&utm_source=hBJOknVQJ58S5goQyjmwRw", "review_count": 7, "categories": [{"alias": "sandwiches", "title": "Sandwiches"}, {"alias": "kiosk", "title": "Kiosk"}], "rating": 4.5, "coordinates": {"latitude": 53.5801473743966, "longitude": 9.96389973888724}, "transactions": [], "price": "\u20ac\u20ac", "location": {"address1": "G\u00e4rtnerstr. 86", "address2": "", "address3": null, "city": "Hamburg", "zip_code": "20253", "country": "DE", "state": "HH", "display_address": ["G\u00e4rtnerstr. 86", "20253 Hamburg", "Germany"]}, "phone": "+49404914273", "display_phone": "+49 40 4914273", "distance": 837.8736149329956}, {"id": "WMDAjRN6ZUcvTV0SaaJgjw", "alias": "deike-hamburg", "name": "Deike", "image_url": "https://s3-media1.fl.yelpcdn.com/bphoto/vj4RibcuT3Xcm1XukkIu8Q/o.jpg", "is_closed": false, "url": "https://www.yelp.com/biz/deike-hamburg?adjust_creative=hBJOknVQJ58S5goQyjmwRw&utm_campaign=yelp_api_v3&utm_medium=api_v3_business_search&utm_source=hBJOknVQJ58S5goQyjmwRw", "review_count": 48, "categories": [{"alias": "bistros", "title": "Bistros"}, {"alias": "cafes", "title": "Cafes"}], "rating": 3.0, "coordinates": {"latitude": 53.57874, "longitude": 9.95648}, "transactions": [], "price": "\u20ac\u20ac", "location": {"address1": "Lutterothstr. 5", "address2": "", "address3": "", "city": "Hamburg", "zip_code": "20255", "country": "DE", "state": "HH", "display_address": ["Lutterothstr. 5", "20255 Hamburg", "Germany"]}, "phone": "+494039877920", "display_phone": "+49 40 39877920", "distance": 1025.9153791864537}, {"id": "xnEgNu3N5oJjjENFOdATmA", "alias": "der-amsterdamer-hamburg", "name": "Der Amsterdamer", "image_url": "https://s3-media3.fl.yelpcdn.com/bphoto/Yf8-rcD2njvhgn23kUip7A/o.jpg", "is_closed": false, "url": "https://www.yelp.com/biz/der-amsterdamer-hamburg?adjust_creative=hBJOknVQJ58S5goQyjmwRw&utm_campaign=yelp_api_v3&utm_medium=api_v3_business_search&utm_source=hBJOknVQJ58S5goQyjmwRw", "review_count": 7, "categories": [{"alias": "hotdogs", "title": "Fast Food"}, {"alias": "tradamerican", "title": "American (Traditional)"}], "rating": 3.5, "coordinates": {"latitude": 53.5796, "longitude": 9.95583}, "transactions": [], "price": "\u20ac\u20ac\u20ac", "location": {"address1": "Heu\u00dfweg 95", "address2": null, "address3": null, "city": "Hamburg", "zip_code": "20255", "country": "DE", "state": "HH", "display_address": ["Heu\u00dfweg 95", "20255 Hamburg", "Germany"]}, "phone": "", "display_phone": "", "distance": 958.8516941170479}, {"id": "JvyJScNeW_cU1prGXWXk2g", "alias": "luckys-pizza-und-croque-hamburg", "name": "Luckys Pizza & Croque", "image_url": "https://s3-media2.fl.yelpcdn.com/bphoto/FiNrC8F66vy8A_pLYyE5Vw/o.jpg", "is_closed": false, "url": "https://www.yelp.com/biz/luckys-pizza-und-croque-hamburg?adjust_creative=hBJOknVQJ58S5goQyjmwRw&utm_campaign=yelp_api_v3&utm_medium=api_v3_business_search&utm_source=hBJOknVQJ58S5goQyjmwRw", "review_count": 1, "categories": [{"alias": "pizza", "title": "Pizza"}], "rating": 5.0, "coordinates": {"latitude": 53.583657, "longitude": 9.967422}, "transactions": [], "price": "\u20ac\u20ac", "location": {"address1": "G\u00e4rtnerstr.26", "address2": null, "address3": "", "city": "Hamburg", "zip_code": "20253", "country": "DE", "state": "HH", "display_address": ["G\u00e4rtnerstr.26", "20253 Hamburg", "Germany"]}, "phone": "+494020003260", "display_phone": "+49 40 20003260", "distance": 585.3978989063077}, {"id": "5bq58Gl_eShf7njrzbanlQ", "alias": "gepettos-hamburg", "name": "Gepettos", "image_url": "https://s3-media4.fl.yelpcdn.com/bphoto/MwvRrKwgatO-WVkBVUKz6Q/o.jpg", "is_closed": false, "url": "https://www.yelp.com/biz/gepettos-hamburg?adjust_creative=hBJOknVQJ58S5goQyjmwRw&utm_campaign=yelp_api_v3&utm_medium=api_v3_business_search&utm_source=hBJOknVQJ58S5goQyjmwRw", "review_count": 42, "categories": [{"alias": "italian", "title": "Italian"}, {"alias": "pizza", "title": "Pizza"}], "rating": 3.5, "coordinates": {"latitude": 53.5769256, "longitude": 9.9636922}, "transactions": [], "price": "\u20ac\u20ac\u20ac", "location": {"address1": "Eppendorfer Weg 138", "address2": "", "address3": "", "city": "Hamburg", "zip_code": "20253", "country": "DE", "state": "HH", "display_address": ["Eppendorfer Weg 138", "20253 Hamburg", "Germany"]}, "phone": "+4940311261", "display_phone": "+49 40 311261", "distance": 1104.2568041123693}, {"id": "Vpgw2BJJAF9ceaWjixBRTw", "alias": "sabiha-kiosk-und-stehcaf\u00e9-hamburg", "name": "Sabiha - Kiosk & Stehcaf\u00e9", "image_url": "", "is_closed": false, "url": "https://www.yelp.com/biz/sabiha-kiosk-und-stehcaf%C3%A9-hamburg?adjust_creative=hBJOknVQJ58S5goQyjmwRw&utm_campaign=yelp_api_v3&utm_medium=api_v3_business_search&utm_source=hBJOknVQJ58S5goQyjmwRw", "review_count": 2, "categories": [{"alias": "cafes", "title": "Cafes"}, {"alias": "kiosk", "title": "Kiosk"}], "rating": 3.0, "coordinates": {"latitude": 53.5808, "longitude": 9.95743}, "transactions": [], "location": {"address1": "Eidelstedter Weg 4", "address2": null, "address3": null, "city": "Hamburg", "zip_code": "20255", "country": "DE", "state": "HH", "display_address": ["Eidelstedter Weg 4", "20255 Hamburg", "Germany"]}, "phone": "+494067381024", "display_phone": "+49 40 67381024", "distance": 796.1411474633221}]