[{"id": "DPHWqly-0ZTcQ_ZKXgnoJA", "alias": "christos-stapelfelder-hof-stapelfeld", "name": "Christos Stapelfelder Hof", "image_url": "https://s3-media2.fl.yelpcdn.com/bphoto/7AqDlyB7Vz__T7qEoF9oZg/o.jpg", "is_closed": false, "url": "https://www.yelp.com/biz/christos-stapelfelder-hof-stapelfeld?adjust_creative=hBJOknVQJ58S5goQyjmwRw&utm_campaign=yelp_api_v3&utm_medium=api_v3_business_search&utm_source=hBJOknVQJ58S5goQyjmwRw", "review_count": 7, "categories": [{"alias": "greek", "title": "Greek"}], "rating": 4.5, "coordinates": {"latitude": 53.60503, "longitude": 10.22139}, "transactions": [], "price": "\u20ac\u20ac", "location": {"address1": "Reinbeker Str. 1", "address2": "", "address3": null, "city": "Stapelfeld", "zip_code": "22145", "country": "DE", "state": "SH", "display_address": ["Reinbeker Str. 1", "22145 Stapelfeld", "Germany"]}, "phone": "+49407355350", "display_phone": "+49 40 7355350", "distance": 2164.129977325007}, {"id": "wOnyNMuOUVPtUm3Qm9owBQ", "alias": "oma-in-braak-braak", "name": "Oma in Braak", "image_url": "https://s3-media2.fl.yelpcdn.com/bphoto/3YBoeZ7hc4XPIU3ruYn7kQ/o.jpg", "is_closed": false, "url": "https://www.yelp.com/biz/oma-in-braak-braak?adjust_creative=hBJOknVQJ58S5goQyjmwRw&utm_campaign=yelp_api_v3&utm_medium=api_v3_business_search&utm_source=hBJOknVQJ58S5goQyjmwRw", "review_count": 1, "categories": [{"alias": "bakeries", "title": "Bakeries"}, {"alias": "cafes", "title": "Cafes"}], "rating": 5.0, "coordinates": {"latitude": 53.6151399, "longitude": 10.24123}, "transactions": [], "price": "\u20ac", "location": {"address1": "Ihlendiek 55", "address2": null, "address3": null, "city": "Braak", "zip_code": "22145", "country": "DE", "state": "SH", "display_address": ["Ihlendiek 55", "22145 Braak", "Germany"]}, "phone": "+49406779005", "display_phone": "+49 40 6779005", "distance": 2908.7848437423518}, {"id": "PJxZY6nLTG2hjTUhOFhT4g", "alias": "hotel-zur-windm\u00fchle-stapelfeld", "name": "Hotel zur Windm\u00fchle", "image_url": "https://s3-media3.fl.yelpcdn.com/bphoto/Cp80W94PL_uPIIdnSFVWzw/o.jpg", "is_closed": false, "url": "https://www.yelp.com/biz/hotel-zur-windm%C3%BChle-stapelfeld?adjust_creative=hBJOknVQJ58S5goQyjmwRw&utm_campaign=yelp_api_v3&utm_medium=api_v3_business_search&utm_source=hBJOknVQJ58S5goQyjmwRw", "review_count": 9, "categories": [{"alias": "hotels", "title": "Hotels"}, {"alias": "german", "title": "German"}], "rating": 2.5, "coordinates": {"latitude": 53.6086, "longitude": 10.2359}, "transactions": [], "price": "\u20ac\u20ac", "location": {"address1": "Hauptstr. 99", "address2": null, "address3": null, "city": "Stapelfeld", "zip_code": "22145", "country": "DE", "state": "SH", "display_address": ["Hauptstr. 99", "22145 Stapelfeld", "Germany"]}, "phone": "+4940675070", "display_phone": "+49 40 675070", "distance": 2154.339932034467}, {"id": "F1fQ2e0IbUFfZZUa92kyPA", "alias": "china-restaurant-zum-grenzkrug-reinbek", "name": "China-Restaurant Zum Grenzkrug", "image_url": "https://s3-media2.fl.yelpcdn.com/bphoto/amJYQcATB6cXn4EhMQBHjQ/o.jpg", "is_closed": false, "url": "https://www.yelp.com/biz/china-restaurant-zum-grenzkrug-reinbek?adjust_creative=hBJOknVQJ58S5goQyjmwRw&utm_campaign=yelp_api_v3&utm_medium=api_v3_business_search&utm_source=hBJOknVQJ58S5goQyjmwRw", "review_count": 7, "categories": [{"alias": "chinese", "title": "Chinese"}], "rating": 4.5, "coordinates": {"latitude": 53.55356, "longitude": 10.24389}, "transactions": [], "price": "\u20ac\u20ac", "location": {"address1": "Grenzweg 28", "address2": null, "address3": null, "city": "Reinbek", "zip_code": "21465", "country": "DE", "state": "SH", "display_address": ["Grenzweg 28", "21465 Reinbek", "Germany"]}, "phone": "+49407102250", "display_phone": "+49 40 7102250", "distance": 3957.7605176906995}, {"id": "D1KCy-IjPeCdJe0hXzmxIg", "alias": "kronos-reinbek", "name": "Kronos", "image_url": "https://s3-media2.fl.yelpcdn.com/bphoto/t27laUQ9pny7xC8Vkx3LTw/o.jpg", "is_closed": false, "url": "https://www.yelp.com/biz/kronos-reinbek?adjust_creative=hBJOknVQJ58S5goQyjmwRw&utm_campaign=yelp_api_v3&utm_medium=api_v3_business_search&utm_source=hBJOknVQJ58S5goQyjmwRw", "review_count": 11, "categories": [{"alias": "greek", "title": "Greek"}], "rating": 4.5, "coordinates": {"latitude": 53.5490888448632, "longitude": 10.2397536441803}, "transactions": [], "price": "\u20ac\u20ac", "location": {"address1": "Haidkoppelweg 2", "address2": null, "address3": null, "city": "Reinbek", "zip_code": "21465", "country": "DE", "state": "SH", "display_address": ["Haidkoppelweg 2", "21465 Reinbek", "Germany"]}, "phone": "+49407111000", "display_phone": "+49 40 7111000", "distance": 4490.483169377126}, {"id": "nNHDS5YgtsSiSPk-berUqg", "alias": "back-drive-braaker-m\u00fchle-braak", "name": "Back Drive Braaker M\u00fchle", "image_url": "https://s3-media2.fl.yelpcdn.com/bphoto/DJeDEFHaSFa5-ddvcifdCg/o.jpg", "is_closed": false, "url": "https://www.yelp.com/biz/back-drive-braaker-m%C3%BChle-braak?adjust_creative=hBJOknVQJ58S5goQyjmwRw&utm_campaign=yelp_api_v3&utm_medium=api_v3_business_search&utm_source=hBJOknVQJ58S5goQyjmwRw", "review_count": 9, "categories": [{"alias": "cafes", "title": "Cafes"}, {"alias": "breakfast_brunch", "title": "Breakfast & Brunch"}, {"alias": "bakeries", "title": "Bakeries"}], "rating": 3.0, "coordinates": {"latitude": 53.618016, "longitude": 10.240096}, "transactions": [], "price": "\u20ac", "location": {"address1": "Braaker Bogen 33", "address2": null, "address3": "", "city": "Braak", "zip_code": "22145", "country": "DE", "state": "SH", "display_address": ["Braaker Bogen 33", "22145 Braak", "Germany"]}, "phone": "+494018024177", "display_phone": "+49 40 18024177", "distance": 3175.2344022468396}, {"id": "ZoWqPEXDg4bWWo5ZgVj62A", "alias": "take-home-reinbek", "name": "Take Home", "image_url": "", "is_closed": false, "url": "https://www.yelp.com/biz/take-home-reinbek?adjust_creative=hBJOknVQJ58S5goQyjmwRw&utm_campaign=yelp_api_v3&utm_medium=api_v3_business_search&utm_source=hBJOknVQJ58S5goQyjmwRw", "review_count": 3, "categories": [{"alias": "restaurants", "title": "Restaurants"}], "rating": 3.0, "coordinates": {"latitude": 53.5526, "longitude": 10.2507}, "transactions": [], "location": {"address1": "M\u00f6llner Landstr. 4", "address2": null, "address3": null, "city": "Reinbek", "zip_code": "21465", "country": "DE", "state": "SH", "display_address": ["M\u00f6llner Landstr. 4", "21465 Reinbek", "Germany"]}, "phone": "+494081975888", "display_phone": "+49 40 81975888", "distance": 4148.758877206607}, {"id": "blvC5dh9IP8TFla2vjk7Pg", "alias": "restaurant-opatija-glinde", "name": "Restaurant Opatija", "image_url": "https://s3-media2.fl.yelpcdn.com/bphoto/hCXY0hs-kpBTVffyp8spuA/o.jpg", "is_closed": false, "url": "https://www.yelp.com/biz/restaurant-opatija-glinde?adjust_creative=hBJOknVQJ58S5goQyjmwRw&utm_campaign=yelp_api_v3&utm_medium=api_v3_business_search&utm_source=hBJOknVQJ58S5goQyjmwRw", "review_count": 7, "categories": [{"alias": "international", "title": "International"}], "rating": 4.5, "coordinates": {"latitude": 53.5474, "longitude": 10.2176}, "transactions": [], "price": "\u20ac\u20ac", "location": {"address1": "Am Sportplatz 98", "address2": null, "address3": null, "city": "Glinde", "zip_code": "21509", "country": "DE", "state": "SH", "display_address": ["Am Sportplatz 98", "21509 Glinde", "Germany"]}, "phone": "+49407108388", "display_phone": "+49 40 7108388", "distance": 4926.625316571256}, {"id": "qXJD8Oep_OSBlV0AM00eRg", "alias": "gastst\u00e4tte-braaker-krug-braak", "name": "Gastst\u00e4tte Braaker Krug", "image_url": "https://s3-media3.fl.yelpcdn.com/bphoto/dtO6y6MWBi6ddDH2mXB0uw/o.jpg", "is_closed": false, "url": "https://www.yelp.com/biz/gastst%C3%A4tte-braaker-krug-braak?adjust_creative=hBJOknVQJ58S5goQyjmwRw&utm_campaign=yelp_api_v3&utm_medium=api_v3_business_search&utm_source=hBJOknVQJ58S5goQyjmwRw", "review_count": 8, "categories": [{"alias": "restaurants", "title": "Restaurants"}], "rating": 3.5, "coordinates": {"latitude": 53.616215, "longitude": 10.240216}, "transactions": [], "price": "\u20ac", "location": {"address1": "Am Sp\u00f6tzen 1", "address2": null, "address3": null, "city": "Braak", "zip_code": "22145", "country": "DE", "state": "SH", "display_address": ["Am Sp\u00f6tzen 1", "22145 Braak", "Germany"]}, "phone": "+49406759540", "display_phone": "+49 40 6759540", "distance": 2973.2113133114344}, {"id": "u3ub5f0MS4qY67Q8XF9ZoA", "alias": "sodemanns-fisch-kutter-nr-1-hamburg", "name": "Sodemann's Fisch-Kutter Nr. 1", "image_url": "https://s3-media3.fl.yelpcdn.com/bphoto/BlysP6fVPaL0eEjKvEbByw/o.jpg", "is_closed": false, "url": "https://www.yelp.com/biz/sodemanns-fisch-kutter-nr-1-hamburg?adjust_creative=hBJOknVQJ58S5goQyjmwRw&utm_campaign=yelp_api_v3&utm_medium=api_v3_business_search&utm_source=hBJOknVQJ58S5goQyjmwRw", "review_count": 3, "categories": [{"alias": "foodtrucks", "title": "Food Trucks"}, {"alias": "fischbroetchen", "title": "Fischbroetchen"}], "rating": 5.0, "coordinates": {"latitude": 53.5537490844727, "longitude": 9.99182987213135}, "transactions": [], "price": "\u20ac\u20ac", "location": {"address1": "", "address2": null, "address3": "", "city": "Hamburg", "zip_code": "", "country": "DE", "state": "HH", "display_address": ["Hamburg", "Germany"]}, "phone": "+491773606663", "display_phone": "+49 177 3606663", "distance": 16880.814985641337}, {"id": "APvIA_7ssxgC0atmQEFMcg", "alias": "burgerkultour-food-truck-hamburg-2", "name": "BurgerKultour Food Truck", "image_url": "https://s3-media4.fl.yelpcdn.com/bphoto/KoAuwalMnlAO8139MmdYBQ/o.jpg", "is_closed": false, "url": "https://www.yelp.com/biz/burgerkultour-food-truck-hamburg-2?adjust_creative=hBJOknVQJ58S5goQyjmwRw&utm_campaign=yelp_api_v3&utm_medium=api_v3_business_search&utm_source=hBJOknVQJ58S5goQyjmwRw", "review_count": 3, "categories": [{"alias": "foodtrucks", "title": "Food Trucks"}, {"alias": "burgers", "title": "Burgers"}], "rating": 4.5, "coordinates": {"latitude": 53.57154, "longitude": 9.95575}, "transactions": [], "price": "\u20ac\u20ac", "location": {"address1": "", "address2": "", "address3": "", "city": "Hamburg", "zip_code": "20259", "country": "DE", "state": "HH", "display_address": ["20259 Hamburg", "Germany"]}, "phone": "+4917626055122", "display_phone": "+49 176 26055122", "distance": 18904.422586629054}, {"id": "cGIKCcR0wZszz8VldC2-7g", "alias": "currywerk-hamburg", "name": "curryWERK", "image_url": "https://s3-media4.fl.yelpcdn.com/bphoto/j_ZPQAB6JrAru84VDuLiRA/o.jpg", "is_closed": false, "url": "https://www.yelp.com/biz/currywerk-hamburg?adjust_creative=hBJOknVQJ58S5goQyjmwRw&utm_campaign=yelp_api_v3&utm_medium=api_v3_business_search&utm_source=hBJOknVQJ58S5goQyjmwRw", "review_count": 1, "categories": [{"alias": "foodtrucks", "title": "Food Trucks"}, {"alias": "currysausage", "title": "Curry Sausage"}], "rating": 4.0, "coordinates": {"latitude": 53.5498886108398, "longitude": 9.94732189178467}, "transactions": [], "price": "\u20ac\u20ac", "location": {"address1": "", "address2": "", "address3": "", "city": "Hamburg", "zip_code": "22767", "country": "DE", "state": "HH", "display_address": ["22767 Hamburg", "Germany"]}, "phone": "+4917632443433", "display_phone": "+49 176 32443433", "distance": 20215.415663935055}]