[{"id": "c6dhfuYvkp6Hq11JNe3cxw", "alias": "rio-grande-hamburg-5", "name": "Rio Grande", "image_url": "https://s3-media3.fl.yelpcdn.com/bphoto/XyiotFMNhaRfQ3yOZR9eaQ/o.jpg", "is_closed": false, "url": "https://www.yelp.com/biz/rio-grande-hamburg-5?adjust_creative=hBJOknVQJ58S5goQyjmwRw&utm_campaign=yelp_api_v3&utm_medium=api_v3_business_search&utm_source=hBJOknVQJ58S5goQyjmwRw", "review_count": 29, "categories": [{"alias": "international", "title": "International"}], "rating": 4.0, "coordinates": {"latitude": 53.5982, "longitude": 9.96564}, "transactions": [], "price": "\u20ac\u20ac", "location": {"address1": "Lokstedter Steindamm 7", "address2": null, "address3": null, "city": "Hamburg", "zip_code": "22529", "country": "DE", "state": "HH", "display_address": ["Lokstedter Steindamm 7", "22529 Hamburg", "Germany"]}, "phone": "+49405533669", "display_phone": "+49 40 5533669", "distance": 320.29648873855666}, {"id": "ZxkuTIJSHKsGse1PJuq_MA", "alias": "casa-deonila-hamburg", "name": "Casa Deonila", "image_url": "https://s3-media1.fl.yelpcdn.com/bphoto/4CwJ14izBbmRxr1bsm5KWw/o.jpg", "is_closed": false, "url": "https://www.yelp.com/biz/casa-deonila-hamburg?adjust_creative=hBJOknVQJ58S5goQyjmwRw&utm_campaign=yelp_api_v3&utm_medium=api_v3_business_search&utm_source=hBJOknVQJ58S5goQyjmwRw", "review_count": 3, "categories": [{"alias": "brazilian", "title": "Brazilian"}, {"alias": "delicatessen", "title": "Delicatessen"}], "rating": 4.0, "coordinates": {"latitude": 53.59324, "longitude": 9.967177}, "transactions": [], "price": "\u20ac\u20ac", "location": {"address1": "Lokstedter Steindamm 55 b", "address2": "", "address3": "", "city": "Hamburg", "zip_code": "22529", "country": "DE", "state": "HH", "display_address": ["Lokstedter Steindamm 55 b", "22529 Hamburg", "Germany"]}, "phone": "+494037026800", "display_phone": "+49 40 37026800", "distance": 514.5489264321106}, {"id": "DySKJC7bafLBQApP7iPqjw", "alias": "lust-auf-griechenland-hamburg-2", "name": "Lust auf Griechenland", "image_url": "https://s3-media2.fl.yelpcdn.com/bphoto/aqpE0uLXjhwSLjv4pHOeCw/o.jpg", "is_closed": false, "url": "https://www.yelp.com/biz/lust-auf-griechenland-hamburg-2?adjust_creative=hBJOknVQJ58S5goQyjmwRw&utm_campaign=yelp_api_v3&utm_medium=api_v3_business_search&utm_source=hBJOknVQJ58S5goQyjmwRw", "review_count": 71, "categories": [{"alias": "greek", "title": "Greek"}], "rating": 4.5, "coordinates": {"latitude": 53.6047435849681, "longitude": 9.96657572686672}, "transactions": [], "price": "\u20ac\u20ac", "location": {"address1": "Kellerbleek 6", "address2": "", "address3": "", "city": "Hamburg", "zip_code": "22529", "country": "DE", "state": "HH", "display_address": ["Kellerbleek 6", "22529 Hamburg", "Germany"]}, "phone": "+494064505929", "display_phone": "+49 40 64505929", "distance": 968.5181877560341}, {"id": "Y8zQgmCxi9HrPWncKLU8Gg", "alias": "kleines-hofcaf\u00e9-hamburg-3", "name": "Kleines Hofcaf\u00e9", "image_url": "", "is_closed": false, "url": "https://www.yelp.com/biz/kleines-hofcaf%C3%A9-hamburg-3?adjust_creative=hBJOknVQJ58S5goQyjmwRw&utm_campaign=yelp_api_v3&utm_medium=api_v3_business_search&utm_source=hBJOknVQJ58S5goQyjmwRw", "review_count": 1, "categories": [{"alias": "cafes", "title": "Cafes"}], "rating": 5.0, "coordinates": {"latitude": 53.601, "longitude": 9.9556799}, "transactions": [], "location": {"address1": "Grelckstr. 19", "address2": "", "address3": null, "city": "Hamburg", "zip_code": "22529", "country": "DE", "state": "HH", "display_address": ["Grelckstr. 19", "22529 Hamburg", "Germany"]}, "phone": "+494058955595", "display_phone": "+49 40 58955595", "distance": 635.8834839873391}, {"id": "g0yGCPPFTqy-1ezJUKSKqg", "alias": "mr-wok-hamburg-2", "name": "Mr. Wok", "image_url": "https://s3-media3.fl.yelpcdn.com/bphoto/tZcVChg_KIRvGfuSjqMjNA/o.jpg", "is_closed": false, "url": "https://www.yelp.com/biz/mr-wok-hamburg-2?adjust_creative=hBJOknVQJ58S5goQyjmwRw&utm_campaign=yelp_api_v3&utm_medium=api_v3_business_search&utm_source=hBJOknVQJ58S5goQyjmwRw", "review_count": 3, "categories": [{"alias": "chinese", "title": "Chinese"}], "rating": 4.5, "coordinates": {"latitude": 53.5995599, "longitude": 9.96552}, "transactions": [], "location": {"address1": "Osterfeldstr. 88", "address2": "", "address3": null, "city": "Hamburg", "zip_code": "22529", "country": "DE", "state": "HH", "display_address": ["Osterfeldstr. 88", "22529 Hamburg", "Germany"]}, "phone": "+494028470852", "display_phone": "+49 40 28470852", "distance": 422.90784368615147}, {"id": "SA79tJbyfNW3IZ5garwgqg", "alias": "il-tramonto-mustafa-uludag-hamburg-2", "name": "Il Tramonto Mustafa Uludag", "image_url": "https://s3-media4.fl.yelpcdn.com/bphoto/hIKfoIMf4stfcHHpwYI5gQ/o.jpg", "is_closed": false, "url": "https://www.yelp.com/biz/il-tramonto-mustafa-uludag-hamburg-2?adjust_creative=hBJOknVQJ58S5goQyjmwRw&utm_campaign=yelp_api_v3&utm_medium=api_v3_business_search&utm_source=hBJOknVQJ58S5goQyjmwRw", "review_count": 37, "categories": [{"alias": "italian", "title": "Italian"}], "rating": 4.0, "coordinates": {"latitude": 53.6005175, "longitude": 9.9565587}, "transactions": [], "price": "\u20ac\u20ac\u20ac", "location": {"address1": "Grelckstr. 13", "address2": null, "address3": null, "city": "Hamburg", "zip_code": "22529", "country": "DE", "state": "HH", "display_address": ["Grelckstr. 13", "22529 Hamburg", "Germany"]}, "phone": "+494054007509", "display_phone": "+49 40 54007509", "distance": 557.4890972473015}, {"id": "zujjfzO3CQZg-9KtOC87zQ", "alias": "pulverm\u00fchle-hamburg", "name": "Pulverm\u00fchle", "image_url": "https://s3-media1.fl.yelpcdn.com/bphoto/IFnVKG6E7RjZeFXW5S0SAg/o.jpg", "is_closed": false, "url": "https://www.yelp.com/biz/pulverm%C3%BChle-hamburg?adjust_creative=hBJOknVQJ58S5goQyjmwRw&utm_campaign=yelp_api_v3&utm_medium=api_v3_business_search&utm_source=hBJOknVQJ58S5goQyjmwRw", "review_count": 17, "categories": [{"alias": "italian", "title": "Italian"}, {"alias": "lounges", "title": "Lounges"}], "rating": 4.0, "coordinates": {"latitude": 53.6050355409105, "longitude": 9.96611014736027}, "transactions": [], "price": "\u20ac\u20ac\u20ac", "location": {"address1": "Bei der Pulverm\u00fchle 1", "address2": "", "address3": "", "city": "Hamburg", "zip_code": "22453", "country": "DE", "state": "HH", "display_address": ["Bei der Pulverm\u00fchle 1", "22453 Hamburg", "Germany"]}, "phone": "+494022864948", "display_phone": "+49 40 22864948", "distance": 989.6858035156718}, {"id": "rZsV7d1gofjY-9_ZIzLnhg", "alias": "cantina-cuatro-hamburg", "name": "cantina cuatro", "image_url": "https://s3-media3.fl.yelpcdn.com/bphoto/EKMkeIJktDm0w3eV1j7tHw/o.jpg", "is_closed": false, "url": "https://www.yelp.com/biz/cantina-cuatro-hamburg?adjust_creative=hBJOknVQJ58S5goQyjmwRw&utm_campaign=yelp_api_v3&utm_medium=api_v3_business_search&utm_source=hBJOknVQJ58S5goQyjmwRw", "review_count": 2, "categories": [{"alias": "canteen", "title": "Canteen"}], "rating": 4.0, "coordinates": {"latitude": 53.6031, "longitude": 9.96201}, "transactions": [], "location": {"address1": "Audi Zentrum", "address2": "Kollaustr. 41-63", "address3": null, "city": "Hamburg", "zip_code": "22529", "country": "DE", "state": "HH", "display_address": ["Audi Zentrum", "Kollaustr. 41-63", "22529 Hamburg", "Germany"]}, "phone": "", "display_phone": "", "distance": 730.6946620421611}, {"id": "NiDhEkDB_OaVr_MtjXa8mw", "alias": "taverna-arhontiko-hamburg", "name": "Taverna Arhontiko", "image_url": "https://s3-media4.fl.yelpcdn.com/bphoto/nagnnIdpSf0Qo0cqWBJgOw/o.jpg", "is_closed": false, "url": "https://www.yelp.com/biz/taverna-arhontiko-hamburg?adjust_creative=hBJOknVQJ58S5goQyjmwRw&utm_campaign=yelp_api_v3&utm_medium=api_v3_business_search&utm_source=hBJOknVQJ58S5goQyjmwRw", "review_count": 8, "categories": [{"alias": "greek", "title": "Greek"}], "rating": 4.0, "coordinates": {"latitude": 53.585941, "longitude": 9.967115}, "transactions": [], "price": "\u20ac\u20ac", "location": {"address1": "Troplowitzstr. 2", "address2": "", "address3": "", "city": "Hamburg", "zip_code": "22529", "country": "DE", "state": "HH", "display_address": ["Troplowitzstr. 2", "22529 Hamburg", "Germany"]}, "phone": "+494020911038", "display_phone": "+49 40 20911038", "distance": 1227.4485111310203}, {"id": "a3NwmecwsGa--y7hK3Mh9g", "alias": "forum-bistro-hamburg", "name": "Forum Bistro", "image_url": "", "is_closed": false, "url": "https://www.yelp.com/biz/forum-bistro-hamburg?adjust_creative=hBJOknVQJ58S5goQyjmwRw&utm_campaign=yelp_api_v3&utm_medium=api_v3_business_search&utm_source=hBJOknVQJ58S5goQyjmwRw", "review_count": 1, "categories": [{"alias": "bistros", "title": "Bistros"}], "rating": 4.0, "coordinates": {"latitude": 53.5913082, "longitude": 9.9581828}, "transactions": [], "location": {"address1": "Betriebskantine Dello", "address2": "Nedderfeld 91", "address3": null, "city": "Hamburg", "zip_code": "22529", "country": "DE", "state": "HH", "display_address": ["Betriebskantine Dello", "Nedderfeld 91", "22529 Hamburg", "Germany"]}, "phone": "+494047122761", "display_phone": "+49 40 47122761", "distance": 625.0675082068825}, {"id": "cv2Yqjfo9ExCKdG47i8CKw", "alias": "mcdonalds-hamburg-46", "name": "McDonald's", "image_url": "https://s3-media4.fl.yelpcdn.com/bphoto/hDCAuMU49n9VJ-hZMkclQg/o.jpg", "is_closed": false, "url": "https://www.yelp.com/biz/mcdonalds-hamburg-46?adjust_creative=hBJOknVQJ58S5goQyjmwRw&utm_campaign=yelp_api_v3&utm_medium=api_v3_business_search&utm_source=hBJOknVQJ58S5goQyjmwRw", "review_count": 18, "categories": [{"alias": "hotdogs", "title": "Fast Food"}, {"alias": "burgers", "title": "Burgers"}], "rating": 2.5, "coordinates": {"latitude": 53.60214, "longitude": 9.96197}, "transactions": [], "price": "\u20ac\u20ac", "location": {"address1": "Kollaustr. 25", "address2": null, "address3": null, "city": "Hamburg", "zip_code": "22529", "country": "DE", "state": "HH", "display_address": ["Kollaustr. 25", "22529 Hamburg", "Germany"]}, "phone": "+4940584814", "display_phone": "+49 40 584814", "distance": 626.6868477916055}, {"id": "a4ly03J9eiSKQjG6ithjZA", "alias": "imbi\u00df-nedderfeld-hamburg", "name": "Imbi\u00df Nedderfeld", "image_url": "", "is_closed": false, "url": "https://www.yelp.com/biz/imbi%C3%9F-nedderfeld-hamburg?adjust_creative=hBJOknVQJ58S5goQyjmwRw&utm_campaign=yelp_api_v3&utm_medium=api_v3_business_search&utm_source=hBJOknVQJ58S5goQyjmwRw", "review_count": 1, "categories": [{"alias": "hotdogs", "title": "Fast Food"}], "rating": 2.0, "coordinates": {"latitude": 53.6036, "longitude": 9.96666}, "transactions": [], "location": {"address1": "Nedderfeld 15", "address2": null, "address3": null, "city": "Hamburg", "zip_code": "22529", "country": "DE", "state": "HH", "display_address": ["Nedderfeld 15", "22529 Hamburg", "Germany"]}, "phone": "+494055779529", "display_phone": "+49 40 55779529", "distance": 851.8166660458535}]