[{"id": "l6KyxElYzEQ5Z4sUBV2jHQ", "alias": "lindos-grill-schenefeld", "name": "Lindos Grill", "image_url": "https://s3-media1.fl.yelpcdn.com/bphoto/YW_fD41dnVX348IzVgCjKw/o.jpg", "is_closed": false, "url": "https://www.yelp.com/biz/lindos-grill-schenefeld?adjust_creative=hBJOknVQJ58S5goQyjmwRw&utm_campaign=yelp_api_v3&utm_medium=api_v3_business_search&utm_source=hBJOknVQJ58S5goQyjmwRw", "review_count": 20, "categories": [{"alias": "greek", "title": "Greek"}], "rating": 4.5, "coordinates": {"latitude": 53.6010826662309, "longitude": 9.8220850614548}, "transactions": [], "price": "\u20ac\u20ac", "location": {"address1": "Hauptstr. 53", "address2": null, "address3": null, "city": "Schenefeld", "zip_code": "22869", "country": "DE", "state": "SH", "display_address": ["Hauptstr. 53", "22869 Schenefeld", "Germany"]}, "phone": "+49408301277", "display_phone": "+49 40 8301277", "distance": 925.8164177392675}, {"id": "XinjyDWdj9lD5lX4jRfKNw", "alias": "riva-hamburg", "name": "RIVA", "image_url": "https://s3-media3.fl.yelpcdn.com/bphoto/BwsVm4I_ZfmnTHWokBRi6g/o.jpg", "is_closed": false, "url": "https://www.yelp.com/biz/riva-hamburg?adjust_creative=hBJOknVQJ58S5goQyjmwRw&utm_campaign=yelp_api_v3&utm_medium=api_v3_business_search&utm_source=hBJOknVQJ58S5goQyjmwRw", "review_count": 22, "categories": [{"alias": "bars", "title": "Bars"}, {"alias": "bistros", "title": "Bistros"}], "rating": 4.5, "coordinates": {"latitude": 53.56112, "longitude": 9.81111}, "transactions": [], "price": "\u20ac\u20ac", "location": {"address1": "Blankeneser Bahnhofstr. 36", "address2": null, "address3": null, "city": "Hamburg", "zip_code": "22587", "country": "DE", "state": "HH", "display_address": ["Blankeneser Bahnhofstr. 36", "22587 Hamburg", "Germany"]}, "phone": "+494086623770", "display_phone": "+49 40 86623770", "distance": 3584.0516869519925}, {"id": "z4-gIwlU7VXAm4mQOjjHBg", "alias": "elbdorf-cafe-hamburg-2", "name": "Elbdorf Cafe", "image_url": "https://s3-media1.fl.yelpcdn.com/bphoto/BDqIPOe1oKqxrhecRdDwjw/o.jpg", "is_closed": false, "url": "https://www.yelp.com/biz/elbdorf-cafe-hamburg-2?adjust_creative=hBJOknVQJ58S5goQyjmwRw&utm_campaign=yelp_api_v3&utm_medium=api_v3_business_search&utm_source=hBJOknVQJ58S5goQyjmwRw", "review_count": 3, "categories": [{"alias": "cafes", "title": "Cafes"}, {"alias": "german", "title": "German"}], "rating": 5.0, "coordinates": {"latitude": 53.5766, "longitude": 9.80227}, "transactions": [], "price": "\u20ac\u20ac", "location": {"address1": "Fruchtweg 40", "address2": null, "address3": null, "city": "Hamburg", "zip_code": "22589", "country": "DE", "state": "HH", "display_address": ["Fruchtweg 40", "22589 Hamburg", "Germany"]}, "phone": "+494087082602", "display_phone": "+49 40 87082602", "distance": 2110.8601691629424}, {"id": "vhDnzqKJXzaWjjWtSoKVvg", "alias": "reggies-hamburg-5", "name": "Reggie's", "image_url": "https://s3-media2.fl.yelpcdn.com/bphoto/mIPramJ63ITSM0mXSOwnGw/o.jpg", "is_closed": false, "url": "https://www.yelp.com/biz/reggies-hamburg-5?adjust_creative=hBJOknVQJ58S5goQyjmwRw&utm_campaign=yelp_api_v3&utm_medium=api_v3_business_search&utm_source=hBJOknVQJ58S5goQyjmwRw", "review_count": 3, "categories": [{"alias": "salad", "title": "Salad"}, {"alias": "burgers", "title": "Burgers"}, {"alias": "sandwiches", "title": "Sandwiches"}], "rating": 4.5, "coordinates": {"latitude": 53.5780479740913, "longitude": 9.81364522129297}, "transactions": [], "location": {"address1": "S\u00fclldorfer Landstr. 60", "address2": "", "address3": null, "city": "Hamburg", "zip_code": "22589", "country": "DE", "state": "HH", "display_address": ["S\u00fclldorfer Landstr. 60", "22589 Hamburg", "Germany"]}, "phone": "+494086649494", "display_phone": "+49 40 86649494", "distance": 1699.5451694479939}, {"id": "hTATHqbbIFeoPnEvB8mLcg", "alias": "rio-grande-blankenese-hamburg", "name": "Rio Grande Blankenese", "image_url": "https://s3-media3.fl.yelpcdn.com/bphoto/q2v2APkcYiUmsbAGKIsDQg/o.jpg", "is_closed": false, "url": "https://www.yelp.com/biz/rio-grande-blankenese-hamburg?adjust_creative=hBJOknVQJ58S5goQyjmwRw&utm_campaign=yelp_api_v3&utm_medium=api_v3_business_search&utm_source=hBJOknVQJ58S5goQyjmwRw", "review_count": 31, "categories": [{"alias": "mediterranean", "title": "Mediterranean"}, {"alias": "steak", "title": "Steakhouses"}], "rating": 4.0, "coordinates": {"latitude": 53.56179, "longitude": 9.82001}, "transactions": [], "price": "\u20ac\u20ac", "location": {"address1": "Dockenhudener Str. 2", "address2": null, "address3": null, "city": "Hamburg", "zip_code": "22587", "country": "DE", "state": "HH", "display_address": ["Dockenhudener Str. 2", "22587 Hamburg", "Germany"]}, "phone": "+494088941941", "display_phone": "+49 40 88941941", "distance": 3474.1679186557367}, {"id": "tnayDufFC496volXBPjbWg", "alias": "mama-trattoria-hamburg-5", "name": "Mama Trattoria", "image_url": "https://s3-media1.fl.yelpcdn.com/bphoto/KGz9NRqGM0RWdtx1eQAObw/o.jpg", "is_closed": false, "url": "https://www.yelp.com/biz/mama-trattoria-hamburg-5?adjust_creative=hBJOknVQJ58S5goQyjmwRw&utm_campaign=yelp_api_v3&utm_medium=api_v3_business_search&utm_source=hBJOknVQJ58S5goQyjmwRw", "review_count": 14, "categories": [{"alias": "italian", "title": "Italian"}], "rating": 3.5, "coordinates": {"latitude": 53.562122, "longitude": 9.812364}, "transactions": [], "price": "\u20ac\u20ac", "location": {"address1": "Blankeneser Bahnhofstr. 31", "address2": "", "address3": "", "city": "Hamburg", "zip_code": "22587", "country": "DE", "state": "HH", "display_address": ["Blankeneser Bahnhofstr. 31", "22587 Hamburg", "Germany"]}, "phone": "+494080007373", "display_phone": "+49 40 80007373", "distance": 3461.7328881115627}, {"id": "F3WRjuwkE8d57eYGNjlZ5A", "alias": "boccone-hamburg", "name": "Boccone", "image_url": "https://s3-media3.fl.yelpcdn.com/bphoto/Qw-a9fBfktHvYlhgZnkddg/o.jpg", "is_closed": false, "url": "https://www.yelp.com/biz/boccone-hamburg?adjust_creative=hBJOknVQJ58S5goQyjmwRw&utm_campaign=yelp_api_v3&utm_medium=api_v3_business_search&utm_source=hBJOknVQJ58S5goQyjmwRw", "review_count": 5, "categories": [{"alias": "italian", "title": "Italian"}], "rating": 4.0, "coordinates": {"latitude": 53.56633, "longitude": 9.8164}, "transactions": [], "price": "\u20ac\u20ac\u20ac", "location": {"address1": "Am Klingenberg 34", "address2": "", "address3": "", "city": "Hamburg", "zip_code": "22587", "country": "DE", "state": "HH", "display_address": ["Am Klingenberg 34", "22587 Hamburg", "Germany"]}, "phone": "+494087009707", "display_phone": "+49 40 87009707", "distance": 2984.893743715518}, {"id": "-m7HfA7d4pSfam8S3z_zMQ", "alias": "rudolph-hamburg-2", "name": "Rudolph", "image_url": "https://s3-media2.fl.yelpcdn.com/bphoto/5SBBQw5nvN74N6kECASlng/o.jpg", "is_closed": false, "url": "https://www.yelp.com/biz/rudolph-hamburg-2?adjust_creative=hBJOknVQJ58S5goQyjmwRw&utm_campaign=yelp_api_v3&utm_medium=api_v3_business_search&utm_source=hBJOknVQJ58S5goQyjmwRw", "review_count": 7, "categories": [{"alias": "gastropubs", "title": "Gastropubs"}, {"alias": "german", "title": "German"}], "rating": 4.5, "coordinates": {"latitude": 53.56374, "longitude": 9.80812}, "transactions": [], "price": "\u20ac\u20ac", "location": {"address1": "Blankeneser Landstr. 29", "address2": "", "address3": "", "city": "Hamburg", "zip_code": "22587", "country": "DE", "state": "HH", "display_address": ["Blankeneser Landstr. 29", "22587 Hamburg", "Germany"]}, "phone": "+494073084484", "display_phone": "+49 40 73084484", "distance": 3335.376113585675}, {"id": "JiXDs1z1G_dgUcKiai92CA", "alias": "ristorante-dal-fabbro-hamburg", "name": "Ristorante Dal Fabbro", "image_url": "https://s3-media1.fl.yelpcdn.com/bphoto/hdfotRGpEWZ6ya6OgRTPDQ/o.jpg", "is_closed": false, "url": "https://www.yelp.com/biz/ristorante-dal-fabbro-hamburg?adjust_creative=hBJOknVQJ58S5goQyjmwRw&utm_campaign=yelp_api_v3&utm_medium=api_v3_business_search&utm_source=hBJOknVQJ58S5goQyjmwRw", "review_count": 41, "categories": [{"alias": "italian", "title": "Italian"}], "rating": 4.0, "coordinates": {"latitude": 53.5593999, "longitude": 9.8112999}, "transactions": [], "price": "\u20ac\u20ac\u20ac", "location": {"address1": "Blankeneser Bahnhofstr. 10", "address2": null, "address3": null, "city": "Hamburg", "zip_code": "22587", "country": "DE", "state": "HH", "display_address": ["Blankeneser Bahnhofstr. 10", "22587 Hamburg", "Germany"]}, "phone": "+4940868941", "display_phone": "+49 40 868941", "distance": 3779.2056920732734}, {"id": "6D94K0B6TPd1-lwMt_eC8A", "alias": "witth\u00fcs-hamburg", "name": "Witth\u00fcs", "image_url": "https://s3-media1.fl.yelpcdn.com/bphoto/_nMjU8x-680736WfrTYQTA/o.jpg", "is_closed": false, "url": "https://www.yelp.com/biz/witth%C3%BCs-hamburg?adjust_creative=hBJOknVQJ58S5goQyjmwRw&utm_campaign=yelp_api_v3&utm_medium=api_v3_business_search&utm_source=hBJOknVQJ58S5goQyjmwRw", "review_count": 86, "categories": [{"alias": "mediterranean", "title": "Mediterranean"}], "rating": 4.0, "coordinates": {"latitude": 53.55912, "longitude": 9.822568}, "transactions": [], "price": "\u20ac\u20ac\u20ac", "location": {"address1": "Elbchaussee 499 A", "address2": "", "address3": null, "city": "Hamburg", "zip_code": "22587", "country": "DE", "state": "HH", "display_address": ["Elbchaussee 499 A", "22587 Hamburg", "Germany"]}, "phone": "+4940860173", "display_phone": "+49 40 860173", "distance": 3790.6385157390187}, {"id": "Zvlf5AVJmblIwhncprSE_g", "alias": "ruperti-hamburg", "name": "Ruperti", "image_url": "https://s3-media2.fl.yelpcdn.com/bphoto/PsRMela7DA6VuUWBBfK3SA/o.jpg", "is_closed": false, "url": "https://www.yelp.com/biz/ruperti-hamburg?adjust_creative=hBJOknVQJ58S5goQyjmwRw&utm_campaign=yelp_api_v3&utm_medium=api_v3_business_search&utm_source=hBJOknVQJ58S5goQyjmwRw", "review_count": 5, "categories": [{"alias": "italian", "title": "Italian"}], "rating": 5.0, "coordinates": {"latitude": 53.55562, "longitude": 9.84309}, "transactions": [], "location": {"address1": "Rupertistr. 26", "address2": "", "address3": "", "city": "Hamburg", "zip_code": "22609", "country": "DE", "state": "HH", "display_address": ["Rupertistr. 26", "22609 Hamburg", "Germany"]}, "phone": "+494085505995", "display_phone": "+49 40 85505995", "distance": 4479.019972929667}, {"id": "SKr0iOJ8BcElC4uD2JqbUA", "alias": "wasabi-de-luxe-hamburg", "name": "Wasabi De Luxe", "image_url": "https://s3-media2.fl.yelpcdn.com/bphoto/pvwna-L2L8gRGHXzsIJAQw/o.jpg", "is_closed": false, "url": "https://www.yelp.com/biz/wasabi-de-luxe-hamburg?adjust_creative=hBJOknVQJ58S5goQyjmwRw&utm_campaign=yelp_api_v3&utm_medium=api_v3_business_search&utm_source=hBJOknVQJ58S5goQyjmwRw", "review_count": 15, "categories": [{"alias": "sushi", "title": "Sushi Bars"}], "rating": 4.5, "coordinates": {"latitude": 53.5759944, "longitude": 9.8214584}, "transactions": [], "price": "\u20ac\u20ac", "location": {"address1": "Simrockstr. 186", "address2": null, "address3": null, "city": "Hamburg", "zip_code": "22589", "country": "DE", "state": "HH", "display_address": ["Simrockstr. 186", "22589 Hamburg", "Germany"]}, "phone": "+494033425503", "display_phone": "+49 40 33425503", "distance": 1915.7491071223528}, {"id": "nvmgtLOXRu4Zfywx9SGyzQ", "alias": "china-restaurant-mr-hoh-schenefeld", "name": "China-Restaurant Mr. Hoh", "image_url": "https://s3-media4.fl.yelpcdn.com/bphoto/m0LVWBB8M4JP42aSBhQBKQ/o.jpg", "is_closed": false, "url": "https://www.yelp.com/biz/china-restaurant-mr-hoh-schenefeld?adjust_creative=hBJOknVQJ58S5goQyjmwRw&utm_campaign=yelp_api_v3&utm_medium=api_v3_business_search&utm_source=hBJOknVQJ58S5goQyjmwRw", "review_count": 31, "categories": [{"alias": "chinese", "title": "Chinese"}], "rating": 4.0, "coordinates": {"latitude": 53.60809, "longitude": 9.84038}, "transactions": [], "price": "\u20ac\u20ac", "location": {"address1": "Lornsenstr. 122", "address2": null, "address3": null, "city": "Schenefeld", "zip_code": "22869", "country": "DE", "state": "SH", "display_address": ["Lornsenstr. 122", "22869 Schenefeld", "Germany"]}, "phone": "+49408304990", "display_phone": "+49 40 8304990", "distance": 2231.2443369759294}, {"id": "iDX7o2U5ykcPhFrJe6R3DQ", "alias": "annies-schenefeld", "name": "Annie's", "image_url": "https://s3-media2.fl.yelpcdn.com/bphoto/r6S8EIRk2QKM6jQ0oj3UTQ/o.jpg", "is_closed": false, "url": "https://www.yelp.com/biz/annies-schenefeld?adjust_creative=hBJOknVQJ58S5goQyjmwRw&utm_campaign=yelp_api_v3&utm_medium=api_v3_business_search&utm_source=hBJOknVQJ58S5goQyjmwRw", "review_count": 2, "categories": [{"alias": "lounges", "title": "Lounges"}, {"alias": "cafes", "title": "Cafes"}], "rating": 5.0, "coordinates": {"latitude": 53.60147, "longitude": 9.83773}, "transactions": [], "price": "\u20ac\u20ac", "location": {"address1": "Industriestr. 1A", "address2": null, "address3": null, "city": "Schenefeld", "zip_code": "22869", "country": "DE", "state": "SH", "display_address": ["Industriestr. 1A", "22869 Schenefeld", "Germany"]}, "phone": "+494084057837", "display_phone": "+49 40 84057837", "distance": 1623.5673957639285}, {"id": "nzc7-PoI6gN2nqENAxb_Mg", "alias": "goa-hamburg", "name": "Goa", "image_url": "https://s3-media2.fl.yelpcdn.com/bphoto/nEJM4fIte0UaKeoXEf4frg/o.jpg", "is_closed": false, "url": "https://www.yelp.com/biz/goa-hamburg?adjust_creative=hBJOknVQJ58S5goQyjmwRw&utm_campaign=yelp_api_v3&utm_medium=api_v3_business_search&utm_source=hBJOknVQJ58S5goQyjmwRw", "review_count": 9, "categories": [{"alias": "indpak", "title": "Indian"}], "rating": 4.0, "coordinates": {"latitude": 53.56208, "longitude": 9.81958}, "transactions": [], "price": "\u20ac\u20ac", "location": {"address1": "Dockenhudener Str. 4", "address2": "", "address3": "", "city": "Hamburg", "zip_code": "22587", "country": "DE", "state": "HH", "display_address": ["Dockenhudener Str. 4", "22587 Hamburg", "Germany"]}, "phone": "+494063731383", "display_phone": "+49 40 63731383", "distance": 3461.159740220678}, {"id": "nl5xxm4SkbxmHSKo7jlFAw", "alias": "athen-pallas-hamburg", "name": "Athen Pallas", "image_url": "https://s3-media1.fl.yelpcdn.com/bphoto/2fu60Y2HdfgevYHtFpWLEg/o.jpg", "is_closed": false, "url": "https://www.yelp.com/biz/athen-pallas-hamburg?adjust_creative=hBJOknVQJ58S5goQyjmwRw&utm_campaign=yelp_api_v3&utm_medium=api_v3_business_search&utm_source=hBJOknVQJ58S5goQyjmwRw", "review_count": 31, "categories": [{"alias": "greek", "title": "Greek"}], "rating": 4.0, "coordinates": {"latitude": 53.5667225939133, "longitude": 9.79576466315996}, "transactions": [], "price": "\u20ac\u20ac", "location": {"address1": "Rissener Landstr. 1", "address2": null, "address3": null, "city": "Hamburg", "zip_code": "22587", "country": "DE", "state": "HH", "display_address": ["Rissener Landstr. 1", "22587 Hamburg", "Germany"]}, "phone": "+4940865790", "display_phone": "+49 40 865790", "distance": 3282.3720705530104}, {"id": "Stlzi6bLMLVpkOc7hmXAug", "alias": "servus-das-wirtshaus-hamburg", "name": "Servus das Wirtshaus", "image_url": "https://s3-media2.fl.yelpcdn.com/bphoto/E95QRBdXHFF8Yyo_MiTdKQ/o.jpg", "is_closed": false, "url": "https://www.yelp.com/biz/servus-das-wirtshaus-hamburg?adjust_creative=hBJOknVQJ58S5goQyjmwRw&utm_campaign=yelp_api_v3&utm_medium=api_v3_business_search&utm_source=hBJOknVQJ58S5goQyjmwRw", "review_count": 1, "categories": [{"alias": "austrian", "title": "Austrian"}], "rating": 4.0, "coordinates": {"latitude": 53.5726695586902, "longitude": 9.84318841248751}, "transactions": [], "location": {"address1": "Osdorfer Landstr. 239", "address2": "", "address3": null, "city": "Hamburg", "zip_code": "22549", "country": "DE", "state": "HH", "display_address": ["Osdorfer Landstr. 239", "22549 Hamburg", "Germany"]}, "phone": "+494087878980", "display_phone": "+49 40 87878980", "distance": 2813.0597456544097}, {"id": "-tbsQDch3j5sYYSfDj0tZg", "alias": "blankeneser-caf\u00e9-hamburg-2", "name": "Blankeneser Caf\u00e9", "image_url": "https://s3-media2.fl.yelpcdn.com/bphoto/DErWGZcGAOsU76-TkYDjug/o.jpg", "is_closed": false, "url": "https://www.yelp.com/biz/blankeneser-caf%C3%A9-hamburg-2?adjust_creative=hBJOknVQJ58S5goQyjmwRw&utm_campaign=yelp_api_v3&utm_medium=api_v3_business_search&utm_source=hBJOknVQJ58S5goQyjmwRw", "review_count": 25, "categories": [{"alias": "cafes", "title": "Cafes"}], "rating": 4.0, "coordinates": {"latitude": 53.56294, "longitude": 9.81633}, "transactions": [], "price": "\u20ac\u20ac", "location": {"address1": "Dockenhudener Str. 30", "address2": "", "address3": "", "city": "Hamburg", "zip_code": "22587", "country": "DE", "state": "HH", "display_address": ["Dockenhudener Str. 30", "22587 Hamburg", "Germany"]}, "phone": "+494070384676", "display_phone": "+49 40 70384676", "distance": 3351.61824342227}, {"id": "zRxmdUEEh6D9PqkssHdCeQ", "alias": "peter-pane-hamburg-12", "name": "Peter Pane", "image_url": "https://s3-media2.fl.yelpcdn.com/bphoto/BDfOtQZOyqb6ZhEJFbvxEg/o.jpg", "is_closed": false, "url": "https://www.yelp.com/biz/peter-pane-hamburg-12?adjust_creative=hBJOknVQJ58S5goQyjmwRw&utm_campaign=yelp_api_v3&utm_medium=api_v3_business_search&utm_source=hBJOknVQJ58S5goQyjmwRw", "review_count": 14, "categories": [{"alias": "cocktailbars", "title": "Cocktail Bars"}, {"alias": "burgers", "title": "Burgers"}], "rating": 3.5, "coordinates": {"latitude": 53.56321, "longitude": 9.81583}, "transactions": [], "price": "\u20ac\u20ac", "location": {"address1": "Witts Allee 1 a", "address2": "", "address3": null, "city": "Hamburg", "zip_code": "22587", "country": "DE", "state": "HH", "display_address": ["Witts Allee 1 a", "22587 Hamburg", "Germany"]}, "phone": "+494087971030", "display_phone": "+49 40 87971030", "distance": 3319.4333950074065}, {"id": "6OnopdC_M0sCtcbW9eDZ0w", "alias": "le-curry-schenefeld", "name": "Le Curry", "image_url": "https://s3-media3.fl.yelpcdn.com/bphoto/j10llrIUBj3fmEPsvnO8xw/o.jpg", "is_closed": false, "url": "https://www.yelp.com/biz/le-curry-schenefeld?adjust_creative=hBJOknVQJ58S5goQyjmwRw&utm_campaign=yelp_api_v3&utm_medium=api_v3_business_search&utm_source=hBJOknVQJ58S5goQyjmwRw", "review_count": 1, "categories": [{"alias": "currysausage", "title": "Curry Sausage"}], "rating": 4.0, "coordinates": {"latitude": 53.6018, "longitude": 9.83668}, "transactions": [], "location": {"address1": "Kiebitzweg 2", "address2": "im Stadtzentrum Schenefeld", "address3": null, "city": "Schenefeld", "zip_code": "22869", "country": "DE", "state": "SH", "display_address": ["Kiebitzweg 2", "im Stadtzentrum Schenefeld", "22869 Schenefeld", "Germany"]}, "phone": "", "display_phone": "", "distance": 1563.0724750087393}, {"id": "qDAChxTosQmPkLOv7PrxzA", "alias": "spiros-und-spiros-hamburg", "name": "Spiros & Spiros", "image_url": "https://s3-media2.fl.yelpcdn.com/bphoto/qu3PusRaGi3yb2NeWkwR2Q/o.jpg", "is_closed": false, "url": "https://www.yelp.com/biz/spiros-und-spiros-hamburg?adjust_creative=hBJOknVQJ58S5goQyjmwRw&utm_campaign=yelp_api_v3&utm_medium=api_v3_business_search&utm_source=hBJOknVQJ58S5goQyjmwRw", "review_count": 40, "categories": [{"alias": "greek", "title": "Greek"}], "rating": 3.5, "coordinates": {"latitude": 53.57982, "longitude": 9.80156}, "transactions": [], "price": "\u20ac\u20ac", "location": {"address1": "S\u00fclldorfer Landstr. 164", "address2": null, "address3": null, "city": "Hamburg", "zip_code": "22589", "country": "DE", "state": "HH", "display_address": ["S\u00fclldorfer Landstr. 164", "22589 Hamburg", "Germany"]}, "phone": "+49408701076", "display_phone": "+49 40 8701076", "distance": 1830.6540387496914}, {"id": "wkupX-lPyOsboaLNbP2tCw", "alias": "echtasien-hamburg-2", "name": "Echtasien", "image_url": "https://s3-media2.fl.yelpcdn.com/bphoto/QaxTsXKQkn6DdHAygcGKOQ/o.jpg", "is_closed": false, "url": "https://www.yelp.com/biz/echtasien-hamburg-2?adjust_creative=hBJOknVQJ58S5goQyjmwRw&utm_campaign=yelp_api_v3&utm_medium=api_v3_business_search&utm_source=hBJOknVQJ58S5goQyjmwRw", "review_count": 14, "categories": [{"alias": "sushi", "title": "Sushi Bars"}, {"alias": "panasian", "title": "Pan Asian"}], "rating": 4.0, "coordinates": {"latitude": 53.5630934, "longitude": 9.811625}, "transactions": [], "price": "\u20ac\u20ac\u20ac", "location": {"address1": "Blankeneser Landstr. 1", "address2": "", "address3": "", "city": "Hamburg", "zip_code": "22587", "country": "DE", "state": "HH", "display_address": ["Blankeneser Landstr. 1", "22587 Hamburg", "Germany"]}, "phone": "+494018011932", "display_phone": "+49 40 18011932", "distance": 3364.1547148670425}, {"id": "EHHznLv3tusE0hnrKNtySw", "alias": "restaurant-blankenese-hamburg", "name": "Restaurant Blankenese", "image_url": "https://s3-media2.fl.yelpcdn.com/bphoto/rPeezMAasZ7SMpVjolYGaA/o.jpg", "is_closed": false, "url": "https://www.yelp.com/biz/restaurant-blankenese-hamburg?adjust_creative=hBJOknVQJ58S5goQyjmwRw&utm_campaign=yelp_api_v3&utm_medium=api_v3_business_search&utm_source=hBJOknVQJ58S5goQyjmwRw", "review_count": 1, "categories": [{"alias": "german", "title": "German"}], "rating": 4.0, "coordinates": {"latitude": 53.574533, "longitude": 9.8241854}, "transactions": [], "location": {"address1": "Schenefelder Landstr. 169", "address2": "", "address3": null, "city": "Hamburg", "zip_code": "22589", "country": "DE", "state": "HH", "display_address": ["Schenefelder Landstr. 169", "22589 Hamburg", "Germany"]}, "phone": "+494087000744", "display_phone": "+49 40 87000744", "distance": 2104.2426166490873}, {"id": "hGr6fQxD3Nl48irHMMzFtw", "alias": "jugendcaf\u00e9-basement-hamburg", "name": "Jugendcaf\u00e9 Basement", "image_url": "https://s3-media4.fl.yelpcdn.com/bphoto/P9BVMlPcAPr_InZy30V6nA/o.jpg", "is_closed": false, "url": "https://www.yelp.com/biz/jugendcaf%C3%A9-basement-hamburg?adjust_creative=hBJOknVQJ58S5goQyjmwRw&utm_campaign=yelp_api_v3&utm_medium=api_v3_business_search&utm_source=hBJOknVQJ58S5goQyjmwRw", "review_count": 3, "categories": [{"alias": "cafes", "title": "Cafes"}, {"alias": "youth_club", "title": "Youth Club"}], "rating": 5.0, "coordinates": {"latitude": 53.57899, "longitude": 9.79768}, "transactions": [], "location": {"address1": "S\u00fclldorfer Kirchenweg 187", "address2": null, "address3": null, "city": "Hamburg", "zip_code": "22589", "country": "DE", "state": "HH", "display_address": ["S\u00fclldorfer Kirchenweg 187", "22589 Hamburg", "Germany"]}, "phone": "+494088941866", "display_phone": "+49 40 88941866", "distance": 2067.4789419602425}, {"id": "l0ytoM68XU9U4J4YNWWVNQ", "alias": "fischclub-hamburg", "name": "Fischclub", "image_url": "https://s3-media2.fl.yelpcdn.com/bphoto/oRQ5i2aDgkmoxsPioZwztg/o.jpg", "is_closed": false, "url": "https://www.yelp.com/biz/fischclub-hamburg?adjust_creative=hBJOknVQJ58S5goQyjmwRw&utm_campaign=yelp_api_v3&utm_medium=api_v3_business_search&utm_source=hBJOknVQJ58S5goQyjmwRw", "review_count": 68, "categories": [{"alias": "german", "title": "German"}, {"alias": "seafood", "title": "Seafood"}], "rating": 4.0, "coordinates": {"latitude": 53.5560298336027, "longitude": 9.80438381904816}, "transactions": [], "price": "\u20ac\u20ac\u20ac", "location": {"address1": "Strandweg 30 A", "address2": null, "address3": null, "city": "Hamburg", "zip_code": "22587", "country": "DE", "state": "HH", "display_address": ["Strandweg 30 A", "22587 Hamburg", "Germany"]}, "phone": "+4940869962", "display_phone": "+49 40 869962", "distance": 4220.429242682963}, {"id": "2O87KG8xApQAqTJ-x7PpvQ", "alias": "trattoria-rocco-halstenbek", "name": "Trattoria Rocco", "image_url": "https://s3-media2.fl.yelpcdn.com/bphoto/4NKMDZUKn_Zi3B8V4eTRCQ/o.jpg", "is_closed": false, "url": "https://www.yelp.com/biz/trattoria-rocco-halstenbek?adjust_creative=hBJOknVQJ58S5goQyjmwRw&utm_campaign=yelp_api_v3&utm_medium=api_v3_business_search&utm_source=hBJOknVQJ58S5goQyjmwRw", "review_count": 20, "categories": [{"alias": "italian", "title": "Italian"}], "rating": 3.5, "coordinates": {"latitude": 53.629337, "longitude": 9.835356}, "transactions": [], "price": "\u20ac\u20ac", "location": {"address1": "Dockenhudener Chaussee 20", "address2": null, "address3": null, "city": "Halstenbek", "zip_code": "25469", "country": "DE", "state": "SH", "display_address": ["Dockenhudener Chaussee 20", "25469 Halstenbek", "Germany"]}, "phone": "+4941017877107", "display_phone": "+49 4101 7877107", "distance": 4187.095335245382}, {"id": "wpBk63AEw1toamkn9OyCXg", "alias": "genusspiraten-hamburg-2", "name": "Genusspiraten", "image_url": "https://s3-media1.fl.yelpcdn.com/bphoto/5Wa3GNKLMTm7TCAOiRowQA/o.jpg", "is_closed": false, "url": "https://www.yelp.com/biz/genusspiraten-hamburg-2?adjust_creative=hBJOknVQJ58S5goQyjmwRw&utm_campaign=yelp_api_v3&utm_medium=api_v3_business_search&utm_source=hBJOknVQJ58S5goQyjmwRw", "review_count": 4, "categories": [{"alias": "northerngerman", "title": "Northern German"}], "rating": 4.0, "coordinates": {"latitude": 53.5576066, "longitude": 9.805625}, "transactions": [], "price": "\u20ac\u20ac\u20ac", "location": {"address1": "Blankeneser Hauptstr. 107", "address2": "", "address3": null, "city": "Hamburg", "zip_code": "22587", "country": "DE", "state": "HH", "display_address": ["Blankeneser Hauptstr. 107", "22587 Hamburg", "Germany"]}, "phone": "+4940861514", "display_phone": "+49 40 861514", "distance": 4031.843461336126}, {"id": "aUUXPa-XnbLb2Ou0hlyesw", "alias": "lilla-loungen-cafe-ida-hamburg", "name": "Lilla Loungen - Cafe Ida", "image_url": "https://s3-media4.fl.yelpcdn.com/bphoto/1QCoSbmHoGrSe2YcEApAoQ/o.jpg", "is_closed": false, "url": "https://www.yelp.com/biz/lilla-loungen-cafe-ida-hamburg?adjust_creative=hBJOknVQJ58S5goQyjmwRw&utm_campaign=yelp_api_v3&utm_medium=api_v3_business_search&utm_source=hBJOknVQJ58S5goQyjmwRw", "review_count": 1, "categories": [{"alias": "cafes", "title": "Cafes"}], "rating": 5.0, "coordinates": {"latitude": 53.5755, "longitude": 9.82279}, "transactions": [], "price": "\u20ac\u20ac", "location": {"address1": "Schenefelder Landstr. 185", "address2": null, "address3": null, "city": "Hamburg", "zip_code": "22589", "country": "DE", "state": "HH", "display_address": ["Schenefelder Landstr. 185", "22589 Hamburg", "Germany"]}, "phone": "+494074126871", "display_phone": "+49 40 74126871", "distance": 1982.2666039806475}, {"id": "zNEBg7ppsntnn5-gC3ZW4Q", "alias": "la-vita-schenefeld", "name": "La Vita", "image_url": "https://s3-media2.fl.yelpcdn.com/bphoto/UtUYgKOuTnN2pL6yakAPcQ/o.jpg", "is_closed": false, "url": "https://www.yelp.com/biz/la-vita-schenefeld?adjust_creative=hBJOknVQJ58S5goQyjmwRw&utm_campaign=yelp_api_v3&utm_medium=api_v3_business_search&utm_source=hBJOknVQJ58S5goQyjmwRw", "review_count": 10, "categories": [{"alias": "italian", "title": "Italian"}], "rating": 3.5, "coordinates": {"latitude": 53.602, "longitude": 9.83718}, "transactions": [], "price": "\u20ac\u20ac", "location": {"address1": "Industriestr. 1", "address2": null, "address3": null, "city": "Schenefeld", "zip_code": "22869", "country": "DE", "state": "SH", "display_address": ["Industriestr. 1", "22869 Schenefeld", "Germany"]}, "phone": "+49408302634", "display_phone": "+49 40 8302634", "distance": 1602.754078469013}, {"id": "li2GIYTWIVO6OQsA6WmHGw", "alias": "reitstall-kl\u00f6vensteen-schenefeld", "name": "Reitstall Kl\u00f6vensteen", "image_url": "https://s3-media3.fl.yelpcdn.com/bphoto/OhJd34pnglhaC436A2ioAQ/o.jpg", "is_closed": false, "url": "https://www.yelp.com/biz/reitstall-kl%C3%B6vensteen-schenefeld?adjust_creative=hBJOknVQJ58S5goQyjmwRw&utm_campaign=yelp_api_v3&utm_medium=api_v3_business_search&utm_source=hBJOknVQJ58S5goQyjmwRw", "review_count": 24, "categories": [{"alias": "german", "title": "German"}], "rating": 3.5, "coordinates": {"latitude": 53.6056310252484, "longitude": 9.80153379364015}, "transactions": [], "price": "\u20ac\u20ac", "location": {"address1": "Uetersener Weg 100", "address2": null, "address3": null, "city": "Schenefeld", "zip_code": "22869", "country": "DE", "state": "SH", "display_address": ["Uetersener Weg 100", "22869 Schenefeld", "Germany"]}, "phone": "+49408306992", "display_phone": "+49 40 8306992", "distance": 1769.2487828348906}, {"id": "-tsWk3GVgwQK1Tbkml8Lpg", "alias": "blankeneser-imbiss-hamburg", "name": "Blankeneser Imbiss", "image_url": "https://s3-media3.fl.yelpcdn.com/bphoto/oRn3SEWWORx8r_YIcF-3FA/o.jpg", "is_closed": false, "url": "https://www.yelp.com/biz/blankeneser-imbiss-hamburg?adjust_creative=hBJOknVQJ58S5goQyjmwRw&utm_campaign=yelp_api_v3&utm_medium=api_v3_business_search&utm_source=hBJOknVQJ58S5goQyjmwRw", "review_count": 11, "categories": [{"alias": "hotdogs", "title": "Fast Food"}, {"alias": "currysausage", "title": "Curry Sausage"}, {"alias": "kebab", "title": "Kebab"}], "rating": 4.5, "coordinates": {"latitude": 53.564, "longitude": 9.8138}, "transactions": [], "price": "\u20ac", "location": {"address1": "Bahnhof Blankenese", "address2": "Erik-Blumfeld-Platz 29", "address3": null, "city": "Hamburg", "zip_code": "22587", "country": "DE", "state": "HH", "display_address": ["Bahnhof Blankenese", "Erik-Blumfeld-Platz 29", "22587 Hamburg", "Germany"]}, "phone": "+494088170674", "display_phone": "+49 40 88170674", "distance": 3248.588712658628}, {"id": "eu0dPfxU2SX-4ZZX6GQPzw", "alias": "taverna-pegasus-schenefeld", "name": "Taverna Pegasus", "image_url": "https://s3-media2.fl.yelpcdn.com/bphoto/aHZEhsqs1fhiec1WMgNgFg/o.jpg", "is_closed": false, "url": "https://www.yelp.com/biz/taverna-pegasus-schenefeld?adjust_creative=hBJOknVQJ58S5goQyjmwRw&utm_campaign=yelp_api_v3&utm_medium=api_v3_business_search&utm_source=hBJOknVQJ58S5goQyjmwRw", "review_count": 18, "categories": [{"alias": "greek", "title": "Greek"}], "rating": 3.5, "coordinates": {"latitude": 53.608651, "longitude": 9.841422}, "transactions": [], "price": "\u20ac\u20ac", "location": {"address1": "Friedrich-Ebert-Allee 3 - 11", "address2": null, "address3": null, "city": "Schenefeld", "zip_code": "22869", "country": "DE", "state": "SH", "display_address": ["Friedrich-Ebert-Allee 3 - 11", "22869 Schenefeld", "Germany"]}, "phone": "+494084053737", "display_phone": "+49 40 84053737", "distance": 2315.761048641378}, {"id": "EYfGbrnLnD4vqZfpwGDCow", "alias": "nandoo-indian-cuisine-schenefeld", "name": "Nandoo Indian Cuisine", "image_url": "https://s3-media1.fl.yelpcdn.com/bphoto/0swmfB8j5GdLTn1zVrhpaA/o.jpg", "is_closed": false, "url": "https://www.yelp.com/biz/nandoo-indian-cuisine-schenefeld?adjust_creative=hBJOknVQJ58S5goQyjmwRw&utm_campaign=yelp_api_v3&utm_medium=api_v3_business_search&utm_source=hBJOknVQJ58S5goQyjmwRw", "review_count": 1, "categories": [{"alias": "indpak", "title": "Indian"}], "rating": 4.0, "coordinates": {"latitude": 53.601831248117, "longitude": 9.83684901148081}, "transactions": [], "location": {"address1": "Industriestr. 1", "address2": "", "address3": "", "city": "Schenefeld", "zip_code": "22869", "country": "DE", "state": "SH", "display_address": ["Industriestr. 1", "22869 Schenefeld", "Germany"]}, "phone": "+494041422998", "display_phone": "+49 40 41422998", "distance": 1573.990286460708}, {"id": "JJ9kQRcoNoCptdbo1-TZGg", "alias": "restaurant-memory-hamburg", "name": "Restaurant Memory", "image_url": "https://s3-media2.fl.yelpcdn.com/bphoto/lnQbUTt7YkZ3ZcQwudabZg/o.jpg", "is_closed": false, "url": "https://www.yelp.com/biz/restaurant-memory-hamburg?adjust_creative=hBJOknVQJ58S5goQyjmwRw&utm_campaign=yelp_api_v3&utm_medium=api_v3_business_search&utm_source=hBJOknVQJ58S5goQyjmwRw", "review_count": 14, "categories": [{"alias": "international", "title": "International"}], "rating": 4.5, "coordinates": {"latitude": 53.5808, "longitude": 9.793}, "transactions": [], "price": "\u20ac\u20ac\u20ac", "location": {"address1": "S\u00fclldorfer Landstr. 222", "address2": null, "address3": null, "city": "Hamburg", "zip_code": "22589", "country": "DE", "state": "HH", "display_address": ["S\u00fclldorfer Landstr. 222", "22589 Hamburg", "Germany"]}, "phone": "+494086626938", "display_phone": "+49 40 86626938", "distance": 2147.077185757208}, {"id": "vcrPyTXw554tb2LOaNnGSg", "alias": "kaj\u00fcte-s-b-12-hamburg", "name": "Kaj\u00fcte S.B. 12", "image_url": "https://s3-media1.fl.yelpcdn.com/bphoto/B3HSXHmPjR4Bhpp-9_Xskg/o.jpg", "is_closed": false, "url": "https://www.yelp.com/biz/kaj%C3%BCte-s-b-12-hamburg?adjust_creative=hBJOknVQJ58S5goQyjmwRw&utm_campaign=yelp_api_v3&utm_medium=api_v3_business_search&utm_source=hBJOknVQJ58S5goQyjmwRw", "review_count": 31, "categories": [{"alias": "fischbroetchen", "title": "Fischbroetchen"}], "rating": 4.0, "coordinates": {"latitude": 53.558722, "longitude": 9.795468}, "transactions": [], "price": "\u20ac\u20ac", "location": {"address1": "Strandweg 79", "address2": null, "address3": null, "city": "Hamburg", "zip_code": "22587", "country": "DE", "state": "HH", "display_address": ["Strandweg 79", "22587 Hamburg", "Germany"]}, "phone": "+494086648640", "display_phone": "+49 40 86648640", "distance": 4104.082632988609}, {"id": "md5qBkhEdymCSEhpZuHAJQ", "alias": "s\u00fcllbergterrassen-das-bistro-hamburg", "name": "S\u00fcllbergterrassen - Das Bistro", "image_url": "https://s3-media3.fl.yelpcdn.com/bphoto/bG4uWQP3pu2u4HsaWjUQ1w/o.jpg", "is_closed": false, "url": "https://www.yelp.com/biz/s%C3%BCllbergterrassen-das-bistro-hamburg?adjust_creative=hBJOknVQJ58S5goQyjmwRw&utm_campaign=yelp_api_v3&utm_medium=api_v3_business_search&utm_source=hBJOknVQJ58S5goQyjmwRw", "review_count": 7, "categories": [{"alias": "international", "title": "International"}, {"alias": "german", "title": "German"}, {"alias": "bistros", "title": "Bistros"}], "rating": 4.5, "coordinates": {"latitude": 53.5597, "longitude": 9.80064}, "transactions": [], "location": {"address1": "S\u00fcllbergsterrasse 12", "address2": null, "address3": null, "city": "Hamburg", "zip_code": "22587", "country": "DE", "state": "HH", "display_address": ["S\u00fcllbergsterrasse 12", "22587 Hamburg", "Germany"]}, "phone": "+494086625277", "display_phone": "+49 40 86625277", "distance": 3888.615557868123}, {"id": "IQ8Bt6YFW5h3SiL2d-G2Qw", "alias": "fil\u00f3n-tapa-bar-hamburg-2", "name": "Fil\u00f3n Tapa-Bar", "image_url": "https://s3-media3.fl.yelpcdn.com/bphoto/R5AkAaxfpECYK7_r_PKFzQ/o.jpg", "is_closed": false, "url": "https://www.yelp.com/biz/fil%C3%B3n-tapa-bar-hamburg-2?adjust_creative=hBJOknVQJ58S5goQyjmwRw&utm_campaign=yelp_api_v3&utm_medium=api_v3_business_search&utm_source=hBJOknVQJ58S5goQyjmwRw", "review_count": 26, "categories": [{"alias": "spanish", "title": "Spanish"}, {"alias": "tapas", "title": "Tapas Bars"}], "rating": 4.0, "coordinates": {"latitude": 53.55924, "longitude": 9.8110199}, "transactions": [], "price": "\u20ac\u20ac\u20ac", "location": {"address1": "Am Kiekeberg 1a", "address2": "", "address3": "", "city": "Hamburg", "zip_code": "22587", "country": "DE", "state": "HH", "display_address": ["Am Kiekeberg 1a", "22587 Hamburg", "Germany"]}, "phone": "+494086646746", "display_phone": "+49 40 86646746", "distance": 3795.5403641026546}, {"id": "aPgIAvjpe3C2mA2w4WruSQ", "alias": "seven-seas-hamburg-2", "name": "Seven Seas", "image_url": "https://s3-media3.fl.yelpcdn.com/bphoto/nOwVodQCAlXs2x00ea4t0w/o.jpg", "is_closed": false, "url": "https://www.yelp.com/biz/seven-seas-hamburg-2?adjust_creative=hBJOknVQJ58S5goQyjmwRw&utm_campaign=yelp_api_v3&utm_medium=api_v3_business_search&utm_source=hBJOknVQJ58S5goQyjmwRw", "review_count": 29, "categories": [{"alias": "french", "title": "French"}], "rating": 4.5, "coordinates": {"latitude": 53.56017, "longitude": 9.80073}, "transactions": [], "price": "\u20ac\u20ac\u20ac\u20ac", "location": {"address1": "S\u00fcllbergsterrasse 12", "address2": "", "address3": "", "city": "Hamburg", "zip_code": "22587", "country": "DE", "state": "HH", "display_address": ["S\u00fcllbergsterrasse 12", "22587 Hamburg", "Germany"]}, "phone": "+494086625214", "display_phone": "+49 40 86625214", "distance": 3885.429096708172}, {"id": "X14N6ogl5lNNLuFsvBzlzw", "alias": "restaurant-dubrovnik-schenefeld", "name": "Restaurant Dubrovnik", "image_url": "", "is_closed": false, "url": "https://www.yelp.com/biz/restaurant-dubrovnik-schenefeld?adjust_creative=hBJOknVQJ58S5goQyjmwRw&utm_campaign=yelp_api_v3&utm_medium=api_v3_business_search&utm_source=hBJOknVQJ58S5goQyjmwRw", "review_count": 9, "categories": [{"alias": "international", "title": "International"}, {"alias": "german", "title": "German"}, {"alias": "serbocroatian", "title": "Serbo Croatian"}], "rating": 4.5, "coordinates": {"latitude": 53.6081, "longitude": 9.83994}, "transactions": [], "price": "\u20ac\u20ac", "location": {"address1": "Lornsenstr. 111", "address2": null, "address3": null, "city": "Schenefeld", "zip_code": "22869", "country": "DE", "state": "SH", "display_address": ["Lornsenstr. 111", "22869 Schenefeld", "Germany"]}, "phone": "+49408391568", "display_phone": "+49 40 8391568", "distance": 2205.1970728970914}, {"id": "wNpiOXCZJpVjHNw0jd2Ldw", "alias": "dill-sin-d\u00f6ns-hamburg", "name": "Dill sin D\u00f6ns", "image_url": "https://s3-media4.fl.yelpcdn.com/bphoto/gDbIM7V_euzpykIaWb-TYw/o.jpg", "is_closed": false, "url": "https://www.yelp.com/biz/dill-sin-d%C3%B6ns-hamburg?adjust_creative=hBJOknVQJ58S5goQyjmwRw&utm_campaign=yelp_api_v3&utm_medium=api_v3_business_search&utm_source=hBJOknVQJ58S5goQyjmwRw", "review_count": 12, "categories": [{"alias": "german", "title": "German"}], "rating": 4.0, "coordinates": {"latitude": 53.5502899, "longitude": 9.84289}, "transactions": [], "price": "\u20ac\u20ac", "location": {"address1": "Elbuferweg 95", "address2": "", "address3": "", "city": "Hamburg", "zip_code": "22609", "country": "DE", "state": "HH", "display_address": ["Elbuferweg 95", "22609 Hamburg", "Germany"]}, "phone": "+4940828500", "display_phone": "+49 40 828500", "distance": 5031.751055335008}, {"id": "qoN_HOmMAfrTXTFqErlc8Q", "alias": "dorfcafe-schenefeld-schenefeld", "name": "Dorfcafe Schenefeld", "image_url": "https://s3-media1.fl.yelpcdn.com/bphoto/egq7IIZQJFVRxifnp6ASiQ/o.jpg", "is_closed": false, "url": "https://www.yelp.com/biz/dorfcafe-schenefeld-schenefeld?adjust_creative=hBJOknVQJ58S5goQyjmwRw&utm_campaign=yelp_api_v3&utm_medium=api_v3_business_search&utm_source=hBJOknVQJ58S5goQyjmwRw", "review_count": 6, "categories": [{"alias": "cafes", "title": "Cafes"}], "rating": 3.0, "coordinates": {"latitude": 53.60348, "longitude": 9.81657}, "transactions": [], "price": "\u20ac\u20ac", "location": {"address1": "Uetersener Weg 4", "address2": null, "address3": null, "city": "Schenefeld", "zip_code": "22869", "country": "DE", "state": "SH", "display_address": ["Uetersener Weg 4", "22869 Schenefeld", "Germany"]}, "phone": "+494084053377", "display_phone": "+49 40 84053377", "distance": 1168.1298744654014}, {"id": "uaO1YLgD11G0c5J0ZiteSQ", "alias": "taverne-zorbas-hamburg", "name": "Taverne Zorbas", "image_url": "https://s3-media2.fl.yelpcdn.com/bphoto/mTdFzzFnZqtp9e1Aovn5yQ/o.jpg", "is_closed": false, "url": "https://www.yelp.com/biz/taverne-zorbas-hamburg?adjust_creative=hBJOknVQJ58S5goQyjmwRw&utm_campaign=yelp_api_v3&utm_medium=api_v3_business_search&utm_source=hBJOknVQJ58S5goQyjmwRw", "review_count": 1, "categories": [{"alias": "greek", "title": "Greek"}], "rating": 1.0, "coordinates": {"latitude": 53.5763, "longitude": 9.81339}, "transactions": [], "location": {"address1": "Heidrehmen 23", "address2": null, "address3": null, "city": "Hamburg", "zip_code": "22589", "country": "DE", "state": "HH", "display_address": ["Heidrehmen 23", "22589 Hamburg", "Germany"]}, "phone": "+49408705734", "display_phone": "+49 40 8705734", "distance": 1893.9911504684608}, {"id": "sZQWwZU2gIfBQXUN9KT16w", "alias": "asiahub-hamburg", "name": "asiahub", "image_url": "https://s3-media2.fl.yelpcdn.com/bphoto/HEKRpoPpPV32h3HgteksCA/o.jpg", "is_closed": false, "url": "https://www.yelp.com/biz/asiahub-hamburg?adjust_creative=hBJOknVQJ58S5goQyjmwRw&utm_campaign=yelp_api_v3&utm_medium=api_v3_business_search&utm_source=hBJOknVQJ58S5goQyjmwRw", "review_count": 14, "categories": [{"alias": "panasian", "title": "Pan Asian"}], "rating": 3.0, "coordinates": {"latitude": 53.564196, "longitude": 9.813017}, "transactions": [], "price": "\u20ac\u20ac", "location": {"address1": "S\u00fclldorfer Kirchenweg 2", "address2": "", "address3": "", "city": "Hamburg", "zip_code": "22587", "country": "DE", "state": "HH", "display_address": ["S\u00fclldorfer Kirchenweg 2", "22587 Hamburg", "Germany"]}, "phone": "+494086693082", "display_phone": "+49 40 86693082", "distance": 3231.801072298511}, {"id": "fON6Lh41hCAyoWeCsPoHxQ", "alias": "ponton-opn-bulln-hamburg", "name": "Ponton op'n Bulln", "image_url": "https://s3-media4.fl.yelpcdn.com/bphoto/KcHgCc47NnG4FvbbWT68-Q/o.jpg", "is_closed": false, "url": "https://www.yelp.com/biz/ponton-opn-bulln-hamburg?adjust_creative=hBJOknVQJ58S5goQyjmwRw&utm_campaign=yelp_api_v3&utm_medium=api_v3_business_search&utm_source=hBJOknVQJ58S5goQyjmwRw", "review_count": 32, "categories": [{"alias": "german", "title": "German"}, {"alias": "fischbroetchen", "title": "Fischbroetchen"}], "rating": 4.0, "coordinates": {"latitude": 53.55592, "longitude": 9.80532}, "transactions": [], "price": "\u20ac\u20ac", "location": {"address1": "Strandweg 30", "address2": "", "address3": "", "city": "Hamburg", "zip_code": "22587", "country": "DE", "state": "HH", "display_address": ["Strandweg 30", "22587 Hamburg", "Germany"]}, "phone": "+494086645127", "display_phone": "+49 40 86645127", "distance": 4219.59722665981}, {"id": "JCwyXvqfNtjeA6jW9s6tgg", "alias": "bistro-elbwein-hamburg-4", "name": "Bistro Elbwein", "image_url": "https://s3-media2.fl.yelpcdn.com/bphoto/A35AljPKvqtMsvjprsdA4w/o.jpg", "is_closed": false, "url": "https://www.yelp.com/biz/bistro-elbwein-hamburg-4?adjust_creative=hBJOknVQJ58S5goQyjmwRw&utm_campaign=yelp_api_v3&utm_medium=api_v3_business_search&utm_source=hBJOknVQJ58S5goQyjmwRw", "review_count": 9, "categories": [{"alias": "wine_bars", "title": "Wine Bars"}, {"alias": "german", "title": "German"}], "rating": 4.0, "coordinates": {"latitude": 53.56362, "longitude": 9.8086}, "transactions": [], "price": "\u20ac\u20ac\u20ac", "location": {"address1": "Blankeneser Landstr. 27", "address2": "", "address3": "", "city": "Hamburg", "zip_code": "22587", "country": "DE", "state": "HH", "display_address": ["Blankeneser Landstr. 27", "22587 Hamburg", "Germany"]}, "phone": "+494086628772", "display_phone": "+49 40 86628772", "distance": 3339.9438524921934}, {"id": "YuitEDxky_bXzMCL1CFDFw", "alias": "peters-bistro-schenefeld-2", "name": "Peter's Bistro", "image_url": "https://s3-media2.fl.yelpcdn.com/bphoto/fMEj5YxZ95ss9lu2UwoObw/o.jpg", "is_closed": false, "url": "https://www.yelp.com/biz/peters-bistro-schenefeld-2?adjust_creative=hBJOknVQJ58S5goQyjmwRw&utm_campaign=yelp_api_v3&utm_medium=api_v3_business_search&utm_source=hBJOknVQJ58S5goQyjmwRw", "review_count": 18, "categories": [{"alias": "bistros", "title": "Bistros"}, {"alias": "german", "title": "German"}], "rating": 3.0, "coordinates": {"latitude": 53.6032, "longitude": 9.81743}, "transactions": [], "price": "\u20ac\u20ac", "location": {"address1": "Hauptstr. 83", "address2": null, "address3": null, "city": "Schenefeld", "zip_code": "22869", "country": "DE", "state": "SH", "display_address": ["Hauptstr. 83", "22869 Schenefeld", "Germany"]}, "phone": "+49408393630", "display_phone": "+49 40 8393630", "distance": 1123.2788117033938}, {"id": "vXY7PdAQ9hJY3D2thSaIeg", "alias": "l\u00fchmanns-teestube-hamburg", "name": "L\u00fchmanns Teestube", "image_url": "https://s3-media1.fl.yelpcdn.com/bphoto/3AmOiZjsAoKtp-dNzjqq0A/o.jpg", "is_closed": false, "url": "https://www.yelp.com/biz/l%C3%BChmanns-teestube-hamburg?adjust_creative=hBJOknVQJ58S5goQyjmwRw&utm_campaign=yelp_api_v3&utm_medium=api_v3_business_search&utm_source=hBJOknVQJ58S5goQyjmwRw", "review_count": 108, "categories": [{"alias": "tea", "title": "Tea Rooms"}, {"alias": "cafes", "title": "Cafes"}], "rating": 3.5, "coordinates": {"latitude": 53.56374, "longitude": 9.80812}, "transactions": [], "price": "\u20ac\u20ac", "location": {"address1": "Blankeneser Landstr. 29", "address2": null, "address3": null, "city": "Hamburg", "zip_code": "22587", "country": "DE", "state": "HH", "display_address": ["Blankeneser Landstr. 29", "22587 Hamburg", "Germany"]}, "phone": "+4940863442", "display_phone": "+49 40 863442", "distance": 3335.376113585675}, {"id": "nIuV-yqeJayQjEL39De8iQ", "alias": "der-treppenkr\u00e4mer-hamburg", "name": "Der Treppenkr\u00e4mer", "image_url": "https://s3-media4.fl.yelpcdn.com/bphoto/C7lNTa8STD7gdXVbs4ibKA/o.jpg", "is_closed": false, "url": "https://www.yelp.com/biz/der-treppenkr%C3%A4mer-hamburg?adjust_creative=hBJOknVQJ58S5goQyjmwRw&utm_campaign=yelp_api_v3&utm_medium=api_v3_business_search&utm_source=hBJOknVQJ58S5goQyjmwRw", "review_count": 18, "categories": [{"alias": "cafes", "title": "Cafes"}, {"alias": "convenience", "title": "Convenience Stores"}], "rating": 4.5, "coordinates": {"latitude": 53.55794, "longitude": 9.80255}, "transactions": [], "price": "\u20ac\u20ac", "location": {"address1": "Hans-Lange-Str. 23", "address2": "", "address3": "", "city": "Hamburg", "zip_code": "22587", "country": "DE", "state": "HH", "display_address": ["Hans-Lange-Str. 23", "22587 Hamburg", "Germany"]}, "phone": "+494086628481", "display_phone": "+49 40 86628481", "distance": 4042.1843300742216}, {"id": "3-15oomSsu14SvbHglPRvw", "alias": "fischer-l\u00fc\u00fcd-hamburg", "name": "Fischer L\u00fc\u00fcd", "image_url": "https://s3-media4.fl.yelpcdn.com/bphoto/1aU5vPmerwizNKJIcfO1aw/o.jpg", "is_closed": false, "url": "https://www.yelp.com/biz/fischer-l%C3%BC%C3%BCd-hamburg?adjust_creative=hBJOknVQJ58S5goQyjmwRw&utm_campaign=yelp_api_v3&utm_medium=api_v3_business_search&utm_source=hBJOknVQJ58S5goQyjmwRw", "review_count": 1, "categories": [{"alias": "seafood", "title": "Seafood"}], "rating": 4.0, "coordinates": {"latitude": 53.55689, "longitude": 9.80497}, "transactions": [], "location": {"address1": "Strandweg 30", "address2": "", "address3": "", "city": "Hamburg", "zip_code": "22587", "country": "DE", "state": "HH", "display_address": ["Strandweg 30", "22587 Hamburg", "Germany"]}, "phone": "", "display_phone": "", "distance": 4109.661844683836}, {"id": "1f5mNMVLMrdMCRBW6MHJ7Q", "alias": "asia-pham-hamburg", "name": "Asia Pham", "image_url": "https://s3-media2.fl.yelpcdn.com/bphoto/HwjH0ADWI2kdi9ijxlauaQ/o.jpg", "is_closed": false, "url": "https://www.yelp.com/biz/asia-pham-hamburg?adjust_creative=hBJOknVQJ58S5goQyjmwRw&utm_campaign=yelp_api_v3&utm_medium=api_v3_business_search&utm_source=hBJOknVQJ58S5goQyjmwRw", "review_count": 2, "categories": [{"alias": "fooddeliveryservices", "title": "Food Delivery Services"}, {"alias": "panasian", "title": "Pan Asian"}], "rating": 2.5, "coordinates": {"latitude": 53.5808, "longitude": 9.79512}, "transactions": [], "location": {"address1": "S\u00fclldorfer Landstr. 202", "address2": null, "address3": null, "city": "Hamburg", "zip_code": "22589", "country": "DE", "state": "HH", "display_address": ["S\u00fclldorfer Landstr. 202", "22589 Hamburg", "Germany"]}, "phone": "+494033420675", "display_phone": "+49 40 33420675", "distance": 2041.189370165599}, {"id": "mJfZ-9-mCHEno8w65Lgl_Q", "alias": "san-marco-hamburg-5", "name": "San Marco", "image_url": "https://s3-media4.fl.yelpcdn.com/bphoto/nxjN3Ve4hKtCKq9Iyc54fg/o.jpg", "is_closed": false, "url": "https://www.yelp.com/biz/san-marco-hamburg-5?adjust_creative=hBJOknVQJ58S5goQyjmwRw&utm_campaign=yelp_api_v3&utm_medium=api_v3_business_search&utm_source=hBJOknVQJ58S5goQyjmwRw", "review_count": 3, "categories": [{"alias": "icecream", "title": "Ice Cream & Frozen Yogurt"}, {"alias": "pizza", "title": "Pizza"}], "rating": 3.5, "coordinates": {"latitude": 53.5801, "longitude": 9.79636}, "transactions": [], "price": "\u20ac\u20ac", "location": {"address1": "S\u00fclldorfer Kirchenweg 199", "address2": null, "address3": null, "city": "Hamburg", "zip_code": "22589", "country": "DE", "state": "HH", "display_address": ["S\u00fclldorfer Kirchenweg 199", "22589 Hamburg", "Germany"]}, "phone": "+494046651550", "display_phone": "+49 40 46651550", "distance": 2041.983344508416}, {"id": "CcwY0E2QLzOraQttSj7pJw", "alias": "linde-hamburg-5", "name": "Linde", "image_url": "https://s3-media2.fl.yelpcdn.com/bphoto/fnA99p_0OF6LgKJGRK8FZw/o.jpg", "is_closed": false, "url": "https://www.yelp.com/biz/linde-hamburg-5?adjust_creative=hBJOknVQJ58S5goQyjmwRw&utm_campaign=yelp_api_v3&utm_medium=api_v3_business_search&utm_source=hBJOknVQJ58S5goQyjmwRw", "review_count": 42, "categories": [{"alias": "mediterranean", "title": "Mediterranean"}, {"alias": "cocktailbars", "title": "Cocktail Bars"}], "rating": 3.0, "coordinates": {"latitude": 53.5622608, "longitude": 9.818189}, "transactions": [], "price": "\u20ac\u20ac", "location": {"address1": "Dockenhudener Str. 12", "address2": null, "address3": null, "city": "Hamburg", "zip_code": "22587", "country": "DE", "state": "HH", "display_address": ["Dockenhudener Str. 12", "22587 Hamburg", "Germany"]}, "phone": "+494086663801", "display_phone": "+49 40 86663801", "distance": 3429.745832384477}, {"id": "zoRBslYUQm56jVyKO6MmNA", "alias": "deck-7-hamburg", "name": "Deck 7", "image_url": "https://s3-media2.fl.yelpcdn.com/bphoto/pRTW0dM0wqGEa0DmRBmzfA/o.jpg", "is_closed": false, "url": "https://www.yelp.com/biz/deck-7-hamburg?adjust_creative=hBJOknVQJ58S5goQyjmwRw&utm_campaign=yelp_api_v3&utm_medium=api_v3_business_search&utm_source=hBJOknVQJ58S5goQyjmwRw", "review_count": 71, "categories": [{"alias": "bistros", "title": "Bistros"}], "rating": 3.5, "coordinates": {"latitude": 53.5597, "longitude": 9.80064}, "transactions": [], "price": "\u20ac\u20ac\u20ac", "location": {"address1": "S\u00fcllbergsterrasse 12", "address2": null, "address3": null, "city": "Hamburg", "zip_code": "22587", "country": "DE", "state": "HH", "display_address": ["S\u00fcllbergsterrasse 12", "22587 Hamburg", "Germany"]}, "phone": "+494086625277", "display_phone": "+49 40 86625277", "distance": 3888.615557868123}, {"id": "Jm_2qDr4RnqIHw2oA98qsg", "alias": "restaurant-baurs-park-hamburg", "name": "Restaurant Baurs Park", "image_url": "https://s3-media4.fl.yelpcdn.com/bphoto/5yF7st8WAEcLWjMWcZGPpQ/o.jpg", "is_closed": false, "url": "https://www.yelp.com/biz/restaurant-baurs-park-hamburg?adjust_creative=hBJOknVQJ58S5goQyjmwRw&utm_campaign=yelp_api_v3&utm_medium=api_v3_business_search&utm_source=hBJOknVQJ58S5goQyjmwRw", "review_count": 1, "categories": [{"alias": "modern_european", "title": "Modern European"}, {"alias": "german", "title": "German"}], "rating": 5.0, "coordinates": {"latitude": 53.5589, "longitude": 9.81291}, "transactions": [], "location": {"address1": "Elbchaussee 573", "address2": null, "address3": null, "city": "Hamburg", "zip_code": "22587", "country": "DE", "state": "HH", "display_address": ["Elbchaussee 573", "22587 Hamburg", "Germany"]}, "phone": "+49408666620", "display_phone": "+49 40 8666620", "distance": 3818.654583385329}, {"id": "NozZB9TyW052Qhge63N65Q", "alias": "restaurant-am-park-hamburg", "name": "Restaurant Am Park", "image_url": "https://s3-media2.fl.yelpcdn.com/bphoto/ocD6ohwvZytdnbjVWar3uA/o.jpg", "is_closed": false, "url": "https://www.yelp.com/biz/restaurant-am-park-hamburg?adjust_creative=hBJOknVQJ58S5goQyjmwRw&utm_campaign=yelp_api_v3&utm_medium=api_v3_business_search&utm_source=hBJOknVQJ58S5goQyjmwRw", "review_count": 1, "categories": [{"alias": "seafood", "title": "Seafood"}], "rating": 4.0, "coordinates": {"latitude": 53.56362, "longitude": 9.8086}, "transactions": [], "location": {"address1": "Blankeneser Landstr. 27", "address2": "", "address3": "", "city": "Hamburg", "zip_code": "22587", "country": "DE", "state": "HH", "display_address": ["Blankeneser Landstr. 27", "22587 Hamburg", "Germany"]}, "phone": "+4986628948", "display_phone": "+49 8662 8948", "distance": 3339.9438524921934}, {"id": "jIwBJ-HpNLdLA9J6IqBIOw", "alias": "blankeneser-fischhuus-hamburg", "name": "Blankeneser Fischhuus", "image_url": "https://s3-media2.fl.yelpcdn.com/bphoto/L4A9pslZLTXBxGspZTT_rg/o.jpg", "is_closed": false, "url": "https://www.yelp.com/biz/blankeneser-fischhuus-hamburg?adjust_creative=hBJOknVQJ58S5goQyjmwRw&utm_campaign=yelp_api_v3&utm_medium=api_v3_business_search&utm_source=hBJOknVQJ58S5goQyjmwRw", "review_count": 3, "categories": [{"alias": "seafood", "title": "Seafood"}], "rating": 3.5, "coordinates": {"latitude": 53.56089, "longitude": 9.81168}, "transactions": [], "price": "\u20ac\u20ac", "location": {"address1": "Propst-Paulsen-Str. 5", "address2": "", "address3": "", "city": "Hamburg", "zip_code": "22587", "country": "DE", "state": "HH", "display_address": ["Propst-Paulsen-Str. 5", "22587 Hamburg", "Germany"]}, "phone": "+4940860665", "display_phone": "+49 40 860665", "distance": 3594.6829278235487}, {"id": "SvU27HpL5hWW-FX4KUFrKA", "alias": "andersen-hamburg-2", "name": "Andersen", "image_url": "https://s3-media2.fl.yelpcdn.com/bphoto/SfOCAsdlY6G2chTfjlMKoA/o.jpg", "is_closed": false, "url": "https://www.yelp.com/biz/andersen-hamburg-2?adjust_creative=hBJOknVQJ58S5goQyjmwRw&utm_campaign=yelp_api_v3&utm_medium=api_v3_business_search&utm_source=hBJOknVQJ58S5goQyjmwRw", "review_count": 1, "categories": [{"alias": "cafes", "title": "Cafes"}], "rating": 4.0, "coordinates": {"latitude": 53.5609, "longitude": 9.81132}, "transactions": [], "location": {"address1": "Blankeneser Bahnhofstr.", "address2": null, "address3": null, "city": "Hamburg", "zip_code": "22587", "country": "DE", "state": "HH", "display_address": ["Blankeneser Bahnhofstr.", "22587 Hamburg", "Germany"]}, "phone": "", "display_phone": "", "distance": 3608.6557406952015}, {"id": "pZE45kWciSphJGf70AaXVQ", "alias": "der-schwarze-tresen-schenefeld", "name": "Der schwarze Tresen", "image_url": "https://s3-media1.fl.yelpcdn.com/bphoto/6AxFeOALUTefH4N5WNFZDg/o.jpg", "is_closed": false, "url": "https://www.yelp.com/biz/der-schwarze-tresen-schenefeld?adjust_creative=hBJOknVQJ58S5goQyjmwRw&utm_campaign=yelp_api_v3&utm_medium=api_v3_business_search&utm_source=hBJOknVQJ58S5goQyjmwRw", "review_count": 1, "categories": [{"alias": "divebars", "title": "Dive Bars"}, {"alias": "breakfast_brunch", "title": "Breakfast & Brunch"}], "rating": 4.0, "coordinates": {"latitude": 53.602254, "longitude": 9.836563}, "transactions": [], "price": "\u20ac", "location": {"address1": "Stadtzentrum Schenefeld", "address2": "Industriestr. 1", "address3": null, "city": "Schenefeld", "zip_code": "22869", "country": "DE", "state": "SH", "display_address": ["Stadtzentrum Schenefeld", "Industriestr. 1", "22869 Schenefeld", "Germany"]}, "phone": "+4917680289417", "display_phone": "+49 176 80289417", "distance": 1588.8477335763355}, {"id": "1scOX0fMV4UdmrlHxMlR0g", "alias": "baris-grill-haus-schenefeld", "name": "Baris Grill-Haus", "image_url": "", "is_closed": false, "url": "https://www.yelp.com/biz/baris-grill-haus-schenefeld?adjust_creative=hBJOknVQJ58S5goQyjmwRw&utm_campaign=yelp_api_v3&utm_medium=api_v3_business_search&utm_source=hBJOknVQJ58S5goQyjmwRw", "review_count": 2, "categories": [{"alias": "food", "title": "Food"}, {"alias": "mideastern", "title": "Middle Eastern"}, {"alias": "kebab", "title": "Kebab"}], "rating": 4.5, "coordinates": {"latitude": 53.6086, "longitude": 9.83903}, "transactions": [], "price": "\u20ac", "location": {"address1": "Lindenallee 8", "address2": null, "address3": null, "city": "Schenefeld", "zip_code": "22869", "country": "DE", "state": "SH", "display_address": ["Lindenallee 8", "22869 Schenefeld", "Germany"]}, "phone": "+494083929389", "display_phone": "+49 40 83929389", "distance": 2209.4459038960836}, {"id": "6n4S_GhhB_LRrYcwKxBZpg", "alias": "gastst\u00e4tte-zur-m\u00fchle-schenefeld", "name": "Gastst\u00e4tte Zur M\u00fchle", "image_url": "", "is_closed": false, "url": "https://www.yelp.com/biz/gastst%C3%A4tte-zur-m%C3%BChle-schenefeld?adjust_creative=hBJOknVQJ58S5goQyjmwRw&utm_campaign=yelp_api_v3&utm_medium=api_v3_business_search&utm_source=hBJOknVQJ58S5goQyjmwRw", "review_count": 1, "categories": [{"alias": "restaurants", "title": "Restaurants"}], "rating": 2.0, "coordinates": {"latitude": 53.6017, "longitude": 9.82012}, "transactions": [], "location": {"address1": "Hauptstr. 65", "address2": null, "address3": null, "city": "Schenefeld", "zip_code": "22869", "country": "DE", "state": "SH", "display_address": ["Hauptstr. 65", "22869 Schenefeld", "Germany"]}, "phone": "", "display_phone": "", "distance": 965.2435303710245}, {"id": "B8Kn9PqEqlvL4EMPvl1x8g", "alias": "roederers-hamburg", "name": "Roederer's", "image_url": "https://s3-media2.fl.yelpcdn.com/bphoto/grHMPXjgPoUgGGy90Ip15g/o.jpg", "is_closed": false, "url": "https://www.yelp.com/biz/roederers-hamburg?adjust_creative=hBJOknVQJ58S5goQyjmwRw&utm_campaign=yelp_api_v3&utm_medium=api_v3_business_search&utm_source=hBJOknVQJ58S5goQyjmwRw", "review_count": 2, "categories": [{"alias": "bars", "title": "Bars"}, {"alias": "bistros", "title": "Bistros"}, {"alias": "cafes", "title": "Cafes"}], "rating": 3.0, "coordinates": {"latitude": 53.5610199, "longitude": 9.8110304}, "transactions": [], "location": {"address1": "Blankenesener Bahnhofstr. 34", "address2": "", "address3": "", "city": "Hamburg", "zip_code": "22587", "country": "DE", "state": "HH", "display_address": ["Blankenesener Bahnhofstr. 34", "22587 Hamburg", "Germany"]}, "phone": "", "display_phone": "", "distance": 3594.231419517271}, {"id": "EGNZF-5P9X9rMFnmfLwbmA", "alias": "park26-caf\u00e9-und-bistro-hamburg", "name": "Park26 - Caf\u00e9 & Bistro", "image_url": "https://s3-media3.fl.yelpcdn.com/bphoto/W_w0oqz31tGQ2BryWKeFDg/o.jpg", "is_closed": false, "url": "https://www.yelp.com/biz/park26-caf%C3%A9-und-bistro-hamburg?adjust_creative=hBJOknVQJ58S5goQyjmwRw&utm_campaign=yelp_api_v3&utm_medium=api_v3_business_search&utm_source=hBJOknVQJ58S5goQyjmwRw", "review_count": 2, "categories": [{"alias": "cafes", "title": "Cafes"}, {"alias": "coffee", "title": "Coffee & Tea"}], "rating": 3.5, "coordinates": {"latitude": 53.5556, "longitude": 9.84309}, "transactions": [], "location": {"address1": "Rupertistr. 26", "address2": null, "address3": null, "city": "Hamburg", "zip_code": "22609", "country": "DE", "state": "HH", "display_address": ["Rupertistr. 26", "22609 Hamburg", "Germany"]}, "phone": "+494088170910", "display_phone": "+49 40 88170910", "distance": 4485.697590127226}, {"id": "CGTG-D1-opXU6yeHh22onQ", "alias": "hauseralm-hamburg", "name": "HauserAlm", "image_url": "https://s3-media2.fl.yelpcdn.com/bphoto/qEjjYre57KO-aR2QJij-ZQ/o.jpg", "is_closed": false, "url": "https://www.yelp.com/biz/hauseralm-hamburg?adjust_creative=hBJOknVQJ58S5goQyjmwRw&utm_campaign=yelp_api_v3&utm_medium=api_v3_business_search&utm_source=hBJOknVQJ58S5goQyjmwRw", "review_count": 7, "categories": [{"alias": "german", "title": "German"}], "rating": 3.5, "coordinates": {"latitude": 53.55973, "longitude": 9.80064}, "transactions": [], "price": "\u20ac\u20ac\u20ac", "location": {"address1": "S\u00fcllbergstr. 12", "address2": null, "address3": null, "city": "Hamburg", "zip_code": "22587", "country": "DE", "state": "HH", "display_address": ["S\u00fcllbergstr. 12", "22587 Hamburg", "Germany"]}, "phone": "+494086625233", "display_phone": "+49 40 86625233", "distance": 3885.429096708172}, {"id": "oTPsEoBEdylcwgavD78DLw", "alias": "baltaci-d\u00f6ner-schenefeld", "name": "Baltaci D\u00f6ner", "image_url": "https://s3-media2.fl.yelpcdn.com/bphoto/Ka4K0Xd_Kr4RkWvW2S9-CQ/o.jpg", "is_closed": false, "url": "https://www.yelp.com/biz/baltaci-d%C3%B6ner-schenefeld?adjust_creative=hBJOknVQJ58S5goQyjmwRw&utm_campaign=yelp_api_v3&utm_medium=api_v3_business_search&utm_source=hBJOknVQJ58S5goQyjmwRw", "review_count": 4, "categories": [{"alias": "kebab", "title": "Kebab"}], "rating": 4.0, "coordinates": {"latitude": 53.6023, "longitude": 9.837}, "transactions": [], "price": "\u20ac\u20ac", "location": {"address1": "Industriestr. 1", "address2": "", "address3": null, "city": "Schenefeld", "zip_code": "22869", "country": "DE", "state": "SH", "display_address": ["Industriestr. 1", "22869 Schenefeld", "Germany"]}, "phone": "+494083018949", "display_phone": "+49 40 83018949", "distance": 1614.3386946584963}, {"id": "px1s7sLcSCiYRSNvfNsx3w", "alias": "arnoldis-schenefeld", "name": "Arnoldis", "image_url": "https://s3-media3.fl.yelpcdn.com/bphoto/eF8tzsDXhVgqJjkYLy0mKQ/o.jpg", "is_closed": false, "url": "https://www.yelp.com/biz/arnoldis-schenefeld?adjust_creative=hBJOknVQJ58S5goQyjmwRw&utm_campaign=yelp_api_v3&utm_medium=api_v3_business_search&utm_source=hBJOknVQJ58S5goQyjmwRw", "review_count": 18, "categories": [{"alias": "sandwiches", "title": "Sandwiches"}, {"alias": "salad", "title": "Salad"}, {"alias": "pizza", "title": "Pizza"}], "rating": 4.0, "coordinates": {"latitude": 53.6081246, "longitude": 9.8400738}, "transactions": [], "price": "\u20ac\u20ac", "location": {"address1": "Lornsenstr. 111 d", "address2": null, "address3": null, "city": "Schenefeld", "zip_code": "22869", "country": "DE", "state": "SH", "display_address": ["Lornsenstr. 111 d", "22869 Schenefeld", "Germany"]}, "phone": "+494084058550", "display_phone": "+49 40 84058550", "distance": 2213.048418116461}, {"id": "u3ub5f0MS4qY67Q8XF9ZoA", "alias": "sodemanns-fisch-kutter-nr-1-hamburg", "name": "Sodemann's Fisch-Kutter Nr. 1", "image_url": "https://s3-media3.fl.yelpcdn.com/bphoto/BlysP6fVPaL0eEjKvEbByw/o.jpg", "is_closed": false, "url": "https://www.yelp.com/biz/sodemanns-fisch-kutter-nr-1-hamburg?adjust_creative=hBJOknVQJ58S5goQyjmwRw&utm_campaign=yelp_api_v3&utm_medium=api_v3_business_search&utm_source=hBJOknVQJ58S5goQyjmwRw", "review_count": 3, "categories": [{"alias": "foodtrucks", "title": "Food Trucks"}, {"alias": "fischbroetchen", "title": "Fischbroetchen"}], "rating": 5.0, "coordinates": {"latitude": 53.5537490844727, "longitude": 9.99182987213135}, "transactions": [], "price": "\u20ac\u20ac", "location": {"address1": "", "address2": null, "address3": "", "city": "Hamburg", "zip_code": "", "country": "DE", "state": "HH", "display_address": ["Hamburg", "Germany"]}, "phone": "+491773606663", "display_phone": "+49 177 3606663", "distance": 12501.55487172707}, {"id": "n_Yio-a9VzssOtDbgezpRA", "alias": "subu-sushi-burrito-hamburg-3", "name": "Subu Sushi Burrito", "image_url": "https://s3-media3.fl.yelpcdn.com/bphoto/x2oh5mzvkzvrXjswE_MjXQ/o.jpg", "is_closed": false, "url": "https://www.yelp.com/biz/subu-sushi-burrito-hamburg-3?adjust_creative=hBJOknVQJ58S5goQyjmwRw&utm_campaign=yelp_api_v3&utm_medium=api_v3_business_search&utm_source=hBJOknVQJ58S5goQyjmwRw", "review_count": 3, "categories": [{"alias": "foodtrucks", "title": "Food Trucks"}, {"alias": "sushi", "title": "Sushi Bars"}], "rating": 5.0, "coordinates": {"latitude": 53.5526819869811, "longitude": 10.0010880455375}, "transactions": [], "price": "\u20ac", "location": {"address1": "", "address2": "", "address3": "", "city": "Hamburg", "zip_code": "", "country": "DE", "state": "HH", "display_address": ["Hamburg", "Germany"]}, "phone": "+4917670834316", "display_phone": "+49 176 70834316", "distance": 12893.21711440689}, {"id": "Czh58o7sIWYTRJEZCxGKIw", "alias": "chinaboy-schenefeld", "name": "ChinaBoy", "image_url": "https://s3-media3.fl.yelpcdn.com/bphoto/v4O8_96rP63EG4BmB3XbDg/o.jpg", "is_closed": false, "url": "https://www.yelp.com/biz/chinaboy-schenefeld?adjust_creative=hBJOknVQJ58S5goQyjmwRw&utm_campaign=yelp_api_v3&utm_medium=api_v3_business_search&utm_source=hBJOknVQJ58S5goQyjmwRw", "review_count": 6, "categories": [{"alias": "chinese", "title": "Chinese"}], "rating": 4.0, "coordinates": {"latitude": 53.602, "longitude": 9.8363}, "transactions": [], "price": "\u20ac\u20ac", "location": {"address1": "Kiebitzweg 2", "address2": null, "address3": null, "city": "Schenefeld", "zip_code": "22869", "country": "DE", "state": "SH", "display_address": ["Kiebitzweg 2", "22869 Schenefeld", "Germany"]}, "phone": "", "display_phone": "", "distance": 1557.4716950695338}, {"id": "SUxv4B7Bg83fRTkG3NY4dA", "alias": "china-stube-blankenese-hamburg", "name": "China Stube Blankenese", "image_url": "https://s3-media2.fl.yelpcdn.com/bphoto/0LFTuGOkYqmZy8NOJ8ocmA/o.jpg", "is_closed": false, "url": "https://www.yelp.com/biz/china-stube-blankenese-hamburg?adjust_creative=hBJOknVQJ58S5goQyjmwRw&utm_campaign=yelp_api_v3&utm_medium=api_v3_business_search&utm_source=hBJOknVQJ58S5goQyjmwRw", "review_count": 12, "categories": [{"alias": "chinese", "title": "Chinese"}], "rating": 4.0, "coordinates": {"latitude": 53.56383, "longitude": 9.81475}, "transactions": [], "price": "\u20ac\u20ac", "location": {"address1": "Erik-Blumenfeld-Platz 3", "address2": "", "address3": "", "city": "Hamburg", "zip_code": "22587", "country": "DE", "state": "HH", "display_address": ["Erik-Blumenfeld-Platz 3", "22587 Hamburg", "Germany"]}, "phone": "+494086662618", "display_phone": "+49 40 86662618", "distance": 3259.650447509254}, {"id": "dpNb9DdmNcPHYZJffibbTw", "alias": "blankenese-strandhof-hamburg-2", "name": "Blankenese Strandhof", "image_url": "https://s3-media1.fl.yelpcdn.com/bphoto/FQAlgB4g8roj4kQbHA9W4w/o.jpg", "is_closed": false, "url": "https://www.yelp.com/biz/blankenese-strandhof-hamburg-2?adjust_creative=hBJOknVQJ58S5goQyjmwRw&utm_campaign=yelp_api_v3&utm_medium=api_v3_business_search&utm_source=hBJOknVQJ58S5goQyjmwRw", "review_count": 21, "categories": [{"alias": "seafood", "title": "Seafood"}], "rating": 3.0, "coordinates": {"latitude": 53.55683, "longitude": 9.80562}, "transactions": [], "price": "\u20ac\u20ac\u20ac", "location": {"address1": "Strandweg 27", "address2": null, "address3": null, "city": "Hamburg", "zip_code": "22587", "country": "DE", "state": "HH", "display_address": ["Strandweg 27", "22587 Hamburg", "Germany"]}, "phone": "+4940865236", "display_phone": "+49 40 865236", "distance": 4106.656130918489}, {"id": "DR-iXn7Oc0-HX9Tnix6kkA", "alias": "lieferservice-continental-hamburg", "name": "Lieferservice Continental", "image_url": "https://s3-media1.fl.yelpcdn.com/bphoto/86txTLe6hxKTuwq7_5hlMQ/o.jpg", "is_closed": false, "url": "https://www.yelp.com/biz/lieferservice-continental-hamburg?adjust_creative=hBJOknVQJ58S5goQyjmwRw&utm_campaign=yelp_api_v3&utm_medium=api_v3_business_search&utm_source=hBJOknVQJ58S5goQyjmwRw", "review_count": 1, "categories": [{"alias": "fooddeliveryservices", "title": "Food Delivery Services"}, {"alias": "restaurants", "title": "Restaurants"}], "rating": 2.0, "coordinates": {"latitude": 53.5786, "longitude": 9.81645}, "transactions": [], "price": "\u20ac\u20ac", "location": {"address1": "Iserbrook 15", "address2": null, "address3": null, "city": "Hamburg", "zip_code": "22589", "country": "DE", "state": "HH", "display_address": ["Iserbrook 15", "22589 Hamburg", "Germany"]}, "phone": "+494086625410", "display_phone": "+49 40 86625410", "distance": 1616.434082698323}, {"id": "plbtOwVBMyXtoNlPqn0jIA", "alias": "kaffeegarten-schuldt-hamburg", "name": "Kaffeegarten Schuldt", "image_url": "https://s3-media2.fl.yelpcdn.com/bphoto/9_DCBf0cO7GA7KhOO7vr8Q/o.jpg", "is_closed": false, "url": "https://www.yelp.com/biz/kaffeegarten-schuldt-hamburg?adjust_creative=hBJOknVQJ58S5goQyjmwRw&utm_campaign=yelp_api_v3&utm_medium=api_v3_business_search&utm_source=hBJOknVQJ58S5goQyjmwRw", "review_count": 34, "categories": [{"alias": "cafes", "title": "Cafes"}], "rating": 3.5, "coordinates": {"latitude": 53.558856, "longitude": 9.801471}, "transactions": [], "price": "\u20ac\u20ac", "location": {"address1": "S\u00fcllbergstr. 30", "address2": null, "address3": null, "city": "Hamburg", "zip_code": "22587", "country": "DE", "state": "HH", "display_address": ["S\u00fcllbergstr. 30", "22587 Hamburg", "Germany"]}, "phone": "+4940862411", "display_phone": "+49 40 862411", "distance": 3962.841540660579}, {"id": "81YEVjmCD-J3TiMoxukZEw", "alias": "caf\u00e9-stern-hamburg-3", "name": "Caf\u00e9 Stern", "image_url": "https://s3-media2.fl.yelpcdn.com/bphoto/RGBpB9WjiaNUe_U9ISlakg/o.jpg", "is_closed": false, "url": "https://www.yelp.com/biz/caf%C3%A9-stern-hamburg-3?adjust_creative=hBJOknVQJ58S5goQyjmwRw&utm_campaign=yelp_api_v3&utm_medium=api_v3_business_search&utm_source=hBJOknVQJ58S5goQyjmwRw", "review_count": 11, "categories": [{"alias": "cafes", "title": "Cafes"}, {"alias": "sportsbars", "title": "Sports Bars"}], "rating": 4.0, "coordinates": {"latitude": 53.55848, "longitude": 9.81184}, "transactions": [], "price": "\u20ac\u20ac\u20ac", "location": {"address1": "Elbchaussee 587", "address2": null, "address3": null, "city": "Hamburg", "zip_code": "22587", "country": "DE", "state": "HH", "display_address": ["Elbchaussee 587", "22587 Hamburg", "Germany"]}, "phone": "+494018047423", "display_phone": "+49 40 18047423", "distance": 3874.7819456540474}, {"id": "9ufmxoQ0O_ro0_2arLhN0Q", "alias": "s\u00fcllberg-biergarten-hamburg", "name": "S\u00fcllberg Biergarten", "image_url": "https://s3-media4.fl.yelpcdn.com/bphoto/N0QyvU-MwF8tP0HFfwJhoA/o.jpg", "is_closed": false, "url": "https://www.yelp.com/biz/s%C3%BCllberg-biergarten-hamburg?adjust_creative=hBJOknVQJ58S5goQyjmwRw&utm_campaign=yelp_api_v3&utm_medium=api_v3_business_search&utm_source=hBJOknVQJ58S5goQyjmwRw", "review_count": 10, "categories": [{"alias": "beergarden", "title": "Beer Garden"}], "rating": 4.0, "coordinates": {"latitude": 53.56017, "longitude": 9.80073}, "transactions": [], "price": "\u20ac\u20ac", "location": {"address1": "S\u00fcllbergsterrasse 12", "address2": null, "address3": null, "city": "Hamburg", "zip_code": "22587", "country": "DE", "state": "HH", "display_address": ["S\u00fcllbergsterrasse 12", "22587 Hamburg", "Germany"]}, "phone": "+49408662520", "display_phone": "+49 40 8662520", "distance": 3885.429096708172}, {"id": "UR-xg7ZyvHTROcIeROKa2w", "alias": "china-imbi\u00df-sun-fu-hamburg-2", "name": "China-Imbi\u00df Sun Fu", "image_url": "", "is_closed": false, "url": "https://www.yelp.com/biz/china-imbi%C3%9F-sun-fu-hamburg-2?adjust_creative=hBJOknVQJ58S5goQyjmwRw&utm_campaign=yelp_api_v3&utm_medium=api_v3_business_search&utm_source=hBJOknVQJ58S5goQyjmwRw", "review_count": 8, "categories": [{"alias": "food", "title": "Food"}, {"alias": "chinese", "title": "Chinese"}], "rating": 3.5, "coordinates": {"latitude": 53.5764, "longitude": 9.82141}, "transactions": [], "price": "\u20ac\u20ac", "location": {"address1": "Simrockstr. 186", "address2": null, "address3": null, "city": "Hamburg", "zip_code": "22589", "country": "DE", "state": "HH", "display_address": ["Simrockstr. 186", "22589 Hamburg", "Germany"]}, "phone": "+4940875584", "display_phone": "+49 40 875584", "distance": 1870.5851270650805}, {"id": "ZEPcY-1xU8MhwXIfr6lhTA", "alias": "tchibo-hamburg-17", "name": "Tchibo", "image_url": "", "is_closed": false, "url": "https://www.yelp.com/biz/tchibo-hamburg-17?adjust_creative=hBJOknVQJ58S5goQyjmwRw&utm_campaign=yelp_api_v3&utm_medium=api_v3_business_search&utm_source=hBJOknVQJ58S5goQyjmwRw", "review_count": 2, "categories": [{"alias": "cafes", "title": "Cafes"}], "rating": 3.5, "coordinates": {"latitude": 53.55986, "longitude": 9.81152}, "transactions": [], "price": "\u20ac\u20ac", "location": {"address1": "Blankeneser Bahnhofstr. 19", "address2": null, "address3": null, "city": "Hamburg", "zip_code": "22587", "country": "DE", "state": "HH", "display_address": ["Blankeneser Bahnhofstr. 19", "22587 Hamburg", "Germany"]}, "phone": "+491805829000", "display_phone": "+49 180 5 829000", "distance": 3721.884908898629}, {"id": "R5wNK0pZ2e7NB48ooxSPlg", "alias": "reo-schenefeld", "name": "Reo", "image_url": "https://s3-media2.fl.yelpcdn.com/bphoto/UP73qMWpSWUIhPRe9OinzA/o.jpg", "is_closed": false, "url": "https://www.yelp.com/biz/reo-schenefeld?adjust_creative=hBJOknVQJ58S5goQyjmwRw&utm_campaign=yelp_api_v3&utm_medium=api_v3_business_search&utm_source=hBJOknVQJ58S5goQyjmwRw", "review_count": 7, "categories": [{"alias": "steak", "title": "Steakhouses"}], "rating": 2.5, "coordinates": {"latitude": 53.602, "longitude": 9.8363}, "transactions": [], "price": "\u20ac\u20ac", "location": {"address1": "Kiebitzweg 2", "address2": null, "address3": null, "city": "Schenefeld", "zip_code": "22869", "country": "DE", "state": "SH", "display_address": ["Kiebitzweg 2", "22869 Schenefeld", "Germany"]}, "phone": "+494063943175", "display_phone": "+49 40 63943175", "distance": 1557.4716950695338}, {"id": "MQuYGwEojN7fFPMXRePLhw", "alias": "friedrichs-am-reiterhof-schenefeld", "name": "Friedrichs - Am Reiterhof", "image_url": "", "is_closed": false, "url": "https://www.yelp.com/biz/friedrichs-am-reiterhof-schenefeld?adjust_creative=hBJOknVQJ58S5goQyjmwRw&utm_campaign=yelp_api_v3&utm_medium=api_v3_business_search&utm_source=hBJOknVQJ58S5goQyjmwRw", "review_count": 6, "categories": [{"alias": "german", "title": "German"}], "rating": 2.5, "coordinates": {"latitude": 53.6084, "longitude": 9.82596}, "transactions": [], "location": {"address1": "Lindenallee 98", "address2": null, "address3": null, "city": "Schenefeld", "zip_code": "22869", "country": "DE", "state": "SH", "display_address": ["Lindenallee 98", "22869 Schenefeld", "Germany"]}, "phone": "+494018981959", "display_phone": "+49 40 18981959", "distance": 1778.6429653892098}, {"id": "APvIA_7ssxgC0atmQEFMcg", "alias": "burgerkultour-food-truck-hamburg-2", "name": "BurgerKultour Food Truck", "image_url": "https://s3-media4.fl.yelpcdn.com/bphoto/KoAuwalMnlAO8139MmdYBQ/o.jpg", "is_closed": false, "url": "https://www.yelp.com/biz/burgerkultour-food-truck-hamburg-2?adjust_creative=hBJOknVQJ58S5goQyjmwRw&utm_campaign=yelp_api_v3&utm_medium=api_v3_business_search&utm_source=hBJOknVQJ58S5goQyjmwRw", "review_count": 3, "categories": [{"alias": "foodtrucks", "title": "Food Trucks"}, {"alias": "burgers", "title": "Burgers"}], "rating": 4.5, "coordinates": {"latitude": 53.57154, "longitude": 9.95575}, "transactions": [], "price": "\u20ac\u20ac", "location": {"address1": "", "address2": "", "address3": "", "city": "Hamburg", "zip_code": "20259", "country": "DE", "state": "HH", "display_address": ["20259 Hamburg", "Germany"]}, "phone": "+4917626055122", "display_phone": "+49 176 26055122", "distance": 9455.630688811334}, {"id": "cGIKCcR0wZszz8VldC2-7g", "alias": "currywerk-hamburg", "name": "curryWERK", "image_url": "https://s3-media4.fl.yelpcdn.com/bphoto/j_ZPQAB6JrAru84VDuLiRA/o.jpg", "is_closed": false, "url": "https://www.yelp.com/biz/currywerk-hamburg?adjust_creative=hBJOknVQJ58S5goQyjmwRw&utm_campaign=yelp_api_v3&utm_medium=api_v3_business_search&utm_source=hBJOknVQJ58S5goQyjmwRw", "review_count": 1, "categories": [{"alias": "foodtrucks", "title": "Food Trucks"}, {"alias": "currysausage", "title": "Curry Sausage"}], "rating": 4.0, "coordinates": {"latitude": 53.5498886108398, "longitude": 9.94732189178467}, "transactions": [], "price": "\u20ac\u20ac", "location": {"address1": "", "address2": "", "address3": "", "city": "Hamburg", "zip_code": "22767", "country": "DE", "state": "HH", "display_address": ["22767 Hamburg", "Germany"]}, "phone": "+4917632443433", "display_phone": "+49 176 32443433", "distance": 9581.107487898293}, {"id": "2jzIbZsfzca5drJYk7JwbQ", "alias": "the-bao-bros-hamburg-2", "name": "The Bao Bros", "image_url": "https://s3-media1.fl.yelpcdn.com/bphoto/vUMA4Y35x3UwZk6fMJfZRw/o.jpg", "is_closed": false, "url": "https://www.yelp.com/biz/the-bao-bros-hamburg-2?adjust_creative=hBJOknVQJ58S5goQyjmwRw&utm_campaign=yelp_api_v3&utm_medium=api_v3_business_search&utm_source=hBJOknVQJ58S5goQyjmwRw", "review_count": 2, "categories": [{"alias": "foodtrucks", "title": "Food Trucks"}, {"alias": "burgers", "title": "Burgers"}], "rating": 4.0, "coordinates": {"latitude": 53.5533409118652, "longitude": 9.99246978759766}, "transactions": [], "price": "\u20ac", "location": {"address1": "", "address2": "", "address3": "", "city": "Hamburg", "zip_code": "", "country": "DE", "state": "HH", "display_address": ["Hamburg", "Germany"]}, "phone": "+4915140700076", "display_phone": "+49 1514 0700076", "distance": 12501.548747381588}, {"id": "tLqTSZGJOXObR9WaGITuGg", "alias": "restaurant-ahrberg-hamburg", "name": "Restaurant Ahrberg", "image_url": "https://s3-media1.fl.yelpcdn.com/bphoto/blN-EmSf3rIBO031ouj2kg/o.jpg", "is_closed": false, "url": "https://www.yelp.com/biz/restaurant-ahrberg-hamburg?adjust_creative=hBJOknVQJ58S5goQyjmwRw&utm_campaign=yelp_api_v3&utm_medium=api_v3_business_search&utm_source=hBJOknVQJ58S5goQyjmwRw", "review_count": 34, "categories": [{"alias": "seafood", "title": "Seafood"}], "rating": 3.5, "coordinates": {"latitude": 53.55706, "longitude": 9.80466}, "transactions": [], "price": "\u20ac\u20ac", "location": {"address1": "Strandweg 33", "address2": null, "address3": null, "city": "Hamburg", "zip_code": "22587", "country": "DE", "state": "HH", "display_address": ["Strandweg 33", "22587 Hamburg", "Germany"]}, "phone": "+4940860438", "display_phone": "+49 40 860438", "distance": 4100.9246528014555}, {"id": "7qbcYyI8R5Y7fmvYdfwhdg", "alias": "lee-und-lee-schenefeld", "name": "Lee & Lee", "image_url": "https://s3-media2.fl.yelpcdn.com/bphoto/LKrWwdqZfg0PT7vaXW8EPQ/o.jpg", "is_closed": false, "url": "https://www.yelp.com/biz/lee-und-lee-schenefeld?adjust_creative=hBJOknVQJ58S5goQyjmwRw&utm_campaign=yelp_api_v3&utm_medium=api_v3_business_search&utm_source=hBJOknVQJ58S5goQyjmwRw", "review_count": 5, "categories": [{"alias": "panasian", "title": "Pan Asian"}], "rating": 3.0, "coordinates": {"latitude": 53.6018, "longitude": 9.83667}, "transactions": [], "location": {"address1": "Kiebitzweg 2", "address2": null, "address3": null, "city": "Schenefeld", "zip_code": "22869", "country": "DE", "state": "SH", "display_address": ["Kiebitzweg 2", "22869 Schenefeld", "Germany"]}, "phone": "+494087974279", "display_phone": "+49 40 87974279", "distance": 1562.554015052524}, {"id": "aJ4xM7L5Sg8oJ1ygPC9-og", "alias": "himalaya-hamburg-4", "name": "Himalaya", "image_url": "", "is_closed": false, "url": "https://www.yelp.com/biz/himalaya-hamburg-4?adjust_creative=hBJOknVQJ58S5goQyjmwRw&utm_campaign=yelp_api_v3&utm_medium=api_v3_business_search&utm_source=hBJOknVQJ58S5goQyjmwRw", "review_count": 4, "categories": [{"alias": "indpak", "title": "Indian"}], "rating": 3.0, "coordinates": {"latitude": 53.5756874, "longitude": 9.816833}, "transactions": [], "location": {"address1": "Espenreihe 15", "address2": "", "address3": "", "city": "Hamburg", "zip_code": "22589", "country": "DE", "state": "HH", "display_address": ["Espenreihe 15", "22589 Hamburg", "Germany"]}, "phone": "+494086625410", "display_phone": "+49 40 86625410", "distance": 1938.4830789234068}, {"id": "PAaagr3ejMNRHbuTiwqvNA", "alias": "nelsons-kaj\u00fcte-hamburg-2", "name": "Nelson's Kaj\u00fcte", "image_url": "https://s3-media3.fl.yelpcdn.com/bphoto/1tlpOwjSCzEqIrluChCN6w/o.jpg", "is_closed": false, "url": "https://www.yelp.com/biz/nelsons-kaj%C3%BCte-hamburg-2?adjust_creative=hBJOknVQJ58S5goQyjmwRw&utm_campaign=yelp_api_v3&utm_medium=api_v3_business_search&utm_source=hBJOknVQJ58S5goQyjmwRw", "review_count": 4, "categories": [{"alias": "mediterranean", "title": "Mediterranean"}, {"alias": "german", "title": "German"}], "rating": 4.0, "coordinates": {"latitude": 53.55434, "longitude": 9.82316}, "transactions": [], "location": {"address1": "Jollenhafen Blankenese", "address2": "Elbuferweg 135", "address3": "", "city": "Hamburg", "zip_code": "22587", "country": "DE", "state": "HH", "display_address": ["Jollenhafen Blankenese", "Elbuferweg 135", "22587 Hamburg", "Germany"]}, "phone": "+4940862373", "display_phone": "+49 40 862373", "distance": 4315.408280017297}, {"id": "0Qx6Nf-xHiSLZ-7M9Mm7cw", "alias": "enjoy-pizza-und-wok-hamburg", "name": "Enjoy Pizza & Wok", "image_url": "https://s3-media3.fl.yelpcdn.com/bphoto/d1tc4Ul1eiJsL4oKH9fw2w/o.jpg", "is_closed": false, "url": "https://www.yelp.com/biz/enjoy-pizza-und-wok-hamburg?adjust_creative=hBJOknVQJ58S5goQyjmwRw&utm_campaign=yelp_api_v3&utm_medium=api_v3_business_search&utm_source=hBJOknVQJ58S5goQyjmwRw", "review_count": 2, "categories": [{"alias": "chinese", "title": "Chinese"}], "rating": 2.0, "coordinates": {"latitude": 53.5782814, "longitude": 9.8097296}, "transactions": [], "price": "\u20ac\u20ac", "location": {"address1": "S\u00fclldorfer Landstr. 94", "address2": "", "address3": "", "city": "Hamburg", "zip_code": "22589", "country": "DE", "state": "HH", "display_address": ["S\u00fclldorfer Landstr. 94", "22589 Hamburg", "Germany"]}, "phone": "+494018072333", "display_phone": "+49 40 18072333", "distance": 1732.7687265042678}, {"id": "SeodQIjOcsrznD7rwIB-Jw", "alias": "the-big-balmy-hamburg-2", "name": "The Big Balmy", "image_url": "https://s3-media2.fl.yelpcdn.com/bphoto/KWUCQvGDONs_iDxlKXzgvQ/o.jpg", "is_closed": false, "url": "https://www.yelp.com/biz/the-big-balmy-hamburg-2?adjust_creative=hBJOknVQJ58S5goQyjmwRw&utm_campaign=yelp_api_v3&utm_medium=api_v3_business_search&utm_source=hBJOknVQJ58S5goQyjmwRw", "review_count": 27, "categories": [{"alias": "burgers", "title": "Burgers"}, {"alias": "foodtrucks", "title": "Food Trucks"}], "rating": 3.5, "coordinates": {"latitude": 53.537786, "longitude": 10.028218}, "transactions": [], "price": "\u20ac\u20ac", "location": {"address1": "", "address2": null, "address3": null, "city": "Hamburg", "zip_code": "", "country": "DE", "state": "HH", "display_address": ["Hamburg", "Germany"]}, "phone": "+494069278630", "display_phone": "+49 40 69278630", "distance": 15180.222561267638}, {"id": "-xrcJK-pbh18zQk-nG4oDQ", "alias": "eiscafe-fiore-schenefeld", "name": "Eiscafe Fiore", "image_url": "https://s3-media4.fl.yelpcdn.com/bphoto/MsEW5iYvVDwiH9UYBHAMWw/o.jpg", "is_closed": false, "url": "https://www.yelp.com/biz/eiscafe-fiore-schenefeld?adjust_creative=hBJOknVQJ58S5goQyjmwRw&utm_campaign=yelp_api_v3&utm_medium=api_v3_business_search&utm_source=hBJOknVQJ58S5goQyjmwRw", "review_count": 7, "categories": [{"alias": "cafes", "title": "Cafes"}, {"alias": "icecream", "title": "Ice Cream & Frozen Yogurt"}], "rating": 2.5, "coordinates": {"latitude": 53.6009, "longitude": 9.83725}, "transactions": [], "price": "\u20ac\u20ac", "location": {"address1": "Kiebitzweg 2", "address2": null, "address3": null, "city": "Schenefeld", "zip_code": "22869", "country": "DE", "state": "SH", "display_address": ["Kiebitzweg 2", "22869 Schenefeld", "Germany"]}, "phone": "+49408300537", "display_phone": "+49 40 8300537", "distance": 1534.126632432956}]