[{"id": "50XytaOXas1B-6REju0SuA", "alias": "gia-dinh-hamburg", "name": "Gia Dinh", "image_url": "https://s3-media1.fl.yelpcdn.com/bphoto/aO5wzkoMw8UWRs5l3ktxWw/o.jpg", "is_closed": false, "url": "https://www.yelp.com/biz/gia-dinh-hamburg?adjust_creative=hBJOknVQJ58S5goQyjmwRw&utm_campaign=yelp_api_v3&utm_medium=api_v3_business_search&utm_source=hBJOknVQJ58S5goQyjmwRw", "review_count": 5, "categories": [{"alias": "vietnamese", "title": "Vietnamese"}, {"alias": "foodstands", "title": "Food Stands"}], "rating": 5.0, "coordinates": {"latitude": 53.60647, "longitude": 9.98076}, "transactions": [], "price": "\u20ac", "location": {"address1": "Borsteler Chaussee 90", "address2": null, "address3": "", "city": "Hamburg", "zip_code": "22453", "country": "DE", "state": "HH", "display_address": ["Borsteler Chaussee 90", "22453 Hamburg", "Germany"]}, "phone": "+494055896634", "display_phone": "+49 40 55896634", "distance": 1147.2721699114227}, {"id": "lUkcht1m41ywE72D4qwxEw", "alias": "le-marrakech-hamburg", "name": "Le Marrakech", "image_url": "https://s3-media1.fl.yelpcdn.com/bphoto/iBFo1qX-VD6beQ5p242D_w/o.jpg", "is_closed": false, "url": "https://www.yelp.com/biz/le-marrakech-hamburg?adjust_creative=hBJOknVQJ58S5goQyjmwRw&utm_campaign=yelp_api_v3&utm_medium=api_v3_business_search&utm_source=hBJOknVQJ58S5goQyjmwRw", "review_count": 102, "categories": [{"alias": "homedecor", "title": "Home Decor"}, {"alias": "oriental", "title": "Oriental"}, {"alias": "moroccan", "title": "Moroccan"}], "rating": 4.0, "coordinates": {"latitude": 53.6031032464623, "longitude": 9.97474717063903}, "transactions": [], "price": "\u20ac\u20ac\u20ac", "location": {"address1": "Kellerbleek 10", "address2": "", "address3": null, "city": "Hamburg", "zip_code": "22529", "country": "DE", "state": "HH", "display_address": ["Kellerbleek 10", "22529 Hamburg", "Germany"]}, "phone": "+494088889895", "display_phone": "+49 40 88889895", "distance": 756.4647972697531}, {"id": "WetyIlnM0O9pRYHBw9_OwA", "alias": "long-asia-hamburg", "name": "Long Asia", "image_url": "https://s3-media4.fl.yelpcdn.com/bphoto/B7M1msF2F4V7cGasOayDMQ/o.jpg", "is_closed": false, "url": "https://www.yelp.com/biz/long-asia-hamburg?adjust_creative=hBJOknVQJ58S5goQyjmwRw&utm_campaign=yelp_api_v3&utm_medium=api_v3_business_search&utm_source=hBJOknVQJ58S5goQyjmwRw", "review_count": 3, "categories": [{"alias": "panasian", "title": "Pan Asian"}], "rating": 5.0, "coordinates": {"latitude": 53.598085, "longitude": 9.974319}, "transactions": [], "price": "\u20ac", "location": {"address1": "M\u00fcnsterstr. 40", "address2": "", "address3": "", "city": "Hamburg", "zip_code": "22529", "country": "DE", "state": "HH", "display_address": ["M\u00fcnsterstr. 40", "22529 Hamburg", "Germany"]}, "phone": "", "display_phone": "", "distance": 247.51417471191505}, {"id": "Ggswp3bltokJBFNrZOyjfA", "alias": "health-kitchen-hamburg", "name": "Health Kitchen", "image_url": "https://s3-media4.fl.yelpcdn.com/bphoto/v28Vry782RapI896XTTF5g/o.jpg", "is_closed": false, "url": "https://www.yelp.com/biz/health-kitchen-hamburg?adjust_creative=hBJOknVQJ58S5goQyjmwRw&utm_campaign=yelp_api_v3&utm_medium=api_v3_business_search&utm_source=hBJOknVQJ58S5goQyjmwRw", "review_count": 1, "categories": [{"alias": "canteen", "title": "Canteen"}], "rating": 4.0, "coordinates": {"latitude": 53.5936978688899, "longitude": 9.97366750528874}, "transactions": [], "price": "\u20ac", "location": {"address1": "Martinistr. 52", "address2": "Campus Lehre, N 55", "address3": "", "city": "Hamburg", "zip_code": "20246", "country": "DE", "state": "HH", "display_address": ["Martinistr. 52", "Campus Lehre, N 55", "20246 Hamburg", "Germany"]}, "phone": "", "display_phone": "", "distance": 365.2167055608218}, {"id": "PpXwCPdrM-hNbxixughftQ", "alias": "restaurant-eppo-hamburg-2", "name": "Restaurant Eppo", "image_url": "https://s3-media3.fl.yelpcdn.com/bphoto/_aXybb3gE-etqapVJaRHSg/o.jpg", "is_closed": false, "url": "https://www.yelp.com/biz/restaurant-eppo-hamburg-2?adjust_creative=hBJOknVQJ58S5goQyjmwRw&utm_campaign=yelp_api_v3&utm_medium=api_v3_business_search&utm_source=hBJOknVQJ58S5goQyjmwRw", "review_count": 1, "categories": [{"alias": "german", "title": "German"}], "rating": 5.0, "coordinates": {"latitude": 53.58841, "longitude": 9.97344}, "transactions": [], "location": {"address1": "Hotel Dorint", "address2": "Martinistr. 72", "address3": "", "city": "Hamburg", "zip_code": "20251", "country": "DE", "state": "HH", "display_address": ["Hotel Dorint", "Martinistr. 72", "20251 Hamburg", "Germany"]}, "phone": "+49405701500", "display_phone": "+49 40 5701500", "distance": 936.9818459923595}, {"id": "NEWo5xypRjZQIObbNfJXjQ", "alias": "ellenas-back-bistro-hamburg", "name": "Ellena's Back-Bistro", "image_url": "https://s3-media4.fl.yelpcdn.com/bphoto/JEdWc8oLkYQKXPcGgZT_gw/o.jpg", "is_closed": false, "url": "https://www.yelp.com/biz/ellenas-back-bistro-hamburg?adjust_creative=hBJOknVQJ58S5goQyjmwRw&utm_campaign=yelp_api_v3&utm_medium=api_v3_business_search&utm_source=hBJOknVQJ58S5goQyjmwRw", "review_count": 21, "categories": [{"alias": "brasseries", "title": "Brasseries"}, {"alias": "breakfast_brunch", "title": "Breakfast & Brunch"}, {"alias": "bakeries", "title": "Bakeries"}], "rating": 3.5, "coordinates": {"latitude": 53.59428, "longitude": 9.97579}, "transactions": [], "price": "\u20ac", "location": {"address1": "Geschwister-Scholl-Str. 155", "address2": "", "address3": "", "city": "Hamburg", "zip_code": "20251", "country": "DE", "state": "HH", "display_address": ["Geschwister-Scholl-Str. 155", "20251 Hamburg", "Germany"]}, "phone": "+494051310099", "display_phone": "+49 40 51310099", "distance": 255.79957978603716}, {"id": "_avQf9vEHV3BaoGn2Bo4Ww", "alias": "ciao-bella-hamburg-8", "name": "Ciao Bella", "image_url": "https://s3-media2.fl.yelpcdn.com/bphoto/pUHzxCICPr4t-VdtnsUUNA/o.jpg", "is_closed": false, "url": "https://www.yelp.com/biz/ciao-bella-hamburg-8?adjust_creative=hBJOknVQJ58S5goQyjmwRw&utm_campaign=yelp_api_v3&utm_medium=api_v3_business_search&utm_source=hBJOknVQJ58S5goQyjmwRw", "review_count": 2, "categories": [{"alias": "italian", "title": "Italian"}], "rating": 4.0, "coordinates": {"latitude": 53.6010428, "longitude": 9.9745951}, "transactions": [], "location": {"address1": "Nedderfeld 70", "address2": "", "address3": null, "city": "Hamburg", "zip_code": "22529", "country": "DE", "state": "HH", "display_address": ["Nedderfeld 70", "22529 Hamburg", "Germany"]}, "phone": "+494080603058", "display_phone": "+49 40 80603058", "distance": 535.2232465044231}, {"id": "EvDArjy8EKcCsMqM-PC7JQ", "alias": "casa-grande-hamburg", "name": "Casa Grande", "image_url": "https://s3-media2.fl.yelpcdn.com/bphoto/mmPJZogd10KeMCdO5za9Mw/o.jpg", "is_closed": false, "url": "https://www.yelp.com/biz/casa-grande-hamburg?adjust_creative=hBJOknVQJ58S5goQyjmwRw&utm_campaign=yelp_api_v3&utm_medium=api_v3_business_search&utm_source=hBJOknVQJ58S5goQyjmwRw", "review_count": 8, "categories": [{"alias": "pizza", "title": "Pizza"}, {"alias": "italian", "title": "Italian"}], "rating": 3.5, "coordinates": {"latitude": 53.60706, "longitude": 9.97943}, "transactions": [], "price": "\u20ac\u20ac", "location": {"address1": "Borsteler Chaussee 110", "address2": "", "address3": "", "city": "Hamburg", "zip_code": "22453", "country": "DE", "state": "HH", "display_address": ["Borsteler Chaussee 110", "22453 Hamburg", "Germany"]}, "phone": "+49405117904", "display_phone": "+49 40 5117904", "distance": 1197.8785772706321}, {"id": "GDfyfj0Cq20shDfxogBIog", "alias": "uke-kasino-hamburg", "name": "UKE Kasino", "image_url": "", "is_closed": false, "url": "https://www.yelp.com/biz/uke-kasino-hamburg?adjust_creative=hBJOknVQJ58S5goQyjmwRw&utm_campaign=yelp_api_v3&utm_medium=api_v3_business_search&utm_source=hBJOknVQJ58S5goQyjmwRw", "review_count": 2, "categories": [{"alias": "canteen", "title": "Canteen"}], "rating": 2.5, "coordinates": {"latitude": 53.5913076350732, "longitude": 9.97446515447519}, "transactions": [], "price": "\u20ac", "location": {"address1": "Martinistr. 52", "address2": "Geb\u00e4ude N19, 3. / 4. OG", "address3": "", "city": "Hamburg", "zip_code": "20246", "country": "DE", "state": "HH", "display_address": ["Martinistr. 52", "Geb\u00e4ude N19, 3. / 4. OG", "20246 Hamburg", "Germany"]}, "phone": "+4940741055645", "display_phone": "+49 40 741055645", "distance": 587.6663706555839}, {"id": "PQ9kUgrtYXGjvm4kc28Z0w", "alias": "melodia-hamburg-2", "name": "Melodia", "image_url": "https://s3-media3.fl.yelpcdn.com/bphoto/Ef1jzn8UL3QKa9GMWP5g2g/o.jpg", "is_closed": false, "url": "https://www.yelp.com/biz/melodia-hamburg-2?adjust_creative=hBJOknVQJ58S5goQyjmwRw&utm_campaign=yelp_api_v3&utm_medium=api_v3_business_search&utm_source=hBJOknVQJ58S5goQyjmwRw", "review_count": 2, "categories": [{"alias": "greek", "title": "Greek"}], "rating": 2.5, "coordinates": {"latitude": 53.6053262629276, "longitude": 9.98279549293252}, "transactions": [], "price": "\u20ac", "location": {"address1": "Borsteler Chaussee 47", "address2": "", "address3": null, "city": "Hamburg", "zip_code": "22453", "country": "DE", "state": "HH", "display_address": ["Borsteler Chaussee 47", "22453 Hamburg", "Germany"]}, "phone": "+494050016166", "display_phone": "+49 40 50016166", "distance": 1067.7583305961866}, {"id": "jN509Y_9w4MVz5M3mFInWw", "alias": "croque-factory-hamburg-2", "name": "Croque Factory", "image_url": "https://s3-media2.fl.yelpcdn.com/bphoto/KnTIu4oz2bKnnWmMwQkdqA/o.jpg", "is_closed": false, "url": "https://www.yelp.com/biz/croque-factory-hamburg-2?adjust_creative=hBJOknVQJ58S5goQyjmwRw&utm_campaign=yelp_api_v3&utm_medium=api_v3_business_search&utm_source=hBJOknVQJ58S5goQyjmwRw", "review_count": 39, "categories": [{"alias": "sandwiches", "title": "Sandwiches"}], "rating": 4.0, "coordinates": {"latitude": 53.606564, "longitude": 9.979632}, "transactions": [], "price": "\u20ac\u20ac\u20ac", "location": {"address1": "Borsteler Chaussee 103", "address2": "", "address3": "", "city": "Hamburg", "zip_code": "22453", "country": "DE", "state": "HH", "display_address": ["Borsteler Chaussee 103", "22453 Hamburg", "Germany"]}, "phone": "+494059355356", "display_phone": "+49 40 59355356", "distance": 1145.7712081117525}, {"id": "oOYUVgeJRWyq_T2newShnQ", "alias": "imbiss-hamburg-3", "name": "Imbiss", "image_url": "", "is_closed": false, "url": "https://www.yelp.com/biz/imbiss-hamburg-3?adjust_creative=hBJOknVQJ58S5goQyjmwRw&utm_campaign=yelp_api_v3&utm_medium=api_v3_business_search&utm_source=hBJOknVQJ58S5goQyjmwRw", "review_count": 4, "categories": [{"alias": "foodstands", "title": "Food Stands"}], "rating": 3.0, "coordinates": {"latitude": 53.591429, "longitude": 9.975404}, "transactions": [], "location": {"address1": "Universit\u00e4tsklinikum Eppendorf", "address2": "Martinistr. 52", "address3": "", "city": "Hamburg", "zip_code": "20251", "country": "DE", "state": "HH", "display_address": ["Universit\u00e4tsklinikum Eppendorf", "Martinistr. 52", "20251 Hamburg", "Germany"]}, "phone": "+4940741050753", "display_phone": "+49 40 741050753", "distance": 561.2851243466698}, {"id": "jLqPPf_yPgfzauW4uWjmMg", "alias": "cimstern-hamburg", "name": "cimstern", "image_url": "", "is_closed": false, "url": "https://www.yelp.com/biz/cimstern-hamburg?adjust_creative=hBJOknVQJ58S5goQyjmwRw&utm_campaign=yelp_api_v3&utm_medium=api_v3_business_search&utm_source=hBJOknVQJ58S5goQyjmwRw", "review_count": 2, "categories": [{"alias": "bistros", "title": "Bistros"}], "rating": 5.0, "coordinates": {"latitude": 53.5859652, "longitude": 9.9717801}, "transactions": [], "price": "\u20ac", "location": {"address1": "CiM - Centrum f\u00fcr innovative Medizin", "address2": "Falkenried 88", "address3": null, "city": "Hamburg", "zip_code": "20251", "country": "DE", "state": "HH", "display_address": ["CiM - Centrum f\u00fcr innovative Medizin", "Falkenried 88", "20251 Hamburg", "Germany"]}, "phone": "+494047196196", "display_phone": "+49 40 47196196", "distance": 1207.4893635701192}, {"id": "hpTK3eTvltKy4WmjwQC3fQ", "alias": "pizza-max-hamburg-11", "name": "Pizza Max", "image_url": "https://s3-media1.fl.yelpcdn.com/bphoto/Von6GhVuXMMOKxMZ4qNXdQ/o.jpg", "is_closed": false, "url": "https://www.yelp.com/biz/pizza-max-hamburg-11?adjust_creative=hBJOknVQJ58S5goQyjmwRw&utm_campaign=yelp_api_v3&utm_medium=api_v3_business_search&utm_source=hBJOknVQJ58S5goQyjmwRw", "review_count": 11, "categories": [{"alias": "pizza", "title": "Pizza"}], "rating": 3.0, "coordinates": {"latitude": 53.5968208, "longitude": 9.9802103}, "transactions": [], "location": {"address1": "Lokstedter Weg 45", "address2": "", "address3": "", "city": "Hamburg", "zip_code": "20251", "country": "DE", "state": "HH", "display_address": ["Lokstedter Weg 45", "20251 Hamburg", "Germany"]}, "phone": "+494046778400", "display_phone": "+49 40 46778400", "distance": 227.52133484880778}, {"id": "q9oQno3vzxE9yDVsYp6m5w", "alias": "mai-mai-hamburg-2", "name": "Mai-Mai", "image_url": "https://s3-media2.fl.yelpcdn.com/bphoto/MUIxdwnbNOYMJQo9k7Wz8A/o.jpg", "is_closed": false, "url": "https://www.yelp.com/biz/mai-mai-hamburg-2?adjust_creative=hBJOknVQJ58S5goQyjmwRw&utm_campaign=yelp_api_v3&utm_medium=api_v3_business_search&utm_source=hBJOknVQJ58S5goQyjmwRw", "review_count": 8, "categories": [{"alias": "panasian", "title": "Pan Asian"}], "rating": 3.5, "coordinates": {"latitude": 53.601565, "longitude": 9.97521}, "transactions": [], "price": "\u20ac", "location": {"address1": "Nedderfeld 70", "address2": "", "address3": "Erdgeschoss", "city": "Hamburg", "zip_code": "22529", "country": "DE", "state": "HH", "display_address": ["Nedderfeld 70", "Erdgeschoss", "22529 Hamburg", "Germany"]}, "phone": "", "display_phone": "", "distance": 582.7157985867277}, {"id": "-elq51BCymx47gNc-G32Gg", "alias": "caffe-dallucci-hamburg", "name": "Caffe Dallucci", "image_url": "https://s3-media3.fl.yelpcdn.com/bphoto/dQKdZBA7GhVsVxQODgAPSQ/o.jpg", "is_closed": false, "url": "https://www.yelp.com/biz/caffe-dallucci-hamburg?adjust_creative=hBJOknVQJ58S5goQyjmwRw&utm_campaign=yelp_api_v3&utm_medium=api_v3_business_search&utm_source=hBJOknVQJ58S5goQyjmwRw", "review_count": 7, "categories": [{"alias": "cafes", "title": "Cafes"}, {"alias": "coffee", "title": "Coffee & Tea"}], "rating": 2.0, "coordinates": {"latitude": 53.589768248746, "longitude": 9.97600781710793}, "transactions": [], "location": {"address1": "Martinistr. 52", "address2": "", "address3": "", "city": "Hamburg", "zip_code": "20251", "country": "DE", "state": "HH", "display_address": ["Martinistr. 52", "20251 Hamburg", "Germany"]}, "phone": "", "display_phone": "", "distance": 740.2442776167849}, {"id": "fk7f9-3Py2JV7gu-i0NuvA", "alias": "caf\u00e9-osterfeld-hamburg", "name": "Caf\u00e9 Osterfeld", "image_url": "https://s3-media2.fl.yelpcdn.com/bphoto/Km6Pee63MnzGau9oNqYVeQ/o.jpg", "is_closed": false, "url": "https://www.yelp.com/biz/caf%C3%A9-osterfeld-hamburg?adjust_creative=hBJOknVQJ58S5goQyjmwRw&utm_campaign=yelp_api_v3&utm_medium=api_v3_business_search&utm_source=hBJOknVQJ58S5goQyjmwRw", "review_count": 2, "categories": [{"alias": "cafes", "title": "Cafes"}, {"alias": "coffee", "title": "Coffee & Tea"}], "rating": 3.0, "coordinates": {"latitude": 53.5892, "longitude": 9.97361}, "transactions": [], "price": "\u20ac", "location": {"address1": "Martinistr. 52", "address2": null, "address3": null, "city": "Hamburg", "zip_code": "20251", "country": "DE", "state": "HH", "display_address": ["Martinistr. 52", "20251 Hamburg", "Germany"]}, "phone": "", "display_phone": "", "distance": 828.6583457153752}, {"id": "1a_GGr_GrY2KbqbgWM0IpA", "alias": "schanzenb\u00e4ckerei-hamburg-48", "name": "Schanzenb\u00e4ckerei", "image_url": "https://s3-media3.fl.yelpcdn.com/bphoto/Pk_Bxoxlc1wmxFQ_W7xeow/o.jpg", "is_closed": false, "url": "https://www.yelp.com/biz/schanzenb%C3%A4ckerei-hamburg-48?adjust_creative=hBJOknVQJ58S5goQyjmwRw&utm_campaign=yelp_api_v3&utm_medium=api_v3_business_search&utm_source=hBJOknVQJ58S5goQyjmwRw", "review_count": 3, "categories": [{"alias": "bakeries", "title": "Bakeries"}, {"alias": "cafes", "title": "Cafes"}], "rating": 3.0, "coordinates": {"latitude": 53.60141, "longitude": 9.97655}, "transactions": [], "price": "\u20ac\u20ac", "location": {"address1": "Nedderfeld 70", "address2": null, "address3": null, "city": "Hamburg", "zip_code": "22529", "country": "DE", "state": "HH", "display_address": ["Nedderfeld 70", "22529 Hamburg", "Germany"]}, "phone": "+494046095915", "display_phone": "+49 40 46095915", "distance": 556.2924540266425}, {"id": "Y8Jr2fD6UkhQakAF1o16Eg", "alias": "call-a-pizza-hamburg-4", "name": "Call a Pizza", "image_url": "", "is_closed": false, "url": "https://www.yelp.com/biz/call-a-pizza-hamburg-4?adjust_creative=hBJOknVQJ58S5goQyjmwRw&utm_campaign=yelp_api_v3&utm_medium=api_v3_business_search&utm_source=hBJOknVQJ58S5goQyjmwRw", "review_count": 6, "categories": [{"alias": "pizza", "title": "Pizza"}], "rating": 4.0, "coordinates": {"latitude": 53.59924, "longitude": 9.97144}, "transactions": [], "location": {"address1": "Offakamp 3", "address2": "", "address3": "", "city": "Hamburg", "zip_code": "22529", "country": "DE", "state": "HH", "display_address": ["Offakamp 3", "22529 Hamburg", "Germany"]}, "phone": "+494041918686", "display_phone": "+49 40 41918686", "distance": 478.65386004446424}, {"id": "B7l1qchePBD0PqmPnpiCXw", "alias": "pizza-mia-hamburg", "name": "Pizza Mia", "image_url": "", "is_closed": false, "url": "https://www.yelp.com/biz/pizza-mia-hamburg?adjust_creative=hBJOknVQJ58S5goQyjmwRw&utm_campaign=yelp_api_v3&utm_medium=api_v3_business_search&utm_source=hBJOknVQJ58S5goQyjmwRw", "review_count": 4, "categories": [{"alias": "pizza", "title": "Pizza"}, {"alias": "italian", "title": "Italian"}], "rating": 4.0, "coordinates": {"latitude": 53.5927, "longitude": 9.97318}, "transactions": [], "price": "\u20ac\u20ac", "location": {"address1": "Universit\u00e4tsklinikum Eppendorf", "address2": "Geb\u00e4ude N19", "address3": "Martinistr. 52", "city": "Hamburg", "zip_code": "20251", "country": "DE", "state": "HH", "display_address": ["Universit\u00e4tsklinikum Eppendorf", "Geb\u00e4ude N19", "Martinistr. 52", "20251 Hamburg", "Germany"]}, "phone": "+4940741053058", "display_phone": "+49 40 741053058", "distance": 476.33874499007004}, {"id": "kFl6020WAvx2THHeCpaaPQ", "alias": "caff\u00e9-dalluci-hamburg", "name": "Caff\u00e9 Dalluci", "image_url": "", "is_closed": false, "url": "https://www.yelp.com/biz/caff%C3%A9-dalluci-hamburg?adjust_creative=hBJOknVQJ58S5goQyjmwRw&utm_campaign=yelp_api_v3&utm_medium=api_v3_business_search&utm_source=hBJOknVQJ58S5goQyjmwRw", "review_count": 1, "categories": [{"alias": "cafes", "title": "Cafes"}], "rating": 3.0, "coordinates": {"latitude": 53.5892, "longitude": 9.9719}, "transactions": [], "location": {"address1": "Martinistr. 52", "address2": "", "address3": null, "city": "Hamburg", "zip_code": "20246", "country": "DE", "state": "HH", "display_address": ["Martinistr. 52", "20246 Hamburg", "Germany"]}, "phone": "", "display_phone": "", "distance": 864.1732301054838}]