[{"id": "s8YuoOunBZCW-fYkFv2i2A", "alias": "hoh-und-hoh-hamburg", "name": "Hoh & Hoh", "image_url": "https://s3-media4.fl.yelpcdn.com/bphoto/L6pCHJkPD1Oeio-J24aR8Q/o.jpg", "is_closed": false, "url": "https://www.yelp.com/biz/hoh-und-hoh-hamburg?adjust_creative=hBJOknVQJ58S5goQyjmwRw&utm_campaign=yelp_api_v3&utm_medium=api_v3_business_search&utm_source=hBJOknVQJ58S5goQyjmwRw", "review_count": 25, "categories": [{"alias": "chinese", "title": "Chinese"}], "rating": 4.5, "coordinates": {"latitude": 53.599, "longitude": 9.86185}, "transactions": [], "price": "\u20ac\u20ac", "location": {"address1": "Fahrenort 125", "address2": null, "address3": null, "city": "Hamburg", "zip_code": "22547", "country": "DE", "state": "HH", "display_address": ["Fahrenort 125", "22547 Hamburg", "Germany"]}, "phone": "+494086643878", "display_phone": "+49 40 86643878", "distance": 1123.6310282026066}, {"id": "L-BkX8ezga-odvGyMFiO4w", "alias": "fellini-schenefeld", "name": "Fellini", "image_url": "https://s3-media4.fl.yelpcdn.com/bphoto/WTikpLKwyxrwQKn2bl5z3g/o.jpg", "is_closed": false, "url": "https://www.yelp.com/biz/fellini-schenefeld?adjust_creative=hBJOknVQJ58S5goQyjmwRw&utm_campaign=yelp_api_v3&utm_medium=api_v3_business_search&utm_source=hBJOknVQJ58S5goQyjmwRw", "review_count": 22, "categories": [{"alias": "italian", "title": "Italian"}, {"alias": "bistros", "title": "Bistros"}], "rating": 4.5, "coordinates": {"latitude": 53.59939, "longitude": 9.84844}, "transactions": [], "price": "\u20ac\u20ac", "location": {"address1": "Lornsenstr. 5 - 7", "address2": null, "address3": null, "city": "Schenefeld", "zip_code": "22869", "country": "DE", "state": "SH", "display_address": ["Lornsenstr. 5 - 7", "22869 Schenefeld", "Germany"]}, "phone": "+494025482513", "display_phone": "+49 40 25482513", "distance": 734.7439664984183}, {"id": "2NeIDaFhcZHjYAwt9IUhYA", "alias": "quan-asia-hamburg", "name": "Quan Asia", "image_url": "https://s3-media2.fl.yelpcdn.com/bphoto/UBjwfmGqLpMySsingTl21A/o.jpg", "is_closed": false, "url": "https://www.yelp.com/biz/quan-asia-hamburg?adjust_creative=hBJOknVQJ58S5goQyjmwRw&utm_campaign=yelp_api_v3&utm_medium=api_v3_business_search&utm_source=hBJOknVQJ58S5goQyjmwRw", "review_count": 10, "categories": [{"alias": "panasian", "title": "Pan Asian"}], "rating": 4.5, "coordinates": {"latitude": 53.582819, "longitude": 9.855181}, "transactions": [], "price": "\u20ac", "location": {"address1": "Bornheide  11", "address2": "", "address3": "", "city": "Hamburg", "zip_code": "22549", "country": "DE", "state": "HH", "display_address": ["Bornheide  11", "22549 Hamburg", "Germany"]}, "phone": "+494086628505", "display_phone": "+49 40 86628505", "distance": 1203.857490343944}, {"id": "ZgxHe3hwSkaPXgI69Pd-Cg", "alias": "redox-house-hamburg", "name": "REDOX HOUSE", "image_url": "https://s3-media1.fl.yelpcdn.com/bphoto/5e-8fP6SpSrRVS_CHDc4zQ/o.jpg", "is_closed": false, "url": "https://www.yelp.com/biz/redox-house-hamburg?adjust_creative=hBJOknVQJ58S5goQyjmwRw&utm_campaign=yelp_api_v3&utm_medium=api_v3_business_search&utm_source=hBJOknVQJ58S5goQyjmwRw", "review_count": 58, "categories": [{"alias": "steak", "title": "Steakhouses"}], "rating": 4.0, "coordinates": {"latitude": 53.59671, "longitude": 9.86669}, "transactions": [], "price": "\u20ac\u20ac", "location": {"address1": "Luruper Hauptstr. 216", "address2": null, "address3": null, "city": "Hamburg", "zip_code": "22547", "country": "DE", "state": "HH", "display_address": ["Luruper Hauptstr. 216", "22547 Hamburg", "Germany"]}, "phone": "+4940835937", "display_phone": "+49 40 835937", "distance": 1287.3444552969058}, {"id": "c1XGC8FPiuBDjl69Y7UglA", "alias": "asia-yu-schenefeld", "name": "Asia Yu", "image_url": "", "is_closed": false, "url": "https://www.yelp.com/biz/asia-yu-schenefeld?adjust_creative=hBJOknVQJ58S5goQyjmwRw&utm_campaign=yelp_api_v3&utm_medium=api_v3_business_search&utm_source=hBJOknVQJ58S5goQyjmwRw", "review_count": 1, "categories": [{"alias": "chinese", "title": "Chinese"}], "rating": 5.0, "coordinates": {"latitude": 53.5986, "longitude": 9.85118}, "transactions": [], "price": "\u20ac\u20ac", "location": {"address1": "Altonaer Chaussee 22 - 30", "address2": "zwischen Discounter und Tankstelle, neben Buchhandlung", "address3": null, "city": "Schenefeld", "zip_code": "22869", "country": "DE", "state": "SH", "display_address": ["Altonaer Chaussee 22 - 30", "zwischen Discounter und Tankstelle, neben Buchhandlung", "22869 Schenefeld", "Germany"]}, "phone": "+494028519442", "display_phone": "+49 40 28519442", "distance": 662.5868652580943}, {"id": "JA7DF73aS91yyyLL8vJrCg", "alias": "thai-foo-hamburg-3", "name": "Thai Foo", "image_url": "https://s3-media1.fl.yelpcdn.com/bphoto/vA7nApVih4P6WDiHAxl1nA/o.jpg", "is_closed": false, "url": "https://www.yelp.com/biz/thai-foo-hamburg-3?adjust_creative=hBJOknVQJ58S5goQyjmwRw&utm_campaign=yelp_api_v3&utm_medium=api_v3_business_search&utm_source=hBJOknVQJ58S5goQyjmwRw", "review_count": 1, "categories": [{"alias": "panasian", "title": "Pan Asian"}], "rating": 5.0, "coordinates": {"latitude": 53.584605, "longitude": 9.871361}, "transactions": [], "price": "\u20ac", "location": {"address1": "Grandkuhlenweg 11", "address2": "", "address3": "", "city": "Hamburg", "zip_code": "22549", "country": "DE", "state": "HH", "display_address": ["Grandkuhlenweg 11", "22549 Hamburg", "Germany"]}, "phone": "+494083018615", "display_phone": "+49 40 83018615", "distance": 1760.4531160571}, {"id": "c18eWYG1pgPaK-vncL9Xlw", "alias": "soul-kebab-hamburg-2", "name": "Soul Kebab", "image_url": "https://s3-media3.fl.yelpcdn.com/bphoto/Ie94h-kVtGyuEkhEnHzt8w/o.jpg", "is_closed": false, "url": "https://www.yelp.com/biz/soul-kebab-hamburg-2?adjust_creative=hBJOknVQJ58S5goQyjmwRw&utm_campaign=yelp_api_v3&utm_medium=api_v3_business_search&utm_source=hBJOknVQJ58S5goQyjmwRw", "review_count": 4, "categories": [{"alias": "kebab", "title": "Kebab"}, {"alias": "turkish", "title": "Turkish"}], "rating": 4.5, "coordinates": {"latitude": 53.5917619021825, "longitude": 9.87240115390106}, "transactions": [], "price": "\u20ac\u20ac", "location": {"address1": "Luruper Hauptstr. 138", "address2": "", "address3": "", "city": "Hamburg", "zip_code": "22547", "country": "DE", "state": "HH", "display_address": ["Luruper Hauptstr. 138", "22547 Hamburg", "Germany"]}, "phone": "+494033474645", "display_phone": "+49 40 33474645", "distance": 1596.76954327921}, {"id": "nvmgtLOXRu4Zfywx9SGyzQ", "alias": "china-restaurant-mr-hoh-schenefeld", "name": "China-Restaurant Mr. Hoh", "image_url": "https://s3-media4.fl.yelpcdn.com/bphoto/m0LVWBB8M4JP42aSBhQBKQ/o.jpg", "is_closed": false, "url": "https://www.yelp.com/biz/china-restaurant-mr-hoh-schenefeld?adjust_creative=hBJOknVQJ58S5goQyjmwRw&utm_campaign=yelp_api_v3&utm_medium=api_v3_business_search&utm_source=hBJOknVQJ58S5goQyjmwRw", "review_count": 31, "categories": [{"alias": "chinese", "title": "Chinese"}], "rating": 4.0, "coordinates": {"latitude": 53.60809, "longitude": 9.84038}, "transactions": [], "price": "\u20ac\u20ac", "location": {"address1": "Lornsenstr. 122", "address2": null, "address3": null, "city": "Schenefeld", "zip_code": "22869", "country": "DE", "state": "SH", "display_address": ["Lornsenstr. 122", "22869 Schenefeld", "Germany"]}, "phone": "+49408304990", "display_phone": "+49 40 8304990", "distance": 1773.1704781736312}, {"id": "CdmyyQgCJPvmH_h3QD4tnQ", "alias": "zur-flottbeker-schmiede-hamburg-2", "name": "Zur Flottbeker Schmiede", "image_url": "https://s3-media1.fl.yelpcdn.com/bphoto/C-xUZJL-hwA-1Bpr4QcXXg/o.jpg", "is_closed": false, "url": "https://www.yelp.com/biz/zur-flottbeker-schmiede-hamburg-2?adjust_creative=hBJOknVQJ58S5goQyjmwRw&utm_campaign=yelp_api_v3&utm_medium=api_v3_business_search&utm_source=hBJOknVQJ58S5goQyjmwRw", "review_count": 39, "categories": [{"alias": "tapasmallplates", "title": "Tapas/Small Plates"}, {"alias": "wine_bars", "title": "Wine Bars"}, {"alias": "bistros", "title": "Bistros"}], "rating": 4.5, "coordinates": {"latitude": 53.55678, "longitude": 9.86495}, "transactions": [], "price": "\u20ac\u20ac\u20ac", "location": {"address1": "Baron Voght Str. 79", "address2": "", "address3": "", "city": "Hamburg", "zip_code": "22609", "country": "DE", "state": "HH", "display_address": ["Baron Voght Str. 79", "22609 Hamburg", "Germany"]}, "phone": "+494020918236", "display_phone": "+49 40 20918236", "distance": 4160.948886466375}, {"id": "EYfGbrnLnD4vqZfpwGDCow", "alias": "nandoo-indian-cuisine-schenefeld", "name": "Nandoo Indian Cuisine", "image_url": "https://s3-media1.fl.yelpcdn.com/bphoto/0swmfB8j5GdLTn1zVrhpaA/o.jpg", "is_closed": false, "url": "https://www.yelp.com/biz/nandoo-indian-cuisine-schenefeld?adjust_creative=hBJOknVQJ58S5goQyjmwRw&utm_campaign=yelp_api_v3&utm_medium=api_v3_business_search&utm_source=hBJOknVQJ58S5goQyjmwRw", "review_count": 1, "categories": [{"alias": "indpak", "title": "Indian"}], "rating": 4.0, "coordinates": {"latitude": 53.601831248117, "longitude": 9.83684901148081}, "transactions": [], "location": {"address1": "Industriestr. 1", "address2": "", "address3": "", "city": "Schenefeld", "zip_code": "22869", "country": "DE", "state": "SH", "display_address": ["Industriestr. 1", "22869 Schenefeld", "Germany"]}, "phone": "+494041422998", "display_phone": "+49 40 41422998", "distance": 1247.643088733774}, {"id": "ZwQGJt_VapeG3j9UWR_gZw", "alias": "country-kitchen-hamburg", "name": "Country Kitchen", "image_url": "https://s3-media4.fl.yelpcdn.com/bphoto/ItXrA620wA6aKsGgzwL18w/o.jpg", "is_closed": false, "url": "https://www.yelp.com/biz/country-kitchen-hamburg?adjust_creative=hBJOknVQJ58S5goQyjmwRw&utm_campaign=yelp_api_v3&utm_medium=api_v3_business_search&utm_source=hBJOknVQJ58S5goQyjmwRw", "review_count": 52, "categories": [{"alias": "modern_european", "title": "Modern European"}], "rating": 3.5, "coordinates": {"latitude": 53.56529, "longitude": 9.87123}, "transactions": [], "price": "\u20ac\u20ac", "location": {"address1": "Hemmingstedter Weg 2", "address2": null, "address3": null, "city": "Hamburg", "zip_code": "22607", "country": "DE", "state": "HH", "display_address": ["Hemmingstedter Weg 2", "22607 Hamburg", "Germany"]}, "phone": "+494085197778", "display_phone": "+49 40 85197778", "distance": 3451.7546234815154}, {"id": "f0eos4cNjh2LehmVgG1JgQ", "alias": "taverna-bei-thomas-schenefeld", "name": "Taverna bei Thomas", "image_url": "", "is_closed": false, "url": "https://www.yelp.com/biz/taverna-bei-thomas-schenefeld?adjust_creative=hBJOknVQJ58S5goQyjmwRw&utm_campaign=yelp_api_v3&utm_medium=api_v3_business_search&utm_source=hBJOknVQJ58S5goQyjmwRw", "review_count": 7, "categories": [{"alias": "greek", "title": "Greek"}], "rating": 4.0, "coordinates": {"latitude": 53.5981, "longitude": 9.85387}, "transactions": [], "price": "\u20ac\u20ac", "location": {"address1": "Altonaer Chaussee 1", "address2": null, "address3": null, "city": "Schenefeld", "zip_code": "22869", "country": "DE", "state": "SH", "display_address": ["Altonaer Chaussee 1", "22869 Schenefeld", "Germany"]}, "phone": "", "display_phone": "", "distance": 686.2827761967984}, {"id": "nEVN_yMY5P13j_0j2G3uhA", "alias": "jacobs-restaurant-hamburg-2", "name": "Jacobs Restaurant", "image_url": "https://s3-media1.fl.yelpcdn.com/bphoto/JZQkQZmF1F9rVWGki_6ahg/o.jpg", "is_closed": false, "url": "https://www.yelp.com/biz/jacobs-restaurant-hamburg-2?adjust_creative=hBJOknVQJ58S5goQyjmwRw&utm_campaign=yelp_api_v3&utm_medium=api_v3_business_search&utm_source=hBJOknVQJ58S5goQyjmwRw", "review_count": 54, "categories": [{"alias": "french", "title": "French"}], "rating": 5.0, "coordinates": {"latitude": 53.55044, "longitude": 9.8442399}, "transactions": [], "price": "\u20ac\u20ac\u20ac\u20ac", "location": {"address1": "Elbchaussee 401 - 403", "address2": "", "address3": "", "city": "Hamburg", "zip_code": "22609", "country": "DE", "state": "HH", "display_address": ["Elbchaussee 401 - 403", "22609 Hamburg", "Germany"]}, "phone": "+4940822550", "display_phone": "+49 40 822550", "distance": 4729.13969295242}, {"id": "f5-sCZNozpI0EApmUdRD2A", "alias": "elbe-kebab-house-hamburg", "name": "Elbe Kebab House", "image_url": "https://s3-media2.fl.yelpcdn.com/bphoto/C5LFso1PcWuOZIhpZQ32RQ/o.jpg", "is_closed": false, "url": "https://www.yelp.com/biz/elbe-kebab-house-hamburg?adjust_creative=hBJOknVQJ58S5goQyjmwRw&utm_campaign=yelp_api_v3&utm_medium=api_v3_business_search&utm_source=hBJOknVQJ58S5goQyjmwRw", "review_count": 10, "categories": [{"alias": "kebab", "title": "Kebab"}], "rating": 4.5, "coordinates": {"latitude": 53.5719195989659, "longitude": 9.86358246893423}, "transactions": [], "price": "\u20ac", "location": {"address1": "Osdorfer Landstr. 112", "address2": "", "address3": "", "city": "Hamburg", "zip_code": "22549", "country": "DE", "state": "HH", "display_address": ["Osdorfer Landstr. 112", "22549 Hamburg", "Germany"]}, "phone": "+494018050317", "display_phone": "+49 40 18050317", "distance": 2541.639005150368}, {"id": "Stlzi6bLMLVpkOc7hmXAug", "alias": "servus-das-wirtshaus-hamburg", "name": "Servus das Wirtshaus", "image_url": "https://s3-media2.fl.yelpcdn.com/bphoto/E95QRBdXHFF8Yyo_MiTdKQ/o.jpg", "is_closed": false, "url": "https://www.yelp.com/biz/servus-das-wirtshaus-hamburg?adjust_creative=hBJOknVQJ58S5goQyjmwRw&utm_campaign=yelp_api_v3&utm_medium=api_v3_business_search&utm_source=hBJOknVQJ58S5goQyjmwRw", "review_count": 1, "categories": [{"alias": "austrian", "title": "Austrian"}], "rating": 4.0, "coordinates": {"latitude": 53.5726695586902, "longitude": 9.84318841248751}, "transactions": [], "location": {"address1": "Osdorfer Landstr. 239", "address2": "", "address3": null, "city": "Hamburg", "zip_code": "22549", "country": "DE", "state": "HH", "display_address": ["Osdorfer Landstr. 239", "22549 Hamburg", "Germany"]}, "phone": "+494087878980", "display_phone": "+49 40 87878980", "distance": 2273.939418434524}, {"id": "_LUuKmNFXN6A4i20goDGUg", "alias": "ph\u00f6nix-halstenbek", "name": "Ph\u00f6nix", "image_url": "https://s3-media3.fl.yelpcdn.com/bphoto/SoEnGeDnEFAM1hsMO929BA/o.jpg", "is_closed": false, "url": "https://www.yelp.com/biz/ph%C3%B6nix-halstenbek?adjust_creative=hBJOknVQJ58S5goQyjmwRw&utm_campaign=yelp_api_v3&utm_medium=api_v3_business_search&utm_source=hBJOknVQJ58S5goQyjmwRw", "review_count": 28, "categories": [{"alias": "mongolian", "title": "Mongolian"}, {"alias": "chinese", "title": "Chinese"}], "rating": 4.0, "coordinates": {"latitude": 53.62784, "longitude": 9.86763}, "transactions": [], "price": "\u20ac\u20ac", "location": {"address1": "Seemoorweg 3", "address2": "", "address3": "", "city": "Halstenbek", "zip_code": "25469", "country": "DE", "state": "SH", "display_address": ["Seemoorweg 3", "25469 Halstenbek", "Germany"]}, "phone": "+4941017877168", "display_phone": "+49 4101 7877168", "distance": 4084.067896948084}, {"id": "AueWdcRlB4oFnfG2HMt7Ow", "alias": "gagga-schenefeld-2", "name": "Gagga", "image_url": "https://s3-media1.fl.yelpcdn.com/bphoto/JoAcgaRKpmJCoiZNoShd3g/o.jpg", "is_closed": false, "url": "https://www.yelp.com/biz/gagga-schenefeld-2?adjust_creative=hBJOknVQJ58S5goQyjmwRw&utm_campaign=yelp_api_v3&utm_medium=api_v3_business_search&utm_source=hBJOknVQJ58S5goQyjmwRw", "review_count": 55, "categories": [{"alias": "pubs", "title": "Pubs"}, {"alias": "tradamerican", "title": "American (Traditional)"}], "rating": 3.5, "coordinates": {"latitude": 53.59914, "longitude": 9.84578}, "transactions": [], "price": "\u20ac\u20ac", "location": {"address1": "Altonaer Chaussee 61", "address2": null, "address3": null, "city": "Schenefeld", "zip_code": "22869", "country": "DE", "state": "SH", "display_address": ["Altonaer Chaussee 61", "22869 Schenefeld", "Germany"]}, "phone": "+49408405580", "display_phone": "+49 40 8405580", "distance": 719.5316596078158}, {"id": "iDX7o2U5ykcPhFrJe6R3DQ", "alias": "annies-schenefeld", "name": "Annie's", "image_url": "https://s3-media2.fl.yelpcdn.com/bphoto/r6S8EIRk2QKM6jQ0oj3UTQ/o.jpg", "is_closed": false, "url": "https://www.yelp.com/biz/annies-schenefeld?adjust_creative=hBJOknVQJ58S5goQyjmwRw&utm_campaign=yelp_api_v3&utm_medium=api_v3_business_search&utm_source=hBJOknVQJ58S5goQyjmwRw", "review_count": 2, "categories": [{"alias": "lounges", "title": "Lounges"}, {"alias": "cafes", "title": "Cafes"}], "rating": 5.0, "coordinates": {"latitude": 53.60147, "longitude": 9.83773}, "transactions": [], "price": "\u20ac\u20ac", "location": {"address1": "Industriestr. 1A", "address2": null, "address3": null, "city": "Schenefeld", "zip_code": "22869", "country": "DE", "state": "SH", "display_address": ["Industriestr. 1A", "22869 Schenefeld", "Germany"]}, "phone": "+494084057837", "display_phone": "+49 40 84057837", "distance": 1188.8900182582163}, {"id": "iJLghYawgo2EVAF9ZTUKcQ", "alias": "namaste-ji-halstenbek", "name": "Namaste Ji", "image_url": "https://s3-media2.fl.yelpcdn.com/bphoto/ARJwFj3mBrHNAAGpiMufvA/o.jpg", "is_closed": false, "url": "https://www.yelp.com/biz/namaste-ji-halstenbek?adjust_creative=hBJOknVQJ58S5goQyjmwRw&utm_campaign=yelp_api_v3&utm_medium=api_v3_business_search&utm_source=hBJOknVQJ58S5goQyjmwRw", "review_count": 21, "categories": [{"alias": "indpak", "title": "Indian"}], "rating": 4.0, "coordinates": {"latitude": 53.6114863, "longitude": 9.8675694}, "transactions": [], "price": "\u20ac\u20ac", "location": {"address1": "Heideweg 164", "address2": "", "address3": "", "city": "Halstenbek", "zip_code": "25469", "country": "DE", "state": "SH", "display_address": ["Heideweg 164", "25469 Halstenbek", "Germany"]}, "phone": "+4941018303486", "display_phone": "+49 4101 8303486", "distance": 2427.7022209232773}, {"id": "Zvlf5AVJmblIwhncprSE_g", "alias": "ruperti-hamburg", "name": "Ruperti", "image_url": "https://s3-media2.fl.yelpcdn.com/bphoto/PsRMela7DA6VuUWBBfK3SA/o.jpg", "is_closed": false, "url": "https://www.yelp.com/biz/ruperti-hamburg?adjust_creative=hBJOknVQJ58S5goQyjmwRw&utm_campaign=yelp_api_v3&utm_medium=api_v3_business_search&utm_source=hBJOknVQJ58S5goQyjmwRw", "review_count": 5, "categories": [{"alias": "italian", "title": "Italian"}], "rating": 5.0, "coordinates": {"latitude": 53.55562, "longitude": 9.84309}, "transactions": [], "location": {"address1": "Rupertistr. 26", "address2": "", "address3": "", "city": "Hamburg", "zip_code": "22609", "country": "DE", "state": "HH", "display_address": ["Rupertistr. 26", "22609 Hamburg", "Germany"]}, "phone": "+494085505995", "display_phone": "+49 40 85505995", "distance": 4153.706978011631}, {"id": "RGHLgtULG4nWQWu52NmF7w", "alias": "king-d\u00f6ner-schenefeld", "name": "King D\u00f6ner", "image_url": "https://s3-media1.fl.yelpcdn.com/bphoto/qL_lZXHrJQcfSDI2Qiw8rg/o.jpg", "is_closed": false, "url": "https://www.yelp.com/biz/king-d%C3%B6ner-schenefeld?adjust_creative=hBJOknVQJ58S5goQyjmwRw&utm_campaign=yelp_api_v3&utm_medium=api_v3_business_search&utm_source=hBJOknVQJ58S5goQyjmwRw", "review_count": 3, "categories": [{"alias": "turkish", "title": "Turkish"}], "rating": 4.5, "coordinates": {"latitude": 53.5987, "longitude": 9.84878}, "transactions": [], "price": "\u20ac\u20ac\u20ac\u20ac", "location": {"address1": "Schenefelder Platz 1", "address2": null, "address3": null, "city": "Schenefeld", "zip_code": "22869", "country": "DE", "state": "SH", "display_address": ["Schenefelder Platz 1", "22869 Schenefeld", "Germany"]}, "phone": "+49408302888", "display_phone": "+49 40 8302888", "distance": 646.3429509646733}, {"id": "nJSqt2G4D4bPQlL8GekZNg", "alias": "grill-kate-hamburg", "name": "Grill-Kate", "image_url": "https://s3-media3.fl.yelpcdn.com/bphoto/Zvplb2-Phs6Gl7BKxdGkkA/o.jpg", "is_closed": false, "url": "https://www.yelp.com/biz/grill-kate-hamburg?adjust_creative=hBJOknVQJ58S5goQyjmwRw&utm_campaign=yelp_api_v3&utm_medium=api_v3_business_search&utm_source=hBJOknVQJ58S5goQyjmwRw", "review_count": 23, "categories": [{"alias": "german", "title": "German"}], "rating": 4.0, "coordinates": {"latitude": 53.5957824, "longitude": 9.8679767}, "transactions": [], "price": "\u20ac", "location": {"address1": "Luruper Hauptstr. 202", "address2": null, "address3": null, "city": "Hamburg", "zip_code": "22547", "country": "DE", "state": "HH", "display_address": ["Luruper Hauptstr. 202", "22547 Hamburg", "Germany"]}, "phone": "+49408315441", "display_phone": "+49 40 8315441", "distance": 1338.802800488775}, {"id": "SIOD8jvuFrt0PFZ3AJ6_NA", "alias": "schweinske-hamburg-13", "name": "Schweinske", "image_url": "https://s3-media2.fl.yelpcdn.com/bphoto/ljr2OsrAnzLwrhVC0AmU5A/o.jpg", "is_closed": false, "url": "https://www.yelp.com/biz/schweinske-hamburg-13?adjust_creative=hBJOknVQJ58S5goQyjmwRw&utm_campaign=yelp_api_v3&utm_medium=api_v3_business_search&utm_source=hBJOknVQJ58S5goQyjmwRw", "review_count": 27, "categories": [{"alias": "german", "title": "German"}], "rating": 3.0, "coordinates": {"latitude": 53.59279, "longitude": 9.8713}, "transactions": [], "price": "\u20ac\u20ac", "location": {"address1": "Luruper Hauptstr. 164", "address2": null, "address3": null, "city": "Hamburg", "zip_code": "22547", "country": "DE", "state": "HH", "display_address": ["Luruper Hauptstr. 164", "22547 Hamburg", "Germany"]}, "phone": "+4940837377", "display_phone": "+49 40 837377", "distance": 1524.1115181566995}, {"id": "YidJOUJahTgZ3HbDnqKVjQ", "alias": "restaurant-olympiade-hamburg-2", "name": "Restaurant Olympiade", "image_url": "https://s3-media3.fl.yelpcdn.com/bphoto/08F1oXnl2VmFQrC93uRGdw/o.jpg", "is_closed": false, "url": "https://www.yelp.com/biz/restaurant-olympiade-hamburg-2?adjust_creative=hBJOknVQJ58S5goQyjmwRw&utm_campaign=yelp_api_v3&utm_medium=api_v3_business_search&utm_source=hBJOknVQJ58S5goQyjmwRw", "review_count": 27, "categories": [{"alias": "greek", "title": "Greek"}], "rating": 3.5, "coordinates": {"latitude": 53.5746, "longitude": 9.8468}, "transactions": [], "price": "\u20ac\u20ac", "location": {"address1": "Rugenbarg 20", "address2": null, "address3": null, "city": "Hamburg", "zip_code": "22549", "country": "DE", "state": "HH", "display_address": ["Rugenbarg 20", "22549 Hamburg", "Germany"]}, "phone": "+49408007050", "display_phone": "+49 40 8007050", "distance": 2036.638713088836}, {"id": "eu0dPfxU2SX-4ZZX6GQPzw", "alias": "taverna-pegasus-schenefeld", "name": "Taverna Pegasus", "image_url": "https://s3-media2.fl.yelpcdn.com/bphoto/aHZEhsqs1fhiec1WMgNgFg/o.jpg", "is_closed": false, "url": "https://www.yelp.com/biz/taverna-pegasus-schenefeld?adjust_creative=hBJOknVQJ58S5goQyjmwRw&utm_campaign=yelp_api_v3&utm_medium=api_v3_business_search&utm_source=hBJOknVQJ58S5goQyjmwRw", "review_count": 18, "categories": [{"alias": "greek", "title": "Greek"}], "rating": 3.5, "coordinates": {"latitude": 53.608651, "longitude": 9.841422}, "transactions": [], "price": "\u20ac\u20ac", "location": {"address1": "Friedrich-Ebert-Allee 3 - 11", "address2": null, "address3": null, "city": "Schenefeld", "zip_code": "22869", "country": "DE", "state": "SH", "display_address": ["Friedrich-Ebert-Allee 3 - 11", "22869 Schenefeld", "Germany"]}, "phone": "+494084053737", "display_phone": "+49 40 84053737", "distance": 1809.5356270259833}, {"id": "2O87KG8xApQAqTJ-x7PpvQ", "alias": "trattoria-rocco-halstenbek", "name": "Trattoria Rocco", "image_url": "https://s3-media2.fl.yelpcdn.com/bphoto/4NKMDZUKn_Zi3B8V4eTRCQ/o.jpg", "is_closed": false, "url": "https://www.yelp.com/biz/trattoria-rocco-halstenbek?adjust_creative=hBJOknVQJ58S5goQyjmwRw&utm_campaign=yelp_api_v3&utm_medium=api_v3_business_search&utm_source=hBJOknVQJ58S5goQyjmwRw", "review_count": 20, "categories": [{"alias": "italian", "title": "Italian"}], "rating": 3.5, "coordinates": {"latitude": 53.629337, "longitude": 9.835356}, "transactions": [], "price": "\u20ac\u20ac", "location": {"address1": "Dockenhudener Chaussee 20", "address2": null, "address3": null, "city": "Halstenbek", "zip_code": "25469", "country": "DE", "state": "SH", "display_address": ["Dockenhudener Chaussee 20", "25469 Halstenbek", "Germany"]}, "phone": "+4941017877107", "display_phone": "+49 4101 7877107", "distance": 4140.927119674632}, {"id": "Lj1UlZDJSJ_-3svOdbXhbg", "alias": "kleines-jacob-hamburg", "name": "Kleines Jacob", "image_url": "https://s3-media1.fl.yelpcdn.com/bphoto/h1hCTs-BkGK4APokWC1axg/o.jpg", "is_closed": false, "url": "https://www.yelp.com/biz/kleines-jacob-hamburg?adjust_creative=hBJOknVQJ58S5goQyjmwRw&utm_campaign=yelp_api_v3&utm_medium=api_v3_business_search&utm_source=hBJOknVQJ58S5goQyjmwRw", "review_count": 88, "categories": [{"alias": "wine_bars", "title": "Wine Bars"}, {"alias": "german", "title": "German"}], "rating": 4.5, "coordinates": {"latitude": 53.5505, "longitude": 9.84368}, "transactions": [], "price": "\u20ac\u20ac\u20ac", "location": {"address1": "Elbchaussee 404", "address2": null, "address3": null, "city": "Hamburg", "zip_code": "22609", "country": "DE", "state": "HH", "display_address": ["Elbchaussee 404", "22609 Hamburg", "Germany"]}, "phone": "+494082255510", "display_phone": "+49 40 82255510", "distance": 4723.865998347042}, {"id": "pmJrLe4RdSiMhEG-apydtw", "alias": "knips-hamburg", "name": "Knips", "image_url": "https://s3-media3.fl.yelpcdn.com/bphoto/nzm0w1rQMVO8adiP5donYQ/o.jpg", "is_closed": false, "url": "https://www.yelp.com/biz/knips-hamburg?adjust_creative=hBJOknVQJ58S5goQyjmwRw&utm_campaign=yelp_api_v3&utm_medium=api_v3_business_search&utm_source=hBJOknVQJ58S5goQyjmwRw", "review_count": 29, "categories": [{"alias": "bars", "title": "Bars"}, {"alias": "international", "title": "International"}], "rating": 4.0, "coordinates": {"latitude": 53.55775, "longitude": 9.8602}, "transactions": [], "price": "\u20ac\u20ac\u20ac", "location": {"address1": "J\u00fcrgensallee 51", "address2": null, "address3": null, "city": "Hamburg", "zip_code": "22609", "country": "DE", "state": "HH", "display_address": ["J\u00fcrgensallee 51", "22609 Hamburg", "Germany"]}, "phone": "+4940829144", "display_phone": "+49 40 829144", "distance": 3981.506612455937}, {"id": "AaA1y0VedvjGj2yVtOhcDQ", "alias": "jet-pizza-hamburg-2", "name": "Jet Pizza", "image_url": "https://s3-media3.fl.yelpcdn.com/bphoto/WroyHI2Xck2cwupeC77x8A/o.jpg", "is_closed": false, "url": "https://www.yelp.com/biz/jet-pizza-hamburg-2?adjust_creative=hBJOknVQJ58S5goQyjmwRw&utm_campaign=yelp_api_v3&utm_medium=api_v3_business_search&utm_source=hBJOknVQJ58S5goQyjmwRw", "review_count": 1, "categories": [{"alias": "italian", "title": "Italian"}, {"alias": "pizza", "title": "Pizza"}], "rating": 4.0, "coordinates": {"latitude": 53.6006, "longitude": 9.87347}, "transactions": [], "price": "\u20ac\u20ac", "location": {"address1": "Fahrenort 54", "address2": null, "address3": null, "city": "Hamburg", "zip_code": "22547", "country": "DE", "state": "HH", "display_address": ["Fahrenort 54", "22547 Hamburg", "Germany"]}, "phone": "+49405702554", "display_phone": "+49 40 5702554", "distance": 1869.9842330199401}, {"id": "F5yHcGhcFCoi-1sl_Jn6mA", "alias": "canton-hamburg-2", "name": "Canton", "image_url": "https://s3-media2.fl.yelpcdn.com/bphoto/-DS6dy0qgdqKoXv89mKHiA/o.jpg", "is_closed": false, "url": "https://www.yelp.com/biz/canton-hamburg-2?adjust_creative=hBJOknVQJ58S5goQyjmwRw&utm_campaign=yelp_api_v3&utm_medium=api_v3_business_search&utm_source=hBJOknVQJ58S5goQyjmwRw", "review_count": 38, "categories": [{"alias": "chinese", "title": "Chinese"}], "rating": 3.0, "coordinates": {"latitude": 53.57315, "longitude": 9.84747}, "transactions": [], "price": "\u20ac\u20ac", "location": {"address1": "Osdorfer Landstr. 218", "address2": null, "address3": null, "city": "Hamburg", "zip_code": "22549", "country": "DE", "state": "HH", "display_address": ["Osdorfer Landstr. 218", "22549 Hamburg", "Germany"]}, "phone": "+49408003232", "display_phone": "+49 40 8003232", "distance": 2184.9095211671865}, {"id": "zNEBg7ppsntnn5-gC3ZW4Q", "alias": "la-vita-schenefeld", "name": "La Vita", "image_url": "https://s3-media2.fl.yelpcdn.com/bphoto/UtUYgKOuTnN2pL6yakAPcQ/o.jpg", "is_closed": false, "url": "https://www.yelp.com/biz/la-vita-schenefeld?adjust_creative=hBJOknVQJ58S5goQyjmwRw&utm_campaign=yelp_api_v3&utm_medium=api_v3_business_search&utm_source=hBJOknVQJ58S5goQyjmwRw", "review_count": 10, "categories": [{"alias": "italian", "title": "Italian"}], "rating": 3.5, "coordinates": {"latitude": 53.602, "longitude": 9.83718}, "transactions": [], "price": "\u20ac\u20ac", "location": {"address1": "Industriestr. 1", "address2": null, "address3": null, "city": "Schenefeld", "zip_code": "22869", "country": "DE", "state": "SH", "display_address": ["Industriestr. 1", "22869 Schenefeld", "Germany"]}, "phone": "+49408302634", "display_phone": "+49 40 8302634", "distance": 1249.7099107541824}, {"id": "jqTl7pmRjwieyVaOINJitA", "alias": "long-bistro-hamburg", "name": "Long Bistro", "image_url": "", "is_closed": false, "url": "https://www.yelp.com/biz/long-bistro-hamburg?adjust_creative=hBJOknVQJ58S5goQyjmwRw&utm_campaign=yelp_api_v3&utm_medium=api_v3_business_search&utm_source=hBJOknVQJ58S5goQyjmwRw", "review_count": 1, "categories": [{"alias": "panasian", "title": "Pan Asian"}], "rating": 5.0, "coordinates": {"latitude": 53.58792, "longitude": 9.85036}, "transactions": [], "location": {"address1": "Bornheide 57 f", "address2": "", "address3": "", "city": "Hamburg", "zip_code": "22549", "country": "DE", "state": "HH", "display_address": ["Bornheide 57 f", "22549 Hamburg", "Germany"]}, "phone": "+494084058881", "display_phone": "+49 40 84058881", "distance": 569.920775450408}, {"id": "6OnopdC_M0sCtcbW9eDZ0w", "alias": "le-curry-schenefeld", "name": "Le Curry", "image_url": "https://s3-media3.fl.yelpcdn.com/bphoto/j10llrIUBj3fmEPsvnO8xw/o.jpg", "is_closed": false, "url": "https://www.yelp.com/biz/le-curry-schenefeld?adjust_creative=hBJOknVQJ58S5goQyjmwRw&utm_campaign=yelp_api_v3&utm_medium=api_v3_business_search&utm_source=hBJOknVQJ58S5goQyjmwRw", "review_count": 1, "categories": [{"alias": "currysausage", "title": "Curry Sausage"}], "rating": 4.0, "coordinates": {"latitude": 53.6018, "longitude": 9.83668}, "transactions": [], "location": {"address1": "Kiebitzweg 2", "address2": "im Stadtzentrum Schenefeld", "address3": null, "city": "Schenefeld", "zip_code": "22869", "country": "DE", "state": "SH", "display_address": ["Kiebitzweg 2", "im Stadtzentrum Schenefeld", "22869 Schenefeld", "Germany"]}, "phone": "", "display_phone": "", "distance": 1251.6683156118406}, {"id": "tBsYRJpCRMSbcCxggRqa2A", "alias": "don-quichotte-hamburg", "name": "Don Quichotte", "image_url": "https://s3-media3.fl.yelpcdn.com/bphoto/beSTNjvZWTlFQrlNQA-ZFA/o.jpg", "is_closed": false, "url": "https://www.yelp.com/biz/don-quichotte-hamburg?adjust_creative=hBJOknVQJ58S5goQyjmwRw&utm_campaign=yelp_api_v3&utm_medium=api_v3_business_search&utm_source=hBJOknVQJ58S5goQyjmwRw", "review_count": 55, "categories": [{"alias": "italian", "title": "Italian"}, {"alias": "international", "title": "International"}], "rating": 3.0, "coordinates": {"latitude": 53.572607, "longitude": 9.855326}, "transactions": [], "price": "\u20ac\u20ac", "location": {"address1": "Osdorfer Landstr. 162 a", "address2": null, "address3": null, "city": "Hamburg", "zip_code": "22549", "country": "DE", "state": "HH", "display_address": ["Osdorfer Landstr. 162 a", "22549 Hamburg", "Germany"]}, "phone": "+4940801304", "display_phone": "+49 40 801304", "distance": 2303.3223753992}, {"id": "OsNFTVOq1FNvKoX0qP4VYw", "alias": "asia-corner-rellingen", "name": "Asia Corner", "image_url": "https://s3-media2.fl.yelpcdn.com/bphoto/7M2nrMQMp_02G2extUal9w/o.jpg", "is_closed": false, "url": "https://www.yelp.com/biz/asia-corner-rellingen?adjust_creative=hBJOknVQJ58S5goQyjmwRw&utm_campaign=yelp_api_v3&utm_medium=api_v3_business_search&utm_source=hBJOknVQJ58S5goQyjmwRw", "review_count": 11, "categories": [{"alias": "panasian", "title": "Pan Asian"}], "rating": 4.5, "coordinates": {"latitude": 53.6313, "longitude": 9.87175}, "transactions": [], "price": "\u20ac", "location": {"address1": "Heidestr. 94-96", "address2": null, "address3": null, "city": "Rellingen", "zip_code": "25463", "country": "DE", "state": "SH", "display_address": ["Heidestr. 94-96", "25463 Rellingen", "Germany"]}, "phone": "+49410135615", "display_phone": "+49 4101 35615", "distance": 4542.400359109587}, {"id": "X4QtPnSx5RXOGMUh1vDWeQ", "alias": "vereinsgastronomie-halstenbeker-sch\u00fctzenverein-halstenbek", "name": "Vereinsgastronomie Halstenbeker Sch\u00fctzenverein", "image_url": "https://s3-media2.fl.yelpcdn.com/bphoto/nNw69WMsIKt-oBa5KRHcug/o.jpg", "is_closed": false, "url": "https://www.yelp.com/biz/vereinsgastronomie-halstenbeker-sch%C3%BCtzenverein-halstenbek?adjust_creative=hBJOknVQJ58S5goQyjmwRw&utm_campaign=yelp_api_v3&utm_medium=api_v3_business_search&utm_source=hBJOknVQJ58S5goQyjmwRw", "review_count": 1, "categories": [{"alias": "gastropubs", "title": "Gastropubs"}], "rating": 4.0, "coordinates": {"latitude": 53.6289, "longitude": 9.84521}, "transactions": [], "location": {"address1": "Am Sch\u00fctzenplatz 24", "address2": null, "address3": null, "city": "Halstenbek", "zip_code": "25469", "country": "DE", "state": "SH", "display_address": ["Am Sch\u00fctzenplatz 24", "25469 Halstenbek", "Germany"]}, "phone": "+49410145979", "display_phone": "+49 4101 45979", "distance": 4008.7157793872448}, {"id": "JHznNFpDuiGWApCZ9Komug", "alias": "caf\u00e9-bohne-hamburg-2", "name": "Caf\u00e9 Bohne", "image_url": "https://s3-media3.fl.yelpcdn.com/bphoto/-HPLUeiKD8Jscv7yCd0n8A/o.jpg", "is_closed": false, "url": "https://www.yelp.com/biz/caf%C3%A9-bohne-hamburg-2?adjust_creative=hBJOknVQJ58S5goQyjmwRw&utm_campaign=yelp_api_v3&utm_medium=api_v3_business_search&utm_source=hBJOknVQJ58S5goQyjmwRw", "review_count": 26, "categories": [{"alias": "cafes", "title": "Cafes"}, {"alias": "breakfast_brunch", "title": "Breakfast & Brunch"}], "rating": 4.5, "coordinates": {"latitude": 53.57371, "longitude": 9.84694}, "transactions": [], "price": "\u20ac\u20ac", "location": {"address1": "Rugenbarg 8", "address2": "", "address3": "", "city": "Hamburg", "zip_code": "22549", "country": "DE", "state": "HH", "display_address": ["Rugenbarg 8", "22549 Hamburg", "Germany"]}, "phone": "", "display_phone": "", "distance": 2134.4129003140224}, {"id": "wNpiOXCZJpVjHNw0jd2Ldw", "alias": "dill-sin-d\u00f6ns-hamburg", "name": "Dill sin D\u00f6ns", "image_url": "https://s3-media4.fl.yelpcdn.com/bphoto/gDbIM7V_euzpykIaWb-TYw/o.jpg", "is_closed": false, "url": "https://www.yelp.com/biz/dill-sin-d%C3%B6ns-hamburg?adjust_creative=hBJOknVQJ58S5goQyjmwRw&utm_campaign=yelp_api_v3&utm_medium=api_v3_business_search&utm_source=hBJOknVQJ58S5goQyjmwRw", "review_count": 12, "categories": [{"alias": "german", "title": "German"}], "rating": 4.0, "coordinates": {"latitude": 53.5502899, "longitude": 9.84289}, "transactions": [], "price": "\u20ac\u20ac", "location": {"address1": "Elbuferweg 95", "address2": "", "address3": "", "city": "Hamburg", "zip_code": "22609", "country": "DE", "state": "HH", "display_address": ["Elbuferweg 95", "22609 Hamburg", "Germany"]}, "phone": "+4940828500", "display_phone": "+49 40 828500", "distance": 4744.829916271741}, {"id": "Jdo7vVAd3hRsC1b0BB3DcA", "alias": "il-sole-hamburg", "name": "Il Sole", "image_url": "https://s3-media3.fl.yelpcdn.com/bphoto/3A60yiNQBLxMEb6jJjhcgQ/o.jpg", "is_closed": false, "url": "https://www.yelp.com/biz/il-sole-hamburg?adjust_creative=hBJOknVQJ58S5goQyjmwRw&utm_campaign=yelp_api_v3&utm_medium=api_v3_business_search&utm_source=hBJOknVQJ58S5goQyjmwRw", "review_count": 9, "categories": [{"alias": "bistros", "title": "Bistros"}, {"alias": "italian", "title": "Italian"}], "rating": 4.5, "coordinates": {"latitude": 53.55437, "longitude": 9.84482}, "transactions": [], "price": "\u20ac\u20ac\u20ac", "location": {"address1": "Nienstedtener Str. 2 D", "address2": null, "address3": null, "city": "Hamburg", "zip_code": "22609", "country": "DE", "state": "HH", "display_address": ["Nienstedtener Str. 2 D", "22609 Hamburg", "Germany"]}, "phone": "+494082310330", "display_phone": "+49 40 82310330", "distance": 4275.086625942161}, {"id": "Px4jy432G7pp-zZAfSZRAQ", "alias": "quellental-hamburg", "name": "Quellental", "image_url": "https://s3-media2.fl.yelpcdn.com/bphoto/bFjuPPJTVgi1avupn4ba_A/o.jpg", "is_closed": false, "url": "https://www.yelp.com/biz/quellental-hamburg?adjust_creative=hBJOknVQJ58S5goQyjmwRw&utm_campaign=yelp_api_v3&utm_medium=api_v3_business_search&utm_source=hBJOknVQJ58S5goQyjmwRw", "review_count": 35, "categories": [{"alias": "german", "title": "German"}], "rating": 4.0, "coordinates": {"latitude": 53.55265, "longitude": 9.85848}, "transactions": [], "price": "\u20ac\u20ac\u20ac", "location": {"address1": "Quellental 36", "address2": null, "address3": null, "city": "Hamburg", "zip_code": "22609", "country": "DE", "state": "HH", "display_address": ["Quellental 36", "22609 Hamburg", "Germany"]}, "phone": "+494082242270", "display_phone": "+49 40 82242270", "distance": 4522.7815897202145}, {"id": "EHHznLv3tusE0hnrKNtySw", "alias": "restaurant-blankenese-hamburg", "name": "Restaurant Blankenese", "image_url": "https://s3-media2.fl.yelpcdn.com/bphoto/rPeezMAasZ7SMpVjolYGaA/o.jpg", "is_closed": false, "url": "https://www.yelp.com/biz/restaurant-blankenese-hamburg?adjust_creative=hBJOknVQJ58S5goQyjmwRw&utm_campaign=yelp_api_v3&utm_medium=api_v3_business_search&utm_source=hBJOknVQJ58S5goQyjmwRw", "review_count": 1, "categories": [{"alias": "german", "title": "German"}], "rating": 4.0, "coordinates": {"latitude": 53.574533, "longitude": 9.8241854}, "transactions": [], "location": {"address1": "Schenefelder Landstr. 169", "address2": "", "address3": null, "city": "Hamburg", "zip_code": "22589", "country": "DE", "state": "HH", "display_address": ["Schenefelder Landstr. 169", "22589 Hamburg", "Germany"]}, "phone": "+494087000744", "display_phone": "+49 40 87000744", "distance": 2588.203770662325}, {"id": "Rk3dfkWX4RhPgxR9XaL6Rw", "alias": "\u00f6nka-grill-hamburg-2", "name": "\u00d6nka Grill", "image_url": "https://s3-media2.fl.yelpcdn.com/bphoto/iTfXEEDQn3bUD8PEtxyHAw/o.jpg", "is_closed": false, "url": "https://www.yelp.com/biz/%C3%B6nka-grill-hamburg-2?adjust_creative=hBJOknVQJ58S5goQyjmwRw&utm_campaign=yelp_api_v3&utm_medium=api_v3_business_search&utm_source=hBJOknVQJ58S5goQyjmwRw", "review_count": 11, "categories": [{"alias": "kebab", "title": "Kebab"}], "rating": 3.5, "coordinates": {"latitude": 53.57241, "longitude": 9.86353}, "transactions": [], "price": "\u20ac\u20ac", "location": {"address1": "Flurkamp 11", "address2": "", "address3": "", "city": "Hamburg", "zip_code": "22549", "country": "DE", "state": "HH", "display_address": ["Flurkamp 11", "22549 Hamburg", "Germany"]}, "phone": "+4940803806", "display_phone": "+49 40 803806", "distance": 2492.255177462213}, {"id": "KV32pPQAkkBvrqot6oryAw", "alias": "hellas-grill-hamburg", "name": "Hellas Grill", "image_url": "https://s3-media3.fl.yelpcdn.com/bphoto/TyYuynYid-9NKpo19BwaZA/o.jpg", "is_closed": false, "url": "https://www.yelp.com/biz/hellas-grill-hamburg?adjust_creative=hBJOknVQJ58S5goQyjmwRw&utm_campaign=yelp_api_v3&utm_medium=api_v3_business_search&utm_source=hBJOknVQJ58S5goQyjmwRw", "review_count": 2, "categories": [{"alias": "greek", "title": "Greek"}, {"alias": "hotdogs", "title": "Fast Food"}], "rating": 4.0, "coordinates": {"latitude": 53.60057, "longitude": 9.87347}, "transactions": [], "price": "\u20ac\u20ac", "location": {"address1": "Fahrenort 54", "address2": null, "address3": null, "city": "Hamburg", "zip_code": "22547", "country": "DE", "state": "HH", "display_address": ["Fahrenort 54", "22547 Hamburg", "Germany"]}, "phone": "+494087974775", "display_phone": "+49 40 87974775", "distance": 1868.458715631997}, {"id": "BPyWkd2sd10x80tb3IiXOw", "alias": "marktplatz-hamburg", "name": "Marktplatz", "image_url": "https://s3-media1.fl.yelpcdn.com/bphoto/06EPugQ0j06EHjWEgzo86Q/o.jpg", "is_closed": false, "url": "https://www.yelp.com/biz/marktplatz-hamburg?adjust_creative=hBJOknVQJ58S5goQyjmwRw&utm_campaign=yelp_api_v3&utm_medium=api_v3_business_search&utm_source=hBJOknVQJ58S5goQyjmwRw", "review_count": 37, "categories": [{"alias": "german", "title": "German"}], "rating": 3.5, "coordinates": {"latitude": 53.55319, "longitude": 9.84433}, "transactions": [], "price": "\u20ac\u20ac", "location": {"address1": "Nienstedtener Marktplatz 21", "address2": null, "address3": null, "city": "Hamburg", "zip_code": "22609", "country": "DE", "state": "HH", "display_address": ["Nienstedtener Marktplatz 21", "22609 Hamburg", "Germany"]}, "phone": "+4940829848", "display_phone": "+49 40 829848", "distance": 4423.12903147933}, {"id": "SIYZ3bqLlhOGo4Uyl8i0lQ", "alias": "caf\u00e9-palme-im-botanischen-garten-hamburg", "name": "Caf\u00e9 Palme im Botanischen Garten", "image_url": "https://s3-media2.fl.yelpcdn.com/bphoto/bLSso-wYoSjKZ_Sjv_GQ1A/o.jpg", "is_closed": false, "url": "https://www.yelp.com/biz/caf%C3%A9-palme-im-botanischen-garten-hamburg?adjust_creative=hBJOknVQJ58S5goQyjmwRw&utm_campaign=yelp_api_v3&utm_medium=api_v3_business_search&utm_source=hBJOknVQJ58S5goQyjmwRw", "review_count": 7, "categories": [{"alias": "cafes", "title": "Cafes"}], "rating": 4.0, "coordinates": {"latitude": 53.5612, "longitude": 9.861}, "transactions": [], "price": "\u20ac\u20ac", "location": {"address1": "Ohnhorststr. 18", "address2": null, "address3": null, "city": "Hamburg", "zip_code": "22609", "country": "DE", "state": "HH", "display_address": ["Ohnhorststr. 18", "22609 Hamburg", "Germany"]}, "phone": "+494082290966", "display_phone": "+49 40 82290966", "distance": 3622.94009678865}, {"id": "nOqJnf5EuFAmVdqZw_MBAA", "alias": "caf\u00e9-marie-hamburg", "name": "Caf\u00e9 Marie", "image_url": "https://s3-media3.fl.yelpcdn.com/bphoto/XGYugX1Us4dFW_sBsTHe-g/o.jpg", "is_closed": false, "url": "https://www.yelp.com/biz/caf%C3%A9-marie-hamburg?adjust_creative=hBJOknVQJ58S5goQyjmwRw&utm_campaign=yelp_api_v3&utm_medium=api_v3_business_search&utm_source=hBJOknVQJ58S5goQyjmwRw", "review_count": 12, "categories": [{"alias": "cafes", "title": "Cafes"}, {"alias": "breakfast_brunch", "title": "Breakfast & Brunch"}], "rating": 4.5, "coordinates": {"latitude": 53.5935, "longitude": 9.86989}, "transactions": [], "price": "\u20ac", "location": {"address1": "Luruper Hauptstr.177", "address2": "", "address3": null, "city": "Hamburg", "zip_code": "22547", "country": "DE", "state": "HH", "display_address": ["Luruper Hauptstr.177", "22547 Hamburg", "Germany"]}, "phone": "+491777374591", "display_phone": "+49 177 7374591", "distance": 1427.6213483342303}, {"id": "5x3ApuSiNu3QGD2MgwmHOw", "alias": "mai-mai-hamburg-6", "name": "Mai Mai", "image_url": "https://s3-media3.fl.yelpcdn.com/bphoto/EZWgzcsC4PxKvQTiXkhPEg/o.jpg", "is_closed": false, "url": "https://www.yelp.com/biz/mai-mai-hamburg-6?adjust_creative=hBJOknVQJ58S5goQyjmwRw&utm_campaign=yelp_api_v3&utm_medium=api_v3_business_search&utm_source=hBJOknVQJ58S5goQyjmwRw", "review_count": 4, "categories": [{"alias": "hotdogs", "title": "Fast Food"}, {"alias": "chinese", "title": "Chinese"}], "rating": 2.5, "coordinates": {"latitude": 53.5917971200509, "longitude": 9.87330763648938}, "transactions": [], "price": "\u20ac\u20ac", "location": {"address1": "Eckhoffplatz 1", "address2": "", "address3": "", "city": "Hamburg", "zip_code": "22547", "country": "DE", "state": "HH", "display_address": ["Eckhoffplatz 1", "22547 Hamburg", "Germany"]}, "phone": "", "display_phone": "", "distance": 1656.1210959578057}, {"id": "fRNCmStKTSCkJBkkSdwEZA", "alias": "museumscafe-hamburg", "name": "Museumscafe", "image_url": "https://s3-media3.fl.yelpcdn.com/bphoto/STB9V57s0QBKFYgC5NqNVw/o.jpg", "is_closed": false, "url": "https://www.yelp.com/biz/museumscafe-hamburg?adjust_creative=hBJOknVQJ58S5goQyjmwRw&utm_campaign=yelp_api_v3&utm_medium=api_v3_business_search&utm_source=hBJOknVQJ58S5goQyjmwRw", "review_count": 7, "categories": [{"alias": "cafes", "title": "Cafes"}], "rating": 4.5, "coordinates": {"latitude": 53.55265, "longitude": 9.86577}, "transactions": [], "price": "\u20ac\u20ac\u20ac", "location": {"address1": "Jenisch Haus", "address2": "Baron-Voght-Str. 50", "address3": "", "city": "Hamburg", "zip_code": "22609", "country": "DE", "state": "HH", "display_address": ["Jenisch Haus", "Baron-Voght-Str. 50", "22609 Hamburg", "Germany"]}, "phone": "+494082290822", "display_phone": "+49 40 82290822", "distance": 4617.400609504588}, {"id": "ZzolreLfcNzAuSmM6NLR_g", "alias": "hellas-hamburg", "name": "Hellas", "image_url": "https://s3-media2.fl.yelpcdn.com/bphoto/GfdI4z3VCglaXIWZrG-gfA/o.jpg", "is_closed": false, "url": "https://www.yelp.com/biz/hellas-hamburg?adjust_creative=hBJOknVQJ58S5goQyjmwRw&utm_campaign=yelp_api_v3&utm_medium=api_v3_business_search&utm_source=hBJOknVQJ58S5goQyjmwRw", "review_count": 11, "categories": [{"alias": "greek", "title": "Greek"}], "rating": 3.5, "coordinates": {"latitude": 53.5981, "longitude": 9.85866}, "transactions": [], "price": "\u20ac\u20ac", "location": {"address1": "Luruper Hauptstr. 274", "address2": null, "address3": null, "city": "Hamburg", "zip_code": "22547", "country": "DE", "state": "HH", "display_address": ["Luruper Hauptstr. 274", "22547 Hamburg", "Germany"]}, "phone": "+494083200171", "display_phone": "+49 40 83200171", "distance": 896.681837232592}, {"id": "Czh58o7sIWYTRJEZCxGKIw", "alias": "chinaboy-schenefeld", "name": "ChinaBoy", "image_url": "https://s3-media3.fl.yelpcdn.com/bphoto/v4O8_96rP63EG4BmB3XbDg/o.jpg", "is_closed": false, "url": "https://www.yelp.com/biz/chinaboy-schenefeld?adjust_creative=hBJOknVQJ58S5goQyjmwRw&utm_campaign=yelp_api_v3&utm_medium=api_v3_business_search&utm_source=hBJOknVQJ58S5goQyjmwRw", "review_count": 6, "categories": [{"alias": "chinese", "title": "Chinese"}], "rating": 4.0, "coordinates": {"latitude": 53.602, "longitude": 9.8363}, "transactions": [], "price": "\u20ac\u20ac", "location": {"address1": "Kiebitzweg 2", "address2": null, "address3": null, "city": "Schenefeld", "zip_code": "22869", "country": "DE", "state": "SH", "display_address": ["Kiebitzweg 2", "22869 Schenefeld", "Germany"]}, "phone": "", "display_phone": "", "distance": 1284.614010186039}, {"id": "APvIA_7ssxgC0atmQEFMcg", "alias": "burgerkultour-food-truck-hamburg-2", "name": "BurgerKultour Food Truck", "image_url": "https://s3-media4.fl.yelpcdn.com/bphoto/KoAuwalMnlAO8139MmdYBQ/o.jpg", "is_closed": false, "url": "https://www.yelp.com/biz/burgerkultour-food-truck-hamburg-2?adjust_creative=hBJOknVQJ58S5goQyjmwRw&utm_campaign=yelp_api_v3&utm_medium=api_v3_business_search&utm_source=hBJOknVQJ58S5goQyjmwRw", "review_count": 3, "categories": [{"alias": "foodtrucks", "title": "Food Trucks"}, {"alias": "burgers", "title": "Burgers"}], "rating": 4.5, "coordinates": {"latitude": 53.57154, "longitude": 9.95575}, "transactions": [], "price": "\u20ac\u20ac", "location": {"address1": "", "address2": "", "address3": "", "city": "Hamburg", "zip_code": "20259", "country": "DE", "state": "HH", "display_address": ["20259 Hamburg", "Germany"]}, "phone": "+4917626055122", "display_phone": "+49 176 26055122", "distance": 7540.224937128805}, {"id": "X14N6ogl5lNNLuFsvBzlzw", "alias": "restaurant-dubrovnik-schenefeld", "name": "Restaurant Dubrovnik", "image_url": "", "is_closed": false, "url": "https://www.yelp.com/biz/restaurant-dubrovnik-schenefeld?adjust_creative=hBJOknVQJ58S5goQyjmwRw&utm_campaign=yelp_api_v3&utm_medium=api_v3_business_search&utm_source=hBJOknVQJ58S5goQyjmwRw", "review_count": 9, "categories": [{"alias": "international", "title": "International"}, {"alias": "german", "title": "German"}, {"alias": "serbocroatian", "title": "Serbo Croatian"}], "rating": 4.5, "coordinates": {"latitude": 53.6081, "longitude": 9.83994}, "transactions": [], "price": "\u20ac\u20ac", "location": {"address1": "Lornsenstr. 111", "address2": null, "address3": null, "city": "Schenefeld", "zip_code": "22869", "country": "DE", "state": "SH", "display_address": ["Lornsenstr. 111", "22869 Schenefeld", "Germany"]}, "phone": "+49408391568", "display_phone": "+49 40 8391568", "distance": 1778.083834194181}, {"id": "oTPsEoBEdylcwgavD78DLw", "alias": "baltaci-d\u00f6ner-schenefeld", "name": "Baltaci D\u00f6ner", "image_url": "https://s3-media2.fl.yelpcdn.com/bphoto/Ka4K0Xd_Kr4RkWvW2S9-CQ/o.jpg", "is_closed": false, "url": "https://www.yelp.com/biz/baltaci-d%C3%B6ner-schenefeld?adjust_creative=hBJOknVQJ58S5goQyjmwRw&utm_campaign=yelp_api_v3&utm_medium=api_v3_business_search&utm_source=hBJOknVQJ58S5goQyjmwRw", "review_count": 4, "categories": [{"alias": "kebab", "title": "Kebab"}], "rating": 4.0, "coordinates": {"latitude": 53.6023, "longitude": 9.837}, "transactions": [], "price": "\u20ac\u20ac", "location": {"address1": "Industriestr. 1", "address2": "", "address3": null, "city": "Schenefeld", "zip_code": "22869", "country": "DE", "state": "SH", "display_address": ["Industriestr. 1", "22869 Schenefeld", "Germany"]}, "phone": "+494083018949", "display_phone": "+49 40 83018949", "distance": 1283.7352815289491}, {"id": "vrGm2GYmxOSfuyIlcU7b2w", "alias": "ralphs-kiosk-im-jenischpark-das-parkcaf\u00e9-hamburg", "name": "Ralphs Kiosk im Jenischpark - Das Parkcaf\u00e9", "image_url": "https://s3-media3.fl.yelpcdn.com/bphoto/3n2ddcxHmivqBmpymTWaWg/o.jpg", "is_closed": false, "url": "https://www.yelp.com/biz/ralphs-kiosk-im-jenischpark-das-parkcaf%C3%A9-hamburg?adjust_creative=hBJOknVQJ58S5goQyjmwRw&utm_campaign=yelp_api_v3&utm_medium=api_v3_business_search&utm_source=hBJOknVQJ58S5goQyjmwRw", "review_count": 13, "categories": [{"alias": "cafes", "title": "Cafes"}, {"alias": "kiosk", "title": "Kiosk"}], "rating": 4.0, "coordinates": {"latitude": 53.553618282277, "longitude": 9.86560400972712}, "transactions": [], "price": "\u20ac\u20ac", "location": {"address1": "Jenischpark", "address2": "Baron-Voght-Stra\u00dfe", "address3": null, "city": "Hamburg", "zip_code": "22609", "country": "DE", "state": "HH", "display_address": ["Jenischpark", "Baron-Voght-Stra\u00dfe", "22609 Hamburg", "Germany"]}, "phone": "+491724531743", "display_phone": "+49 172 4531743", "distance": 4514.620356235507}, {"id": "YakI5g9afEFa3blR_bmDkw", "alias": "akropolis-grillimbi\u00df-halstenbek", "name": "Akropolis Grillimbi\u00df", "image_url": "https://s3-media3.fl.yelpcdn.com/bphoto/MWSRdjtPM1kiIFMvwhUFkw/o.jpg", "is_closed": false, "url": "https://www.yelp.com/biz/akropolis-grillimbi%C3%9F-halstenbek?adjust_creative=hBJOknVQJ58S5goQyjmwRw&utm_campaign=yelp_api_v3&utm_medium=api_v3_business_search&utm_source=hBJOknVQJ58S5goQyjmwRw", "review_count": 11, "categories": [{"alias": "greek", "title": "Greek"}], "rating": 4.5, "coordinates": {"latitude": 53.6152941320271, "longitude": 9.86543951083672}, "transactions": [], "price": "\u20ac", "location": {"address1": "Siebentunnelweg 2", "address2": "", "address3": "", "city": "Halstenbek", "zip_code": "25469", "country": "DE", "state": "SH", "display_address": ["Siebentunnelweg 2", "25469 Halstenbek", "Germany"]}, "phone": "+49410143135", "display_phone": "+49 4101 43135", "distance": 2735.876038102817}, {"id": "vbkRPXgy1U68vQxxRxHNjA", "alias": "burger-me-hamburg-2", "name": "Burger Me", "image_url": "https://s3-media4.fl.yelpcdn.com/bphoto/ZcxOgogItRjk7GJceb-wJA/o.jpg", "is_closed": false, "url": "https://www.yelp.com/biz/burger-me-hamburg-2?adjust_creative=hBJOknVQJ58S5goQyjmwRw&utm_campaign=yelp_api_v3&utm_medium=api_v3_business_search&utm_source=hBJOknVQJ58S5goQyjmwRw", "review_count": 2, "categories": [{"alias": "burgers", "title": "Burgers"}], "rating": 4.5, "coordinates": {"latitude": 53.5976270839418, "longitude": 9.86267987490799}, "transactions": [], "location": {"address1": "Luruper Hauptstr. 250", "address2": "", "address3": null, "city": "Hamburg", "zip_code": "22547", "country": "DE", "state": "BW", "display_address": ["Luruper Hauptstr. 250", "22547 Hamburg", "Germany"]}, "phone": "+4940787000", "display_phone": "+49 40 787000", "distance": 1086.1294400232182}, {"id": "wo70Gcw0VOGf_DC__t9Bsg", "alias": "d\u00fcr\u00fcm-hamburg", "name": "D\u00fcr\u00fcm", "image_url": "https://s3-media3.fl.yelpcdn.com/bphoto/tYRufKWCSqQnpvfA4C-a0w/o.jpg", "is_closed": false, "url": "https://www.yelp.com/biz/d%C3%BCr%C3%BCm-hamburg?adjust_creative=hBJOknVQJ58S5goQyjmwRw&utm_campaign=yelp_api_v3&utm_medium=api_v3_business_search&utm_source=hBJOknVQJ58S5goQyjmwRw", "review_count": 9, "categories": [{"alias": "kebab", "title": "Kebab"}], "rating": 3.0, "coordinates": {"latitude": 53.5875142, "longitude": 9.8515812}, "transactions": [], "price": "\u20ac\u20ac", "location": {"address1": "Bornheide 49", "address2": null, "address3": null, "city": "Hamburg", "zip_code": "22549", "country": "DE", "state": "HH", "display_address": ["Bornheide 49", "22549 Hamburg", "Germany"]}, "phone": "+494084054640", "display_phone": "+49 40 84054640", "distance": 636.6881988875508}, {"id": "kDoYfY1trpUnfERmLQJQag", "alias": "hallo-pizza-hamburg-4", "name": "Hallo Pizza!", "image_url": "https://s3-media1.fl.yelpcdn.com/bphoto/sbL3JhVerPzXQLtg63Tm5g/o.jpg", "is_closed": false, "url": "https://www.yelp.com/biz/hallo-pizza-hamburg-4?adjust_creative=hBJOknVQJ58S5goQyjmwRw&utm_campaign=yelp_api_v3&utm_medium=api_v3_business_search&utm_source=hBJOknVQJ58S5goQyjmwRw", "review_count": 9, "categories": [{"alias": "pizza", "title": "Pizza"}], "rating": 4.0, "coordinates": {"latitude": 53.5983, "longitude": 9.85854}, "transactions": [], "price": "\u20ac\u20ac", "location": {"address1": "Luruper Hauptstr. 274", "address2": null, "address3": null, "city": "Hamburg", "zip_code": "22547", "country": "DE", "state": "HH", "display_address": ["Luruper Hauptstr. 274", "22547 Hamburg", "Germany"]}, "phone": "+494083210111", "display_phone": "+49 40 83210111", "distance": 905.2567809814125}, {"id": "u3ub5f0MS4qY67Q8XF9ZoA", "alias": "sodemanns-fisch-kutter-nr-1-hamburg", "name": "Sodemann's Fisch-Kutter Nr. 1", "image_url": "https://s3-media3.fl.yelpcdn.com/bphoto/BlysP6fVPaL0eEjKvEbByw/o.jpg", "is_closed": false, "url": "https://www.yelp.com/biz/sodemanns-fisch-kutter-nr-1-hamburg?adjust_creative=hBJOknVQJ58S5goQyjmwRw&utm_campaign=yelp_api_v3&utm_medium=api_v3_business_search&utm_source=hBJOknVQJ58S5goQyjmwRw", "review_count": 3, "categories": [{"alias": "foodtrucks", "title": "Food Trucks"}, {"alias": "fischbroetchen", "title": "Fischbroetchen"}], "rating": 5.0, "coordinates": {"latitude": 53.5537490844727, "longitude": 9.99182987213135}, "transactions": [], "price": "\u20ac\u20ac", "location": {"address1": "", "address2": null, "address3": "", "city": "Hamburg", "zip_code": "", "country": "DE", "state": "HH", "display_address": ["Hamburg", "Germany"]}, "phone": "+491773606663", "display_phone": "+49 177 3606663", "distance": 10667.01080510153}, {"id": "pZE45kWciSphJGf70AaXVQ", "alias": "der-schwarze-tresen-schenefeld", "name": "Der schwarze Tresen", "image_url": "https://s3-media1.fl.yelpcdn.com/bphoto/6AxFeOALUTefH4N5WNFZDg/o.jpg", "is_closed": false, "url": "https://www.yelp.com/biz/der-schwarze-tresen-schenefeld?adjust_creative=hBJOknVQJ58S5goQyjmwRw&utm_campaign=yelp_api_v3&utm_medium=api_v3_business_search&utm_source=hBJOknVQJ58S5goQyjmwRw", "review_count": 1, "categories": [{"alias": "divebars", "title": "Dive Bars"}, {"alias": "breakfast_brunch", "title": "Breakfast & Brunch"}], "rating": 4.0, "coordinates": {"latitude": 53.602254, "longitude": 9.836563}, "transactions": [], "price": "\u20ac", "location": {"address1": "Stadtzentrum Schenefeld", "address2": "Industriestr. 1", "address3": null, "city": "Schenefeld", "zip_code": "22869", "country": "DE", "state": "SH", "display_address": ["Stadtzentrum Schenefeld", "Industriestr. 1", "22869 Schenefeld", "Germany"]}, "phone": "+4917680289417", "display_phone": "+49 176 80289417", "distance": 1296.5623316631222}, {"id": "px1s7sLcSCiYRSNvfNsx3w", "alias": "arnoldis-schenefeld", "name": "Arnoldis", "image_url": "https://s3-media3.fl.yelpcdn.com/bphoto/eF8tzsDXhVgqJjkYLy0mKQ/o.jpg", "is_closed": false, "url": "https://www.yelp.com/biz/arnoldis-schenefeld?adjust_creative=hBJOknVQJ58S5goQyjmwRw&utm_campaign=yelp_api_v3&utm_medium=api_v3_business_search&utm_source=hBJOknVQJ58S5goQyjmwRw", "review_count": 18, "categories": [{"alias": "sandwiches", "title": "Sandwiches"}, {"alias": "salad", "title": "Salad"}, {"alias": "pizza", "title": "Pizza"}], "rating": 4.0, "coordinates": {"latitude": 53.6081246, "longitude": 9.8400738}, "transactions": [], "price": "\u20ac\u20ac", "location": {"address1": "Lornsenstr. 111 d", "address2": null, "address3": null, "city": "Schenefeld", "zip_code": "22869", "country": "DE", "state": "SH", "display_address": ["Lornsenstr. 111 d", "22869 Schenefeld", "Germany"]}, "phone": "+494084058550", "display_phone": "+49 40 84058550", "distance": 1777.9757199720557}, {"id": "W3EqPmg266Vcf2eqKwGGTg", "alias": "smileys-hamburg-17", "name": "Smiley's", "image_url": "https://s3-media1.fl.yelpcdn.com/bphoto/aVcyF2NDlJ4fuuHqpHtI1A/o.jpg", "is_closed": false, "url": "https://www.yelp.com/biz/smileys-hamburg-17?adjust_creative=hBJOknVQJ58S5goQyjmwRw&utm_campaign=yelp_api_v3&utm_medium=api_v3_business_search&utm_source=hBJOknVQJ58S5goQyjmwRw", "review_count": 8, "categories": [{"alias": "pizza", "title": "Pizza"}], "rating": 3.5, "coordinates": {"latitude": 53.57273, "longitude": 9.85117}, "transactions": [], "location": {"address1": "Osdorfer Landstr. 196", "address2": null, "address3": null, "city": "Hamburg", "zip_code": "22549", "country": "DE", "state": "HH", "display_address": ["Osdorfer Landstr. 196", "22549 Hamburg", "Germany"]}, "phone": "+49408708910", "display_phone": "+49 40 8708910", "distance": 2250.3119656071053}, {"id": "LUsXC7_d90dqijdKoFZHrg", "alias": "china-restaurant-enten-haus-hamburg", "name": "China-Restaurant Enten-Haus", "image_url": "", "is_closed": false, "url": "https://www.yelp.com/biz/china-restaurant-enten-haus-hamburg?adjust_creative=hBJOknVQJ58S5goQyjmwRw&utm_campaign=yelp_api_v3&utm_medium=api_v3_business_search&utm_source=hBJOknVQJ58S5goQyjmwRw", "review_count": 1, "categories": [{"alias": "chinese", "title": "Chinese"}], "rating": 4.0, "coordinates": {"latitude": 53.59889, "longitude": 9.86187}, "transactions": [], "location": {"address1": "Fahrenort 125", "address2": null, "address3": null, "city": "Hamburg", "zip_code": "22547", "country": "DE", "state": "HH", "display_address": ["Fahrenort 125", "22547 Hamburg", "Germany"]}, "phone": "+49408316090", "display_phone": "+49 40 8316090", "distance": 1114.4027611589813}, {"id": "zmrzvZgw72pIRKgvldZIdQ", "alias": "nordsee-hamburg-17", "name": "Nordsee", "image_url": "https://s3-media3.fl.yelpcdn.com/bphoto/HmIUhr8CQeH1hSVijfJdEg/o.jpg", "is_closed": false, "url": "https://www.yelp.com/biz/nordsee-hamburg-17?adjust_creative=hBJOknVQJ58S5goQyjmwRw&utm_campaign=yelp_api_v3&utm_medium=api_v3_business_search&utm_source=hBJOknVQJ58S5goQyjmwRw", "review_count": 4, "categories": [{"alias": "fishmonger", "title": "Fishmonger"}, {"alias": "fischbroetchen", "title": "Fischbroetchen"}], "rating": 2.5, "coordinates": {"latitude": 53.571, "longitude": 9.86221}, "transactions": [], "price": "\u20ac\u20ac\u20ac", "location": {"address1": "Elbe Einkaufszentrum", "address2": "Osdorfer Landstr. 131 - 135", "address3": null, "city": "Hamburg", "zip_code": "22609", "country": "DE", "state": "HH", "display_address": ["Elbe Einkaufszentrum", "Osdorfer Landstr. 131 - 135", "22609 Hamburg", "Germany"]}, "phone": "+494080783700", "display_phone": "+49 40 80783700", "distance": 2602.417945979396}, {"id": "UasR82r2IQmJzk5H8f4pQw", "alias": "ton-peerstall-hamburg", "name": "To'n Peerstall", "image_url": "https://s3-media4.fl.yelpcdn.com/bphoto/6t_0Z2VvS60zi7tRWRk50Q/o.jpg", "is_closed": false, "url": "https://www.yelp.com/biz/ton-peerstall-hamburg?adjust_creative=hBJOknVQJ58S5goQyjmwRw&utm_campaign=yelp_api_v3&utm_medium=api_v3_business_search&utm_source=hBJOknVQJ58S5goQyjmwRw", "review_count": 22, "categories": [{"alias": "international", "title": "International"}], "rating": 3.0, "coordinates": {"latitude": 53.55469, "longitude": 9.86708}, "transactions": [], "price": "\u20ac\u20ac\u20ac", "location": {"address1": "Hochrad 69", "address2": "", "address3": null, "city": "Hamburg", "zip_code": "22605", "country": "DE", "state": "HH", "display_address": ["Hochrad 69", "22605 Hamburg", "Germany"]}, "phone": "+4940821793", "display_phone": "+49 40 821793", "distance": 4431.4200624988325}, {"id": "cGIKCcR0wZszz8VldC2-7g", "alias": "currywerk-hamburg", "name": "curryWERK", "image_url": "https://s3-media4.fl.yelpcdn.com/bphoto/j_ZPQAB6JrAru84VDuLiRA/o.jpg", "is_closed": false, "url": "https://www.yelp.com/biz/currywerk-hamburg?adjust_creative=hBJOknVQJ58S5goQyjmwRw&utm_campaign=yelp_api_v3&utm_medium=api_v3_business_search&utm_source=hBJOknVQJ58S5goQyjmwRw", "review_count": 1, "categories": [{"alias": "foodtrucks", "title": "Food Trucks"}, {"alias": "currysausage", "title": "Curry Sausage"}], "rating": 4.0, "coordinates": {"latitude": 53.5498886108398, "longitude": 9.94732189178467}, "transactions": [], "price": "\u20ac\u20ac", "location": {"address1": "", "address2": "", "address3": "", "city": "Hamburg", "zip_code": "22767", "country": "DE", "state": "HH", "display_address": ["22767 Hamburg", "Germany"]}, "phone": "+4917632443433", "display_phone": "+49 176 32443433", "distance": 7920.634977456109}, {"id": "R5wNK0pZ2e7NB48ooxSPlg", "alias": "reo-schenefeld", "name": "Reo", "image_url": "https://s3-media2.fl.yelpcdn.com/bphoto/UP73qMWpSWUIhPRe9OinzA/o.jpg", "is_closed": false, "url": "https://www.yelp.com/biz/reo-schenefeld?adjust_creative=hBJOknVQJ58S5goQyjmwRw&utm_campaign=yelp_api_v3&utm_medium=api_v3_business_search&utm_source=hBJOknVQJ58S5goQyjmwRw", "review_count": 7, "categories": [{"alias": "steak", "title": "Steakhouses"}], "rating": 2.5, "coordinates": {"latitude": 53.602, "longitude": 9.8363}, "transactions": [], "price": "\u20ac\u20ac", "location": {"address1": "Kiebitzweg 2", "address2": null, "address3": null, "city": "Schenefeld", "zip_code": "22869", "country": "DE", "state": "SH", "display_address": ["Kiebitzweg 2", "22869 Schenefeld", "Germany"]}, "phone": "+494063943175", "display_phone": "+49 40 63943175", "distance": 1284.614010186039}, {"id": "plX5GeRy2oZwGICcURrxzQ", "alias": "lese-kultur-caf\u00e9-hamburg", "name": "Lese-Kultur-Caf\u00e9", "image_url": "", "is_closed": false, "url": "https://www.yelp.com/biz/lese-kultur-caf%C3%A9-hamburg?adjust_creative=hBJOknVQJ58S5goQyjmwRw&utm_campaign=yelp_api_v3&utm_medium=api_v3_business_search&utm_source=hBJOknVQJ58S5goQyjmwRw", "review_count": 1, "categories": [{"alias": "cafes", "title": "Cafes"}], "rating": 5.0, "coordinates": {"latitude": 53.595922, "longitude": 9.872672}, "transactions": [], "location": {"address1": "Stadtteilhaus Lurup", "address2": "B\u00f6verstland 38", "address3": null, "city": "Hamburg", "zip_code": "22547", "country": "DE", "state": "HH", "display_address": ["Stadtteilhaus Lurup", "B\u00f6verstland 38", "22547 Hamburg", "Germany"]}, "phone": "+494087974116", "display_phone": "+49 40 87974116", "distance": 1644.408601054683}, {"id": "guS8lV3LTO-qRcW9XUNthQ", "alias": "sushi-factory-hamburg-3", "name": "Sushi Factory", "image_url": "https://s3-media3.fl.yelpcdn.com/bphoto/msX7dvWKK0oHQdLyjIorQA/o.jpg", "is_closed": false, "url": "https://www.yelp.com/biz/sushi-factory-hamburg-3?adjust_creative=hBJOknVQJ58S5goQyjmwRw&utm_campaign=yelp_api_v3&utm_medium=api_v3_business_search&utm_source=hBJOknVQJ58S5goQyjmwRw", "review_count": 7, "categories": [{"alias": "sushi", "title": "Sushi Bars"}], "rating": 3.5, "coordinates": {"latitude": 53.56998, "longitude": 9.86136}, "transactions": [], "location": {"address1": "Julius-Brecht-Stra\u00dfe", "address2": "", "address3": "", "city": "Hamburg", "zip_code": "22609", "country": "DE", "state": "HH", "display_address": ["Julius-Brecht-Stra\u00dfe", "22609 Hamburg", "Germany"]}, "phone": "+494076993345", "display_phone": "+49 40 76993345", "distance": 2710.6180351889648}, {"id": "3FpY-kp2MhGXxvwl-gM6FQ", "alias": "jacobs-st\u00fcberl-hamburg", "name": "Jacobs St\u00fcberl", "image_url": "https://s3-media3.fl.yelpcdn.com/bphoto/4_MT-JUMINxK5mi9UnPLtw/o.jpg", "is_closed": false, "url": "https://www.yelp.com/biz/jacobs-st%C3%BCberl-hamburg?adjust_creative=hBJOknVQJ58S5goQyjmwRw&utm_campaign=yelp_api_v3&utm_medium=api_v3_business_search&utm_source=hBJOknVQJ58S5goQyjmwRw", "review_count": 1, "categories": [{"alias": "austrian", "title": "Austrian"}, {"alias": "wine_bars", "title": "Wine Bars"}], "rating": 4.0, "coordinates": {"latitude": 53.55068, "longitude": 9.84375}, "transactions": [], "price": "\u20ac\u20ac", "location": {"address1": "Elbchaussee 404", "address2": "", "address3": null, "city": "Hamburg", "zip_code": "22609", "country": "DE", "state": "HH", "display_address": ["Elbchaussee 404", "22609 Hamburg", "Germany"]}, "phone": "+494082255510", "display_phone": "+49 40 82255510", "distance": 4703.255666777879}, {"id": "KrElkJZG4z9o-Zq_6dld1w", "alias": "dritte-etage-halstenbek", "name": "dritte Etage", "image_url": "", "is_closed": false, "url": "https://www.yelp.com/biz/dritte-etage-halstenbek?adjust_creative=hBJOknVQJ58S5goQyjmwRw&utm_campaign=yelp_api_v3&utm_medium=api_v3_business_search&utm_source=hBJOknVQJ58S5goQyjmwRw", "review_count": 2, "categories": [{"alias": "restaurants", "title": "Restaurants"}], "rating": 4.5, "coordinates": {"latitude": 53.6311, "longitude": 9.86055}, "transactions": [], "price": "\u20ac\u20ac", "location": {"address1": "G\u00e4rtnerstr.  133-137", "address2": "Event GmbH", "address3": null, "city": "Halstenbek", "zip_code": "25469", "country": "DE", "state": "SH", "display_address": ["G\u00e4rtnerstr.  133-137", "Event GmbH", "25469 Halstenbek", "Germany"]}, "phone": "", "display_phone": "", "distance": 4324.613937777962}, {"id": "2jzIbZsfzca5drJYk7JwbQ", "alias": "the-bao-bros-hamburg-2", "name": "The Bao Bros", "image_url": "https://s3-media1.fl.yelpcdn.com/bphoto/vUMA4Y35x3UwZk6fMJfZRw/o.jpg", "is_closed": false, "url": "https://www.yelp.com/biz/the-bao-bros-hamburg-2?adjust_creative=hBJOknVQJ58S5goQyjmwRw&utm_campaign=yelp_api_v3&utm_medium=api_v3_business_search&utm_source=hBJOknVQJ58S5goQyjmwRw", "review_count": 2, "categories": [{"alias": "foodtrucks", "title": "Food Trucks"}, {"alias": "burgers", "title": "Burgers"}], "rating": 4.0, "coordinates": {"latitude": 53.5533409118652, "longitude": 9.99246978759766}, "transactions": [], "price": "\u20ac", "location": {"address1": "", "address2": "", "address3": "", "city": "Hamburg", "zip_code": "", "country": "DE", "state": "HH", "display_address": ["Hamburg", "Germany"]}, "phone": "+4915140700076", "display_phone": "+49 1514 0700076", "distance": 10667.004862340873}, {"id": "J2kq2Y68b5-PIvSzN_ek6g", "alias": "russano-hamburg", "name": "Russano", "image_url": "https://s3-media4.fl.yelpcdn.com/bphoto/VjxtNIpe1LhWgeKmIY-9og/o.jpg", "is_closed": false, "url": "https://www.yelp.com/biz/russano-hamburg?adjust_creative=hBJOknVQJ58S5goQyjmwRw&utm_campaign=yelp_api_v3&utm_medium=api_v3_business_search&utm_source=hBJOknVQJ58S5goQyjmwRw", "review_count": 11, "categories": [{"alias": "italian", "title": "Italian"}, {"alias": "bars", "title": "Bars"}, {"alias": "pizza", "title": "Pizza"}], "rating": 2.0, "coordinates": {"latitude": 53.57, "longitude": 9.86168}, "transactions": [], "price": "\u20ac\u20ac", "location": {"address1": "Julius-Brecht-Str. 6", "address2": "", "address3": null, "city": "Hamburg", "zip_code": "22609", "country": "DE", "state": "HH", "display_address": ["Julius-Brecht-Str. 6", "22609 Hamburg", "Germany"]}, "phone": "+494020908436", "display_phone": "+49 40 20908436", "distance": 2695.0467411871105}, {"id": "1scOX0fMV4UdmrlHxMlR0g", "alias": "baris-grill-haus-schenefeld", "name": "Baris Grill-Haus", "image_url": "", "is_closed": false, "url": "https://www.yelp.com/biz/baris-grill-haus-schenefeld?adjust_creative=hBJOknVQJ58S5goQyjmwRw&utm_campaign=yelp_api_v3&utm_medium=api_v3_business_search&utm_source=hBJOknVQJ58S5goQyjmwRw", "review_count": 2, "categories": [{"alias": "food", "title": "Food"}, {"alias": "mideastern", "title": "Middle Eastern"}, {"alias": "kebab", "title": "Kebab"}], "rating": 4.5, "coordinates": {"latitude": 53.6086, "longitude": 9.83903}, "transactions": [], "price": "\u20ac", "location": {"address1": "Lindenallee 8", "address2": null, "address3": null, "city": "Schenefeld", "zip_code": "22869", "country": "DE", "state": "SH", "display_address": ["Lindenallee 8", "22869 Schenefeld", "Germany"]}, "phone": "+494083929389", "display_phone": "+49 40 83929389", "distance": 1849.9672918461947}, {"id": "EGNZF-5P9X9rMFnmfLwbmA", "alias": "park26-caf\u00e9-und-bistro-hamburg", "name": "Park26 - Caf\u00e9 & Bistro", "image_url": "https://s3-media3.fl.yelpcdn.com/bphoto/W_w0oqz31tGQ2BryWKeFDg/o.jpg", "is_closed": false, "url": "https://www.yelp.com/biz/park26-caf%C3%A9-und-bistro-hamburg?adjust_creative=hBJOknVQJ58S5goQyjmwRw&utm_campaign=yelp_api_v3&utm_medium=api_v3_business_search&utm_source=hBJOknVQJ58S5goQyjmwRw", "review_count": 2, "categories": [{"alias": "cafes", "title": "Cafes"}, {"alias": "coffee", "title": "Coffee & Tea"}], "rating": 3.5, "coordinates": {"latitude": 53.5556, "longitude": 9.84309}, "transactions": [], "location": {"address1": "Rupertistr. 26", "address2": null, "address3": null, "city": "Hamburg", "zip_code": "22609", "country": "DE", "state": "HH", "display_address": ["Rupertistr. 26", "22609 Hamburg", "Germany"]}, "phone": "+494088170910", "display_phone": "+49 40 88170910", "distance": 4161.133634964243}, {"id": "7qbcYyI8R5Y7fmvYdfwhdg", "alias": "lee-und-lee-schenefeld", "name": "Lee & Lee", "image_url": "https://s3-media2.fl.yelpcdn.com/bphoto/LKrWwdqZfg0PT7vaXW8EPQ/o.jpg", "is_closed": false, "url": "https://www.yelp.com/biz/lee-und-lee-schenefeld?adjust_creative=hBJOknVQJ58S5goQyjmwRw&utm_campaign=yelp_api_v3&utm_medium=api_v3_business_search&utm_source=hBJOknVQJ58S5goQyjmwRw", "review_count": 5, "categories": [{"alias": "panasian", "title": "Pan Asian"}], "rating": 3.0, "coordinates": {"latitude": 53.6018, "longitude": 9.83667}, "transactions": [], "location": {"address1": "Kiebitzweg 2", "address2": null, "address3": null, "city": "Schenefeld", "zip_code": "22869", "country": "DE", "state": "SH", "display_address": ["Kiebitzweg 2", "22869 Schenefeld", "Germany"]}, "phone": "+494087974279", "display_phone": "+49 40 87974279", "distance": 1252.0720609882576}, {"id": "-xrcJK-pbh18zQk-nG4oDQ", "alias": "eiscafe-fiore-schenefeld", "name": "Eiscafe Fiore", "image_url": "https://s3-media4.fl.yelpcdn.com/bphoto/MsEW5iYvVDwiH9UYBHAMWw/o.jpg", "is_closed": false, "url": "https://www.yelp.com/biz/eiscafe-fiore-schenefeld?adjust_creative=hBJOknVQJ58S5goQyjmwRw&utm_campaign=yelp_api_v3&utm_medium=api_v3_business_search&utm_source=hBJOknVQJ58S5goQyjmwRw", "review_count": 7, "categories": [{"alias": "cafes", "title": "Cafes"}, {"alias": "icecream", "title": "Ice Cream & Frozen Yogurt"}], "rating": 2.5, "coordinates": {"latitude": 53.6009, "longitude": 9.83725}, "transactions": [], "price": "\u20ac\u20ac", "location": {"address1": "Kiebitzweg 2", "address2": null, "address3": null, "city": "Schenefeld", "zip_code": "22869", "country": "DE", "state": "SH", "display_address": ["Kiebitzweg 2", "22869 Schenefeld", "Germany"]}, "phone": "+49408300537", "display_phone": "+49 40 8300537", "distance": 1149.9253973299112}, {"id": "TCAyvClotOIrJIN1Tr2tQA", "alias": "schlemmermeyer-hamburg-6", "name": "Schlemmermeyer", "image_url": "https://s3-media3.fl.yelpcdn.com/bphoto/JyUiMjJCosgU_dC1dOvFlQ/o.jpg", "is_closed": false, "url": "https://www.yelp.com/biz/schlemmermeyer-hamburg-6?adjust_creative=hBJOknVQJ58S5goQyjmwRw&utm_campaign=yelp_api_v3&utm_medium=api_v3_business_search&utm_source=hBJOknVQJ58S5goQyjmwRw", "review_count": 3, "categories": [{"alias": "delicatessen", "title": "Delicatessen"}, {"alias": "foodstands", "title": "Food Stands"}, {"alias": "meats", "title": "Meat Shops"}], "rating": 3.5, "coordinates": {"latitude": 53.5702389609834, "longitude": 9.86248648717196}, "transactions": [], "location": {"address1": "Osdorfer Landstr. 131 - 135", "address2": "", "address3": null, "city": "Hamburg", "zip_code": "22609", "country": "DE", "state": "HH", "display_address": ["Osdorfer Landstr. 131 - 135", "22609 Hamburg", "Germany"]}, "phone": "+4940801689", "display_phone": "+49 40 801689", "distance": 2688.06607162617}, {"id": "PAaagr3ejMNRHbuTiwqvNA", "alias": "nelsons-kaj\u00fcte-hamburg-2", "name": "Nelson's Kaj\u00fcte", "image_url": "https://s3-media3.fl.yelpcdn.com/bphoto/1tlpOwjSCzEqIrluChCN6w/o.jpg", "is_closed": false, "url": "https://www.yelp.com/biz/nelsons-kaj%C3%BCte-hamburg-2?adjust_creative=hBJOknVQJ58S5goQyjmwRw&utm_campaign=yelp_api_v3&utm_medium=api_v3_business_search&utm_source=hBJOknVQJ58S5goQyjmwRw", "review_count": 4, "categories": [{"alias": "mediterranean", "title": "Mediterranean"}, {"alias": "german", "title": "German"}], "rating": 4.0, "coordinates": {"latitude": 53.55434, "longitude": 9.82316}, "transactions": [], "location": {"address1": "Jollenhafen Blankenese", "address2": "Elbuferweg 135", "address3": "", "city": "Hamburg", "zip_code": "22587", "country": "DE", "state": "HH", "display_address": ["Jollenhafen Blankenese", "Elbuferweg 135", "22587 Hamburg", "Germany"]}, "phone": "+4940862373", "display_phone": "+49 40 862373", "distance": 4591.150401956729}, {"id": "-NZPbquHmoL-yxAOTRGEwA", "alias": "cafe-engelchen-hamburg-5", "name": "Cafe Engelchen", "image_url": "https://s3-media1.fl.yelpcdn.com/bphoto/ACkpYGK3h-4G6FF3AxyjXQ/o.jpg", "is_closed": false, "url": "https://www.yelp.com/biz/cafe-engelchen-hamburg-5?adjust_creative=hBJOknVQJ58S5goQyjmwRw&utm_campaign=yelp_api_v3&utm_medium=api_v3_business_search&utm_source=hBJOknVQJ58S5goQyjmwRw", "review_count": 6, "categories": [{"alias": "cafes", "title": "Cafes"}], "rating": 2.5, "coordinates": {"latitude": 53.5708614, "longitude": 9.8620963}, "transactions": [], "price": "\u20ac\u20ac\u20ac\u20ac", "location": {"address1": "Osdorfer Landstr.  131", "address2": null, "address3": null, "city": "Hamburg", "zip_code": "22609", "country": "DE", "state": "HH", "display_address": ["Osdorfer Landstr.  131", "22609 Hamburg", "Germany"]}, "phone": "+49408007367", "display_phone": "+49 40 8007367", "distance": 2614.2141434604314}, {"id": "fsPYc9Qk2oRyfdXbT4xxvA", "alias": "long-food-hamburg-3", "name": "Long Food", "image_url": "https://s3-media2.fl.yelpcdn.com/bphoto/FCJS_qCf5eQriqfSOTACGQ/o.jpg", "is_closed": false, "url": "https://www.yelp.com/biz/long-food-hamburg-3?adjust_creative=hBJOknVQJ58S5goQyjmwRw&utm_campaign=yelp_api_v3&utm_medium=api_v3_business_search&utm_source=hBJOknVQJ58S5goQyjmwRw", "review_count": 6, "categories": [{"alias": "indpak", "title": "Indian"}], "rating": 3.0, "coordinates": {"latitude": 53.571097, "longitude": 9.862118}, "transactions": [], "price": "\u20ac", "location": {"address1": "Osdorfer Landstr. 131 - 135", "address2": "", "address3": "EG", "city": "Hamburg", "zip_code": "22609", "country": "DE", "state": "HH", "display_address": ["Osdorfer Landstr. 131 - 135", "EG", "22609 Hamburg", "Germany"]}, "phone": "+494080020291", "display_phone": "+49 40 80020291", "distance": 2590.182270071957}, {"id": "WMBRQsQiAdpBzM3RezcJcA", "alias": "burger-king-hamburg-5", "name": "Burger King", "image_url": "https://s3-media2.fl.yelpcdn.com/bphoto/lmiCashdsUkEuXxEQf2xCQ/o.jpg", "is_closed": false, "url": "https://www.yelp.com/biz/burger-king-hamburg-5?adjust_creative=hBJOknVQJ58S5goQyjmwRw&utm_campaign=yelp_api_v3&utm_medium=api_v3_business_search&utm_source=hBJOknVQJ58S5goQyjmwRw", "review_count": 15, "categories": [{"alias": "hotdogs", "title": "Fast Food"}, {"alias": "burgers", "title": "Burgers"}], "rating": 2.0, "coordinates": {"latitude": 53.5707, "longitude": 9.87208}, "transactions": [], "price": "\u20ac\u20ac", "location": {"address1": "osdorfer landstr. 25", "address2": null, "address3": null, "city": "Hamburg", "zip_code": "22607", "country": "DE", "state": "HH", "display_address": ["osdorfer landstr. 25", "22607 Hamburg", "Germany"]}, "phone": "+494081992222", "display_phone": "+49 40 81992222", "distance": 2925.5376497543207}, {"id": "n_Yio-a9VzssOtDbgezpRA", "alias": "subu-sushi-burrito-hamburg-3", "name": "Subu Sushi Burrito", "image_url": "https://s3-media3.fl.yelpcdn.com/bphoto/x2oh5mzvkzvrXjswE_MjXQ/o.jpg", "is_closed": false, "url": "https://www.yelp.com/biz/subu-sushi-burrito-hamburg-3?adjust_creative=hBJOknVQJ58S5goQyjmwRw&utm_campaign=yelp_api_v3&utm_medium=api_v3_business_search&utm_source=hBJOknVQJ58S5goQyjmwRw", "review_count": 3, "categories": [{"alias": "foodtrucks", "title": "Food Trucks"}, {"alias": "sushi", "title": "Sushi Bars"}], "rating": 5.0, "coordinates": {"latitude": 53.5526819869811, "longitude": 10.0010880455375}, "transactions": [], "price": "\u20ac", "location": {"address1": "", "address2": "", "address3": "", "city": "Hamburg", "zip_code": "", "country": "DE", "state": "HH", "display_address": ["Hamburg", "Germany"]}, "phone": "+4917670834316", "display_phone": "+49 176 70834316", "distance": 11035.857393960388}, {"id": "MQuYGwEojN7fFPMXRePLhw", "alias": "friedrichs-am-reiterhof-schenefeld", "name": "Friedrichs - Am Reiterhof", "image_url": "", "is_closed": false, "url": "https://www.yelp.com/biz/friedrichs-am-reiterhof-schenefeld?adjust_creative=hBJOknVQJ58S5goQyjmwRw&utm_campaign=yelp_api_v3&utm_medium=api_v3_business_search&utm_source=hBJOknVQJ58S5goQyjmwRw", "review_count": 6, "categories": [{"alias": "german", "title": "German"}], "rating": 2.5, "coordinates": {"latitude": 53.6084, "longitude": 9.82596}, "transactions": [], "location": {"address1": "Lindenallee 98", "address2": null, "address3": null, "city": "Schenefeld", "zip_code": "22869", "country": "DE", "state": "SH", "display_address": ["Lindenallee 98", "22869 Schenefeld", "Germany"]}, "phone": "+494018981959", "display_phone": "+49 40 18981959", "distance": 2267.5839491436714}, {"id": "5puKQGuSgJrGgsvIZWx7vw", "alias": "dailys-hamburg", "name": "Daily's", "image_url": "https://s3-media4.fl.yelpcdn.com/bphoto/K-kwdREVjIJOZFSNSjz8qg/o.jpg", "is_closed": false, "url": "https://www.yelp.com/biz/dailys-hamburg?adjust_creative=hBJOknVQJ58S5goQyjmwRw&utm_campaign=yelp_api_v3&utm_medium=api_v3_business_search&utm_source=hBJOknVQJ58S5goQyjmwRw", "review_count": 3, "categories": [{"alias": "salad", "title": "Salad"}, {"alias": "juicebars", "title": "Juice Bars & Smoothies"}], "rating": 3.0, "coordinates": {"latitude": 53.57138, "longitude": 9.86229}, "transactions": [], "price": "\u20ac\u20ac", "location": {"address1": "Osdorfer Landstr. 131", "address2": "", "address3": "", "city": "Hamburg", "zip_code": "22609", "country": "DE", "state": "HH", "display_address": ["Osdorfer Landstr. 131", "22609 Hamburg", "Germany"]}, "phone": "+494086693377", "display_phone": "+49 40 86693377", "distance": 2625.296037962402}, {"id": "BSa9d3B7WA_5rBFzcQ_oow", "alias": "burger-king-hamburg-11", "name": "Burger King", "image_url": "https://s3-media2.fl.yelpcdn.com/bphoto/HIvNepwJvfUK7UjLuWZ_Og/o.jpg", "is_closed": false, "url": "https://www.yelp.com/biz/burger-king-hamburg-11?adjust_creative=hBJOknVQJ58S5goQyjmwRw&utm_campaign=yelp_api_v3&utm_medium=api_v3_business_search&utm_source=hBJOknVQJ58S5goQyjmwRw", "review_count": 5, "categories": [{"alias": "hotdogs", "title": "Fast Food"}, {"alias": "burgers", "title": "Burgers"}], "rating": 2.0, "coordinates": {"latitude": 53.57, "longitude": 9.8618}, "transactions": [], "price": "\u20ac", "location": {"address1": "Julius-Brecht-Str. 6", "address2": null, "address3": null, "city": "Hamburg", "zip_code": "22609", "country": "DE", "state": "HH", "display_address": ["Julius-Brecht-Str. 6", "22609 Hamburg", "Germany"]}, "phone": "+494086627756", "display_phone": "+49 40 86627756", "distance": 2697.6568444795025}, {"id": "SeodQIjOcsrznD7rwIB-Jw", "alias": "the-big-balmy-hamburg-2", "name": "The Big Balmy", "image_url": "https://s3-media2.fl.yelpcdn.com/bphoto/KWUCQvGDONs_iDxlKXzgvQ/o.jpg", "is_closed": false, "url": "https://www.yelp.com/biz/the-big-balmy-hamburg-2?adjust_creative=hBJOknVQJ58S5goQyjmwRw&utm_campaign=yelp_api_v3&utm_medium=api_v3_business_search&utm_source=hBJOknVQJ58S5goQyjmwRw", "review_count": 27, "categories": [{"alias": "burgers", "title": "Burgers"}, {"alias": "foodtrucks", "title": "Food Trucks"}], "rating": 3.5, "coordinates": {"latitude": 53.537786, "longitude": 10.028218}, "transactions": [], "price": "\u20ac\u20ac", "location": {"address1": "", "address2": null, "address3": null, "city": "Hamburg", "zip_code": "", "country": "DE", "state": "HH", "display_address": ["Hamburg", "Germany"]}, "phone": "+494069278630", "display_phone": "+49 40 69278630", "distance": 13369.804292715919}, {"id": "5mEC8n__Id_qsF9Vuf_JUA", "alias": "segafredo-hamburg-2", "name": "Segafredo", "image_url": "https://s3-media1.fl.yelpcdn.com/bphoto/7gDVZPKVoqyAkEF9p8W4lg/o.jpg", "is_closed": false, "url": "https://www.yelp.com/biz/segafredo-hamburg-2?adjust_creative=hBJOknVQJ58S5goQyjmwRw&utm_campaign=yelp_api_v3&utm_medium=api_v3_business_search&utm_source=hBJOknVQJ58S5goQyjmwRw", "review_count": 1, "categories": [{"alias": "cafes", "title": "Cafes"}], "rating": 2.0, "coordinates": {"latitude": 53.5717948, "longitude": 9.8586956}, "transactions": [], "location": {"address1": "Osdorfer Landstr. 113", "address2": "", "address3": null, "city": "Hamburg", "zip_code": "22609", "country": "DE", "state": "HH", "display_address": ["Osdorfer Landstr. 113", "22609 Hamburg", "Germany"]}, "phone": "", "display_phone": "", "distance": 2444.8447807628627}, {"id": "e4Yjy9ELavadkQm5m5W5rA", "alias": "backeria-bistro-hamburg", "name": "Backeria Bistro", "image_url": "https://s3-media2.fl.yelpcdn.com/bphoto/kY1g_YIaMA0aqaZQJ-hBBQ/o.jpg", "is_closed": false, "url": "https://www.yelp.com/biz/backeria-bistro-hamburg?adjust_creative=hBJOknVQJ58S5goQyjmwRw&utm_campaign=yelp_api_v3&utm_medium=api_v3_business_search&utm_source=hBJOknVQJ58S5goQyjmwRw", "review_count": 3, "categories": [{"alias": "bistros", "title": "Bistros"}], "rating": 2.5, "coordinates": {"latitude": 53.57138, "longitude": 9.86229}, "transactions": [], "price": "\u20ac", "location": {"address1": "Osdorfer Landstr. 131", "address2": "", "address3": "", "city": "Hamburg", "zip_code": "22609", "country": "DE", "state": "HH", "display_address": ["Osdorfer Landstr. 131", "22609 Hamburg", "Germany"]}, "phone": "+494020908436", "display_phone": "+49 40 20908436", "distance": 2625.296037962402}]