[{"id": "n7W1ITUtp9K6w9kvV1Bcmw", "alias": "luna-hamburg-3", "name": "Luna", "image_url": "https://s3-media3.fl.yelpcdn.com/bphoto/JqUdwuBoeQGJ2_hEQelUDw/o.jpg", "is_closed": false, "url": "https://www.yelp.com/biz/luna-hamburg-3?adjust_creative=hBJOknVQJ58S5goQyjmwRw&utm_campaign=yelp_api_v3&utm_medium=api_v3_business_search&utm_source=hBJOknVQJ58S5goQyjmwRw", "review_count": 27, "categories": [{"alias": "italian", "title": "Italian"}], "rating": 4.5, "coordinates": {"latitude": 53.5873798815073, "longitude": 10.1283631958008}, "transactions": [], "price": "\u20ac\u20ac", "location": {"address1": "Tonndorfer Hauptstr. 96 a", "address2": null, "address3": null, "city": "Hamburg", "zip_code": "22045", "country": "DE", "state": "HH", "display_address": ["Tonndorfer Hauptstr. 96 a", "22045 Hamburg", "Germany"]}, "phone": "+49406535749", "display_phone": "+49 40 6535749", "distance": 651.0762435993395}, {"id": "wOkXiQHPzK0HX43phYsJGA", "alias": "aivy-c\u00e0-ph\u00ea-hamburg", "name": "Aivy C\u00e0 Ph\u00ea", "image_url": "https://s3-media1.fl.yelpcdn.com/bphoto/djbexpAiW5UpXns-kJ-ifA/o.jpg", "is_closed": false, "url": "https://www.yelp.com/biz/aivy-c%C3%A0-ph%C3%AA-hamburg?adjust_creative=hBJOknVQJ58S5goQyjmwRw&utm_campaign=yelp_api_v3&utm_medium=api_v3_business_search&utm_source=hBJOknVQJ58S5goQyjmwRw", "review_count": 1, "categories": [{"alias": "vietnamese", "title": "Vietnamese"}], "rating": 5.0, "coordinates": {"latitude": 53.58065, "longitude": 10.1268}, "transactions": [], "location": {"address1": "Jenfelder Allee 55", "address2": "", "address3": "", "city": "Hamburg", "zip_code": "22043", "country": "DE", "state": "HH", "display_address": ["Jenfelder Allee 55", "22043 Hamburg", "Germany"]}, "phone": "+4917637000370", "display_phone": "+49 176 37000370", "distance": 1197.087662924521}, {"id": "PwnixbNNj6YxpjgCZXA3lQ", "alias": "hoang-mai-hamburg-2", "name": "Hoang Mai", "image_url": "https://s3-media1.fl.yelpcdn.com/bphoto/awdWkMRK6HkE6VeRsgv5EQ/o.jpg", "is_closed": false, "url": "https://www.yelp.com/biz/hoang-mai-hamburg-2?adjust_creative=hBJOknVQJ58S5goQyjmwRw&utm_campaign=yelp_api_v3&utm_medium=api_v3_business_search&utm_source=hBJOknVQJ58S5goQyjmwRw", "review_count": 29, "categories": [{"alias": "vietnamese", "title": "Vietnamese"}], "rating": 4.5, "coordinates": {"latitude": 53.5704, "longitude": 10.1358}, "transactions": [], "price": "\u20ac", "location": {"address1": "\u00d6jendorfer Damm 42", "address2": null, "address3": null, "city": "Hamburg", "zip_code": "22043", "country": "DE", "state": "HH", "display_address": ["\u00d6jendorfer Damm 42", "22043 Hamburg", "Germany"]}, "phone": "+494063643661", "display_phone": "+49 40 63643661", "distance": 2477.1266976415345}, {"id": "tLqsWv6XgHjA1OSDUAxDEQ", "alias": "restaurant-tarantino-hamburg", "name": "Restaurant Tarantino", "image_url": "https://s3-media1.fl.yelpcdn.com/bphoto/EJRjyOv1CjjcGJikgtBmYg/o.jpg", "is_closed": false, "url": "https://www.yelp.com/biz/restaurant-tarantino-hamburg?adjust_creative=hBJOknVQJ58S5goQyjmwRw&utm_campaign=yelp_api_v3&utm_medium=api_v3_business_search&utm_source=hBJOknVQJ58S5goQyjmwRw", "review_count": 13, "categories": [{"alias": "italian", "title": "Italian"}], "rating": 4.5, "coordinates": {"latitude": 53.5824, "longitude": 10.1116}, "transactions": [], "price": "\u20ac\u20ac", "location": {"address1": "Ahrensburger Str. 170", "address2": null, "address3": null, "city": "Hamburg", "zip_code": "22045", "country": "DE", "state": "HH", "display_address": ["Ahrensburger Str. 170", "22045 Hamburg", "Germany"]}, "phone": "+49406562458", "display_phone": "+49 40 6562458", "distance": 1079.1928382347357}, {"id": "HTJFV4B-xQRwvDxIun0g2g", "alias": "l-amira-farmsen-hamburg", "name": "L'Amira Farmsen", "image_url": "https://s3-media4.fl.yelpcdn.com/bphoto/vGGTedKCivZ-omRsQDWDnQ/o.jpg", "is_closed": false, "url": "https://www.yelp.com/biz/l-amira-farmsen-hamburg?adjust_creative=hBJOknVQJ58S5goQyjmwRw&utm_campaign=yelp_api_v3&utm_medium=api_v3_business_search&utm_source=hBJOknVQJ58S5goQyjmwRw", "review_count": 58, "categories": [{"alias": "syrian", "title": "Syrian"}], "rating": 4.5, "coordinates": {"latitude": 53.6165449, "longitude": 10.1136955}, "transactions": [], "price": "\u20ac\u20ac", "location": {"address1": "Neusurenland 101", "address2": "", "address3": "", "city": "Hamburg", "zip_code": "22159", "country": "DE", "state": "HH", "display_address": ["Neusurenland 101", "22159 Hamburg", "Germany"]}, "phone": "+494073088653", "display_phone": "+49 40 73088653", "distance": 2910.195001995743}, {"id": "iiU4A7Sr1OXCibvmS1756Q", "alias": "restaurant-bacchus-hamburg-3", "name": "Restaurant Bacchus", "image_url": "https://s3-media3.fl.yelpcdn.com/bphoto/v2Vk0hpRqSVwoJ16pQ0m3w/o.jpg", "is_closed": false, "url": "https://www.yelp.com/biz/restaurant-bacchus-hamburg-3?adjust_creative=hBJOknVQJ58S5goQyjmwRw&utm_campaign=yelp_api_v3&utm_medium=api_v3_business_search&utm_source=hBJOknVQJ58S5goQyjmwRw", "review_count": 20, "categories": [{"alias": "greek", "title": "Greek"}], "rating": 4.5, "coordinates": {"latitude": 53.5913493, "longitude": 10.1451886}, "transactions": [], "price": "\u20ac\u20ac", "location": {"address1": "Ellerneck 58", "address2": null, "address3": null, "city": "Hamburg", "zip_code": "22149", "country": "DE", "state": "HH", "display_address": ["Ellerneck 58", "22149 Hamburg", "Germany"]}, "phone": "+49406733983", "display_phone": "+49 40 6733983", "distance": 1663.564914290007}, {"id": "VYbmzsJOfBHnUZhLiuVr0w", "alias": "pad-thai-hamburg", "name": "Pad Thai", "image_url": "https://s3-media2.fl.yelpcdn.com/bphoto/qoQ0n2pI-C76XbPD_AEbLw/o.jpg", "is_closed": false, "url": "https://www.yelp.com/biz/pad-thai-hamburg?adjust_creative=hBJOknVQJ58S5goQyjmwRw&utm_campaign=yelp_api_v3&utm_medium=api_v3_business_search&utm_source=hBJOknVQJ58S5goQyjmwRw", "review_count": 20, "categories": [{"alias": "thai", "title": "Thai"}, {"alias": "panasian", "title": "Pan Asian"}], "rating": 4.5, "coordinates": {"latitude": 53.5995102, "longitude": 10.1181002}, "transactions": [], "price": "\u20ac", "location": {"address1": "Berner Heerweg 98", "address2": "", "address3": "", "city": "Hamburg", "zip_code": "22159", "country": "DE", "state": "HH", "display_address": ["Berner Heerweg 98", "22159 Hamburg", "Germany"]}, "phone": "+49406436499", "display_phone": "+49 40 6436499", "distance": 992.9460157275905}, {"id": "YWK95x01CAG9IE-O5BqmPg", "alias": "trattoria-amarone-hamburg", "name": "Trattoria Amarone", "image_url": "https://s3-media4.fl.yelpcdn.com/bphoto/FtNlyKZ9E6igTRIN7y6RMg/o.jpg", "is_closed": false, "url": "https://www.yelp.com/biz/trattoria-amarone-hamburg?adjust_creative=hBJOknVQJ58S5goQyjmwRw&utm_campaign=yelp_api_v3&utm_medium=api_v3_business_search&utm_source=hBJOknVQJ58S5goQyjmwRw", "review_count": 2, "categories": [{"alias": "italian", "title": "Italian"}, {"alias": "wine_bars", "title": "Wine Bars"}], "rating": 4.5, "coordinates": {"latitude": 53.586013, "longitude": 10.123615}, "transactions": [], "location": {"address1": "Tonndorfer Hauptstr. 59", "address2": "", "address3": null, "city": "Hamburg", "zip_code": "22045", "country": "DE", "state": "HH", "display_address": ["Tonndorfer Hauptstr. 59", "22045 Hamburg", "Germany"]}, "phone": "+494063738879", "display_phone": "+49 40 63738879", "distance": 563.8219684392957}, {"id": "X511PmuRIjSHaX7zw6-Zug", "alias": "porto-carras-hamburg", "name": "Porto Carras", "image_url": "https://s3-media4.fl.yelpcdn.com/bphoto/xsMWDM_pDE9wWDtaGfOOoA/o.jpg", "is_closed": false, "url": "https://www.yelp.com/biz/porto-carras-hamburg?adjust_creative=hBJOknVQJ58S5goQyjmwRw&utm_campaign=yelp_api_v3&utm_medium=api_v3_business_search&utm_source=hBJOknVQJ58S5goQyjmwRw", "review_count": 10, "categories": [{"alias": "greek", "title": "Greek"}], "rating": 4.5, "coordinates": {"latitude": 53.5925, "longitude": 10.1097}, "transactions": [], "price": "\u20ac\u20ac", "location": {"address1": "Berner Heerweg 7", "address2": null, "address3": null, "city": "Hamburg", "zip_code": "22159", "country": "DE", "state": "HH", "display_address": ["Berner Heerweg 7", "22159 Hamburg", "Germany"]}, "phone": "+494067599055", "display_phone": "+49 40 67599055", "distance": 721.9635700956754}, {"id": "iJ_ll0vgvroDzBmPm7lncQ", "alias": "athen-palast-hamburg", "name": "Athen Palast", "image_url": "https://s3-media2.fl.yelpcdn.com/bphoto/HIJIJFHTZg4YodN1lKgeAA/o.jpg", "is_closed": false, "url": "https://www.yelp.com/biz/athen-palast-hamburg?adjust_creative=hBJOknVQJ58S5goQyjmwRw&utm_campaign=yelp_api_v3&utm_medium=api_v3_business_search&utm_source=hBJOknVQJ58S5goQyjmwRw", "review_count": 15, "categories": [{"alias": "greek", "title": "Greek"}], "rating": 4.5, "coordinates": {"latitude": 53.571, "longitude": 10.132}, "transactions": [], "price": "\u20ac\u20ac", "location": {"address1": "Rodigallee 294", "address2": null, "address3": null, "city": "Hamburg", "zip_code": "22043", "country": "DE", "state": "HH", "display_address": ["Rodigallee 294", "22043 Hamburg", "Germany"]}, "phone": "+494076976861", "display_phone": "+49 40 76976861", "distance": 2320.759967938964}, {"id": "dbuDvcKN08AwyYSCumGXLw", "alias": "mr-grande-hamburg-3", "name": "Mr. Grande", "image_url": "https://s3-media4.fl.yelpcdn.com/bphoto/WonA8UDiFLw53BTfqLFcPg/o.jpg", "is_closed": false, "url": "https://www.yelp.com/biz/mr-grande-hamburg-3?adjust_creative=hBJOknVQJ58S5goQyjmwRw&utm_campaign=yelp_api_v3&utm_medium=api_v3_business_search&utm_source=hBJOknVQJ58S5goQyjmwRw", "review_count": 13, "categories": [{"alias": "tradamerican", "title": "American (Traditional)"}, {"alias": "steak", "title": "Steakhouses"}, {"alias": "bistros", "title": "Bistros"}], "rating": 4.0, "coordinates": {"latitude": 53.571000771076, "longitude": 10.1257433742285}, "transactions": [], "price": "\u20ac\u20ac", "location": {"address1": "Rodigallee 233", "address2": "", "address3": "", "city": "Hamburg", "zip_code": "22043", "country": "DE", "state": "HH", "display_address": ["Rodigallee 233", "22043 Hamburg", "Germany"]}, "phone": "+494065726655", "display_phone": "+49 40 65726655", "distance": 2216.3263382669747}, {"id": "BjfyGGgIDkVxmoneq1v7Nw", "alias": "ata-hamburg", "name": "Ata", "image_url": "https://s3-media2.fl.yelpcdn.com/bphoto/Z4kG4o9hOPBknlRq1cGFFQ/o.jpg", "is_closed": false, "url": "https://www.yelp.com/biz/ata-hamburg?adjust_creative=hBJOknVQJ58S5goQyjmwRw&utm_campaign=yelp_api_v3&utm_medium=api_v3_business_search&utm_source=hBJOknVQJ58S5goQyjmwRw", "review_count": 45, "categories": [{"alias": "turkish", "title": "Turkish"}], "rating": 4.5, "coordinates": {"latitude": 53.5939, "longitude": 10.0982}, "transactions": [], "price": "\u20ac\u20ac", "location": {"address1": "Am Stadtrand 66", "address2": null, "address3": null, "city": "Hamburg", "zip_code": "22047", "country": "DE", "state": "HH", "display_address": ["Am Stadtrand 66", "22047 Hamburg", "Germany"]}, "phone": "+494069641787", "display_phone": "+49 40 69641787", "distance": 1495.3600518487633}, {"id": "RPCwdpCqreC2CpGLipFuig", "alias": "mongolei-hamburg", "name": "Mongolei", "image_url": "https://s3-media2.fl.yelpcdn.com/bphoto/lrrogn1Lk72WxKYE-3mhtQ/o.jpg", "is_closed": false, "url": "https://www.yelp.com/biz/mongolei-hamburg?adjust_creative=hBJOknVQJ58S5goQyjmwRw&utm_campaign=yelp_api_v3&utm_medium=api_v3_business_search&utm_source=hBJOknVQJ58S5goQyjmwRw", "review_count": 52, "categories": [{"alias": "panasian", "title": "Pan Asian"}], "rating": 3.5, "coordinates": {"latitude": 53.5888895, "longitude": 10.098177}, "transactions": [], "price": "\u20ac\u20ac", "location": {"address1": "Friedrich-Ebert-Damm 143 - 145", "address2": "", "address3": "", "city": "Hamburg", "zip_code": "22047", "country": "DE", "state": "HH", "display_address": ["Friedrich-Ebert-Damm 143 - 145", "22047 Hamburg", "Germany"]}, "phone": "+494088234838", "display_phone": "+49 40 88234838", "distance": 1466.1128983132976}, {"id": "OYQggP30PLAKb_DtaxLhzA", "alias": "qing-dao-hamburg", "name": "Qing Dao", "image_url": "https://s3-media2.fl.yelpcdn.com/bphoto/QilDd9pT_ZjLpBJiJkGMUw/o.jpg", "is_closed": false, "url": "https://www.yelp.com/biz/qing-dao-hamburg?adjust_creative=hBJOknVQJ58S5goQyjmwRw&utm_campaign=yelp_api_v3&utm_medium=api_v3_business_search&utm_source=hBJOknVQJ58S5goQyjmwRw", "review_count": 15, "categories": [{"alias": "chinese", "title": "Chinese"}, {"alias": "thai", "title": "Thai"}], "rating": 4.0, "coordinates": {"latitude": 53.5974, "longitude": 10.1026}, "transactions": [], "price": "\u20ac\u20ac", "location": {"address1": "Eckerkoppel 121", "address2": null, "address3": null, "city": "Hamburg", "zip_code": "22159", "country": "DE", "state": "HH", "display_address": ["Eckerkoppel 121", "22159 Hamburg", "Germany"]}, "phone": "+494064538989", "display_phone": "+49 40 64538989", "distance": 1381.8498102982526}, {"id": "7cmEUHIsFpaiEo8p7EFRag", "alias": "cafe-del-sol-hamburg-2", "name": "Cafe Del Sol", "image_url": "https://s3-media2.fl.yelpcdn.com/bphoto/VOKdSBA9DkdZ4ffBiN3WpQ/o.jpg", "is_closed": false, "url": "https://www.yelp.com/biz/cafe-del-sol-hamburg-2?adjust_creative=hBJOknVQJ58S5goQyjmwRw&utm_campaign=yelp_api_v3&utm_medium=api_v3_business_search&utm_source=hBJOknVQJ58S5goQyjmwRw", "review_count": 145, "categories": [{"alias": "german", "title": "German"}, {"alias": "breakfast_brunch", "title": "Breakfast & Brunch"}], "rating": 3.5, "coordinates": {"latitude": 53.58419, "longitude": 10.126157}, "transactions": [], "price": "\u20ac\u20ac", "location": {"address1": "Jenfelder Allee 80 A", "address2": "", "address3": null, "city": "Hamburg", "zip_code": "22045", "country": "DE", "state": "HH", "display_address": ["Jenfelder Allee 80 A", "22045 Hamburg", "Germany"]}, "phone": "+494066857534", "display_phone": "+49 40 66857534", "distance": 867.2852883205958}, {"id": "_qZTgjOKo5EyR8wl4VtzOw", "alias": "saigon-cuisine-hamburg-2", "name": "Saigon Cuisine", "image_url": "https://s3-media1.fl.yelpcdn.com/bphoto/-4oR_6QaJyFqUpOOVLMf7g/o.jpg", "is_closed": false, "url": "https://www.yelp.com/biz/saigon-cuisine-hamburg-2?adjust_creative=hBJOknVQJ58S5goQyjmwRw&utm_campaign=yelp_api_v3&utm_medium=api_v3_business_search&utm_source=hBJOknVQJ58S5goQyjmwRw", "review_count": 2, "categories": [{"alias": "vietnamese", "title": "Vietnamese"}], "rating": 2.0, "coordinates": {"latitude": 53.5846424024781, "longitude": 10.1334889233112}, "transactions": [], "location": {"address1": "Sch\u00f6neberger Str. 1", "address2": "", "address3": null, "city": "Hamburg", "zip_code": "22045", "country": "DE", "state": "HH", "display_address": ["Sch\u00f6neberger Str. 1", "22045 Hamburg", "Germany"]}, "phone": "+494066997688", "display_phone": "+49 40 66997688", "distance": 1103.6250022318309}, {"id": "EtyP2kB2FG6YiJTQxzV3mA", "alias": "sale-pepe-hamburg", "name": "Sale Pepe", "image_url": "https://s3-media2.fl.yelpcdn.com/bphoto/fRPybKpBBRPG8au-9RWuHA/o.jpg", "is_closed": false, "url": "https://www.yelp.com/biz/sale-pepe-hamburg?adjust_creative=hBJOknVQJ58S5goQyjmwRw&utm_campaign=yelp_api_v3&utm_medium=api_v3_business_search&utm_source=hBJOknVQJ58S5goQyjmwRw", "review_count": 2, "categories": [{"alias": "italian", "title": "Italian"}], "rating": 4.5, "coordinates": {"latitude": 53.6052, "longitude": 10.1183599}, "transactions": [], "price": "\u20ac\u20ac", "location": {"address1": "Berner Heerweg 173", "address2": "", "address3": "", "city": "Hamburg", "zip_code": "22159", "country": "DE", "state": "HH", "display_address": ["Berner Heerweg 173", "22159 Hamburg", "Germany"]}, "phone": "+494064533985", "display_phone": "+49 40 64533985", "distance": 1660.4588688729016}, {"id": "JgAdQhdsjWBMXxqPTRTjTA", "alias": "chios-grill-hamburg-2", "name": "Chios Grill", "image_url": "https://s3-media3.fl.yelpcdn.com/bphoto/fZaJtT-ZO5Ivv4cdF_mRSA/o.jpg", "is_closed": false, "url": "https://www.yelp.com/biz/chios-grill-hamburg-2?adjust_creative=hBJOknVQJ58S5goQyjmwRw&utm_campaign=yelp_api_v3&utm_medium=api_v3_business_search&utm_source=hBJOknVQJ58S5goQyjmwRw", "review_count": 10, "categories": [{"alias": "greek", "title": "Greek"}], "rating": 4.5, "coordinates": {"latitude": 53.5924887, "longitude": 10.1373915}, "transactions": [], "price": "\u20ac\u20ac", "location": {"address1": "Tonndorfer Hauptstr. 176", "address2": "", "address3": "", "city": "Hamburg", "zip_code": "22045", "country": "DE", "state": "HH", "display_address": ["Tonndorfer Hauptstr. 176", "22045 Hamburg", "Germany"]}, "phone": "+494087093156", "display_phone": "+49 40 87093156", "distance": 1153.3909925484272}, {"id": "X2_8s7iOr4QzyWsh6fklsg", "alias": "ajs-colourful-kitchen-hamburg", "name": "AJs Colourful Kitchen", "image_url": "", "is_closed": false, "url": "https://www.yelp.com/biz/ajs-colourful-kitchen-hamburg?adjust_creative=hBJOknVQJ58S5goQyjmwRw&utm_campaign=yelp_api_v3&utm_medium=api_v3_business_search&utm_source=hBJOknVQJ58S5goQyjmwRw", "review_count": 1, "categories": [{"alias": "restaurants", "title": "Restaurants"}], "rating": 4.0, "coordinates": {"latitude": 53.600203, "longitude": 10.11779}, "transactions": [], "location": {"address1": "Berner Heerweg 111", "address2": "", "address3": null, "city": "Hamburg", "zip_code": "22159", "country": "DE", "state": "HH", "display_address": ["Berner Heerweg 111", "22159 Hamburg", "Germany"]}, "phone": "+491603518963", "display_phone": "+49 160 3518963", "distance": 1077.0328287476475}, {"id": "swdw2KoEeSi2QLWHHltnZQ", "alias": "mylos-hamburg-2", "name": "Mylos", "image_url": "https://s3-media3.fl.yelpcdn.com/bphoto/IMDD4JGhAyDMV_W8A2ylbQ/o.jpg", "is_closed": false, "url": "https://www.yelp.com/biz/mylos-hamburg-2?adjust_creative=hBJOknVQJ58S5goQyjmwRw&utm_campaign=yelp_api_v3&utm_medium=api_v3_business_search&utm_source=hBJOknVQJ58S5goQyjmwRw", "review_count": 26, "categories": [{"alias": "greek", "title": "Greek"}], "rating": 4.5, "coordinates": {"latitude": 53.57593, "longitude": 10.099365}, "transactions": [], "price": "\u20ac\u20ac", "location": {"address1": "Ziethenstr. 12", "address2": null, "address3": null, "city": "Hamburg", "zip_code": "22041", "country": "DE", "state": "HH", "display_address": ["Ziethenstr. 12", "22041 Hamburg", "Germany"]}, "phone": "+494069798441", "display_phone": "+49 40 69798441", "distance": 2138.1593527984646}, {"id": "5lJWDVEEOLYFG9JU_hYLSw", "alias": "hobs-diner-hamburg", "name": "Hobs - Diner", "image_url": "https://s3-media1.fl.yelpcdn.com/bphoto/fpK-3izEqqip8qXKfCXWNw/o.jpg", "is_closed": false, "url": "https://www.yelp.com/biz/hobs-diner-hamburg?adjust_creative=hBJOknVQJ58S5goQyjmwRw&utm_campaign=yelp_api_v3&utm_medium=api_v3_business_search&utm_source=hBJOknVQJ58S5goQyjmwRw", "review_count": 28, "categories": [{"alias": "sportsbars", "title": "Sports Bars"}, {"alias": "tradamerican", "title": "American (Traditional)"}, {"alias": "poolhalls", "title": "Pool Halls"}], "rating": 3.5, "coordinates": {"latitude": 53.61651, "longitude": 10.12226}, "transactions": [], "price": "\u20ac\u20ac", "location": {"address1": "Neusurenland 139", "address2": null, "address3": null, "city": "Hamburg", "zip_code": "22159", "country": "DE", "state": "HH", "display_address": ["Neusurenland 139", "22159 Hamburg", "Germany"]}, "phone": "+49406523164", "display_phone": "+49 40 6523164", "distance": 2842.7559390937236}, {"id": "VsgSTpeeqZUCvAJIXZlN-w", "alias": "just-falafels-hamburg", "name": "Just Falafels", "image_url": "https://s3-media3.fl.yelpcdn.com/bphoto/FY54O4kmbp-WKWDywuiaVQ/o.jpg", "is_closed": false, "url": "https://www.yelp.com/biz/just-falafels-hamburg?adjust_creative=hBJOknVQJ58S5goQyjmwRw&utm_campaign=yelp_api_v3&utm_medium=api_v3_business_search&utm_source=hBJOknVQJ58S5goQyjmwRw", "review_count": 1, "categories": [{"alias": "falafel", "title": "Falafel"}], "rating": 5.0, "coordinates": {"latitude": 53.620699, "longitude": 10.102013}, "transactions": [], "location": {"address1": "Pezolddamm 40", "address2": "", "address3": "", "city": "Hamburg", "zip_code": "22175", "country": "DE", "state": "HH", "display_address": ["Pezolddamm 40", "22175 Hamburg", "Germany"]}, "phone": "+494055645530", "display_phone": "+49 40 55645530", "distance": 3550.779540642108}, {"id": "ZCNX0Jow6YkO_HDoT0TewA", "alias": "luisenhof-und-dubrovnik-hamburg", "name": "Luisenhof & Dubrovnik", "image_url": "https://s3-media2.fl.yelpcdn.com/bphoto/zl1WpS75hZ9awDkAfTrSRQ/o.jpg", "is_closed": false, "url": "https://www.yelp.com/biz/luisenhof-und-dubrovnik-hamburg?adjust_creative=hBJOknVQJ58S5goQyjmwRw&utm_campaign=yelp_api_v3&utm_medium=api_v3_business_search&utm_source=hBJOknVQJ58S5goQyjmwRw", "review_count": 14, "categories": [{"alias": "international", "title": "International"}, {"alias": "german", "title": "German"}], "rating": 3.5, "coordinates": {"latitude": 53.6072, "longitude": 10.1165}, "transactions": [], "price": "\u20ac\u20ac", "location": {"address1": "Am Luisenhof 1", "address2": null, "address3": null, "city": "Hamburg", "zip_code": "22159", "country": "DE", "state": "HH", "display_address": ["Am Luisenhof 1", "22159 Hamburg", "Germany"]}, "phone": "+49406431071", "display_phone": "+49 40 6431071", "distance": 1855.4175675264112}, {"id": "giwP6SI-BC0hwpzZeb1UxA", "alias": "china-restaurant-bi-hu-hamburg", "name": "China Restaurant BI HU", "image_url": "https://s3-media4.fl.yelpcdn.com/bphoto/PE98dBlMUxOLZtIgmwLbNw/o.jpg", "is_closed": false, "url": "https://www.yelp.com/biz/china-restaurant-bi-hu-hamburg?adjust_creative=hBJOknVQJ58S5goQyjmwRw&utm_campaign=yelp_api_v3&utm_medium=api_v3_business_search&utm_source=hBJOknVQJ58S5goQyjmwRw", "review_count": 8, "categories": [{"alias": "chinese", "title": "Chinese"}], "rating": 3.0, "coordinates": {"latitude": 53.5965, "longitude": 10.1167}, "transactions": [], "price": "\u20ac\u20ac", "location": {"address1": "Kupferdamm 1", "address2": null, "address3": null, "city": "Hamburg", "zip_code": "22159", "country": "DE", "state": "HH", "display_address": ["Kupferdamm 1", "22159 Hamburg", "Germany"]}, "phone": "+494066853540", "display_phone": "+49 40 66853540", "distance": 689.2071409199306}, {"id": "3nKXBJvBXNiYggCiTC1dXw", "alias": "sunar-kebap-haus-hamburg", "name": "Sunar Kebap Haus", "image_url": "https://s3-media2.fl.yelpcdn.com/bphoto/QxvXwV4fZc6eF47X0rz4lw/o.jpg", "is_closed": false, "url": "https://www.yelp.com/biz/sunar-kebap-haus-hamburg?adjust_creative=hBJOknVQJ58S5goQyjmwRw&utm_campaign=yelp_api_v3&utm_medium=api_v3_business_search&utm_source=hBJOknVQJ58S5goQyjmwRw", "review_count": 2, "categories": [{"alias": "kebab", "title": "Kebab"}], "rating": 4.5, "coordinates": {"latitude": 53.5599, "longitude": 10.1086}, "transactions": [], "price": "\u20ac\u20ac", "location": {"address1": "Dannerallee 1a", "address2": null, "address3": null, "city": "Hamburg", "zip_code": "22119", "country": "DE", "state": "HH", "display_address": ["Dannerallee 1a", "22119 Hamburg", "Germany"]}, "phone": "+494088155672", "display_phone": "+49 40 88155672", "distance": 3504.6950955777234}, {"id": "YFiz5MT16IzUpEjkhoWxZw", "alias": "gastst\u00e4tte-herakles-hamburg", "name": "Gastst\u00e4tte Herakles", "image_url": "https://s3-media2.fl.yelpcdn.com/bphoto/DTHHFZtgNDo_AUv1b3dQOw/o.jpg", "is_closed": false, "url": "https://www.yelp.com/biz/gastst%C3%A4tte-herakles-hamburg?adjust_creative=hBJOknVQJ58S5goQyjmwRw&utm_campaign=yelp_api_v3&utm_medium=api_v3_business_search&utm_source=hBJOknVQJ58S5goQyjmwRw", "review_count": 4, "categories": [{"alias": "greek", "title": "Greek"}], "rating": 5.0, "coordinates": {"latitude": 53.5988, "longitude": 10.1174}, "transactions": [], "price": "\u20ac", "location": {"address1": "Berner Heerweg 90", "address2": null, "address3": null, "city": "Hamburg", "zip_code": "22159", "country": "DE", "state": "HH", "display_address": ["Berner Heerweg 90", "22159 Hamburg", "Germany"]}, "phone": "+49406682125", "display_phone": "+49 40 6682125", "distance": 923.8666324266153}, {"id": "PrvsgjS_h1jt_aC2dMhovQ", "alias": "restaurant-lindos-hamburg", "name": "Restaurant Lindos", "image_url": "https://s3-media1.fl.yelpcdn.com/bphoto/xk5nl3yE9qN-Gc0gyR5sCQ/o.jpg", "is_closed": false, "url": "https://www.yelp.com/biz/restaurant-lindos-hamburg?adjust_creative=hBJOknVQJ58S5goQyjmwRw&utm_campaign=yelp_api_v3&utm_medium=api_v3_business_search&utm_source=hBJOknVQJ58S5goQyjmwRw", "review_count": 1, "categories": [{"alias": "greek", "title": "Greek"}], "rating": 5.0, "coordinates": {"latitude": 53.57591, "longitude": 10.09919}, "transactions": [], "location": {"address1": "Ziethenstr. 12", "address2": null, "address3": null, "city": "Hamburg", "zip_code": "22041", "country": "DE", "state": "HH", "display_address": ["Ziethenstr. 12", "22041 Hamburg", "Germany"]}, "phone": "+49406565764", "display_phone": "+49 40 6565764", "distance": 2148.226658706753}, {"id": "gc1Qk_79IUVZcInyIm9PDA", "alias": "bolero-hamburg-5", "name": "Bolero", "image_url": "https://s3-media3.fl.yelpcdn.com/bphoto/F3OtYMrwt4TetFIzg55Tsg/o.jpg", "is_closed": false, "url": "https://www.yelp.com/biz/bolero-hamburg-5?adjust_creative=hBJOknVQJ58S5goQyjmwRw&utm_campaign=yelp_api_v3&utm_medium=api_v3_business_search&utm_source=hBJOknVQJ58S5goQyjmwRw", "review_count": 94, "categories": [{"alias": "mexican", "title": "Mexican"}, {"alias": "cocktailbars", "title": "Cocktail Bars"}], "rating": 3.0, "coordinates": {"latitude": 53.58824, "longitude": 10.09641}, "transactions": [], "price": "\u20ac\u20ac", "location": {"address1": "Friedrich-Ebert-Damm 128", "address2": null, "address3": null, "city": "Hamburg", "zip_code": "22047", "country": "DE", "state": "HH", "display_address": ["Friedrich-Ebert-Damm 128", "22047 Hamburg", "Germany"]}, "phone": "+494069691202", "display_phone": "+49 40 69691202", "distance": 1590.3450664520883}, {"id": "ttHhNqy1or8gL8bFyC19uQ", "alias": "der-gyros-spezialist-hamburg", "name": "Der Gyros-Spezialist", "image_url": "https://s3-media4.fl.yelpcdn.com/bphoto/hIO-FDqfRZGybl--b3V2UA/o.jpg", "is_closed": false, "url": "https://www.yelp.com/biz/der-gyros-spezialist-hamburg?adjust_creative=hBJOknVQJ58S5goQyjmwRw&utm_campaign=yelp_api_v3&utm_medium=api_v3_business_search&utm_source=hBJOknVQJ58S5goQyjmwRw", "review_count": 87, "categories": [{"alias": "greek", "title": "Greek"}], "rating": 4.5, "coordinates": {"latitude": 53.62113, "longitude": 10.10274}, "transactions": [], "price": "\u20ac\u20ac", "location": {"address1": "Pezolddamm 45", "address2": "", "address3": "", "city": "Hamburg", "zip_code": "22175", "country": "DE", "state": "HH", "display_address": ["Pezolddamm 45", "22175 Hamburg", "Germany"]}, "phone": "+49406434946", "display_phone": "+49 40 6434946", "distance": 3581.3521869239016}, {"id": "bgbZXdQLgDSqcy6OHZ3Pdw", "alias": "jacky-chang-hamburg", "name": "Jacky Chang", "image_url": "https://s3-media2.fl.yelpcdn.com/bphoto/Y8rROICVPApDteZXq30uAg/o.jpg", "is_closed": false, "url": "https://www.yelp.com/biz/jacky-chang-hamburg?adjust_creative=hBJOknVQJ58S5goQyjmwRw&utm_campaign=yelp_api_v3&utm_medium=api_v3_business_search&utm_source=hBJOknVQJ58S5goQyjmwRw", "review_count": 12, "categories": [{"alias": "panasian", "title": "Pan Asian"}], "rating": 3.0, "coordinates": {"latitude": 53.6052, "longitude": 10.1183599}, "transactions": [], "price": "\u20ac\u20ac", "location": {"address1": "Berner Heerweg 173", "address2": "", "address3": "", "city": "Hamburg", "zip_code": "22159", "country": "DE", "state": "HH", "display_address": ["Berner Heerweg 173", "22159 Hamburg", "Germany"]}, "phone": "+49406438850", "display_phone": "+49 40 6438850", "distance": 1660.4588688729016}, {"id": "wQk9fn-Vh-TdrgC8j7m0lw", "alias": "imbiss-am-\u00f6jendorfer-park-hamburg", "name": "Imbiss am \u00d6jendorfer Park", "image_url": "https://s3-media3.fl.yelpcdn.com/bphoto/ooKVTJw1FvzHrke2_KOrug/o.jpg", "is_closed": false, "url": "https://www.yelp.com/biz/imbiss-am-%C3%B6jendorfer-park-hamburg?adjust_creative=hBJOknVQJ58S5goQyjmwRw&utm_campaign=yelp_api_v3&utm_medium=api_v3_business_search&utm_source=hBJOknVQJ58S5goQyjmwRw", "review_count": 3, "categories": [{"alias": "hotdogs", "title": "Fast Food"}], "rating": 4.0, "coordinates": {"latitude": 53.5645, "longitude": 10.1411}, "transactions": [], "location": {"address1": "Grootmoorredder", "address2": null, "address3": null, "city": "Hamburg", "zip_code": "22117", "country": "DE", "state": "HH", "display_address": ["Grootmoorredder", "22117 Hamburg", "Germany"]}, "phone": "+49407133270", "display_phone": "+49 40 7133270", "distance": 3219.625629818235}, {"id": "6LuUJRK8mOPCsvhtllB1Jw", "alias": "bravi-ragazzi-hamburg", "name": "Bravi Ragazzi", "image_url": "", "is_closed": false, "url": "https://www.yelp.com/biz/bravi-ragazzi-hamburg?adjust_creative=hBJOknVQJ58S5goQyjmwRw&utm_campaign=yelp_api_v3&utm_medium=api_v3_business_search&utm_source=hBJOknVQJ58S5goQyjmwRw", "review_count": 1, "categories": [{"alias": "pizza", "title": "Pizza"}, {"alias": "italian", "title": "Italian"}], "rating": 5.0, "coordinates": {"latitude": 53.599692, "longitude": 10.118151}, "transactions": [], "location": {"address1": "Berner Heerweg 100", "address2": "", "address3": null, "city": "Hamburg", "zip_code": "22159", "country": "DE", "state": "HH", "display_address": ["Berner Heerweg 100", "22159 Hamburg", "Germany"]}, "phone": "+494034866926", "display_phone": "+49 40 34866926", "distance": 1013.4928334496841}, {"id": "WsUam5VAAQ7yWpoBggzFSQ", "alias": "asia-k\u00fcche-hamburg", "name": "Asia K\u00fcche", "image_url": "https://s3-media2.fl.yelpcdn.com/bphoto/91FbganovwNRnmQaB3b1iw/o.jpg", "is_closed": false, "url": "https://www.yelp.com/biz/asia-k%C3%BCche-hamburg?adjust_creative=hBJOknVQJ58S5goQyjmwRw&utm_campaign=yelp_api_v3&utm_medium=api_v3_business_search&utm_source=hBJOknVQJ58S5goQyjmwRw", "review_count": 8, "categories": [{"alias": "panasian", "title": "Pan Asian"}], "rating": 2.5, "coordinates": {"latitude": 53.6251717, "longitude": 10.1404104}, "transactions": [], "price": "\u20ac\u20ac", "location": {"address1": "Hermann-Balk-Str. 120", "address2": "", "address3": "", "city": "Hamburg", "zip_code": "22147", "country": "DE", "state": "HH", "display_address": ["Hermann-Balk-Str. 120", "22147 Hamburg", "Germany"]}, "phone": "+49406446988", "display_phone": "+49 40 6446988", "distance": 4064.181611419185}, {"id": "zvkheD2NuYxCvxKCJP_RKA", "alias": "croque-und-crepes-hamburg-7", "name": "Croque & Crepes", "image_url": "https://s3-media1.fl.yelpcdn.com/bphoto/elc2YImmdAXulRwXzRpceQ/o.jpg", "is_closed": false, "url": "https://www.yelp.com/biz/croque-und-crepes-hamburg-7?adjust_creative=hBJOknVQJ58S5goQyjmwRw&utm_campaign=yelp_api_v3&utm_medium=api_v3_business_search&utm_source=hBJOknVQJ58S5goQyjmwRw", "review_count": 28, "categories": [{"alias": "sandwiches", "title": "Sandwiches"}, {"alias": "creperies", "title": "Creperies"}], "rating": 4.5, "coordinates": {"latitude": 53.6068, "longitude": 10.119}, "transactions": [], "price": "\u20ac\u20ac", "location": {"address1": "August-Krogmannstr. 2", "address2": null, "address3": null, "city": "Hamburg", "zip_code": "22159", "country": "DE", "state": "HH", "display_address": ["August-Krogmannstr. 2", "22159 Hamburg", "Germany"]}, "phone": "+49406430900", "display_phone": "+49 40 6430900", "distance": 1796.6117347364818}, {"id": "sSIvrC1bY2hHZs7nx6zJeQ", "alias": "pizza-tree-hamburg", "name": "Pizza Tree", "image_url": "https://s3-media2.fl.yelpcdn.com/bphoto/Q1l_gVNGuu2rjPWL4bXbgw/o.jpg", "is_closed": false, "url": "https://www.yelp.com/biz/pizza-tree-hamburg?adjust_creative=hBJOknVQJ58S5goQyjmwRw&utm_campaign=yelp_api_v3&utm_medium=api_v3_business_search&utm_source=hBJOknVQJ58S5goQyjmwRw", "review_count": 2, "categories": [{"alias": "pizza", "title": "Pizza"}, {"alias": "salad", "title": "Salad"}, {"alias": "burgers", "title": "Burgers"}], "rating": 3.5, "coordinates": {"latitude": 53.62549, "longitude": 10.11434}, "transactions": [], "location": {"address1": "Stefan-Zweig-Str. 1", "address2": "", "address3": null, "city": "Hamburg", "zip_code": "22175", "country": "DE", "state": "HH", "display_address": ["Stefan-Zweig-Str. 1", "22175 Hamburg", "Germany"]}, "phone": "+494073677223", "display_phone": "+49 40 73677223", "distance": 3900.0510906064155}, {"id": "gVp3MTlFvgnRDJ2a7XMFTA", "alias": "hei\u00dfe-ecke-hamburg-3", "name": "Hei\u00dfe Ecke", "image_url": "https://s3-media3.fl.yelpcdn.com/bphoto/nWgKWIU6H7_71HmesOjoBQ/o.jpg", "is_closed": false, "url": "https://www.yelp.com/biz/hei%C3%9Fe-ecke-hamburg-3?adjust_creative=hBJOknVQJ58S5goQyjmwRw&utm_campaign=yelp_api_v3&utm_medium=api_v3_business_search&utm_source=hBJOknVQJ58S5goQyjmwRw", "review_count": 11, "categories": [{"alias": "kebab", "title": "Kebab"}], "rating": 3.5, "coordinates": {"latitude": 53.6076288663775, "longitude": 10.1169973611832}, "transactions": [], "price": "\u20ac", "location": {"address1": "August-Krogmannstr. 22", "address2": "", "address3": "", "city": "Hamburg", "zip_code": "22159", "country": "DE", "state": "HH", "display_address": ["August-Krogmannstr. 22", "22159 Hamburg", "Germany"]}, "phone": "", "display_phone": "", "distance": 1898.782489783181}, {"id": "jEVrKVGGr50sba9op8A3sw", "alias": "china-boy-hamburg", "name": "China Boy", "image_url": "https://s3-media4.fl.yelpcdn.com/bphoto/gAf1fNaZvBXueIQ-3Vw4Yw/o.jpg", "is_closed": false, "url": "https://www.yelp.com/biz/china-boy-hamburg?adjust_creative=hBJOknVQJ58S5goQyjmwRw&utm_campaign=yelp_api_v3&utm_medium=api_v3_business_search&utm_source=hBJOknVQJ58S5goQyjmwRw", "review_count": 22, "categories": [{"alias": "panasian", "title": "Pan Asian"}], "rating": 3.0, "coordinates": {"latitude": 53.6057, "longitude": 10.1187}, "transactions": [], "price": "\u20ac\u20ac", "location": {"address1": "Berner Heerweg 175", "address2": null, "address3": null, "city": "Hamburg", "zip_code": "22159", "country": "DE", "state": "HH", "display_address": ["Berner Heerweg 175", "22159 Hamburg", "Germany"]}, "phone": "+49406451611", "display_phone": "+49 40 6451611", "distance": 1675.4677392657463}, {"id": "qsAIbON79_SOn2rEzYpUZA", "alias": "taverna-kreta-hamburg", "name": "Taverna Kreta", "image_url": "https://s3-media1.fl.yelpcdn.com/bphoto/mngkSUVrt-Lv0aWJxXvKxQ/o.jpg", "is_closed": false, "url": "https://www.yelp.com/biz/taverna-kreta-hamburg?adjust_creative=hBJOknVQJ58S5goQyjmwRw&utm_campaign=yelp_api_v3&utm_medium=api_v3_business_search&utm_source=hBJOknVQJ58S5goQyjmwRw", "review_count": 29, "categories": [{"alias": "greek", "title": "Greek"}], "rating": 4.5, "coordinates": {"latitude": 53.6241, "longitude": 10.1181}, "transactions": [], "price": "\u20ac\u20ac", "location": {"address1": "Roter Hahn 14", "address2": null, "address3": null, "city": "Hamburg", "zip_code": "22159", "country": "DE", "state": "HH", "display_address": ["Roter Hahn 14", "22159 Hamburg", "Germany"]}, "phone": "+49406448993", "display_phone": "+49 40 6448993", "distance": 3721.12060340652}, {"id": "FvpTumAZMtccgdMlUkSr2A", "alias": "hallo-pizza-hamburg-7", "name": "Hallo Pizza!", "image_url": "https://s3-media2.fl.yelpcdn.com/bphoto/U-MQv6oe7Kn8i7P9yqdCUA/o.jpg", "is_closed": false, "url": "https://www.yelp.com/biz/hallo-pizza-hamburg-7?adjust_creative=hBJOknVQJ58S5goQyjmwRw&utm_campaign=yelp_api_v3&utm_medium=api_v3_business_search&utm_source=hBJOknVQJ58S5goQyjmwRw", "review_count": 7, "categories": [{"alias": "pizza", "title": "Pizza"}], "rating": 3.5, "coordinates": {"latitude": 53.5487, "longitude": 10.1089}, "transactions": [], "price": "\u20ac\u20ac", "location": {"address1": "Schiffbeker Weg 94", "address2": null, "address3": null, "city": "Hamburg", "zip_code": "22119", "country": "DE", "state": "HH", "display_address": ["Schiffbeker Weg 94", "22119 Hamburg", "Germany"]}, "phone": "+494081995800", "display_phone": "+49 40 81995800", "distance": 4724.706553965148}, {"id": "RbgazphzWysS4xHd-TU1Bg", "alias": "filmkantine-hamburg", "name": "Filmkantine", "image_url": "https://s3-media2.fl.yelpcdn.com/bphoto/0i1NzGhMcO-WIwsKXppxhQ/o.jpg", "is_closed": false, "url": "https://www.yelp.com/biz/filmkantine-hamburg?adjust_creative=hBJOknVQJ58S5goQyjmwRw&utm_campaign=yelp_api_v3&utm_medium=api_v3_business_search&utm_source=hBJOknVQJ58S5goQyjmwRw", "review_count": 6, "categories": [{"alias": "canteen", "title": "Canteen"}], "rating": 3.5, "coordinates": {"latitude": 53.586, "longitude": 10.1269}, "transactions": [], "price": "\u20ac\u20ac\u20ac", "location": {"address1": "Studio Hamburg", "address2": "Jenfelder Allee 80", "address3": null, "city": "Hamburg", "zip_code": "22039", "country": "DE", "state": "HH", "display_address": ["Studio Hamburg", "Jenfelder Allee 80", "22039 Hamburg", "Germany"]}, "phone": "+4966885310", "display_phone": "+49 6688 5310", "distance": 681.4979097328005}, {"id": "bGDTPY4glhsdwHxJi8SAEg", "alias": "apos-bistro-hamburg", "name": "Apos Bistro", "image_url": "https://s3-media3.fl.yelpcdn.com/bphoto/fyCZlRLbHPxAve_Kc8LJ2g/o.jpg", "is_closed": false, "url": "https://www.yelp.com/biz/apos-bistro-hamburg?adjust_creative=hBJOknVQJ58S5goQyjmwRw&utm_campaign=yelp_api_v3&utm_medium=api_v3_business_search&utm_source=hBJOknVQJ58S5goQyjmwRw", "review_count": 9, "categories": [{"alias": "bistros", "title": "Bistros"}], "rating": 3.5, "coordinates": {"latitude": 53.6179411, "longitude": 10.1445135}, "transactions": [], "price": "\u20ac\u20ac", "location": {"address1": "Greifenberger Str. 61", "address2": null, "address3": null, "city": "Hamburg", "zip_code": "22147", "country": "DE", "state": "HH", "display_address": ["Greifenberger Str. 61", "22147 Hamburg", "Germany"]}, "phone": "+494064891941", "display_phone": "+49 40 64891941", "distance": 3432.0587597967533}, {"id": "veiIRrnbIIY3Udy0wRlpXw", "alias": "hallo-pizza-hamburg-12", "name": "Hallo Pizza!", "image_url": "https://s3-media3.fl.yelpcdn.com/bphoto/vn2q6AmBLXTUn0mkYIIPWQ/o.jpg", "is_closed": false, "url": "https://www.yelp.com/biz/hallo-pizza-hamburg-12?adjust_creative=hBJOknVQJ58S5goQyjmwRw&utm_campaign=yelp_api_v3&utm_medium=api_v3_business_search&utm_source=hBJOknVQJ58S5goQyjmwRw", "review_count": 6, "categories": [{"alias": "pizza", "title": "Pizza"}], "rating": 5.0, "coordinates": {"latitude": 53.58424, "longitude": 10.13803}, "transactions": [], "price": "\u20ac\u20ac\u20ac\u20ac", "location": {"address1": "Sch\u00f6neberger Str. 20", "address2": null, "address3": null, "city": "Hamburg", "zip_code": "22045", "country": "DE", "state": "HH", "display_address": ["Sch\u00f6neberger Str. 20", "22045 Hamburg", "Germany"]}, "phone": "+494052388700", "display_phone": "+49 40 52388700", "distance": 1376.9220067566534}, {"id": "LH5ahW4cXmyBSr1D4dSeHA", "alias": "dominos-hamburg-9", "name": "Domino's", "image_url": "https://s3-media1.fl.yelpcdn.com/bphoto/FCXTVrzDPp-nKJjDZzUr0A/o.jpg", "is_closed": false, "url": "https://www.yelp.com/biz/dominos-hamburg-9?adjust_creative=hBJOknVQJ58S5goQyjmwRw&utm_campaign=yelp_api_v3&utm_medium=api_v3_business_search&utm_source=hBJOknVQJ58S5goQyjmwRw", "review_count": 1, "categories": [{"alias": "pizza", "title": "Pizza"}], "rating": 5.0, "coordinates": {"latitude": 53.60255, "longitude": 10.14512}, "transactions": [], "location": {"address1": "Bargteheider Str. 75", "address2": "", "address3": null, "city": "Hamburg", "zip_code": "22143", "country": "DE", "state": "HH", "display_address": ["Bargteheider Str. 75", "22143 Hamburg", "Germany"]}, "phone": "+49406736070", "display_phone": "+49 40 6736070", "distance": 2093.3391528645416}, {"id": "Fay28Bc25iicsyM_EEI1tQ", "alias": "pink-balkan-imbiss-hamburg", "name": "Pink Balkan Imbiss", "image_url": "https://s3-media1.fl.yelpcdn.com/bphoto/-U63FrCtE8eUws3FvxF_9A/o.jpg", "is_closed": false, "url": "https://www.yelp.com/biz/pink-balkan-imbiss-hamburg?adjust_creative=hBJOknVQJ58S5goQyjmwRw&utm_campaign=yelp_api_v3&utm_medium=api_v3_business_search&utm_source=hBJOknVQJ58S5goQyjmwRw", "review_count": 12, "categories": [{"alias": "bbq", "title": "Barbeque"}, {"alias": "serbocroatian", "title": "Serbo Croatian"}], "rating": 4.0, "coordinates": {"latitude": 53.5562, "longitude": 10.0974}, "transactions": [], "price": "\u20ac\u20ac", "location": {"address1": "Manshardtstr. 66", "address2": null, "address3": null, "city": "Hamburg", "zip_code": "22119", "country": "DE", "state": "HH", "display_address": ["Manshardtstr. 66", "22119 Hamburg", "Germany"]}, "phone": "+494067109502", "display_phone": "+49 40 67109502", "distance": 4116.438835207798}, {"id": "oohAJFC5eClaPZO9dcsrsw", "alias": "taverna-bei-anna-hamburg", "name": "Taverna Bei Anna", "image_url": "https://s3-media2.fl.yelpcdn.com/bphoto/4r4ro1JOdeeszyl0G917-w/o.jpg", "is_closed": false, "url": "https://www.yelp.com/biz/taverna-bei-anna-hamburg?adjust_creative=hBJOknVQJ58S5goQyjmwRw&utm_campaign=yelp_api_v3&utm_medium=api_v3_business_search&utm_source=hBJOknVQJ58S5goQyjmwRw", "review_count": 24, "categories": [{"alias": "greek", "title": "Greek"}], "rating": 3.5, "coordinates": {"latitude": 53.6141, "longitude": 10.1357}, "transactions": [], "price": "\u20ac\u20ac", "location": {"address1": "Bekassinenau 67", "address2": null, "address3": null, "city": "Hamburg", "zip_code": "22147", "country": "DE", "state": "HH", "display_address": ["Bekassinenau 67", "22147 Hamburg", "Germany"]}, "phone": "+49406471357", "display_phone": "+49 40 6471357", "distance": 2800.318092520065}, {"id": "Q56Y4jZph_c7ufWsi6mqXA", "alias": "crazy-croque-hamburg-6", "name": "Crazy Croque", "image_url": "https://s3-media1.fl.yelpcdn.com/bphoto/NcnlnHNsCAtRUdPZXZdvbw/o.jpg", "is_closed": false, "url": "https://www.yelp.com/biz/crazy-croque-hamburg-6?adjust_creative=hBJOknVQJ58S5goQyjmwRw&utm_campaign=yelp_api_v3&utm_medium=api_v3_business_search&utm_source=hBJOknVQJ58S5goQyjmwRw", "review_count": 7, "categories": [{"alias": "sandwiches", "title": "Sandwiches"}, {"alias": "burgers", "title": "Burgers"}], "rating": 4.0, "coordinates": {"latitude": 53.625, "longitude": 10.1148}, "transactions": [], "price": "\u20ac\u20ac", "location": {"address1": "Pezolddamm 156", "address2": null, "address3": null, "city": "Hamburg", "zip_code": "22159", "country": "DE", "state": "HH", "display_address": ["Pezolddamm 156", "22159 Hamburg", "Germany"]}, "phone": "+494063645655", "display_phone": "+49 40 63645655", "distance": 3835.1602036544286}, {"id": "UOx3hj4sG6RfCz62aM71YA", "alias": "pizza-max-hamburg-8", "name": "Pizza Max", "image_url": "https://s3-media3.fl.yelpcdn.com/bphoto/uyVp2-8OqiDz5-y5gYo94Q/o.jpg", "is_closed": false, "url": "https://www.yelp.com/biz/pizza-max-hamburg-8?adjust_creative=hBJOknVQJ58S5goQyjmwRw&utm_campaign=yelp_api_v3&utm_medium=api_v3_business_search&utm_source=hBJOknVQJ58S5goQyjmwRw", "review_count": 5, "categories": [{"alias": "pizza", "title": "Pizza"}], "rating": 3.5, "coordinates": {"latitude": 53.5882, "longitude": 10.1239}, "transactions": [], "price": "\u20ac\u20ac", "location": {"address1": "Stein-Hardenberg-Str. 83", "address2": null, "address3": null, "city": "Hamburg", "zip_code": "22045", "country": "DE", "state": "HH", "display_address": ["Stein-Hardenberg-Str. 83", "22045 Hamburg", "Germany"]}, "phone": "+494082299250", "display_phone": "+49 40 82299250", "distance": 366.98255731345245}, {"id": "M511DBafDIvUcOODPUeVdQ", "alias": "bistro-sc-condor-hamburg", "name": "Bistro SC Condor", "image_url": "https://s3-media2.fl.yelpcdn.com/bphoto/zI9qACggFCfiCnd6n304PA/o.jpg", "is_closed": false, "url": "https://www.yelp.com/biz/bistro-sc-condor-hamburg?adjust_creative=hBJOknVQJ58S5goQyjmwRw&utm_campaign=yelp_api_v3&utm_medium=api_v3_business_search&utm_source=hBJOknVQJ58S5goQyjmwRw", "review_count": 1, "categories": [{"alias": "bistros", "title": "Bistros"}], "rating": 5.0, "coordinates": {"latitude": 53.6079, "longitude": 10.1226}, "transactions": [], "price": "\u20ac", "location": {"address1": "Berner Heerweg 188", "address2": null, "address3": null, "city": "Hamburg", "zip_code": "22159", "country": "DE", "state": "HH", "display_address": ["Berner Heerweg 188", "22159 Hamburg", "Germany"]}, "phone": "+49406451848", "display_phone": "+49 40 6451848", "distance": 1923.7955292218917}, {"id": "nNbSvvMMKcvhIioI8bkMCw", "alias": "yummy-deli-hamburg", "name": "Yummy Deli", "image_url": "", "is_closed": false, "url": "https://www.yelp.com/biz/yummy-deli-hamburg?adjust_creative=hBJOknVQJ58S5goQyjmwRw&utm_campaign=yelp_api_v3&utm_medium=api_v3_business_search&utm_source=hBJOknVQJ58S5goQyjmwRw", "review_count": 3, "categories": [{"alias": "vietnamese", "title": "Vietnamese"}, {"alias": "sushi", "title": "Sushi Bars"}], "rating": 3.5, "coordinates": {"latitude": 53.586710289306, "longitude": 10.125789642334}, "transactions": [], "location": {"address1": "Tonndorfer Hauptstr. 69 - 71", "address2": "", "address3": "Im Rewe Center", "city": "Hamburg", "zip_code": "22045", "country": "DE", "state": "HH", "display_address": ["Tonndorfer Hauptstr. 69 - 71", "Im Rewe Center", "22045 Hamburg", "Germany"]}, "phone": "+494018230060", "display_phone": "+49 40 18230060", "distance": 573.8564646016694}, {"id": "RCuRvwrnJcs-hutrCnoJCQ", "alias": "krox-hamburg-5", "name": "Krox", "image_url": "https://s3-media3.fl.yelpcdn.com/bphoto/j1LB_yAyZfpH8UUabjcxeA/o.jpg", "is_closed": false, "url": "https://www.yelp.com/biz/krox-hamburg-5?adjust_creative=hBJOknVQJ58S5goQyjmwRw&utm_campaign=yelp_api_v3&utm_medium=api_v3_business_search&utm_source=hBJOknVQJ58S5goQyjmwRw", "review_count": 6, "categories": [{"alias": "sandwiches", "title": "Sandwiches"}, {"alias": "creperies", "title": "Creperies"}, {"alias": "pizza", "title": "Pizza"}], "rating": 4.0, "coordinates": {"latitude": 53.58847, "longitude": 10.12383}, "transactions": [], "location": {"address1": "Sonnenweg 15", "address2": "", "address3": "", "city": "Hamburg", "zip_code": "22045", "country": "DE", "state": "HH", "display_address": ["Sonnenweg 15", "22045 Hamburg", "Germany"]}, "phone": "+4940660066", "display_phone": "+49 40 660066", "distance": 331.8859251551942}, {"id": "4GAAQpwe0kigUeNlvASv7A", "alias": "mundfein-pizzawerkstatt-hamburg-4", "name": "Mundfein Pizzawerkstatt", "image_url": "https://s3-media1.fl.yelpcdn.com/bphoto/MGq7H1dYvxL6OfY-yswVqQ/o.jpg", "is_closed": false, "url": "https://www.yelp.com/biz/mundfein-pizzawerkstatt-hamburg-4?adjust_creative=hBJOknVQJ58S5goQyjmwRw&utm_campaign=yelp_api_v3&utm_medium=api_v3_business_search&utm_source=hBJOknVQJ58S5goQyjmwRw", "review_count": 24, "categories": [{"alias": "pizza", "title": "Pizza"}], "rating": 4.0, "coordinates": {"latitude": 53.5805, "longitude": 10.1028}, "transactions": [], "price": "\u20ac\u20ac", "location": {"address1": "Ahrensburger Str. 110", "address2": null, "address3": null, "city": "Hamburg", "zip_code": "22045", "country": "DE", "state": "HH", "display_address": ["Ahrensburger Str. 110", "22045 Hamburg", "Germany"]}, "phone": "+494088305335", "display_phone": "+49 40 88305335", "distance": 1610.404491145064}, {"id": "t-8RttB1p7LGZ96k3mLZJg", "alias": "asia-bistro-saigon-hamburg", "name": "Asia Bistro Saigon", "image_url": "https://s3-media1.fl.yelpcdn.com/bphoto/wV6V5DfgSvT2QrkqUvU8gA/o.jpg", "is_closed": false, "url": "https://www.yelp.com/biz/asia-bistro-saigon-hamburg?adjust_creative=hBJOknVQJ58S5goQyjmwRw&utm_campaign=yelp_api_v3&utm_medium=api_v3_business_search&utm_source=hBJOknVQJ58S5goQyjmwRw", "review_count": 9, "categories": [{"alias": "chinese", "title": "Chinese"}, {"alias": "panasian", "title": "Pan Asian"}], "rating": 4.5, "coordinates": {"latitude": 53.6, "longitude": 10.1394}, "transactions": [], "price": "\u20ac\u20ac", "location": {"address1": "Scharbeutzer Str. 85", "address2": null, "address3": null, "city": "Hamburg", "zip_code": "22147", "country": "DE", "state": "HH", "display_address": ["Scharbeutzer Str. 85", "22147 Hamburg", "Germany"]}, "phone": "+49406431206", "display_phone": "+49 40 6431206", "distance": 1638.9598321169005}, {"id": "fAQL7j7udJXG7lmU7PHzJQ", "alias": "restaurant-hellas-hamburg-2", "name": "Restaurant Hellas", "image_url": "https://s3-media1.fl.yelpcdn.com/bphoto/eueMnGjWpKm5_hRq4iFWWg/o.jpg", "is_closed": false, "url": "https://www.yelp.com/biz/restaurant-hellas-hamburg-2?adjust_creative=hBJOknVQJ58S5goQyjmwRw&utm_campaign=yelp_api_v3&utm_medium=api_v3_business_search&utm_source=hBJOknVQJ58S5goQyjmwRw", "review_count": 22, "categories": [{"alias": "greek", "title": "Greek"}], "rating": 4.5, "coordinates": {"latitude": 53.62471, "longitude": 10.09919}, "transactions": [], "price": "\u20ac\u20ac", "location": {"address1": "Am St\u00fchm-S\u00fcd 86", "address2": null, "address3": null, "city": "Hamburg", "zip_code": "22175", "country": "DE", "state": "HH", "display_address": ["Am St\u00fchm-S\u00fcd 86", "22175 Hamburg", "Germany"]}, "phone": "+49406409546", "display_phone": "+49 40 6409546", "distance": 4030.8520416489537}, {"id": "bp2Z3UichsPCMfokIAluvA", "alias": "san-marino-hamburg-2", "name": "San Marino", "image_url": "https://s3-media1.fl.yelpcdn.com/bphoto/TP-eYZnMzYNO3_GGkPkLRA/o.jpg", "is_closed": false, "url": "https://www.yelp.com/biz/san-marino-hamburg-2?adjust_creative=hBJOknVQJ58S5goQyjmwRw&utm_campaign=yelp_api_v3&utm_medium=api_v3_business_search&utm_source=hBJOknVQJ58S5goQyjmwRw", "review_count": 6, "categories": [{"alias": "italian", "title": "Italian"}], "rating": 3.0, "coordinates": {"latitude": 53.6186151617801, "longitude": 10.1356185972691}, "transactions": [], "price": "\u20ac\u20ac", "location": {"address1": "Bekassinenau 114", "address2": "", "address3": "", "city": "Hamburg", "zip_code": "22147", "country": "DE", "state": "HH", "display_address": ["Bekassinenau 114", "22147 Hamburg", "Germany"]}, "phone": "+494067103931", "display_phone": "+49 40 67103931", "distance": 3271.1073061797147}, {"id": "efI_NlXd4vZz03SsjaLRCA", "alias": "d\u00f6-back-hamburg-2", "name": "D\u00d6-Back", "image_url": "https://s3-media3.fl.yelpcdn.com/bphoto/OLOR81E_mA0YOlaFQbz4_w/o.jpg", "is_closed": false, "url": "https://www.yelp.com/biz/d%C3%B6-back-hamburg-2?adjust_creative=hBJOknVQJ58S5goQyjmwRw&utm_campaign=yelp_api_v3&utm_medium=api_v3_business_search&utm_source=hBJOknVQJ58S5goQyjmwRw", "review_count": 5, "categories": [{"alias": "kebab", "title": "Kebab"}], "rating": 3.0, "coordinates": {"latitude": 53.6267, "longitude": 10.13893}, "transactions": [], "price": "\u20ac", "location": {"address1": "Berner Heerweg 372", "address2": null, "address3": "", "city": "Hamburg", "zip_code": "22159", "country": "DE", "state": "HH", "display_address": ["Berner Heerweg 372", "22159 Hamburg", "Germany"]}, "phone": "+494064861088", "display_phone": "+49 40 64861088", "distance": 4189.955532175863}, {"id": "xwj4BT0-5XSoAJb03OJW0g", "alias": "kneipe-leos-hamburg", "name": "Kneipe Leo's", "image_url": "", "is_closed": false, "url": "https://www.yelp.com/biz/kneipe-leos-hamburg?adjust_creative=hBJOknVQJ58S5goQyjmwRw&utm_campaign=yelp_api_v3&utm_medium=api_v3_business_search&utm_source=hBJOknVQJ58S5goQyjmwRw", "review_count": 6, "categories": [{"alias": "divebars", "title": "Dive Bars"}, {"alias": "gastropubs", "title": "Gastropubs"}], "rating": 5.0, "coordinates": {"latitude": 53.5596114, "longitude": 10.0956549}, "transactions": [], "price": "\u20ac\u20ac\u20ac", "location": {"address1": "Stoltenstr. 26", "address2": "", "address3": null, "city": "Hamburg", "zip_code": "22119", "country": "DE", "state": "HH", "display_address": ["Stoltenstr. 26", "22119 Hamburg", "Germany"]}, "phone": "+49406513808", "display_phone": "+49 40 6513808", "distance": 3813.3884062184393}, {"id": "-A_pku1o6DuLFe-3vy88-Q", "alias": "restaurant-estia-hamburg", "name": "Restaurant Estia", "image_url": "https://s3-media1.fl.yelpcdn.com/bphoto/oS_czziV0V8yNLRCLi2wow/o.jpg", "is_closed": false, "url": "https://www.yelp.com/biz/restaurant-estia-hamburg?adjust_creative=hBJOknVQJ58S5goQyjmwRw&utm_campaign=yelp_api_v3&utm_medium=api_v3_business_search&utm_source=hBJOknVQJ58S5goQyjmwRw", "review_count": 9, "categories": [{"alias": "greek", "title": "Greek"}], "rating": 3.5, "coordinates": {"latitude": 53.6244, "longitude": 10.1405}, "transactions": [], "price": "\u20ac\u20ac", "location": {"address1": "Hermann-Balk-Str. 112", "address2": null, "address3": null, "city": "Hamburg", "zip_code": "22147", "country": "DE", "state": "HH", "display_address": ["Hermann-Balk-Str. 112", "22147 Hamburg", "Germany"]}, "phone": "+494064400995", "display_phone": "+49 40 64400995", "distance": 3984.013629530345}, {"id": "Qmu-xTS39IvusBrpQyFjdQ", "alias": "tunicis-restaurant-dubrovnik-hamburg-2", "name": "Tunici's Restaurant Dubrovnik", "image_url": "https://s3-media2.fl.yelpcdn.com/bphoto/A4sPuzVGzxk8pafzIkrWkg/o.jpg", "is_closed": false, "url": "https://www.yelp.com/biz/tunicis-restaurant-dubrovnik-hamburg-2?adjust_creative=hBJOknVQJ58S5goQyjmwRw&utm_campaign=yelp_api_v3&utm_medium=api_v3_business_search&utm_source=hBJOknVQJ58S5goQyjmwRw", "review_count": 21, "categories": [{"alias": "serbocroatian", "title": "Serbo Croatian"}], "rating": 4.0, "coordinates": {"latitude": 53.5491, "longitude": 10.1088}, "transactions": [], "price": "\u20ac\u20ac", "location": {"address1": "Schiffbeker Weg 96", "address2": null, "address3": null, "city": "Hamburg", "zip_code": "22119", "country": "DE", "state": "HH", "display_address": ["Schiffbeker Weg 96", "22119 Hamburg", "Germany"]}, "phone": "+49407314788", "display_phone": "+49 40 7314788", "distance": 4681.846683311903}, {"id": "6JEBAUugL1Rxwc3-NepyKQ", "alias": "dominos-hamburg-24", "name": "Domino's", "image_url": "", "is_closed": false, "url": "https://www.yelp.com/biz/dominos-hamburg-24?adjust_creative=hBJOknVQJ58S5goQyjmwRw&utm_campaign=yelp_api_v3&utm_medium=api_v3_business_search&utm_source=hBJOknVQJ58S5goQyjmwRw", "review_count": 1, "categories": [{"alias": "pizza", "title": "Pizza"}], "rating": 1.0, "coordinates": {"latitude": 53.55915, "longitude": 10.10594}, "transactions": [], "location": {"address1": "Manshardtstr. 107", "address2": null, "address3": null, "city": "Hamburg", "zip_code": "22119", "country": "DE", "state": "HH", "display_address": ["Manshardtstr. 107", "22119 Hamburg", "Germany"]}, "phone": "+4940777095", "display_phone": "+49 40 777095", "distance": 3625.5135382977123}, {"id": "34AjJqRyzU6Aq57KVC34Kw", "alias": "kim-chi-hamburg-3", "name": "Kim-Chi", "image_url": "https://s3-media3.fl.yelpcdn.com/bphoto/_yOS07aEdpVOGu2_ijvbXQ/o.jpg", "is_closed": false, "url": "https://www.yelp.com/biz/kim-chi-hamburg-3?adjust_creative=hBJOknVQJ58S5goQyjmwRw&utm_campaign=yelp_api_v3&utm_medium=api_v3_business_search&utm_source=hBJOknVQJ58S5goQyjmwRw", "review_count": 9, "categories": [{"alias": "panasian", "title": "Pan Asian"}], "rating": 3.0, "coordinates": {"latitude": 53.6194, "longitude": 10.0973}, "transactions": [], "price": "\u20ac", "location": {"address1": "Fahrenkr\u00f6n 146", "address2": null, "address3": null, "city": "Hamburg", "zip_code": "22179", "country": "DE", "state": "HH", "display_address": ["Fahrenkr\u00f6n 146", "22179 Hamburg", "Germany"]}, "phone": "+494064413900", "display_phone": "+49 40 64413900", "distance": 3534.7990468330427}, {"id": "2eayVcKqiIuDVdb5Qqt-Fg", "alias": "zenthai-hamburg-4", "name": "Zenthai", "image_url": "https://s3-media3.fl.yelpcdn.com/bphoto/2lF3e6Ej5DQ70NJdZEIGGg/o.jpg", "is_closed": false, "url": "https://www.yelp.com/biz/zenthai-hamburg-4?adjust_creative=hBJOknVQJ58S5goQyjmwRw&utm_campaign=yelp_api_v3&utm_medium=api_v3_business_search&utm_source=hBJOknVQJ58S5goQyjmwRw", "review_count": 3, "categories": [{"alias": "sushi", "title": "Sushi Bars"}, {"alias": "panasian", "title": "Pan Asian"}], "rating": 2.0, "coordinates": {"latitude": 53.60681, "longitude": 10.11904}, "transactions": [], "price": "\u20ac", "location": {"address1": "August-Krogmann-Str. 2", "address2": "", "address3": "", "city": "Hamburg", "zip_code": "22159", "country": "DE", "state": "HH", "display_address": ["August-Krogmann-Str. 2", "22159 Hamburg", "Germany"]}, "phone": "", "display_phone": "", "distance": 1820.288478949501}, {"id": "Ct8p-l9z7Irdh6DK6ujlkg", "alias": "smileys-hamburg", "name": "Smiley's", "image_url": "https://s3-media4.fl.yelpcdn.com/bphoto/ZeAhxSEvejN5QMK3EBRGjA/o.jpg", "is_closed": false, "url": "https://www.yelp.com/biz/smileys-hamburg?adjust_creative=hBJOknVQJ58S5goQyjmwRw&utm_campaign=yelp_api_v3&utm_medium=api_v3_business_search&utm_source=hBJOknVQJ58S5goQyjmwRw", "review_count": 23, "categories": [{"alias": "pizza", "title": "Pizza"}], "rating": 3.5, "coordinates": {"latitude": 53.60262, "longitude": 10.1291}, "transactions": [], "price": "\u20ac\u20ac", "location": {"address1": "Alter Zollweg 192", "address2": null, "address3": null, "city": "Hamburg", "zip_code": "22147", "country": "DE", "state": "HH", "display_address": ["Alter Zollweg 192", "22147 Hamburg", "Germany"]}, "phone": "+494064539560", "display_phone": "+49 40 64539560", "distance": 1496.4453347133435}, {"id": "CAsdxz7NDDTmobcMTR9adQ", "alias": "peters-h\u00e4hnchen-grill-hamburg-2", "name": "Peter's H\u00e4hnchen Grill", "image_url": "https://s3-media2.fl.yelpcdn.com/bphoto/bCTklMfBHdjSSHRJaPG7Jg/o.jpg", "is_closed": false, "url": "https://www.yelp.com/biz/peters-h%C3%A4hnchen-grill-hamburg-2?adjust_creative=hBJOknVQJ58S5goQyjmwRw&utm_campaign=yelp_api_v3&utm_medium=api_v3_business_search&utm_source=hBJOknVQJ58S5goQyjmwRw", "review_count": 14, "categories": [{"alias": "hotdogs", "title": "Fast Food"}], "rating": 2.0, "coordinates": {"latitude": 53.58432, "longitude": 10.14268}, "transactions": [], "price": "\u20ac\u20ac", "location": {"address1": "Berliner Platz 19", "address2": "", "address3": null, "city": "Hamburg", "zip_code": "22045", "country": "DE", "state": "HH", "display_address": ["Berliner Platz 19", "22045 Hamburg", "Germany"]}, "phone": "+49406533121", "display_phone": "+49 40 6533121", "distance": 1639.7623317564487}, {"id": "TUy7lxoCFE8JYsEdnFBedw", "alias": "tonndorf-grill-d\u00f6ner-hamburg", "name": "tonndorf grill d\u00f6ner", "image_url": "", "is_closed": false, "url": "https://www.yelp.com/biz/tonndorf-grill-d%C3%B6ner-hamburg?adjust_creative=hBJOknVQJ58S5goQyjmwRw&utm_campaign=yelp_api_v3&utm_medium=api_v3_business_search&utm_source=hBJOknVQJ58S5goQyjmwRw", "review_count": 1, "categories": [{"alias": "kebab", "title": "Kebab"}], "rating": 4.0, "coordinates": {"latitude": 53.5803430024439, "longitude": 10.1042160847894}, "transactions": [], "location": {"address1": "Ahrensburger Str. 111", "address2": "", "address3": null, "city": "Hamburg", "zip_code": "22045", "country": "DE", "state": "HH", "display_address": ["Ahrensburger Str. 111", "22045 Hamburg", "Germany"]}, "phone": "+494064220601", "display_phone": "+49 40 64220601", "distance": 1557.9795379501409}, {"id": "A8N57ICSJD8o7yw5XrY9Gg", "alias": "zum-\u00f6sterreicher-hamburg", "name": "Zum \u00d6sterreicher", "image_url": "https://s3-media1.fl.yelpcdn.com/bphoto/s8GD9zEsmwMJcwUt1gfYig/o.jpg", "is_closed": false, "url": "https://www.yelp.com/biz/zum-%C3%B6sterreicher-hamburg?adjust_creative=hBJOknVQJ58S5goQyjmwRw&utm_campaign=yelp_api_v3&utm_medium=api_v3_business_search&utm_source=hBJOknVQJ58S5goQyjmwRw", "review_count": 20, "categories": [{"alias": "austrian", "title": "Austrian"}], "rating": 3.0, "coordinates": {"latitude": 53.5704, "longitude": 10.1432}, "transactions": [], "price": "\u20ac\u20ac", "location": {"address1": "Barsb\u00fctteler Str. 43", "address2": null, "address3": null, "city": "Hamburg", "zip_code": "22043", "country": "DE", "state": "HH", "display_address": ["Barsb\u00fctteler Str. 43", "22043 Hamburg", "Germany"]}, "phone": "+49406545362", "display_phone": "+49 40 6545362", "distance": 2716.919544706417}, {"id": "1qV1Wz2aohC6Rp-CZPGRVg", "alias": "berne-kebap-haus-hamburg", "name": "Berne Kebap Haus", "image_url": "https://s3-media4.fl.yelpcdn.com/bphoto/bpsRMMVl8g8lAmfmV5YO9g/o.jpg", "is_closed": false, "url": "https://www.yelp.com/biz/berne-kebap-haus-hamburg?adjust_creative=hBJOknVQJ58S5goQyjmwRw&utm_campaign=yelp_api_v3&utm_medium=api_v3_business_search&utm_source=hBJOknVQJ58S5goQyjmwRw", "review_count": 1, "categories": [{"alias": "kebab", "title": "Kebab"}], "rating": 5.0, "coordinates": {"latitude": 53.6252153896313, "longitude": 10.1390706002712}, "transactions": [], "price": "\u20ac", "location": {"address1": "Hermann-Balk-Str. 117", "address2": "", "address3": null, "city": "Hamburg", "zip_code": "22147", "country": "DE", "state": "HH", "display_address": ["Hermann-Balk-Str. 117", "22147 Hamburg", "Germany"]}, "phone": "+494032843723", "display_phone": "+49 40 32843723", "distance": 4039.440817518317}, {"id": "_KEs5iyxsJzhE6dmiur-_Q", "alias": "corfu-grill-hamburg-6", "name": "Corfu Grill", "image_url": "https://s3-media1.fl.yelpcdn.com/bphoto/PjW1pXfqtgldYbIZW1EB3A/o.jpg", "is_closed": false, "url": "https://www.yelp.com/biz/corfu-grill-hamburg-6?adjust_creative=hBJOknVQJ58S5goQyjmwRw&utm_campaign=yelp_api_v3&utm_medium=api_v3_business_search&utm_source=hBJOknVQJ58S5goQyjmwRw", "review_count": 14, "categories": [{"alias": "greek", "title": "Greek"}, {"alias": "hotdogs", "title": "Fast Food"}], "rating": 3.5, "coordinates": {"latitude": 53.6034816, "longitude": 10.1304022}, "transactions": [], "price": "\u20ac\u20ac\u20ac", "location": {"address1": "Alter Zollweg 197", "address2": "", "address3": "", "city": "Hamburg", "zip_code": "22147", "country": "DE", "state": "HH", "display_address": ["Alter Zollweg 197", "22147 Hamburg", "Germany"]}, "phone": "+49406470946", "display_phone": "+49 40 6470946", "distance": 1577.1415428228258}, {"id": "Z_VhoYana9KZlVipdBw58Q", "alias": "kleinhuis-gartenbistro-hamburg", "name": "Kleinhuis' Gartenbistro", "image_url": "https://s3-media2.fl.yelpcdn.com/bphoto/zrIA1rCwZNp2uDeUeVZdew/o.jpg", "is_closed": false, "url": "https://www.yelp.com/biz/kleinhuis-gartenbistro-hamburg?adjust_creative=hBJOknVQJ58S5goQyjmwRw&utm_campaign=yelp_api_v3&utm_medium=api_v3_business_search&utm_source=hBJOknVQJ58S5goQyjmwRw", "review_count": 2, "categories": [{"alias": "german", "title": "German"}, {"alias": "bistros", "title": "Bistros"}], "rating": 3.0, "coordinates": {"latitude": 53.630419, "longitude": 10.110478}, "transactions": [], "location": {"address1": "Karlsh\u00f6he 60 d", "address2": null, "address3": null, "city": "Hamburg", "zip_code": "22175", "country": "DE", "state": "HH", "display_address": ["Karlsh\u00f6he 60 d", "22175 Hamburg", "Germany"]}, "phone": "+494060009245", "display_phone": "+49 40 60009245", "distance": 4467.383700495853}, {"id": "aGGb59d0pgT-pDWSis-EVg", "alias": "braaker-m\u00fchle-hamburg-6", "name": "Braaker M\u00fchle", "image_url": "https://s3-media3.fl.yelpcdn.com/bphoto/q3mc4HvwxlqUP_d5kOWFIQ/o.jpg", "is_closed": false, "url": "https://www.yelp.com/biz/braaker-m%C3%BChle-hamburg-6?adjust_creative=hBJOknVQJ58S5goQyjmwRw&utm_campaign=yelp_api_v3&utm_medium=api_v3_business_search&utm_source=hBJOknVQJ58S5goQyjmwRw", "review_count": 1, "categories": [{"alias": "bakeries", "title": "Bakeries"}, {"alias": "cakeshop", "title": "Patisserie/Cake Shop"}, {"alias": "cafes", "title": "Cafes"}], "rating": 5.0, "coordinates": {"latitude": 53.6071291, "longitude": 10.1182898}, "transactions": [], "location": {"address1": "August-Krogmann-Str. 10", "address2": null, "address3": null, "city": "Hamburg", "zip_code": "22159", "country": "DE", "state": "HH", "display_address": ["August-Krogmann-Str. 10", "22159 Hamburg", "Germany"]}, "phone": "+494064422123", "display_phone": "+49 40 64422123", "distance": 1835.7758092580013}, {"id": "JbC6Cvbi4Gr5V6iAXB-0VA", "alias": "crazy-croque-hamburg", "name": "Crazy Croque", "image_url": "https://s3-media2.fl.yelpcdn.com/bphoto/Tmm8hEvPXRWQxtY2jHvYaA/o.jpg", "is_closed": false, "url": "https://www.yelp.com/biz/crazy-croque-hamburg?adjust_creative=hBJOknVQJ58S5goQyjmwRw&utm_campaign=yelp_api_v3&utm_medium=api_v3_business_search&utm_source=hBJOknVQJ58S5goQyjmwRw", "review_count": 54, "categories": [{"alias": "sandwiches", "title": "Sandwiches"}], "rating": 4.0, "coordinates": {"latitude": 53.58855, "longitude": 10.09947}, "transactions": [], "price": "\u20ac\u20ac", "location": {"address1": "Friedrich-Ebert-Damm 160 a", "address2": null, "address3": null, "city": "Hamburg", "zip_code": "22047", "country": "DE", "state": "HH", "display_address": ["Friedrich-Ebert-Damm 160 a", "22047 Hamburg", "Germany"]}, "phone": "+49406939900", "display_phone": "+49 40 6939900", "distance": 1356.3526859276596}, {"id": "H0k-5wLsmRWkAPdYB3iAdw", "alias": "maxburger-hamburg", "name": "Maxburger", "image_url": "", "is_closed": false, "url": "https://www.yelp.com/biz/maxburger-hamburg?adjust_creative=hBJOknVQJ58S5goQyjmwRw&utm_campaign=yelp_api_v3&utm_medium=api_v3_business_search&utm_source=hBJOknVQJ58S5goQyjmwRw", "review_count": 3, "categories": [{"alias": "burgers", "title": "Burgers"}], "rating": 3.0, "coordinates": {"latitude": 53.5880935, "longitude": 10.12411}, "transactions": [], "location": {"address1": "Stein-Hardenberg-Str. 83", "address2": null, "address3": null, "city": "Hamburg", "zip_code": "22045", "country": "DE", "state": "HH", "display_address": ["Stein-Hardenberg-Str. 83", "22045 Hamburg", "Germany"]}, "phone": "+494082299250", "display_phone": "+49 40 82299250", "distance": 385.0593349623987}, {"id": "pf_RiSbOuQKLkhDodWf4Zg", "alias": "schweinske-hamburg-15", "name": "Schweinske", "image_url": "https://s3-media4.fl.yelpcdn.com/bphoto/sCaYsSGos8klABFJQtC-Sg/o.jpg", "is_closed": false, "url": "https://www.yelp.com/biz/schweinske-hamburg-15?adjust_creative=hBJOknVQJ58S5goQyjmwRw&utm_campaign=yelp_api_v3&utm_medium=api_v3_business_search&utm_source=hBJOknVQJ58S5goQyjmwRw", "review_count": 61, "categories": [{"alias": "german", "title": "German"}, {"alias": "breakfast_brunch", "title": "Breakfast & Brunch"}], "rating": 3.0, "coordinates": {"latitude": 53.608071, "longitude": 10.11642}, "transactions": [], "price": "\u20ac\u20ac", "location": {"address1": "August-Krogmann-Str. 25", "address2": null, "address3": null, "city": "Hamburg", "zip_code": "22159", "country": "DE", "state": "HH", "display_address": ["August-Krogmann-Str. 25", "22159 Hamburg", "Germany"]}, "phone": "+494064537516", "display_phone": "+49 40 64537516", "distance": 1952.1218157904746}, {"id": "FgojWBNCA17-6GbHsrDHrQ", "alias": "crazy-croque-hamburg-4", "name": "Crazy Croque", "image_url": "https://s3-media1.fl.yelpcdn.com/bphoto/N8RMFIvPcA3rbOVQbD05_Q/o.jpg", "is_closed": false, "url": "https://www.yelp.com/biz/crazy-croque-hamburg-4?adjust_creative=hBJOknVQJ58S5goQyjmwRw&utm_campaign=yelp_api_v3&utm_medium=api_v3_business_search&utm_source=hBJOknVQJ58S5goQyjmwRw", "review_count": 14, "categories": [{"alias": "sandwiches", "title": "Sandwiches"}, {"alias": "baguettes", "title": "Baguettes"}], "rating": 4.0, "coordinates": {"latitude": 53.5592435, "longitude": 10.1084427}, "transactions": [], "price": "\u20ac", "location": {"address1": "Manshardtstr. 117", "address2": null, "address3": null, "city": "Hamburg", "zip_code": "22119", "country": "DE", "state": "HH", "display_address": ["Manshardtstr. 117", "22119 Hamburg", "Germany"]}, "phone": "+49406532211", "display_phone": "+49 40 6532211", "distance": 3578.206828460428}, {"id": "ugQlHvgEVolXPln9jsmenA", "alias": "baris-grillhaus-hamburg", "name": "Baris Grillhaus", "image_url": "https://s3-media3.fl.yelpcdn.com/bphoto/XLzCcvgXVZ9_rntj2NZ5aA/o.jpg", "is_closed": false, "url": "https://www.yelp.com/biz/baris-grillhaus-hamburg?adjust_creative=hBJOknVQJ58S5goQyjmwRw&utm_campaign=yelp_api_v3&utm_medium=api_v3_business_search&utm_source=hBJOknVQJ58S5goQyjmwRw", "review_count": 9, "categories": [{"alias": "kebab", "title": "Kebab"}], "rating": 3.0, "coordinates": {"latitude": 53.6071, "longitude": 10.11808}, "transactions": [], "price": "\u20ac\u20ac", "location": {"address1": "August-Krogmannstr. 12", "address2": "", "address3": "", "city": "Hamburg", "zip_code": "22159", "country": "DE", "state": "HH", "display_address": ["August-Krogmannstr. 12", "22159 Hamburg", "Germany"]}, "phone": "+494069464336", "display_phone": "+49 40 69464336", "distance": 1827.0459748512753}, {"id": "W1elnIGTIpBmYCn11yhzRQ", "alias": "adriatik-hamburg", "name": "Adriatik", "image_url": "", "is_closed": false, "url": "https://www.yelp.com/biz/adriatik-hamburg?adjust_creative=hBJOknVQJ58S5goQyjmwRw&utm_campaign=yelp_api_v3&utm_medium=api_v3_business_search&utm_source=hBJOknVQJ58S5goQyjmwRw", "review_count": 2, "categories": [{"alias": "german", "title": "German"}], "rating": 4.5, "coordinates": {"latitude": 53.559, "longitude": 10.1079}, "transactions": [], "location": {"address1": "Manshardtstr. 115", "address2": null, "address3": null, "city": "Hamburg", "zip_code": "22119", "country": "DE", "state": "HH", "display_address": ["Manshardtstr. 115", "22119 Hamburg", "Germany"]}, "phone": "+494065491678", "display_phone": "+49 40 65491678", "distance": 3612.523450169922}, {"id": "G5qIXIDFswYYXy_-SlOwgw", "alias": "gut-karlsh\u00f6he-hamburg", "name": "Gut Karlsh\u00f6he", "image_url": "https://s3-media4.fl.yelpcdn.com/bphoto/K4UPzUKEdKdTIArYJNnFdw/o.jpg", "is_closed": false, "url": "https://www.yelp.com/biz/gut-karlsh%C3%B6he-hamburg?adjust_creative=hBJOknVQJ58S5goQyjmwRw&utm_campaign=yelp_api_v3&utm_medium=api_v3_business_search&utm_source=hBJOknVQJ58S5goQyjmwRw", "review_count": 9, "categories": [{"alias": "active", "title": "Active Life"}, {"alias": "cafes", "title": "Cafes"}, {"alias": "museums", "title": "Museums"}], "rating": 4.0, "coordinates": {"latitude": 53.62997, "longitude": 10.11033}, "transactions": [], "location": {"address1": "Karlsh\u00f6he 60d", "address2": null, "address3": null, "city": "Hamburg", "zip_code": "22175", "country": "DE", "state": "HH", "display_address": ["Karlsh\u00f6he 60d", "22175 Hamburg", "Germany"]}, "phone": "+494063702490", "display_phone": "+49 40 63702490", "distance": 4419.406001677711}, {"id": "vrlAmOoaKTGM_b4_FMaRdQ", "alias": "h\u00e4hnchen-grill-hamburg", "name": "H\u00e4hnchen Grill", "image_url": "https://s3-media2.fl.yelpcdn.com/bphoto/vAQnrItTD_GSC9Xj0rNbEg/o.jpg", "is_closed": false, "url": "https://www.yelp.com/biz/h%C3%A4hnchen-grill-hamburg?adjust_creative=hBJOknVQJ58S5goQyjmwRw&utm_campaign=yelp_api_v3&utm_medium=api_v3_business_search&utm_source=hBJOknVQJ58S5goQyjmwRw", "review_count": 4, "categories": [{"alias": "hotdogs", "title": "Fast Food"}, {"alias": "kebab", "title": "Kebab"}], "rating": 3.5, "coordinates": {"latitude": 53.5726, "longitude": 10.1362}, "transactions": [], "location": {"address1": "Bei den H\u00f6fen 82", "address2": null, "address3": null, "city": "Hamburg", "zip_code": "22043", "country": "DE", "state": "HH", "display_address": ["Bei den H\u00f6fen 82", "22043 Hamburg", "Germany"]}, "phone": "+494049297744", "display_phone": "+49 40 49297744", "distance": 2269.1330852668366}, {"id": "Ynp7YmJAy6qTatoZcT66Eg", "alias": "restaurant-pane-e-vino-hamburg", "name": "Restaurant Pane E Vino", "image_url": "https://s3-media1.fl.yelpcdn.com/bphoto/82PXWqUQf_edShIaQHBe5Q/o.jpg", "is_closed": false, "url": "https://www.yelp.com/biz/restaurant-pane-e-vino-hamburg?adjust_creative=hBJOknVQJ58S5goQyjmwRw&utm_campaign=yelp_api_v3&utm_medium=api_v3_business_search&utm_source=hBJOknVQJ58S5goQyjmwRw", "review_count": 17, "categories": [{"alias": "italian", "title": "Italian"}], "rating": 3.0, "coordinates": {"latitude": 53.6202, "longitude": 10.0977}, "transactions": [], "price": "\u20ac\u20ac", "location": {"address1": "Pezolddamm 1", "address2": null, "address3": null, "city": "Hamburg", "zip_code": "22175", "country": "DE", "state": "HH", "display_address": ["Pezolddamm 1", "22175 Hamburg", "Germany"]}, "phone": "+494064426895", "display_phone": "+49 40 64426895", "distance": 3604.4774908396425}, {"id": "MCQIuPcvqwbCJPy7ccJ18A", "alias": "sushi-corner-hamburg", "name": "Sushi Corner", "image_url": "https://s3-media3.fl.yelpcdn.com/bphoto/y7ESuSffrY0D0NafEcUyeg/o.jpg", "is_closed": false, "url": "https://www.yelp.com/biz/sushi-corner-hamburg?adjust_creative=hBJOknVQJ58S5goQyjmwRw&utm_campaign=yelp_api_v3&utm_medium=api_v3_business_search&utm_source=hBJOknVQJ58S5goQyjmwRw", "review_count": 2, "categories": [{"alias": "sushi", "title": "Sushi Bars"}], "rating": 2.5, "coordinates": {"latitude": 53.55937, "longitude": 10.10743}, "transactions": [], "location": {"address1": "Manshardtstr. 115 A", "address2": "", "address3": "", "city": "Hamburg", "zip_code": "22119", "country": "DE", "state": "HH", "display_address": ["Manshardtstr. 115 A", "22119 Hamburg", "Germany"]}, "phone": "+494068284641", "display_phone": "+49 40 68284641", "distance": 3590.434560161307}, {"id": "CbAt26AJcBJR4EHcqltEeg", "alias": "zorbas-hamburg-2", "name": "Zorbas", "image_url": "", "is_closed": false, "url": "https://www.yelp.com/biz/zorbas-hamburg-2?adjust_creative=hBJOknVQJ58S5goQyjmwRw&utm_campaign=yelp_api_v3&utm_medium=api_v3_business_search&utm_source=hBJOknVQJ58S5goQyjmwRw", "review_count": 1, "categories": [{"alias": "greek", "title": "Greek"}], "rating": 2.0, "coordinates": {"latitude": 53.6046, "longitude": 10.1176}, "transactions": [], "price": "\u20ac\u20ac", "location": {"address1": "Berner Heerweg 173", "address2": null, "address3": null, "city": "Hamburg", "zip_code": "22159", "country": "DE", "state": "HH", "display_address": ["Berner Heerweg 173", "22159 Hamburg", "Germany"]}, "phone": "+49406454823", "display_phone": "+49 40 6454823", "distance": 1559.6578048831834}, {"id": "0E6MSfGiFGVRqcp2U5mTFA", "alias": "burger-king-hamburg-2", "name": "Burger King", "image_url": "https://s3-media2.fl.yelpcdn.com/bphoto/gkIdKVwfl1R2DEnu_5LRoQ/o.jpg", "is_closed": false, "url": "https://www.yelp.com/biz/burger-king-hamburg-2?adjust_creative=hBJOknVQJ58S5goQyjmwRw&utm_campaign=yelp_api_v3&utm_medium=api_v3_business_search&utm_source=hBJOknVQJ58S5goQyjmwRw", "review_count": 48, "categories": [{"alias": "hotdogs", "title": "Fast Food"}, {"alias": "burgers", "title": "Burgers"}], "rating": 2.0, "coordinates": {"latitude": 53.58894, "longitude": 10.100627}, "transactions": [], "price": "\u20ac\u20ac", "location": {"address1": "Friedrich-Ebert-Damm 166", "address2": null, "address3": null, "city": "Hamburg", "zip_code": "22047", "country": "DE", "state": "HH", "display_address": ["Friedrich-Ebert-Damm 166", "22047 Hamburg", "Germany"]}, "phone": "+494046631170", "display_phone": "+49 40 46631170", "distance": 1302.572033300833}, {"id": "05yN6vX4GZjaksTXtS9yoA", "alias": "mcdonalds-hamburg-54", "name": "McDonald's", "image_url": "", "is_closed": false, "url": "https://www.yelp.com/biz/mcdonalds-hamburg-54?adjust_creative=hBJOknVQJ58S5goQyjmwRw&utm_campaign=yelp_api_v3&utm_medium=api_v3_business_search&utm_source=hBJOknVQJ58S5goQyjmwRw", "review_count": 8, "categories": [{"alias": "hotdogs", "title": "Fast Food"}, {"alias": "burgers", "title": "Burgers"}], "rating": 2.0, "coordinates": {"latitude": 53.5704, "longitude": 10.144}, "transactions": [], "price": "\u20ac\u20ac\u20ac", "location": {"address1": "Barsb\u00fctteler Str. 45", "address2": null, "address3": null, "city": "Hamburg", "zip_code": "22043", "country": "DE", "state": "HH", "display_address": ["Barsb\u00fctteler Str. 45", "22043 Hamburg", "Germany"]}, "phone": "+494071403859", "display_phone": "+49 40 71403859", "distance": 2746.7960830673633}, {"id": "Rb1tYn5UC6Re9nZvD7hkJg", "alias": "thai-und-wok-hamburg", "name": "Thai & Wok", "image_url": "https://s3-media1.fl.yelpcdn.com/bphoto/ZHkaIOAAntArKo1JVSbZFA/o.jpg", "is_closed": false, "url": "https://www.yelp.com/biz/thai-und-wok-hamburg?adjust_creative=hBJOknVQJ58S5goQyjmwRw&utm_campaign=yelp_api_v3&utm_medium=api_v3_business_search&utm_source=hBJOknVQJ58S5goQyjmwRw", "review_count": 8, "categories": [{"alias": "thai", "title": "Thai"}, {"alias": "wok", "title": "Wok"}], "rating": 2.0, "coordinates": {"latitude": 53.5594, "longitude": 10.1076}, "transactions": [], "price": "\u20ac", "location": {"address1": "Manshardtstr. 115", "address2": null, "address3": null, "city": "Hamburg", "zip_code": "22119", "country": "DE", "state": "HH", "display_address": ["Manshardtstr. 115", "22119 Hamburg", "Germany"]}, "phone": "+494068284641", "display_phone": "+49 40 68284641", "distance": 3573.750155149818}, {"id": "cVtqr-CLZgOP7-5DzRs-FQ", "alias": "asia-wok-leviet-hamburg", "name": "Asia Wok Leviet", "image_url": "https://s3-media1.fl.yelpcdn.com/bphoto/HvgxnIlIqtwPUvmoanLiwA/o.jpg", "is_closed": false, "url": "https://www.yelp.com/biz/asia-wok-leviet-hamburg?adjust_creative=hBJOknVQJ58S5goQyjmwRw&utm_campaign=yelp_api_v3&utm_medium=api_v3_business_search&utm_source=hBJOknVQJ58S5goQyjmwRw", "review_count": 2, "categories": [{"alias": "chinese", "title": "Chinese"}], "rating": 2.5, "coordinates": {"latitude": 53.5711, "longitude": 10.1355}, "transactions": [], "price": "\u20ac", "location": {"address1": "Rodigallee 303", "address2": null, "address3": null, "city": "Hamburg", "zip_code": "22043", "country": "DE", "state": "HH", "display_address": ["Rodigallee 303", "22043 Hamburg", "Germany"]}, "phone": "+494088305569", "display_phone": "+49 40 88305569", "distance": 2398.146091727645}, {"id": "iHJu41roXfxTfqW8EifbVA", "alias": "dolce-italia-hamburg", "name": "Dolce Italia", "image_url": "", "is_closed": false, "url": "https://www.yelp.com/biz/dolce-italia-hamburg?adjust_creative=hBJOknVQJ58S5goQyjmwRw&utm_campaign=yelp_api_v3&utm_medium=api_v3_business_search&utm_source=hBJOknVQJ58S5goQyjmwRw", "review_count": 4, "categories": [{"alias": "italian", "title": "Italian"}], "rating": 4.0, "coordinates": {"latitude": 53.559, "longitude": 10.107}, "transactions": [], "location": {"address1": "Manshardtstr. 111", "address2": null, "address3": null, "city": "Hamburg", "zip_code": "22119", "country": "DE", "state": "HH", "display_address": ["Manshardtstr. 111", "22119 Hamburg", "Germany"]}, "phone": "", "display_phone": "", "distance": 3626.3327491467144}, {"id": "aNWnsNOYLimm6JLwGHrGUA", "alias": "mcdonalds-hamburg-4", "name": "McDonald's", "image_url": "https://s3-media3.fl.yelpcdn.com/bphoto/LH31L8wi2eVgxSfd8jgFQg/o.jpg", "is_closed": false, "url": "https://www.yelp.com/biz/mcdonalds-hamburg-4?adjust_creative=hBJOknVQJ58S5goQyjmwRw&utm_campaign=yelp_api_v3&utm_medium=api_v3_business_search&utm_source=hBJOknVQJ58S5goQyjmwRw", "review_count": 6, "categories": [{"alias": "burgers", "title": "Burgers"}, {"alias": "hotdogs", "title": "Fast Food"}], "rating": 3.0, "coordinates": {"latitude": 53.60704, "longitude": 10.11837}, "transactions": [], "price": "\u20ac\u20ac", "location": {"address1": "August-Krogmann-Str. 10", "address2": "", "address3": "", "city": "Hamburg", "zip_code": "22159", "country": "DE", "state": "HH", "display_address": ["August-Krogmann-Str. 10", "22159 Hamburg", "Germany"]}, "phone": "+494053304204", "display_phone": "+49 40 53304204", "distance": 1833.9297697440327}, {"id": "d2O1JjjiV91LmgqkMYWGPg", "alias": "mcdonalds-hamburg-42", "name": "McDonald's", "image_url": "https://s3-media3.fl.yelpcdn.com/bphoto/OdGo7sTqg26QCDf0Zwsvtw/o.jpg", "is_closed": false, "url": "https://www.yelp.com/biz/mcdonalds-hamburg-42?adjust_creative=hBJOknVQJ58S5goQyjmwRw&utm_campaign=yelp_api_v3&utm_medium=api_v3_business_search&utm_source=hBJOknVQJ58S5goQyjmwRw", "review_count": 15, "categories": [{"alias": "hotdogs", "title": "Fast Food"}, {"alias": "burgers", "title": "Burgers"}], "rating": 2.0, "coordinates": {"latitude": 53.5817, "longitude": 10.1089}, "transactions": [], "price": "\u20ac", "location": {"address1": "Ahrensburger Str. 156", "address2": null, "address3": null, "city": "Hamburg", "zip_code": "22045", "country": "DE", "state": "HH", "display_address": ["Ahrensburger Str. 156", "22045 Hamburg", "Germany"]}, "phone": "+4940661881", "display_phone": "+49 40 661881", "distance": 1243.9944680888266}, {"id": "5Sn38ahcsarLwL27Rsy5NQ", "alias": "urfa-sofrasi-hamburg", "name": "Urfa Sofrasi", "image_url": "", "is_closed": false, "url": "https://www.yelp.com/biz/urfa-sofrasi-hamburg?adjust_creative=hBJOknVQJ58S5goQyjmwRw&utm_campaign=yelp_api_v3&utm_medium=api_v3_business_search&utm_source=hBJOknVQJ58S5goQyjmwRw", "review_count": 2, "categories": [{"alias": "turkish", "title": "Turkish"}, {"alias": "hotdogs", "title": "Fast Food"}], "rating": 3.0, "coordinates": {"latitude": 53.5709, "longitude": 10.1364}, "transactions": [], "location": {"address1": "Barsb\u00fctteler Str. 2", "address2": null, "address3": null, "city": "Hamburg", "zip_code": "22043", "country": "DE", "state": "HH", "display_address": ["Barsb\u00fctteler Str. 2", "22043 Hamburg", "Germany"]}, "phone": "", "display_phone": "", "distance": 2443.7599287180155}, {"id": "Z9ed1JBXupt9ULdZXNRbNg", "alias": "asialong-hamburg", "name": "asialong", "image_url": "", "is_closed": false, "url": "https://www.yelp.com/biz/asialong-hamburg?adjust_creative=hBJOknVQJ58S5goQyjmwRw&utm_campaign=yelp_api_v3&utm_medium=api_v3_business_search&utm_source=hBJOknVQJ58S5goQyjmwRw", "review_count": 4, "categories": [{"alias": "vietnamese", "title": "Vietnamese"}, {"alias": "panasian", "title": "Pan Asian"}], "rating": 3.5, "coordinates": {"latitude": 53.6000801166592, "longitude": 10.1389519202378}, "transactions": [], "location": {"address1": "Scharbeutzer Str. 85", "address2": null, "address3": "", "city": "Hamburg", "zip_code": "22147", "country": "DE", "state": "HH", "display_address": ["Scharbeutzer Str. 85", "22147 Hamburg", "Germany"]}, "phone": "+494088187329", "display_phone": "+49 40 88187329", "distance": 1621.9354998688991}, {"id": "HObQtAcQIPyQujRCkY9yug", "alias": "mon-ami-hamburg", "name": "Mon Ami", "image_url": "https://s3-media4.fl.yelpcdn.com/bphoto/_OUmVcRqI51CCbAa3NQ6gw/o.jpg", "is_closed": false, "url": "https://www.yelp.com/biz/mon-ami-hamburg?adjust_creative=hBJOknVQJ58S5goQyjmwRw&utm_campaign=yelp_api_v3&utm_medium=api_v3_business_search&utm_source=hBJOknVQJ58S5goQyjmwRw", "review_count": 1, "categories": [{"alias": "seafood", "title": "Seafood"}, {"alias": "mediterranean", "title": "Mediterranean"}, {"alias": "pizza", "title": "Pizza"}], "rating": 1.0, "coordinates": {"latitude": 53.5710073412351, "longitude": 10.111719109118}, "transactions": [], "price": "\u20ac\u20ac\u20ac", "location": {"address1": "Rodigallee 139", "address2": "", "address3": "", "city": "Hamburg", "zip_code": "22043", "country": "DE", "state": "HH", "display_address": ["Rodigallee 139", "22043 Hamburg", "Germany"]}, "phone": "+494068946363", "display_phone": "+49 40 68946363", "distance": 2255.479372776036}, {"id": "THiQx27gTKO93V2VwDRcOw", "alias": "lounge-caf\u00e9-hamburg", "name": "Lounge Caf\u00e9", "image_url": "https://s3-media3.fl.yelpcdn.com/bphoto/c8LvIhVRdsNrgQGxYohjcg/o.jpg", "is_closed": false, "url": "https://www.yelp.com/biz/lounge-caf%C3%A9-hamburg?adjust_creative=hBJOknVQJ58S5goQyjmwRw&utm_campaign=yelp_api_v3&utm_medium=api_v3_business_search&utm_source=hBJOknVQJ58S5goQyjmwRw", "review_count": 1, "categories": [{"alias": "cafes", "title": "Cafes"}, {"alias": "coffee", "title": "Coffee & Tea"}], "rating": 1.0, "coordinates": {"latitude": 53.587841213227, "longitude": 10.0959847784911}, "transactions": [], "price": "\u20ac\u20ac", "location": {"address1": "Helbingtwiete 7", "address2": "", "address3": "", "city": "Hamburg", "zip_code": "22047", "country": "DE", "state": "HH", "display_address": ["Helbingtwiete 7", "22047 Hamburg", "Germany"]}, "phone": "", "display_phone": "", "distance": 1627.988248065722}, {"id": "RydfOmd5cLtqBxE80Q_CGg", "alias": "burger-king-hamburg-17", "name": "Burger King", "image_url": "https://s3-media1.fl.yelpcdn.com/bphoto/U5O-x4_5xKBA5hylh5eMXg/o.jpg", "is_closed": false, "url": "https://www.yelp.com/biz/burger-king-hamburg-17?adjust_creative=hBJOknVQJ58S5goQyjmwRw&utm_campaign=yelp_api_v3&utm_medium=api_v3_business_search&utm_source=hBJOknVQJ58S5goQyjmwRw", "review_count": 6, "categories": [{"alias": "burgers", "title": "Burgers"}, {"alias": "hotdogs", "title": "Fast Food"}], "rating": 2.5, "coordinates": {"latitude": 53.6052, "longitude": 10.1183599}, "transactions": [], "price": "\u20ac\u20ac", "location": {"address1": "Berner Heerweg 173-175", "address2": "", "address3": "", "city": "Hamburg", "zip_code": "22159", "country": "DE", "state": "HH", "display_address": ["Berner Heerweg 173-175", "22159 Hamburg", "Germany"]}, "phone": "+494041541333", "display_phone": "+49 40 41541333", "distance": 1605.3883171165894}]