[{"id": "3leCdQtr0JB-NyKOjYtLBQ", "alias": "restaurant-kdw-wedel", "name": "Restaurant KDW", "image_url": "https://s3-media2.fl.yelpcdn.com/bphoto/4qFUuiBhRBBesq8plN4QcA/o.jpg", "is_closed": false, "url": "https://www.yelp.com/biz/restaurant-kdw-wedel?adjust_creative=hBJOknVQJ58S5goQyjmwRw&utm_campaign=yelp_api_v3&utm_medium=api_v3_business_search&utm_source=hBJOknVQJ58S5goQyjmwRw", "review_count": 20, "categories": [{"alias": "german", "title": "German"}, {"alias": "mediterranean", "title": "Mediterranean"}], "rating": 4.5, "coordinates": {"latitude": 53.5926252588982, "longitude": 9.74624951265866}, "transactions": [], "price": "\u20ac\u20ac\u20ac", "location": {"address1": "Egenb\u00fcttelweg 123", "address2": "", "address3": null, "city": "Wedel", "zip_code": "22880", "country": "DE", "state": "SH", "display_address": ["Egenb\u00fcttelweg 123", "22880 Wedel", "Germany"]}, "phone": "+4941039052080", "display_phone": "+49 4103 9052080", "distance": 757.945818151571}, {"id": "yl5LluLYKFewDRZ0Z7lX5Q", "alias": "la-fattoria-hamburg", "name": "La Fattoria", "image_url": "https://s3-media4.fl.yelpcdn.com/bphoto/bHX7MFqrAYE6q5S56T0IlQ/o.jpg", "is_closed": false, "url": "https://www.yelp.com/biz/la-fattoria-hamburg?adjust_creative=hBJOknVQJ58S5goQyjmwRw&utm_campaign=yelp_api_v3&utm_medium=api_v3_business_search&utm_source=hBJOknVQJ58S5goQyjmwRw", "review_count": 22, "categories": [{"alias": "italian", "title": "Italian"}], "rating": 4.0, "coordinates": {"latitude": 53.5816, "longitude": 9.76039}, "transactions": [], "price": "\u20ac\u20ac", "location": {"address1": "Wedeler Landstr. 14", "address2": null, "address3": null, "city": "Hamburg", "zip_code": "22559", "country": "DE", "state": "HH", "display_address": ["Wedeler Landstr. 14", "22559 Hamburg", "Germany"]}, "phone": "+4940818121", "display_phone": "+49 40 818121", "distance": 1335.961575907434}, {"id": "hP-_zp7vj6qZ35tFWdZvtQ", "alias": "l-unico-hamburg", "name": "L'Unico", "image_url": "https://s3-media3.fl.yelpcdn.com/bphoto/G6EBPdxJ4K1CJL3GxpU6gA/o.jpg", "is_closed": false, "url": "https://www.yelp.com/biz/l-unico-hamburg?adjust_creative=hBJOknVQJ58S5goQyjmwRw&utm_campaign=yelp_api_v3&utm_medium=api_v3_business_search&utm_source=hBJOknVQJ58S5goQyjmwRw", "review_count": 18, "categories": [{"alias": "italian", "title": "Italian"}], "rating": 4.0, "coordinates": {"latitude": 53.5810025, "longitude": 9.7564681}, "transactions": [], "price": "\u20ac\u20ac", "location": {"address1": "Wedeler Landstr. 39", "address2": null, "address3": null, "city": "Hamburg", "zip_code": "22559", "country": "DE", "state": "HH", "display_address": ["Wedeler Landstr. 39", "22559 Hamburg", "Germany"]}, "phone": "+494082244924", "display_phone": "+49 40 82244924", "distance": 1392.1452544816761}, {"id": "9cNYn0POHbQXrmubo-Xpvw", "alias": "grossmutters-laecheln-hamburg", "name": "Grossmutters Laecheln", "image_url": "https://s3-media2.fl.yelpcdn.com/bphoto/1IFr9LiOdGw_vnRHA2vYJQ/o.jpg", "is_closed": false, "url": "https://www.yelp.com/biz/grossmutters-laecheln-hamburg?adjust_creative=hBJOknVQJ58S5goQyjmwRw&utm_campaign=yelp_api_v3&utm_medium=api_v3_business_search&utm_source=hBJOknVQJ58S5goQyjmwRw", "review_count": 5, "categories": [{"alias": "international", "title": "International"}, {"alias": "german", "title": "German"}], "rating": 3.5, "coordinates": {"latitude": 53.58168, "longitude": 9.76465}, "transactions": [], "price": "\u20ac\u20ac", "location": {"address1": "Alte S\u00fclldorfer Landstr. 420 C", "address2": null, "address3": "", "city": "Hamburg", "zip_code": "22559", "country": "DE", "state": "HH", "display_address": ["Alte S\u00fclldorfer Landstr. 420 C", "22559 Hamburg", "Germany"]}, "phone": "+4940180243405", "display_phone": "+49 40 180243405", "distance": 1387.7961469542456}, {"id": "GfG8sQNKdaNkqs2nJBF_0g", "alias": "gastst\u00e4tte-pony-waldsch\u00e4nke-hamburg", "name": "Gastst\u00e4tte Pony-Waldsch\u00e4nke", "image_url": "https://s3-media1.fl.yelpcdn.com/bphoto/o73WXVCYlQLq985rmNk-EQ/o.jpg", "is_closed": false, "url": "https://www.yelp.com/biz/gastst%C3%A4tte-pony-waldsch%C3%A4nke-hamburg?adjust_creative=hBJOknVQJ58S5goQyjmwRw&utm_campaign=yelp_api_v3&utm_medium=api_v3_business_search&utm_source=hBJOknVQJ58S5goQyjmwRw", "review_count": 42, "categories": [{"alias": "german", "title": "German"}], "rating": 4.0, "coordinates": {"latitude": 53.60464, "longitude": 9.7698}, "transactions": [], "price": "\u20ac\u20ac", "location": {"address1": "Babenwischenweg 28", "address2": null, "address3": null, "city": "Hamburg", "zip_code": "22559", "country": "DE", "state": "HH", "display_address": ["Babenwischenweg 28", "22559 Hamburg", "Germany"]}, "phone": "+4940812353", "display_phone": "+49 40 812353", "distance": 1472.6232984904807}, {"id": "tO8v3GHCHj1-MNwL_qoTOg", "alias": "messologi-hamburg", "name": "Messologi", "image_url": "https://s3-media1.fl.yelpcdn.com/bphoto/JMa9ktHIf0rRnhCZBqw92A/o.jpg", "is_closed": false, "url": "https://www.yelp.com/biz/messologi-hamburg?adjust_creative=hBJOknVQJ58S5goQyjmwRw&utm_campaign=yelp_api_v3&utm_medium=api_v3_business_search&utm_source=hBJOknVQJ58S5goQyjmwRw", "review_count": 4, "categories": [{"alias": "greek", "title": "Greek"}], "rating": 5.0, "coordinates": {"latitude": 53.58144, "longitude": 9.76352}, "transactions": [], "price": "\u20ac\u20ac", "location": {"address1": "Alte S\u00fclldorfer Landstr. 422", "address2": "", "address3": null, "city": "Hamburg", "zip_code": "22559", "country": "DE", "state": "HH", "display_address": ["Alte S\u00fclldorfer Landstr. 422", "22559 Hamburg", "Germany"]}, "phone": "+494046649347", "display_phone": "+49 40 46649347", "distance": 1386.9442930267562}, {"id": "TDRqBvQb5BCnLepqmgid_g", "alias": "kaffeeklatsch-hamburg", "name": "KaffeeKlatsch", "image_url": "https://s3-media3.fl.yelpcdn.com/bphoto/135blYig9_mHwRyig3YlFg/o.jpg", "is_closed": false, "url": "https://www.yelp.com/biz/kaffeeklatsch-hamburg?adjust_creative=hBJOknVQJ58S5goQyjmwRw&utm_campaign=yelp_api_v3&utm_medium=api_v3_business_search&utm_source=hBJOknVQJ58S5goQyjmwRw", "review_count": 1, "categories": [{"alias": "cafes", "title": "Cafes"}, {"alias": "bistros", "title": "Bistros"}, {"alias": "breakfast_brunch", "title": "Breakfast & Brunch"}], "rating": 5.0, "coordinates": {"latitude": 53.5819054315346, "longitude": 9.75603438913822}, "transactions": [], "price": "\u20ac\u20ac", "location": {"address1": "Wedeler Landstr. 44", "address2": "", "address3": "", "city": "Hamburg", "zip_code": "22559", "country": "DE", "state": "HH", "display_address": ["Wedeler Landstr. 44", "22559 Hamburg", "Germany"]}, "phone": "+494081997380", "display_phone": "+49 40 81997380", "distance": 1293.9381745344415}, {"id": "h6sKaLEtgWEmk11-Hhr2-A", "alias": "d\u00f6ner-pavillon-hamburg-2", "name": "D\u00f6ner pavillon", "image_url": "https://s3-media1.fl.yelpcdn.com/bphoto/oAXuC1jnZ4koEx-bA3EeMg/o.jpg", "is_closed": false, "url": "https://www.yelp.com/biz/d%C3%B6ner-pavillon-hamburg-2?adjust_creative=hBJOknVQJ58S5goQyjmwRw&utm_campaign=yelp_api_v3&utm_medium=api_v3_business_search&utm_source=hBJOknVQJ58S5goQyjmwRw", "review_count": 4, "categories": [{"alias": "kebab", "title": "Kebab"}, {"alias": "cafes", "title": "Cafes"}], "rating": 4.5, "coordinates": {"latitude": 53.581732, "longitude": 9.754668}, "transactions": [], "price": "\u20ac\u20ac", "location": {"address1": "Wedeler Landstr. 53", "address2": null, "address3": null, "city": "Hamburg", "zip_code": "22559", "country": "DE", "state": "HH", "display_address": ["Wedeler Landstr. 53", "22559 Hamburg", "Germany"]}, "phone": "+494081956329", "display_phone": "+49 40 81956329", "distance": 1323.4878233952065}, {"id": "o_LKkr-7dBW9kMCPDqgXcA", "alias": "kleine-waldsch\u00e4nke-hamburg", "name": "Kleine Waldsch\u00e4nke", "image_url": "https://s3-media1.fl.yelpcdn.com/bphoto/036OZwC0vpCdfu8IGRmY0w/o.jpg", "is_closed": false, "url": "https://www.yelp.com/biz/kleine-waldsch%C3%A4nke-hamburg?adjust_creative=hBJOknVQJ58S5goQyjmwRw&utm_campaign=yelp_api_v3&utm_medium=api_v3_business_search&utm_source=hBJOknVQJ58S5goQyjmwRw", "review_count": 19, "categories": [{"alias": "german", "title": "German"}, {"alias": "venues", "title": "Venues & Event Spaces"}], "rating": 3.0, "coordinates": {"latitude": 53.5963, "longitude": 9.74605}, "transactions": [], "price": "\u20ac\u20ac", "location": {"address1": "Sandmoorweg 149", "address2": null, "address3": null, "city": "Hamburg", "zip_code": "22559", "country": "DE", "state": "HH", "display_address": ["Sandmoorweg 149", "22559 Hamburg", "Germany"]}, "phone": "+4940814792", "display_phone": "+49 40 814792", "distance": 825.586493388061}, {"id": "pmfjBbGjE6HF23JPYRXdxw", "alias": "l\u00fctt-falkenstein-hamburg", "name": "L\u00fctt Falkenstein", "image_url": "https://s3-media3.fl.yelpcdn.com/bphoto/1cglaaLk9sntX0KRP5Z35A/o.jpg", "is_closed": false, "url": "https://www.yelp.com/biz/l%C3%BCtt-falkenstein-hamburg?adjust_creative=hBJOknVQJ58S5goQyjmwRw&utm_campaign=yelp_api_v3&utm_medium=api_v3_business_search&utm_source=hBJOknVQJ58S5goQyjmwRw", "review_count": 1, "categories": [{"alias": "bistros", "title": "Bistros"}], "rating": 5.0, "coordinates": {"latitude": 53.5622474893341, "longitude": 9.77977322366829}, "transactions": [], "location": {"address1": "Falkensteiner Ufer 54", "address2": "", "address3": "", "city": "Hamburg", "zip_code": "22587", "country": "DE", "state": "HH", "display_address": ["Falkensteiner Ufer 54", "22587 Hamburg", "Germany"]}, "phone": "+49408663023", "display_phone": "+49 40 8663023", "distance": 3770.181946434432}, {"id": "8avHWRsgk5z-CGajk6gNFQ", "alias": "imbiss-am-falkensteiner-ufer-hamburg", "name": "Imbiss am Falkensteiner Ufer", "image_url": "https://s3-media3.fl.yelpcdn.com/bphoto/6B9juUamE0TF6LAUAsE_tA/o.jpg", "is_closed": false, "url": "https://www.yelp.com/biz/imbiss-am-falkensteiner-ufer-hamburg?adjust_creative=hBJOknVQJ58S5goQyjmwRw&utm_campaign=yelp_api_v3&utm_medium=api_v3_business_search&utm_source=hBJOknVQJ58S5goQyjmwRw", "review_count": 5, "categories": [{"alias": "foodstands", "title": "Food Stands"}], "rating": 4.5, "coordinates": {"latitude": 53.56226, "longitude": 9.77992}, "transactions": [], "location": {"address1": "Falkensteiner Ufer 54", "address2": "", "address3": "", "city": "Hamburg", "zip_code": "22587", "country": "DE", "state": "HH", "display_address": ["Falkensteiner Ufer 54", "22587 Hamburg", "Germany"]}, "phone": "+49408663023", "display_phone": "+49 40 8663023", "distance": 3287.432859009801}, {"id": "gk8jYhmGLaS-7YG-K6Bd8Q", "alias": "bistro-elbe-camp-hamburg", "name": "Bistro Elbe Camp", "image_url": "https://s3-media3.fl.yelpcdn.com/bphoto/Vo_HcQxkhEZnmvBDb_fTiA/o.jpg", "is_closed": false, "url": "https://www.yelp.com/biz/bistro-elbe-camp-hamburg?adjust_creative=hBJOknVQJ58S5goQyjmwRw&utm_campaign=yelp_api_v3&utm_medium=api_v3_business_search&utm_source=hBJOknVQJ58S5goQyjmwRw", "review_count": 1, "categories": [{"alias": "foodstands", "title": "Food Stands"}], "rating": 4.0, "coordinates": {"latitude": 53.56448, "longitude": 9.7672}, "transactions": [], "location": {"address1": "Falkensteiner Ufer 101", "address2": "", "address3": "", "city": "Hamburg", "zip_code": "22587", "country": "DE", "state": "HH", "display_address": ["Falkensteiner Ufer 101", "22587 Hamburg", "Germany"]}, "phone": "+4940812949", "display_phone": "+49 40 812949", "distance": 3354.451399795918}, {"id": "oDMAr7VX8Hs4morkGlFZGw", "alias": "zum-falkenstein-hamburg", "name": "Zum Falkenstein", "image_url": "https://s3-media3.fl.yelpcdn.com/bphoto/4QVVSkUDrCUNc5QTKPVoVw/o.jpg", "is_closed": false, "url": "https://www.yelp.com/biz/zum-falkenstein-hamburg?adjust_creative=hBJOknVQJ58S5goQyjmwRw&utm_campaign=yelp_api_v3&utm_medium=api_v3_business_search&utm_source=hBJOknVQJ58S5goQyjmwRw", "review_count": 35, "categories": [{"alias": "german", "title": "German"}], "rating": 3.0, "coordinates": {"latitude": 53.56726, "longitude": 9.7799}, "transactions": [], "price": "\u20ac\u20ac", "location": {"address1": "K\u00f6sterbergstr. 105", "address2": null, "address3": null, "city": "Hamburg", "zip_code": "22587", "country": "DE", "state": "HH", "display_address": ["K\u00f6sterbergstr. 105", "22587 Hamburg", "Germany"]}, "phone": "+4940861342", "display_phone": "+49 40 861342", "distance": 3257.9347927709805}, {"id": "oUBaCbG3SV1rBi1X80qPQw", "alias": "eis-kalte-schnauze-hamburg", "name": "Eis Kalte Schnauze", "image_url": "https://s3-media4.fl.yelpcdn.com/bphoto/R59AbpbRYQ9MsqnCtJ8-Vw/o.jpg", "is_closed": false, "url": "https://www.yelp.com/biz/eis-kalte-schnauze-hamburg?adjust_creative=hBJOknVQJ58S5goQyjmwRw&utm_campaign=yelp_api_v3&utm_medium=api_v3_business_search&utm_source=hBJOknVQJ58S5goQyjmwRw", "review_count": 6, "categories": [{"alias": "cafes", "title": "Cafes"}, {"alias": "icecream", "title": "Ice Cream & Frozen Yogurt"}], "rating": 4.5, "coordinates": {"latitude": 53.5818859251788, "longitude": 9.75732386112213}, "transactions": [], "price": "\u20ac", "location": {"address1": "Wedeler Landstr. 34", "address2": "", "address3": "", "city": "Hamburg", "zip_code": "22559", "country": "DE", "state": "HH", "display_address": ["Wedeler Landstr. 34", "22559 Hamburg", "Germany"]}, "phone": "+494033450670", "display_phone": "+49 40 33450670", "distance": 1291.934517464647}, {"id": "f3omhBxut0ZG1cXVNk9dwg", "alias": "delhi-masala-hamburg", "name": "Delhi Masala", "image_url": "https://s3-media1.fl.yelpcdn.com/bphoto/K98_NEbAF6euEgXt4KvurQ/o.jpg", "is_closed": false, "url": "https://www.yelp.com/biz/delhi-masala-hamburg?adjust_creative=hBJOknVQJ58S5goQyjmwRw&utm_campaign=yelp_api_v3&utm_medium=api_v3_business_search&utm_source=hBJOknVQJ58S5goQyjmwRw", "review_count": 2, "categories": [{"alias": "indpak", "title": "Indian"}], "rating": 3.5, "coordinates": {"latitude": 53.5816299, "longitude": 9.75837}, "transactions": [], "location": {"address1": "Wedeler Landstr. 29", "address2": "", "address3": null, "city": "Hamburg", "zip_code": "22559", "country": "DE", "state": "HH", "display_address": ["Wedeler Landstr. 29", "22559 Hamburg", "Germany"]}, "phone": "+494082244770", "display_phone": "+49 40 82244770", "distance": 1336.5529439925717}, {"id": "mkZnMbI3jPtq3W1EHMsAFA", "alias": "pizza-service-johlo-hamburg", "name": "Pizza Service Johlo", "image_url": "https://s3-media2.fl.yelpcdn.com/bphoto/lzEL8j-Wm0zdecYDxvcsSg/o.jpg", "is_closed": false, "url": "https://www.yelp.com/biz/pizza-service-johlo-hamburg?adjust_creative=hBJOknVQJ58S5goQyjmwRw&utm_campaign=yelp_api_v3&utm_medium=api_v3_business_search&utm_source=hBJOknVQJ58S5goQyjmwRw", "review_count": 13, "categories": [{"alias": "pizza", "title": "Pizza"}], "rating": 3.5, "coordinates": {"latitude": 53.581772, "longitude": 9.754523}, "transactions": [], "price": "\u20ac\u20ac\u20ac\u20ac", "location": {"address1": "Wedeler Landstr. 53 F", "address2": null, "address3": null, "city": "Hamburg", "zip_code": "22559", "country": "DE", "state": "HH", "display_address": ["Wedeler Landstr. 53 F", "22559 Hamburg", "Germany"]}, "phone": "+4940818185", "display_phone": "+49 40 818185", "distance": 1320.5457896576308}, {"id": "MLWqIcqQ-jUNqkJ0gUKaAA", "alias": "dominos-hamburg-14", "name": "Domino's", "image_url": "", "is_closed": false, "url": "https://www.yelp.com/biz/dominos-hamburg-14?adjust_creative=hBJOknVQJ58S5goQyjmwRw&utm_campaign=yelp_api_v3&utm_medium=api_v3_business_search&utm_source=hBJOknVQJ58S5goQyjmwRw", "review_count": 2, "categories": [{"alias": "pizza", "title": "Pizza"}], "rating": 1.5, "coordinates": {"latitude": 53.5826699541647, "longitude": 9.75413002073765}, "transactions": [], "location": {"address1": "Wedeler Landstr. 58", "address2": "", "address3": null, "city": "Hamburg", "zip_code": "22559", "country": "DE", "state": "HH", "display_address": ["Wedeler Landstr. 58", "22559 Hamburg", "Germany"]}, "phone": "+49408199810", "display_phone": "+49 40 8199810", "distance": 1226.6460324856307}]