[{"id": "bk5N3hkwvn1wzKIHEjdNOA", "alias": "la-fortuna-hamburg-5", "name": "La Fortuna", "image_url": "https://s3-media2.fl.yelpcdn.com/bphoto/pkK_iHxYmlw_s-pn1Om9Qg/o.jpg", "is_closed": false, "url": "https://www.yelp.com/biz/la-fortuna-hamburg-5?adjust_creative=hBJOknVQJ58S5goQyjmwRw&utm_campaign=yelp_api_v3&utm_medium=api_v3_business_search&utm_source=hBJOknVQJ58S5goQyjmwRw", "review_count": 8, "categories": [{"alias": "italian", "title": "Italian"}, {"alias": "french", "title": "French"}], "rating": 5.0, "coordinates": {"latitude": 53.61771, "longitude": 10.07887}, "transactions": [], "price": "\u20ac\u20ac", "location": {"address1": "Bramfelder Chaussee 306", "address2": "", "address3": "", "city": "Hamburg", "zip_code": "22177", "country": "DE", "state": "HH", "display_address": ["Bramfelder Chaussee 306", "22177 Hamburg", "Germany"]}, "phone": "+494028804755", "display_phone": "+49 40 28804755", "distance": 1235.5636766288223}, {"id": "vqN5zhmaM3YMtp-kVHUPFA", "alias": "hanoi-quan-hamburg", "name": "Hanoi Quan", "image_url": "https://s3-media2.fl.yelpcdn.com/bphoto/KspPS7hQia2DeSW68hRXpA/o.jpg", "is_closed": false, "url": "https://www.yelp.com/biz/hanoi-quan-hamburg?adjust_creative=hBJOknVQJ58S5goQyjmwRw&utm_campaign=yelp_api_v3&utm_medium=api_v3_business_search&utm_source=hBJOknVQJ58S5goQyjmwRw", "review_count": 2, "categories": [{"alias": "vietnamese", "title": "Vietnamese"}], "rating": 4.5, "coordinates": {"latitude": 53.6155579, "longitude": 10.0768295}, "transactions": [], "price": "\u20ac\u20ac", "location": {"address1": "Bramfelder Chaussee 264", "address2": "", "address3": null, "city": "Hamburg", "zip_code": "22177", "country": "DE", "state": "HH", "display_address": ["Bramfelder Chaussee 264", "22177 Hamburg", "Germany"]}, "phone": "+494064222509", "display_phone": "+49 40 64222509", "distance": 1163.045503533168}, {"id": "ofxa-7nT9RdNxCdDqZoaxQ", "alias": "restaurant-schnitzelhus-hamburg", "name": "Restaurant Schnitzelhus", "image_url": "https://s3-media3.fl.yelpcdn.com/bphoto/LuMoUgo2X37y8fS-Pzrrgg/o.jpg", "is_closed": false, "url": "https://www.yelp.com/biz/restaurant-schnitzelhus-hamburg?adjust_creative=hBJOknVQJ58S5goQyjmwRw&utm_campaign=yelp_api_v3&utm_medium=api_v3_business_search&utm_source=hBJOknVQJ58S5goQyjmwRw", "review_count": 70, "categories": [{"alias": "schnitzel", "title": "Schnitzel"}], "rating": 4.5, "coordinates": {"latitude": 53.578322, "longitude": 10.0941034}, "transactions": [], "price": "\u20ac\u20ac", "location": {"address1": "Luetkensallee 1", "address2": "", "address3": null, "city": "Hamburg", "zip_code": "22041", "country": "DE", "state": "HH", "display_address": ["Luetkensallee 1", "22041 Hamburg", "Germany"]}, "phone": "+494023999823", "display_phone": "+49 40 23999823", "distance": 3409.898149499104}, {"id": "HTJFV4B-xQRwvDxIun0g2g", "alias": "l-amira-farmsen-hamburg", "name": "L'Amira Farmsen", "image_url": "https://s3-media4.fl.yelpcdn.com/bphoto/vGGTedKCivZ-omRsQDWDnQ/o.jpg", "is_closed": false, "url": "https://www.yelp.com/biz/l-amira-farmsen-hamburg?adjust_creative=hBJOknVQJ58S5goQyjmwRw&utm_campaign=yelp_api_v3&utm_medium=api_v3_business_search&utm_source=hBJOknVQJ58S5goQyjmwRw", "review_count": 58, "categories": [{"alias": "syrian", "title": "Syrian"}], "rating": 4.5, "coordinates": {"latitude": 53.6165449, "longitude": 10.1136955}, "transactions": [], "price": "\u20ac\u20ac", "location": {"address1": "Neusurenland 101", "address2": "", "address3": "", "city": "Hamburg", "zip_code": "22159", "country": "DE", "state": "HH", "display_address": ["Neusurenland 101", "22159 Hamburg", "Germany"]}, "phone": "+494073088653", "display_phone": "+49 40 73088653", "distance": 1753.1075002799664}, {"id": "mPXZdMjMAa_3cmh6bYT08g", "alias": "home-sweet-home-hamburg", "name": "Home Sweet Home", "image_url": "https://s3-media4.fl.yelpcdn.com/bphoto/kf11SqW6Da0jHD9xrWljSg/o.jpg", "is_closed": false, "url": "https://www.yelp.com/biz/home-sweet-home-hamburg?adjust_creative=hBJOknVQJ58S5goQyjmwRw&utm_campaign=yelp_api_v3&utm_medium=api_v3_business_search&utm_source=hBJOknVQJ58S5goQyjmwRw", "review_count": 10, "categories": [{"alias": "german", "title": "German"}], "rating": 5.0, "coordinates": {"latitude": 53.5972606, "longitude": 10.070846}, "transactions": [], "price": "\u20ac\u20ac", "location": {"address1": "Haldesdorfer Str. 36b", "address2": null, "address3": null, "city": "Hamburg", "zip_code": "22179", "country": "DE", "state": "HH", "display_address": ["Haldesdorfer Str. 36b", "22179 Hamburg", "Germany"]}, "phone": "+494065864896", "display_phone": "+49 40 65864896", "distance": 1830.3002712841785}, {"id": "0dpEgJYclZ0-ezDolzC5zA", "alias": "cristinas-hamburg", "name": "Cristina's", "image_url": "https://s3-media4.fl.yelpcdn.com/bphoto/ECErzB1ppaFKVGVAvKgMAA/o.jpg", "is_closed": false, "url": "https://www.yelp.com/biz/cristinas-hamburg?adjust_creative=hBJOknVQJ58S5goQyjmwRw&utm_campaign=yelp_api_v3&utm_medium=api_v3_business_search&utm_source=hBJOknVQJ58S5goQyjmwRw", "review_count": 52, "categories": [{"alias": "italian", "title": "Italian"}], "rating": 4.5, "coordinates": {"latitude": 53.61049, "longitude": 10.0740025}, "transactions": [], "price": "\u20ac\u20ac\u20ac", "location": {"address1": "Bramfelder Chaussee 212", "address2": "", "address3": "", "city": "Hamburg", "zip_code": "22177", "country": "DE", "state": "HH", "display_address": ["Bramfelder Chaussee 212", "22177 Hamburg", "Germany"]}, "phone": "+494063975061", "display_phone": "+49 40 63975061", "distance": 1098.6651217261954}, {"id": "oYhu6LqMt0o9K-KO9pZOVQ", "alias": "el-pulpo-hamburg", "name": "El Pulpo", "image_url": "https://s3-media2.fl.yelpcdn.com/bphoto/u1qPsPznEADkC9tNj4en3w/o.jpg", "is_closed": false, "url": "https://www.yelp.com/biz/el-pulpo-hamburg?adjust_creative=hBJOknVQJ58S5goQyjmwRw&utm_campaign=yelp_api_v3&utm_medium=api_v3_business_search&utm_source=hBJOknVQJ58S5goQyjmwRw", "review_count": 97, "categories": [{"alias": "seafood", "title": "Seafood"}, {"alias": "spanish", "title": "Spanish"}, {"alias": "portuguese", "title": "Portuguese"}], "rating": 3.5, "coordinates": {"latitude": 53.57529, "longitude": 10.0747199}, "transactions": [], "price": "\u20ac\u20ac", "location": {"address1": "Wandsbeker Zollstr. 25", "address2": null, "address3": null, "city": "Hamburg", "zip_code": "22041", "country": "DE", "state": "HH", "display_address": ["Wandsbeker Zollstr. 25", "22041 Hamburg", "Germany"]}, "phone": "+4940680625", "display_phone": "+49 40 680625", "distance": 3881.5689673433494}, {"id": "tLqsWv6XgHjA1OSDUAxDEQ", "alias": "restaurant-tarantino-hamburg", "name": "Restaurant Tarantino", "image_url": "https://s3-media1.fl.yelpcdn.com/bphoto/EJRjyOv1CjjcGJikgtBmYg/o.jpg", "is_closed": false, "url": "https://www.yelp.com/biz/restaurant-tarantino-hamburg?adjust_creative=hBJOknVQJ58S5goQyjmwRw&utm_campaign=yelp_api_v3&utm_medium=api_v3_business_search&utm_source=hBJOknVQJ58S5goQyjmwRw", "review_count": 13, "categories": [{"alias": "italian", "title": "Italian"}], "rating": 4.5, "coordinates": {"latitude": 53.5824, "longitude": 10.1116}, "transactions": [], "price": "\u20ac\u20ac", "location": {"address1": "Ahrensburger Str. 170", "address2": null, "address3": null, "city": "Hamburg", "zip_code": "22045", "country": "DE", "state": "HH", "display_address": ["Ahrensburger Str. 170", "22045 Hamburg", "Germany"]}, "phone": "+49406562458", "display_phone": "+49 40 6562458", "distance": 3261.811936919872}, {"id": "0hb6QH5-DxlvA6O694HGxQ", "alias": "jannis-hamburg-2", "name": "Jannis", "image_url": "https://s3-media2.fl.yelpcdn.com/bphoto/cUYVyFbMOBQ6huMFL3Ux9w/o.jpg", "is_closed": false, "url": "https://www.yelp.com/biz/jannis-hamburg-2?adjust_creative=hBJOknVQJ58S5goQyjmwRw&utm_campaign=yelp_api_v3&utm_medium=api_v3_business_search&utm_source=hBJOknVQJ58S5goQyjmwRw", "review_count": 54, "categories": [{"alias": "greek", "title": "Greek"}], "rating": 4.5, "coordinates": {"latitude": 53.57974, "longitude": 10.08165}, "transactions": [], "price": "\u20ac\u20ac", "location": {"address1": "Waldd\u00f6rferstr. 115", "address2": null, "address3": null, "city": "Hamburg", "zip_code": "22047", "country": "DE", "state": "HH", "display_address": ["Waldd\u00f6rferstr. 115", "22047 Hamburg", "Germany"]}, "phone": "+494028058260", "display_phone": "+49 40 28058260", "distance": 3312.213206150264}, {"id": "-CX0FHN7iOatGW6nzfYn2g", "alias": "vezos-hamburg-2", "name": "Vezos", "image_url": "https://s3-media3.fl.yelpcdn.com/bphoto/AXZWGak5Km565Hr7giu3jg/o.jpg", "is_closed": false, "url": "https://www.yelp.com/biz/vezos-hamburg-2?adjust_creative=hBJOknVQJ58S5goQyjmwRw&utm_campaign=yelp_api_v3&utm_medium=api_v3_business_search&utm_source=hBJOknVQJ58S5goQyjmwRw", "review_count": 1, "categories": [{"alias": "greek", "title": "Greek"}], "rating": 5.0, "coordinates": {"latitude": 53.579377, "longitude": 10.072223}, "transactions": [], "price": "\u20ac\u20ac", "location": {"address1": "Wald\u00f6rfer Str. 49", "address2": null, "address3": "", "city": "Hamburg", "zip_code": "22041", "country": "DE", "state": "HH", "display_address": ["Wald\u00f6rfer Str. 49", "22041 Hamburg", "Germany"]}, "phone": "+494068268112", "display_phone": "+49 40 68268112", "distance": 3497.2115219471993}, {"id": "BjfyGGgIDkVxmoneq1v7Nw", "alias": "ata-hamburg", "name": "Ata", "image_url": "https://s3-media2.fl.yelpcdn.com/bphoto/Z4kG4o9hOPBknlRq1cGFFQ/o.jpg", "is_closed": false, "url": "https://www.yelp.com/biz/ata-hamburg?adjust_creative=hBJOknVQJ58S5goQyjmwRw&utm_campaign=yelp_api_v3&utm_medium=api_v3_business_search&utm_source=hBJOknVQJ58S5goQyjmwRw", "review_count": 45, "categories": [{"alias": "turkish", "title": "Turkish"}], "rating": 4.5, "coordinates": {"latitude": 53.5939, "longitude": 10.0982}, "transactions": [], "price": "\u20ac\u20ac", "location": {"address1": "Am Stadtrand 66", "address2": null, "address3": null, "city": "Hamburg", "zip_code": "22047", "country": "DE", "state": "HH", "display_address": ["Am Stadtrand 66", "22047 Hamburg", "Germany"]}, "phone": "+494069641787", "display_phone": "+49 40 69641787", "distance": 1745.857604120238}, {"id": "-6tlO6UyWyo_NsKur7uKCw", "alias": "la-madera-hamburg-2", "name": "La Madera", "image_url": "https://s3-media3.fl.yelpcdn.com/bphoto/9J8fAarpfPXzpScmOs85gw/o.jpg", "is_closed": false, "url": "https://www.yelp.com/biz/la-madera-hamburg-2?adjust_creative=hBJOknVQJ58S5goQyjmwRw&utm_campaign=yelp_api_v3&utm_medium=api_v3_business_search&utm_source=hBJOknVQJ58S5goQyjmwRw", "review_count": 103, "categories": [{"alias": "steak", "title": "Steakhouses"}, {"alias": "spanish", "title": "Spanish"}], "rating": 3.5, "coordinates": {"latitude": 53.6434, "longitude": 10.09883}, "transactions": [], "price": "\u20ac\u20ac\u20ac", "location": {"address1": "Saseler Chaussee 101", "address2": "", "address3": "", "city": "Hamburg", "zip_code": "22393", "country": "DE", "state": "HH", "display_address": ["Saseler Chaussee 101", "22393 Hamburg", "Germany"]}, "phone": "+494038076165", "display_phone": "+49 40 38076165", "distance": 3876.962243062904}, {"id": "RPCwdpCqreC2CpGLipFuig", "alias": "mongolei-hamburg", "name": "Mongolei", "image_url": "https://s3-media2.fl.yelpcdn.com/bphoto/lrrogn1Lk72WxKYE-3mhtQ/o.jpg", "is_closed": false, "url": "https://www.yelp.com/biz/mongolei-hamburg?adjust_creative=hBJOknVQJ58S5goQyjmwRw&utm_campaign=yelp_api_v3&utm_medium=api_v3_business_search&utm_source=hBJOknVQJ58S5goQyjmwRw", "review_count": 52, "categories": [{"alias": "panasian", "title": "Pan Asian"}], "rating": 3.5, "coordinates": {"latitude": 53.5888895, "longitude": 10.098177}, "transactions": [], "price": "\u20ac\u20ac", "location": {"address1": "Friedrich-Ebert-Damm 143 - 145", "address2": "", "address3": "", "city": "Hamburg", "zip_code": "22047", "country": "DE", "state": "HH", "display_address": ["Friedrich-Ebert-Damm 143 - 145", "22047 Hamburg", "Germany"]}, "phone": "+494088234838", "display_phone": "+49 40 88234838", "distance": 2284.030333572048}, {"id": "G01-WrYymcu3JmbhESGV8g", "alias": "angelo-hamburg-2", "name": "Angelo", "image_url": "https://s3-media4.fl.yelpcdn.com/bphoto/__tyTmE0QsvrNwBGzdDsZA/o.jpg", "is_closed": false, "url": "https://www.yelp.com/biz/angelo-hamburg-2?adjust_creative=hBJOknVQJ58S5goQyjmwRw&utm_campaign=yelp_api_v3&utm_medium=api_v3_business_search&utm_source=hBJOknVQJ58S5goQyjmwRw", "review_count": 60, "categories": [{"alias": "italian", "title": "Italian"}], "rating": 4.0, "coordinates": {"latitude": 53.5738157, "longitude": 10.0728967}, "transactions": [], "price": "\u20ac\u20ac", "location": {"address1": "Wandsbeker Marktstr. 170", "address2": null, "address3": null, "city": "Hamburg", "zip_code": "22041", "country": "DE", "state": "HH", "display_address": ["Wandsbeker Marktstr. 170", "22041 Hamburg", "Germany"]}, "phone": "+49406529544", "display_phone": "+49 40 6529544", "distance": 4070.5921455579664}, {"id": "eATM7P71JZ2ihBKKL7yHhA", "alias": "jam-jam-hamburg", "name": "Jam Jam", "image_url": "https://s3-media3.fl.yelpcdn.com/bphoto/B7HN4zebmeenci0vMACN9w/o.jpg", "is_closed": false, "url": "https://www.yelp.com/biz/jam-jam-hamburg?adjust_creative=hBJOknVQJ58S5goQyjmwRw&utm_campaign=yelp_api_v3&utm_medium=api_v3_business_search&utm_source=hBJOknVQJ58S5goQyjmwRw", "review_count": 233, "categories": [{"alias": "conveyorsushi", "title": "Conveyor Belt Sushi"}], "rating": 4.0, "coordinates": {"latitude": 53.57347, "longitude": 10.07069}, "transactions": [], "price": "\u20ac\u20ac", "location": {"address1": "Wandsbeker Marktstr. 141", "address2": null, "address3": null, "city": "Hamburg", "zip_code": "22041", "country": "DE", "state": "HH", "display_address": ["Wandsbeker Marktstr. 141", "22041 Hamburg", "Germany"]}, "phone": "+494088155998", "display_phone": "+49 40 88155998", "distance": 4149.858515416084}, {"id": "twyPJHylpeATFt8TvhD_gw", "alias": "jumbo-hamburg", "name": "Jumbo", "image_url": "https://s3-media3.fl.yelpcdn.com/bphoto/Xd_i4Od5lKv3ftaioorIsg/o.jpg", "is_closed": false, "url": "https://www.yelp.com/biz/jumbo-hamburg?adjust_creative=hBJOknVQJ58S5goQyjmwRw&utm_campaign=yelp_api_v3&utm_medium=api_v3_business_search&utm_source=hBJOknVQJ58S5goQyjmwRw", "review_count": 20, "categories": [{"alias": "dimsum", "title": "Dim Sum"}], "rating": 4.0, "coordinates": {"latitude": 53.57382, "longitude": 10.07184}, "transactions": [], "price": "\u20ac\u20ac", "location": {"address1": "Wandsbeker Marktstr. 157", "address2": "", "address3": "", "city": "Hamburg", "zip_code": "22041", "country": "DE", "state": "HH", "display_address": ["Wandsbeker Marktstr. 157", "22041 Hamburg", "Germany"]}, "phone": "+494068913018", "display_phone": "+49 40 68913018", "distance": 4093.874255605372}, {"id": "VsgSTpeeqZUCvAJIXZlN-w", "alias": "just-falafels-hamburg", "name": "Just Falafels", "image_url": "https://s3-media3.fl.yelpcdn.com/bphoto/FY54O4kmbp-WKWDywuiaVQ/o.jpg", "is_closed": false, "url": "https://www.yelp.com/biz/just-falafels-hamburg?adjust_creative=hBJOknVQJ58S5goQyjmwRw&utm_campaign=yelp_api_v3&utm_medium=api_v3_business_search&utm_source=hBJOknVQJ58S5goQyjmwRw", "review_count": 1, "categories": [{"alias": "falafel", "title": "Falafel"}], "rating": 5.0, "coordinates": {"latitude": 53.620699, "longitude": 10.102013}, "transactions": [], "location": {"address1": "Pezolddamm 40", "address2": "", "address3": "", "city": "Hamburg", "zip_code": "22175", "country": "DE", "state": "HH", "display_address": ["Pezolddamm 40", "22175 Hamburg", "Germany"]}, "phone": "+494055645530", "display_phone": "+49 40 55645530", "distance": 1517.5869968073994}, {"id": "AMNzdfCCDPFQrvnmcF3nNA", "alias": "sushi-f\u00fcr-hamburg-hamburg-2", "name": "Sushi f\u00fcr Hamburg", "image_url": "https://s3-media2.fl.yelpcdn.com/bphoto/-3Cny81QWYcFv2mSZoTnrA/o.jpg", "is_closed": false, "url": "https://www.yelp.com/biz/sushi-f%C3%BCr-hamburg-hamburg-2?adjust_creative=hBJOknVQJ58S5goQyjmwRw&utm_campaign=yelp_api_v3&utm_medium=api_v3_business_search&utm_source=hBJOknVQJ58S5goQyjmwRw", "review_count": 53, "categories": [{"alias": "sushi", "title": "Sushi Bars"}], "rating": 4.0, "coordinates": {"latitude": 53.5793369, "longitude": 10.0728006}, "transactions": [], "price": "\u20ac\u20ac", "location": {"address1": "Waldd\u00f6rferstr. 51", "address2": null, "address3": null, "city": "Hamburg", "zip_code": "22041", "country": "DE", "state": "HH", "display_address": ["Waldd\u00f6rferstr. 51", "22041 Hamburg", "Germany"]}, "phone": "+494068282816", "display_phone": "+49 40 68282816", "distance": 3488.493030062502}, {"id": "OYQggP30PLAKb_DtaxLhzA", "alias": "qing-dao-hamburg", "name": "Qing Dao", "image_url": "https://s3-media2.fl.yelpcdn.com/bphoto/QilDd9pT_ZjLpBJiJkGMUw/o.jpg", "is_closed": false, "url": "https://www.yelp.com/biz/qing-dao-hamburg?adjust_creative=hBJOknVQJ58S5goQyjmwRw&utm_campaign=yelp_api_v3&utm_medium=api_v3_business_search&utm_source=hBJOknVQJ58S5goQyjmwRw", "review_count": 15, "categories": [{"alias": "chinese", "title": "Chinese"}, {"alias": "thai", "title": "Thai"}], "rating": 4.0, "coordinates": {"latitude": 53.5974, "longitude": 10.1026}, "transactions": [], "price": "\u20ac\u20ac", "location": {"address1": "Eckerkoppel 121", "address2": null, "address3": null, "city": "Hamburg", "zip_code": "22159", "country": "DE", "state": "HH", "display_address": ["Eckerkoppel 121", "22159 Hamburg", "Germany"]}, "phone": "+494064538989", "display_phone": "+49 40 64538989", "distance": 1510.5416538034563}, {"id": "UBR13vZGVjaGwszp9c0SBA", "alias": "mongolei-hamburg-2", "name": "Mongolei", "image_url": "https://s3-media4.fl.yelpcdn.com/bphoto/nKcGCUD_RVNs0vckeonzIg/o.jpg", "is_closed": false, "url": "https://www.yelp.com/biz/mongolei-hamburg-2?adjust_creative=hBJOknVQJ58S5goQyjmwRw&utm_campaign=yelp_api_v3&utm_medium=api_v3_business_search&utm_source=hBJOknVQJ58S5goQyjmwRw", "review_count": 92, "categories": [{"alias": "chinese", "title": "Chinese"}, {"alias": "buffets", "title": "Buffets"}], "rating": 3.5, "coordinates": {"latitude": 53.57769, "longitude": 10.08659}, "transactions": [], "price": "\u20ac\u20ac", "location": {"address1": "Wandsbeker Zollstr. 155", "address2": null, "address3": null, "city": "Hamburg", "zip_code": "22041", "country": "DE", "state": "HH", "display_address": ["Wandsbeker Zollstr. 155", "22041 Hamburg", "Germany"]}, "phone": "+494068917868", "display_phone": "+49 40 68917868", "distance": 3480.900722165642}, {"id": "7UwNDjUE8GuHFWknWd0qRA", "alias": "zum-bramfelder-hof-hamburg", "name": "Zum Bramfelder Hof", "image_url": "", "is_closed": false, "url": "https://www.yelp.com/biz/zum-bramfelder-hof-hamburg?adjust_creative=hBJOknVQJ58S5goQyjmwRw&utm_campaign=yelp_api_v3&utm_medium=api_v3_business_search&utm_source=hBJOknVQJ58S5goQyjmwRw", "review_count": 7, "categories": [{"alias": "serbocroatian", "title": "Serbo Croatian"}, {"alias": "german", "title": "German"}], "rating": 4.5, "coordinates": {"latitude": 53.6115, "longitude": 10.074}, "transactions": [], "price": "\u20ac\u20ac", "location": {"address1": "Bramfelder Chaussee 217", "address2": null, "address3": null, "city": "Hamburg", "zip_code": "22177", "country": "DE", "state": "HH", "display_address": ["Bramfelder Chaussee 217", "22177 Hamburg", "Germany"]}, "phone": "+49406429969", "display_phone": "+49 40 6429969", "distance": 1122.2506547306316}, {"id": "XvIOim03zZNjHPP_hOKdvg", "alias": "ming-dynastie-hamburg", "name": "Ming Dynastie", "image_url": "https://s3-media4.fl.yelpcdn.com/bphoto/Sd9ey30CVVl3hM6QJJfFyw/o.jpg", "is_closed": false, "url": "https://www.yelp.com/biz/ming-dynastie-hamburg?adjust_creative=hBJOknVQJ58S5goQyjmwRw&utm_campaign=yelp_api_v3&utm_medium=api_v3_business_search&utm_source=hBJOknVQJ58S5goQyjmwRw", "review_count": 50, "categories": [{"alias": "chinese", "title": "Chinese"}], "rating": 4.0, "coordinates": {"latitude": 53.573852, "longitude": 10.069663}, "transactions": [], "price": "\u20ac\u20ac", "location": {"address1": "Wandsbeker K\u00f6nigstr. 19 - 21", "address2": "", "address3": "", "city": "Hamburg", "zip_code": "22041", "country": "DE", "state": "HH", "display_address": ["Wandsbeker K\u00f6nigstr. 19 - 21", "22041 Hamburg", "Germany"]}, "phone": "+494069219912", "display_phone": "+49 40 69219912", "distance": 4132.560681447284}, {"id": "rTmdxJraXX1hHc9nXKu8HA", "alias": "christoffers-singin-tapas-hamburg", "name": "Christoffer's Singin' Tapas", "image_url": "https://s3-media1.fl.yelpcdn.com/bphoto/D0QhIH1-AuI_lcUg4plN_w/o.jpg", "is_closed": false, "url": "https://www.yelp.com/biz/christoffers-singin-tapas-hamburg?adjust_creative=hBJOknVQJ58S5goQyjmwRw&utm_campaign=yelp_api_v3&utm_medium=api_v3_business_search&utm_source=hBJOknVQJ58S5goQyjmwRw", "review_count": 49, "categories": [{"alias": "spanish", "title": "Spanish"}], "rating": 4.0, "coordinates": {"latitude": 53.5925239125057, "longitude": 10.075364112854}, "transactions": [], "price": "\u20ac\u20ac\u20ac", "location": {"address1": "Lesserstr. 205", "address2": "", "address3": "", "city": "Hamburg", "zip_code": "22049", "country": "DE", "state": "HH", "display_address": ["Lesserstr. 205", "22049 Hamburg", "Germany"]}, "phone": "+494069644371", "display_phone": "+49 40 69644371", "distance": 2076.0810779005974}, {"id": "pTqNN8gynd9Ry9r34kPn7g", "alias": "trattoria-ciao-hamburg", "name": "Trattoria Ciao", "image_url": "https://s3-media2.fl.yelpcdn.com/bphoto/cYSP7OP0ikqG22WOiCwQBQ/o.jpg", "is_closed": false, "url": "https://www.yelp.com/biz/trattoria-ciao-hamburg?adjust_creative=hBJOknVQJ58S5goQyjmwRw&utm_campaign=yelp_api_v3&utm_medium=api_v3_business_search&utm_source=hBJOknVQJ58S5goQyjmwRw", "review_count": 7, "categories": [{"alias": "italian", "title": "Italian"}], "rating": 4.0, "coordinates": {"latitude": 53.61522, "longitude": 10.07596}, "transactions": [], "price": "\u20ac\u20ac", "location": {"address1": "Bramfelder Chaussee 265", "address2": null, "address3": null, "city": "Hamburg", "zip_code": "22179", "country": "DE", "state": "HH", "display_address": ["Bramfelder Chaussee 265", "22179 Hamburg", "Germany"]}, "phone": "+494070704727", "display_phone": "+49 40 70704727", "distance": 1185.2662230915023}, {"id": "1hLPAeM3oLca7HRh43YqxQ", "alias": "gzeiten-hamburg-2", "name": "Gzeiten", "image_url": "https://s3-media4.fl.yelpcdn.com/bphoto/lQediVi2YpcrLPv8oago8w/o.jpg", "is_closed": false, "url": "https://www.yelp.com/biz/gzeiten-hamburg-2?adjust_creative=hBJOknVQJ58S5goQyjmwRw&utm_campaign=yelp_api_v3&utm_medium=api_v3_business_search&utm_source=hBJOknVQJ58S5goQyjmwRw", "review_count": 77, "categories": [{"alias": "international", "title": "International"}], "rating": 3.5, "coordinates": {"latitude": 53.6176245, "longitude": 10.0788059}, "transactions": [], "price": "\u20ac\u20ac", "location": {"address1": "Bramfelder Chaussee 302", "address2": "", "address3": "", "city": "Hamburg", "zip_code": "22177", "country": "DE", "state": "HH", "display_address": ["Bramfelder Chaussee 302", "22177 Hamburg", "Germany"]}, "phone": "+494063974619", "display_phone": "+49 40 63974619", "distance": 1236.1171836003587}, {"id": "UTJZ3y5MpyODzQC61PpiMg", "alias": "mr-asia-hamburg", "name": "Mr. Asia", "image_url": "https://s3-media4.fl.yelpcdn.com/bphoto/IqCskPcuIlWk1BpRfgwrXw/o.jpg", "is_closed": false, "url": "https://www.yelp.com/biz/mr-asia-hamburg?adjust_creative=hBJOknVQJ58S5goQyjmwRw&utm_campaign=yelp_api_v3&utm_medium=api_v3_business_search&utm_source=hBJOknVQJ58S5goQyjmwRw", "review_count": 22, "categories": [{"alias": "panasian", "title": "Pan Asian"}], "rating": 4.5, "coordinates": {"latitude": 53.62137, "longitude": 10.08228}, "transactions": [], "price": "\u20ac\u20ac", "location": {"address1": "Bramfelder Chaussee 373", "address2": null, "address3": null, "city": "Hamburg", "zip_code": "22175", "country": "DE", "state": "HH", "display_address": ["Bramfelder Chaussee 373", "22175 Hamburg", "Germany"]}, "phone": "+494063648189", "display_phone": "+49 40 63648189", "distance": 1484.277332400394}, {"id": "KaC_exlpWSoqAx_NatHFQA", "alias": "bobbys-burger-hamburg-2", "name": "Bobby's Burger", "image_url": "https://s3-media2.fl.yelpcdn.com/bphoto/D190J-_SI_bTLP2nZOp0jw/o.jpg", "is_closed": false, "url": "https://www.yelp.com/biz/bobbys-burger-hamburg-2?adjust_creative=hBJOknVQJ58S5goQyjmwRw&utm_campaign=yelp_api_v3&utm_medium=api_v3_business_search&utm_source=hBJOknVQJ58S5goQyjmwRw", "review_count": 1, "categories": [{"alias": "burgers", "title": "Burgers"}], "rating": 4.0, "coordinates": {"latitude": 53.61222, "longitude": 10.076807}, "transactions": [], "location": {"address1": "Bramfelder Chaussee 230", "address2": "", "address3": null, "city": "Hamburg", "zip_code": "22177", "country": "DE", "state": "HH", "display_address": ["Bramfelder Chaussee 230", "22177 Hamburg", "Germany"]}, "phone": "", "display_phone": "", "distance": 971.8601027030395}, {"id": "X511PmuRIjSHaX7zw6-Zug", "alias": "porto-carras-hamburg", "name": "Porto Carras", "image_url": "https://s3-media4.fl.yelpcdn.com/bphoto/xsMWDM_pDE9wWDtaGfOOoA/o.jpg", "is_closed": false, "url": "https://www.yelp.com/biz/porto-carras-hamburg?adjust_creative=hBJOknVQJ58S5goQyjmwRw&utm_campaign=yelp_api_v3&utm_medium=api_v3_business_search&utm_source=hBJOknVQJ58S5goQyjmwRw", "review_count": 10, "categories": [{"alias": "greek", "title": "Greek"}], "rating": 4.5, "coordinates": {"latitude": 53.5925, "longitude": 10.1097}, "transactions": [], "price": "\u20ac\u20ac", "location": {"address1": "Berner Heerweg 7", "address2": null, "address3": null, "city": "Hamburg", "zip_code": "22159", "country": "DE", "state": "HH", "display_address": ["Berner Heerweg 7", "22159 Hamburg", "Germany"]}, "phone": "+494067599055", "display_phone": "+49 40 67599055", "distance": 2223.6402331356317}, {"id": "rzQj062lzUlW3Vum-bF3Ig", "alias": "da-franco-hamburg", "name": "Da Franco", "image_url": "https://s3-media2.fl.yelpcdn.com/bphoto/g2yg-DVMNdD7Fo6aN_h88g/o.jpg", "is_closed": false, "url": "https://www.yelp.com/biz/da-franco-hamburg?adjust_creative=hBJOknVQJ58S5goQyjmwRw&utm_campaign=yelp_api_v3&utm_medium=api_v3_business_search&utm_source=hBJOknVQJ58S5goQyjmwRw", "review_count": 19, "categories": [{"alias": "italian", "title": "Italian"}], "rating": 4.5, "coordinates": {"latitude": 53.57286, "longitude": 10.06615}, "transactions": [], "price": "\u20ac\u20ac", "location": {"address1": "Quarree 8 - 10", "address2": "", "address3": null, "city": "Hamburg", "zip_code": "22041", "country": "DE", "state": "HH", "display_address": ["Quarree 8 - 10", "22041 Hamburg", "Germany"]}, "phone": "+49406524031", "display_phone": "+49 40 6524031", "distance": 4305.065119408991}, {"id": "fDjbjPgV_zKK2FE_B3WV-w", "alias": "cordoba-steakhouse-hamburg-2", "name": "Cordoba Steakhouse", "image_url": "https://s3-media3.fl.yelpcdn.com/bphoto/C2IbSkglz3GdSHUcUxxeYg/o.jpg", "is_closed": false, "url": "https://www.yelp.com/biz/cordoba-steakhouse-hamburg-2?adjust_creative=hBJOknVQJ58S5goQyjmwRw&utm_campaign=yelp_api_v3&utm_medium=api_v3_business_search&utm_source=hBJOknVQJ58S5goQyjmwRw", "review_count": 7, "categories": [{"alias": "steak", "title": "Steakhouses"}], "rating": 4.0, "coordinates": {"latitude": 53.6143002252379, "longitude": 10.0767598673701}, "transactions": [], "location": {"address1": "Bramfelder Dorfplatz 3", "address2": "", "address3": null, "city": "Hamburg", "zip_code": "22179", "country": "DE", "state": "HH", "display_address": ["Bramfelder Dorfplatz 3", "22179 Hamburg", "Germany"]}, "phone": "+494054001755", "display_phone": "+49 40 54001755", "distance": 1083.4216209870342}, {"id": "dD9qWcT39jWCaeFS0Yw2Gw", "alias": "balat-imbiss-hamburg-2", "name": "Balat Imbiss", "image_url": "https://s3-media4.fl.yelpcdn.com/bphoto/KUFW1QzcGhx1jxl0cqcF1g/o.jpg", "is_closed": false, "url": "https://www.yelp.com/biz/balat-imbiss-hamburg-2?adjust_creative=hBJOknVQJ58S5goQyjmwRw&utm_campaign=yelp_api_v3&utm_medium=api_v3_business_search&utm_source=hBJOknVQJ58S5goQyjmwRw", "review_count": 18, "categories": [{"alias": "kebab", "title": "Kebab"}], "rating": 4.5, "coordinates": {"latitude": 53.5921, "longitude": 10.075}, "transactions": [], "price": "\u20ac", "location": {"address1": "Ostpreu\u00dfenplatz", "address2": "", "address3": null, "city": "Hamburg", "zip_code": "22049", "country": "DE", "state": "HH", "display_address": ["Ostpreu\u00dfenplatz", "22049 Hamburg", "Germany"]}, "phone": "+494063947371", "display_phone": "+49 40 63947371", "distance": 2128.9693688035045}, {"id": "18l8ip6eg4Hkb-cqeFvOKA", "alias": "sabai-jai-hamburg", "name": "Sabai Jai", "image_url": "https://s3-media2.fl.yelpcdn.com/bphoto/_pxI9axFnISsBfx0UbcN1g/o.jpg", "is_closed": false, "url": "https://www.yelp.com/biz/sabai-jai-hamburg?adjust_creative=hBJOknVQJ58S5goQyjmwRw&utm_campaign=yelp_api_v3&utm_medium=api_v3_business_search&utm_source=hBJOknVQJ58S5goQyjmwRw", "review_count": 3, "categories": [{"alias": "thai", "title": "Thai"}], "rating": 4.5, "coordinates": {"latitude": 53.5819199, "longitude": 10.06622}, "transactions": [], "price": "\u20ac", "location": {"address1": "Stra\u00dfburger Str. 46", "address2": "", "address3": "", "city": "Hamburg", "zip_code": "22049", "country": "DE", "state": "HH", "display_address": ["Stra\u00dfburger Str. 46", "22049 Hamburg", "Germany"]}, "phone": "+494068916555", "display_phone": "+49 40 68916555", "distance": 3409.9874076225033}, {"id": "ttHhNqy1or8gL8bFyC19uQ", "alias": "der-gyros-spezialist-hamburg", "name": "Der Gyros-Spezialist", "image_url": "https://s3-media4.fl.yelpcdn.com/bphoto/hIO-FDqfRZGybl--b3V2UA/o.jpg", "is_closed": false, "url": "https://www.yelp.com/biz/der-gyros-spezialist-hamburg?adjust_creative=hBJOknVQJ58S5goQyjmwRw&utm_campaign=yelp_api_v3&utm_medium=api_v3_business_search&utm_source=hBJOknVQJ58S5goQyjmwRw", "review_count": 87, "categories": [{"alias": "greek", "title": "Greek"}], "rating": 4.5, "coordinates": {"latitude": 53.62113, "longitude": 10.10274}, "transactions": [], "price": "\u20ac\u20ac", "location": {"address1": "Pezolddamm 45", "address2": "", "address3": "", "city": "Hamburg", "zip_code": "22175", "country": "DE", "state": "HH", "display_address": ["Pezolddamm 45", "22175 Hamburg", "Germany"]}, "phone": "+49406434946", "display_phone": "+49 40 6434946", "distance": 1585.9483774834948}, {"id": "WE6UsqnejN_pI8RqorUf3w", "alias": "hollywood-canteen-hamburg-4", "name": "Hollywood Canteen", "image_url": "https://s3-media1.fl.yelpcdn.com/bphoto/KgmZiFzfqRDPvS54Y1pKyA/o.jpg", "is_closed": false, "url": "https://www.yelp.com/biz/hollywood-canteen-hamburg-4?adjust_creative=hBJOknVQJ58S5goQyjmwRw&utm_campaign=yelp_api_v3&utm_medium=api_v3_business_search&utm_source=hBJOknVQJ58S5goQyjmwRw", "review_count": 58, "categories": [{"alias": "burgers", "title": "Burgers"}, {"alias": "hotdogs", "title": "Fast Food"}], "rating": 4.0, "coordinates": {"latitude": 53.60642, "longitude": 10.07076}, "transactions": [], "price": "\u20ac\u20ac", "location": {"address1": "Bramfelder Chaussee 165", "address2": "", "address3": "", "city": "Hamburg", "zip_code": "22177", "country": "DE", "state": "HH", "display_address": ["Bramfelder Chaussee 165", "22177 Hamburg", "Germany"]}, "phone": "+494063689687", "display_phone": "+49 40 63689687", "distance": 1327.147215310018}, {"id": "jAog6reofXxNtjjvEn_gQA", "alias": "asia-wok-hamburg-4", "name": "Asia Wok", "image_url": "https://s3-media4.fl.yelpcdn.com/bphoto/e7-z1ZsXkMjO12pVsnUwDQ/o.jpg", "is_closed": false, "url": "https://www.yelp.com/biz/asia-wok-hamburg-4?adjust_creative=hBJOknVQJ58S5goQyjmwRw&utm_campaign=yelp_api_v3&utm_medium=api_v3_business_search&utm_source=hBJOknVQJ58S5goQyjmwRw", "review_count": 8, "categories": [{"alias": "panasian", "title": "Pan Asian"}], "rating": 4.0, "coordinates": {"latitude": 53.6230931, "longitude": 10.0843982}, "transactions": [], "price": "\u20ac\u20ac", "location": {"address1": "Bramfelder Chaussee 390", "address2": "", "address3": "", "city": "Hamburg", "zip_code": "22175", "country": "DE", "state": "HH", "display_address": ["Bramfelder Chaussee 390", "22175 Hamburg", "Germany"]}, "phone": "+494023848426", "display_phone": "+49 40 23848426", "distance": 1626.6005274101199}, {"id": "gc1Qk_79IUVZcInyIm9PDA", "alias": "bolero-hamburg-5", "name": "Bolero", "image_url": "https://s3-media3.fl.yelpcdn.com/bphoto/F3OtYMrwt4TetFIzg55Tsg/o.jpg", "is_closed": false, "url": "https://www.yelp.com/biz/bolero-hamburg-5?adjust_creative=hBJOknVQJ58S5goQyjmwRw&utm_campaign=yelp_api_v3&utm_medium=api_v3_business_search&utm_source=hBJOknVQJ58S5goQyjmwRw", "review_count": 94, "categories": [{"alias": "mexican", "title": "Mexican"}, {"alias": "cocktailbars", "title": "Cocktail Bars"}], "rating": 3.0, "coordinates": {"latitude": 53.58824, "longitude": 10.09641}, "transactions": [], "price": "\u20ac\u20ac", "location": {"address1": "Friedrich-Ebert-Damm 128", "address2": null, "address3": null, "city": "Hamburg", "zip_code": "22047", "country": "DE", "state": "HH", "display_address": ["Friedrich-Ebert-Damm 128", "22047 Hamburg", "Germany"]}, "phone": "+494069691202", "display_phone": "+49 40 69691202", "distance": 2341.4078713443155}, {"id": "swdw2KoEeSi2QLWHHltnZQ", "alias": "mylos-hamburg-2", "name": "Mylos", "image_url": "https://s3-media3.fl.yelpcdn.com/bphoto/IMDD4JGhAyDMV_W8A2ylbQ/o.jpg", "is_closed": false, "url": "https://www.yelp.com/biz/mylos-hamburg-2?adjust_creative=hBJOknVQJ58S5goQyjmwRw&utm_campaign=yelp_api_v3&utm_medium=api_v3_business_search&utm_source=hBJOknVQJ58S5goQyjmwRw", "review_count": 26, "categories": [{"alias": "greek", "title": "Greek"}], "rating": 4.5, "coordinates": {"latitude": 53.57593, "longitude": 10.099365}, "transactions": [], "price": "\u20ac\u20ac", "location": {"address1": "Ziethenstr. 12", "address2": null, "address3": null, "city": "Hamburg", "zip_code": "22041", "country": "DE", "state": "HH", "display_address": ["Ziethenstr. 12", "22041 Hamburg", "Germany"]}, "phone": "+494069798441", "display_phone": "+49 40 69798441", "distance": 3714.281911231457}, {"id": "mplBJRHbyKkTXIFdWv5tjg", "alias": "china-restaurant-ming-hamburg-3", "name": "China-Restaurant Ming", "image_url": "https://s3-media3.fl.yelpcdn.com/bphoto/T_hsEgtW4RWUh_9tkpDKCA/o.jpg", "is_closed": false, "url": "https://www.yelp.com/biz/china-restaurant-ming-hamburg-3?adjust_creative=hBJOknVQJ58S5goQyjmwRw&utm_campaign=yelp_api_v3&utm_medium=api_v3_business_search&utm_source=hBJOknVQJ58S5goQyjmwRw", "review_count": 2, "categories": [{"alias": "chinese", "title": "Chinese"}], "rating": 3.5, "coordinates": {"latitude": 53.57386, "longitude": 10.0696999}, "transactions": [], "location": {"address1": "Wandsbeker Allee 70", "address2": null, "address3": "", "city": "Hamburg", "zip_code": "22041", "country": "DE", "state": "HH", "display_address": ["Wandsbeker Allee 70", "22041 Hamburg", "Germany"]}, "phone": "+49406526993", "display_phone": "+49 40 6526993", "distance": 4132.4561642603585}, {"id": "NJUMH0h1mxG3llOgdC1c2g", "alias": "del-hamburg-3", "name": "Del", "image_url": "https://s3-media2.fl.yelpcdn.com/bphoto/q3JZps6Fzy3Y9QAtgtr0Ow/o.jpg", "is_closed": false, "url": "https://www.yelp.com/biz/del-hamburg-3?adjust_creative=hBJOknVQJ58S5goQyjmwRw&utm_campaign=yelp_api_v3&utm_medium=api_v3_business_search&utm_source=hBJOknVQJ58S5goQyjmwRw", "review_count": 46, "categories": [{"alias": "international", "title": "International"}], "rating": 3.5, "coordinates": {"latitude": 53.64727, "longitude": 10.0878}, "transactions": [], "price": "\u20ac\u20ac\u20ac", "location": {"address1": "Poppenb\u00fcttler Landstr. 1C", "address2": null, "address3": null, "city": "Hamburg", "zip_code": "22391", "country": "DE", "state": "HH", "display_address": ["Poppenb\u00fcttler Landstr. 1C", "22391 Hamburg", "Germany"]}, "phone": "+49406027061", "display_phone": "+49 40 6027061", "distance": 4268.8888602676225}, {"id": "NQtPhmPtbN8maujHJJSBgQ", "alias": "athena-grill-hamburg-2", "name": "Athena Grill", "image_url": "https://s3-media4.fl.yelpcdn.com/bphoto/VHFz_KRTwuW5-2G4Fp8XsQ/o.jpg", "is_closed": false, "url": "https://www.yelp.com/biz/athena-grill-hamburg-2?adjust_creative=hBJOknVQJ58S5goQyjmwRw&utm_campaign=yelp_api_v3&utm_medium=api_v3_business_search&utm_source=hBJOknVQJ58S5goQyjmwRw", "review_count": 15, "categories": [{"alias": "greek", "title": "Greek"}], "rating": 4.5, "coordinates": {"latitude": 53.61658, "longitude": 10.07683}, "transactions": [], "price": "\u20ac\u20ac", "location": {"address1": "Bramfelder Chaussee 281", "address2": "", "address3": "", "city": "Hamburg", "zip_code": "22177", "country": "DE", "state": "HH", "display_address": ["Bramfelder Chaussee 281", "22177 Hamburg", "Germany"]}, "phone": "+494085104232", "display_phone": "+49 40 85104232", "distance": 1244.6960409019619}, {"id": "5-vRbfPX0iOM9gLdSuLD0Q", "alias": "zum-hufschlag-hamburg", "name": "Zum Hufschlag", "image_url": "https://s3-media1.fl.yelpcdn.com/bphoto/kt22PQzKgB4-7QraMsv7fA/o.jpg", "is_closed": false, "url": "https://www.yelp.com/biz/zum-hufschlag-hamburg?adjust_creative=hBJOknVQJ58S5goQyjmwRw&utm_campaign=yelp_api_v3&utm_medium=api_v3_business_search&utm_source=hBJOknVQJ58S5goQyjmwRw", "review_count": 11, "categories": [{"alias": "german", "title": "German"}, {"alias": "cafes", "title": "Cafes"}], "rating": 4.0, "coordinates": {"latitude": 53.61071, "longitude": 10.09427}, "transactions": [], "price": "\u20ac\u20ac", "location": {"address1": "Fahrenkr\u00f6n 56", "address2": "", "address3": "", "city": "Hamburg", "zip_code": "22179", "country": "DE", "state": "HH", "display_address": ["Fahrenkr\u00f6n 56", "22179 Hamburg", "Germany"]}, "phone": "+494063129499", "display_phone": "+49 40 63129499", "distance": 348.47772127984507}, {"id": "HJ01zMNLEmQKEVdkMcJYUQ", "alias": "con-calma-hamburg", "name": "Con Calma", "image_url": "https://s3-media2.fl.yelpcdn.com/bphoto/fvN1qc3Bz5KqEJ9NoSz6zA/o.jpg", "is_closed": false, "url": "https://www.yelp.com/biz/con-calma-hamburg?adjust_creative=hBJOknVQJ58S5goQyjmwRw&utm_campaign=yelp_api_v3&utm_medium=api_v3_business_search&utm_source=hBJOknVQJ58S5goQyjmwRw", "review_count": 14, "categories": [{"alias": "italian", "title": "Italian"}], "rating": 4.5, "coordinates": {"latitude": 53.64219, "longitude": 10.1129}, "transactions": [], "price": "\u20ac", "location": {"address1": "Volksdorfer Weg 112", "address2": "", "address3": "", "city": "Hamburg", "zip_code": "22393", "country": "DE", "state": "HH", "display_address": ["Volksdorfer Weg 112", "22393 Hamburg", "Germany"]}, "phone": "+494087602817", "display_phone": "+49 40 87602817", "distance": 3985.8093817714066}, {"id": "ROegP6L_8oMnoGX-kFqm_g", "alias": "edo-d\u00f6ner-haus-hamburg", "name": "Edo D\u00f6ner Haus", "image_url": "https://s3-media2.fl.yelpcdn.com/bphoto/V0X_-EmDBAZ8zGzR0I33Kg/o.jpg", "is_closed": false, "url": "https://www.yelp.com/biz/edo-d%C3%B6ner-haus-hamburg?adjust_creative=hBJOknVQJ58S5goQyjmwRw&utm_campaign=yelp_api_v3&utm_medium=api_v3_business_search&utm_source=hBJOknVQJ58S5goQyjmwRw", "review_count": 1, "categories": [{"alias": "kebab", "title": "Kebab"}], "rating": 5.0, "coordinates": {"latitude": 53.6170878174613, "longitude": 10.0780570275054}, "transactions": [], "price": "\u20ac", "location": {"address1": "Bramfelder Chaussee 296", "address2": "", "address3": "", "city": "Hamburg", "zip_code": "22177", "country": "DE", "state": "HH", "display_address": ["Bramfelder Chaussee 296", "22177 Hamburg", "Germany"]}, "phone": "+494036905425", "display_phone": "+49 40 36905425", "distance": 1222.3711870414961}, {"id": "fAQL7j7udJXG7lmU7PHzJQ", "alias": "restaurant-hellas-hamburg-2", "name": "Restaurant Hellas", "image_url": "https://s3-media1.fl.yelpcdn.com/bphoto/eueMnGjWpKm5_hRq4iFWWg/o.jpg", "is_closed": false, "url": "https://www.yelp.com/biz/restaurant-hellas-hamburg-2?adjust_creative=hBJOknVQJ58S5goQyjmwRw&utm_campaign=yelp_api_v3&utm_medium=api_v3_business_search&utm_source=hBJOknVQJ58S5goQyjmwRw", "review_count": 22, "categories": [{"alias": "greek", "title": "Greek"}], "rating": 4.5, "coordinates": {"latitude": 53.62471, "longitude": 10.09919}, "transactions": [], "price": "\u20ac\u20ac", "location": {"address1": "Am St\u00fchm-S\u00fcd 86", "address2": null, "address3": null, "city": "Hamburg", "zip_code": "22175", "country": "DE", "state": "HH", "display_address": ["Am St\u00fchm-S\u00fcd 86", "22175 Hamburg", "Germany"]}, "phone": "+49406409546", "display_phone": "+49 40 6409546", "distance": 1849.8261365457638}, {"id": "C9YzwUfpnK7Q6TxhIjYHZQ", "alias": "taverna-paros-hamburg", "name": "Taverna Paros", "image_url": "https://s3-media2.fl.yelpcdn.com/bphoto/poiy3jORrcyrPX1EmACSfg/o.jpg", "is_closed": false, "url": "https://www.yelp.com/biz/taverna-paros-hamburg?adjust_creative=hBJOknVQJ58S5goQyjmwRw&utm_campaign=yelp_api_v3&utm_medium=api_v3_business_search&utm_source=hBJOknVQJ58S5goQyjmwRw", "review_count": 12, "categories": [{"alias": "greek", "title": "Greek"}], "rating": 4.0, "coordinates": {"latitude": 53.61174, "longitude": 10.08089}, "transactions": [], "price": "\u20ac\u20ac", "location": {"address1": "Heukoppel 17", "address2": null, "address3": null, "city": "Hamburg", "zip_code": "22179", "country": "DE", "state": "HH", "display_address": ["Heukoppel 17", "22179 Hamburg", "Germany"]}, "phone": "+49406413007", "display_phone": "+49 40 6413007", "distance": 706.8226322341372}, {"id": "3ofeCVY1Zf318ZLK5pqqyg", "alias": "vistro-hamburg-2", "name": "Vistro", "image_url": "https://s3-media1.fl.yelpcdn.com/bphoto/vvv_k_Q5toKCcfOU0p_Otw/o.jpg", "is_closed": false, "url": "https://www.yelp.com/biz/vistro-hamburg-2?adjust_creative=hBJOknVQJ58S5goQyjmwRw&utm_campaign=yelp_api_v3&utm_medium=api_v3_business_search&utm_source=hBJOknVQJ58S5goQyjmwRw", "review_count": 1, "categories": [{"alias": "cafes", "title": "Cafes"}, {"alias": "pizza", "title": "Pizza"}, {"alias": "cocktailbars", "title": "Cocktail Bars"}], "rating": 5.0, "coordinates": {"latitude": 53.615214, "longitude": 10.076024}, "transactions": [], "location": {"address1": "Bramfelder Chaussee 265", "address2": "", "address3": null, "city": "Hamburg", "zip_code": "22177", "country": "DE", "state": "HH", "display_address": ["Bramfelder Chaussee 265", "22177 Hamburg", "Germany"]}, "phone": "+494064217030", "display_phone": "+49 40 64217030", "distance": 1181.4701129405537}, {"id": "xRr5Ejy2Mc6wInLGKRszdQ", "alias": "schweinske-hamburg-18", "name": "Schweinske", "image_url": "https://s3-media3.fl.yelpcdn.com/bphoto/teoVO2qU9e-Mim6xJ_vbaA/o.jpg", "is_closed": false, "url": "https://www.yelp.com/biz/schweinske-hamburg-18?adjust_creative=hBJOknVQJ58S5goQyjmwRw&utm_campaign=yelp_api_v3&utm_medium=api_v3_business_search&utm_source=hBJOknVQJ58S5goQyjmwRw", "review_count": 57, "categories": [{"alias": "german", "title": "German"}], "rating": 4.0, "coordinates": {"latitude": 53.61644, "longitude": 10.0774}, "transactions": [], "price": "\u20ac", "location": {"address1": "Bramfelder Chaussee 280", "address2": null, "address3": null, "city": "Hamburg", "zip_code": "22177", "country": "DE", "state": "HH", "display_address": ["Bramfelder Chaussee 280", "22177 Hamburg", "Germany"]}, "phone": "+494064220580", "display_phone": "+49 40 64220580", "distance": 1194.2847340148332}, {"id": "u1jKqU5VzGypEXzDVgVjBQ", "alias": "hofbr\u00e4u-wirtshaus-wandsbek-hamburg", "name": "Hofbr\u00e4u Wirtshaus Wandsbek", "image_url": "https://s3-media1.fl.yelpcdn.com/bphoto/cGd_Q1afyMIjtyjbPj98uw/o.jpg", "is_closed": false, "url": "https://www.yelp.com/biz/hofbr%C3%A4u-wirtshaus-wandsbek-hamburg?adjust_creative=hBJOknVQJ58S5goQyjmwRw&utm_campaign=yelp_api_v3&utm_medium=api_v3_business_search&utm_source=hBJOknVQJ58S5goQyjmwRw", "review_count": 43, "categories": [{"alias": "bavarian", "title": "Bavarian"}], "rating": 3.5, "coordinates": {"latitude": 53.57011, "longitude": 10.07706}, "transactions": [], "price": "\u20ac\u20ac", "location": {"address1": "Bahng\u00e4rten 28", "address2": "", "address3": "", "city": "Hamburg", "zip_code": "22041", "country": "DE", "state": "HH", "display_address": ["Bahng\u00e4rten 28", "22041 Hamburg", "Germany"]}, "phone": "+494069798431", "display_phone": "+49 40 69798431", "distance": 4418.546046293912}, {"id": "t0Nb2WnIb-Q9_CztzAJA4Q", "alias": "ni-hao-hamburg-3", "name": "Ni Hao", "image_url": "https://s3-media3.fl.yelpcdn.com/bphoto/McHpTba3yKTqEJIWaQbHYA/o.jpg", "is_closed": false, "url": "https://www.yelp.com/biz/ni-hao-hamburg-3?adjust_creative=hBJOknVQJ58S5goQyjmwRw&utm_campaign=yelp_api_v3&utm_medium=api_v3_business_search&utm_source=hBJOknVQJ58S5goQyjmwRw", "review_count": 119, "categories": [{"alias": "chinese", "title": "Chinese"}], "rating": 4.0, "coordinates": {"latitude": 53.57529, "longitude": 10.0747199}, "transactions": [], "price": "\u20ac\u20ac\u20ac", "location": {"address1": "Wandsbeker Zollstr.  25 - 29", "address2": null, "address3": null, "city": "Hamburg", "zip_code": "22041", "country": "DE", "state": "HH", "display_address": ["Wandsbeker Zollstr.  25 - 29", "22041 Hamburg", "Germany"]}, "phone": "+49406520888", "display_phone": "+49 40 6520888", "distance": 3848.24526136122}, {"id": "lJkTU8UZurfTfSzdnYql2g", "alias": "sushi-dreams-hamburg", "name": "Sushi Dreams", "image_url": "https://s3-media2.fl.yelpcdn.com/bphoto/NQoAMaiS0yJgODCZUdRvoQ/o.jpg", "is_closed": false, "url": "https://www.yelp.com/biz/sushi-dreams-hamburg?adjust_creative=hBJOknVQJ58S5goQyjmwRw&utm_campaign=yelp_api_v3&utm_medium=api_v3_business_search&utm_source=hBJOknVQJ58S5goQyjmwRw", "review_count": 20, "categories": [{"alias": "sushi", "title": "Sushi Bars"}, {"alias": "panasian", "title": "Pan Asian"}], "rating": 4.0, "coordinates": {"latitude": 53.6082, "longitude": 10.0717}, "transactions": [], "price": "\u20ac\u20ac", "location": {"address1": "Bramfelder Chaussee 185", "address2": null, "address3": null, "city": "Hamburg", "zip_code": "22177", "country": "DE", "state": "HH", "display_address": ["Bramfelder Chaussee 185", "22177 Hamburg", "Germany"]}, "phone": "+494063314776", "display_phone": "+49 40 63314776", "distance": 1238.9970865950424}, {"id": "AO__PWmfNJudd9dMOgONxw", "alias": "kfc-hamburg-13", "name": "KFC", "image_url": "https://s3-media3.fl.yelpcdn.com/bphoto/EERwx4pEHiotCuOuI_hcJQ/o.jpg", "is_closed": false, "url": "https://www.yelp.com/biz/kfc-hamburg-13?adjust_creative=hBJOknVQJ58S5goQyjmwRw&utm_campaign=yelp_api_v3&utm_medium=api_v3_business_search&utm_source=hBJOknVQJ58S5goQyjmwRw", "review_count": 33, "categories": [{"alias": "hotdogs", "title": "Fast Food"}, {"alias": "chicken_wings", "title": "Chicken Wings"}, {"alias": "chickenshop", "title": "Chicken Shop"}], "rating": 3.5, "coordinates": {"latitude": 53.57728, "longitude": 10.08436}, "transactions": [], "price": "\u20ac\u20ac", "location": {"address1": "Wandsbeker Zollstr. 127 - 133", "address2": "", "address3": "", "city": "Hamburg", "zip_code": "22041", "country": "DE", "state": "HH", "display_address": ["Wandsbeker Zollstr. 127 - 133", "22041 Hamburg", "Germany"]}, "phone": "+494069219571", "display_phone": "+49 40 69219571", "distance": 3560.7949178888184}, {"id": "ryJF6oTaqmJc-L3ccZivfg", "alias": "zum-br\u00e4ust\u00fcberl-hamburg", "name": "Zum Br\u00e4ust\u00fcberl", "image_url": "https://s3-media4.fl.yelpcdn.com/bphoto/xd_a0YsfdXTGlLVGGcshtg/o.jpg", "is_closed": false, "url": "https://www.yelp.com/biz/zum-br%C3%A4ust%C3%BCberl-hamburg?adjust_creative=hBJOknVQJ58S5goQyjmwRw&utm_campaign=yelp_api_v3&utm_medium=api_v3_business_search&utm_source=hBJOknVQJ58S5goQyjmwRw", "review_count": 25, "categories": [{"alias": "german", "title": "German"}, {"alias": "austrian", "title": "Austrian"}, {"alias": "beergarden", "title": "Beer Garden"}], "rating": 3.5, "coordinates": {"latitude": 53.6133160970132, "longitude": 10.079024322331}, "transactions": [], "price": "\u20ac\u20ac", "location": {"address1": "Bramfelder Dorfplatz 25", "address2": "", "address3": "", "city": "Hamburg", "zip_code": "22179", "country": "DE", "state": "HH", "display_address": ["Bramfelder Dorfplatz 25", "22179 Hamburg", "Germany"]}, "phone": "+494038070751", "display_phone": "+49 40 38070751", "distance": 898.4936066585461}, {"id": "-m1Qdq2cvGbvqSOYhZ3jCg", "alias": "trattoria-l-aurora-hamburg", "name": "Trattoria L'Aurora", "image_url": "", "is_closed": false, "url": "https://www.yelp.com/biz/trattoria-l-aurora-hamburg?adjust_creative=hBJOknVQJ58S5goQyjmwRw&utm_campaign=yelp_api_v3&utm_medium=api_v3_business_search&utm_source=hBJOknVQJ58S5goQyjmwRw", "review_count": 3, "categories": [{"alias": "italian", "title": "Italian"}], "rating": 4.0, "coordinates": {"latitude": 53.63388, "longitude": 10.09037}, "transactions": [], "price": "\u20ac\u20ac", "location": {"address1": "Saseler Chaussee 5", "address2": "", "address3": null, "city": "Hamburg", "zip_code": "22391", "country": "DE", "state": "HH", "display_address": ["Saseler Chaussee 5", "22391 Hamburg", "Germany"]}, "phone": "+494049200859", "display_phone": "+49 40 49200859", "distance": 2777.0296344651806}, {"id": "-jHCjAX-vQ48uUuiBPzS0A", "alias": "taverna-samos-vassili-massalis-vereinshaus-osterbek-hamburg", "name": "Taverna Samos Vassili Massalis Vereinshaus Osterbek", "image_url": "https://s3-media1.fl.yelpcdn.com/bphoto/O4n1B7F9Qtwjfe5U7179YA/o.jpg", "is_closed": false, "url": "https://www.yelp.com/biz/taverna-samos-vassili-massalis-vereinshaus-osterbek-hamburg?adjust_creative=hBJOknVQJ58S5goQyjmwRw&utm_campaign=yelp_api_v3&utm_medium=api_v3_business_search&utm_source=hBJOknVQJ58S5goQyjmwRw", "review_count": 8, "categories": [{"alias": "greek", "title": "Greek"}], "rating": 3.0, "coordinates": {"latitude": 53.6026, "longitude": 10.0854}, "transactions": [], "price": "\u20ac\u20ac\u20ac\u20ac", "location": {"address1": "Barmwisch 35", "address2": null, "address3": null, "city": "Hamburg", "zip_code": "22179", "country": "DE", "state": "HH", "display_address": ["Barmwisch 35", "22179 Hamburg", "Germany"]}, "phone": "+49406958519", "display_phone": "+49 40 6958519", "distance": 776.6063252972602}, {"id": "sSIvrC1bY2hHZs7nx6zJeQ", "alias": "pizza-tree-hamburg", "name": "Pizza Tree", "image_url": "https://s3-media2.fl.yelpcdn.com/bphoto/Q1l_gVNGuu2rjPWL4bXbgw/o.jpg", "is_closed": false, "url": "https://www.yelp.com/biz/pizza-tree-hamburg?adjust_creative=hBJOknVQJ58S5goQyjmwRw&utm_campaign=yelp_api_v3&utm_medium=api_v3_business_search&utm_source=hBJOknVQJ58S5goQyjmwRw", "review_count": 2, "categories": [{"alias": "pizza", "title": "Pizza"}, {"alias": "salad", "title": "Salad"}, {"alias": "burgers", "title": "Burgers"}], "rating": 3.5, "coordinates": {"latitude": 53.62549, "longitude": 10.11434}, "transactions": [], "location": {"address1": "Stefan-Zweig-Str. 1", "address2": "", "address3": null, "city": "Hamburg", "zip_code": "22175", "country": "DE", "state": "HH", "display_address": ["Stefan-Zweig-Str. 1", "22175 Hamburg", "Germany"]}, "phone": "+494073677223", "display_phone": "+49 40 73677223", "distance": 2431.420868519303}, {"id": "5aug3-JA95fIytdwuzi19Q", "alias": "pierro-hamburg", "name": "Pierro", "image_url": "https://s3-media2.fl.yelpcdn.com/bphoto/S4cNfsBIdrbG2sT7KvMCrg/o.jpg", "is_closed": false, "url": "https://www.yelp.com/biz/pierro-hamburg?adjust_creative=hBJOknVQJ58S5goQyjmwRw&utm_campaign=yelp_api_v3&utm_medium=api_v3_business_search&utm_source=hBJOknVQJ58S5goQyjmwRw", "review_count": 13, "categories": [{"alias": "italian", "title": "Italian"}, {"alias": "pizza", "title": "Pizza"}, {"alias": "bistros", "title": "Bistros"}], "rating": 4.5, "coordinates": {"latitude": 53.58018, "longitude": 10.0812899}, "transactions": [], "price": "\u20ac\u20ac", "location": {"address1": "Holzm\u00fchlenstr. 31", "address2": "", "address3": "", "city": "Hamburg", "zip_code": "22041", "country": "DE", "state": "HH", "display_address": ["Holzm\u00fchlenstr. 31", "22041 Hamburg", "Germany"]}, "phone": "+494053026330", "display_phone": "+49 40 53026330", "distance": 3248.3919142355776}, {"id": "2uu7ytBLKryclD6iaeTdzQ", "alias": "restaurant-santorini-hamburg", "name": "Restaurant Santorini", "image_url": "https://s3-media1.fl.yelpcdn.com/bphoto/_bvaz0arec5rg946mz_Qtg/o.jpg", "is_closed": false, "url": "https://www.yelp.com/biz/restaurant-santorini-hamburg?adjust_creative=hBJOknVQJ58S5goQyjmwRw&utm_campaign=yelp_api_v3&utm_medium=api_v3_business_search&utm_source=hBJOknVQJ58S5goQyjmwRw", "review_count": 11, "categories": [{"alias": "greek", "title": "Greek"}], "rating": 4.0, "coordinates": {"latitude": 53.5849, "longitude": 10.0795}, "transactions": [], "price": "\u20ac", "location": {"address1": "Friedrich-Ebert-Damm 48", "address2": null, "address3": null, "city": "Hamburg", "zip_code": "22047", "country": "DE", "state": "HH", "display_address": ["Friedrich-Ebert-Damm 48", "22047 Hamburg", "Germany"]}, "phone": "+49406938431", "display_phone": "+49 40 6938431", "distance": 2765.813284239166}, {"id": "a6h7xkhPHa-mLSeohRaKmw", "alias": "al-habibo-hamburg", "name": "Al Habibo", "image_url": "https://s3-media2.fl.yelpcdn.com/bphoto/b_xs69R_nKAF34y2mFt_fQ/o.jpg", "is_closed": false, "url": "https://www.yelp.com/biz/al-habibo-hamburg?adjust_creative=hBJOknVQJ58S5goQyjmwRw&utm_campaign=yelp_api_v3&utm_medium=api_v3_business_search&utm_source=hBJOknVQJ58S5goQyjmwRw", "review_count": 2, "categories": [{"alias": "arabian", "title": "Arabian"}], "rating": 4.5, "coordinates": {"latitude": 53.5859139295212, "longitude": 10.0651169542941}, "transactions": [], "location": {"address1": "Nordschleswiger Str. 20", "address2": "", "address3": null, "city": "Hamburg", "zip_code": "22049", "country": "DE", "state": "HH", "display_address": ["Nordschleswiger Str. 20", "22049 Hamburg", "Germany"]}, "phone": "+494052154420", "display_phone": "+49 40 52154420", "distance": 3054.8205072579567}, {"id": "S7PTsIxtptPd2ClC1msn7A", "alias": "trattoria-brunello-hamburg", "name": "Trattoria Brunello", "image_url": "https://s3-media2.fl.yelpcdn.com/bphoto/8fUbth2Z76kTyEA-vrQQOg/o.jpg", "is_closed": false, "url": "https://www.yelp.com/biz/trattoria-brunello-hamburg?adjust_creative=hBJOknVQJ58S5goQyjmwRw&utm_campaign=yelp_api_v3&utm_medium=api_v3_business_search&utm_source=hBJOknVQJ58S5goQyjmwRw", "review_count": 50, "categories": [{"alias": "italian", "title": "Italian"}], "rating": 3.5, "coordinates": {"latitude": 53.6510589, "longitude": 10.0951378}, "transactions": [], "price": "\u20ac\u20ac", "location": {"address1": "Stormarnplatz 8", "address2": null, "address3": null, "city": "Hamburg", "zip_code": "22393", "country": "DE", "state": "HH", "display_address": ["Stormarnplatz 8", "22393 Hamburg", "Germany"]}, "phone": "+494061187753", "display_phone": "+49 40 61187753", "distance": 4696.852288801981}, {"id": "Sk2N-wOhE1Kh1jthgkXcvA", "alias": "zoll-grill-hamburg", "name": "Zoll-Grill", "image_url": "https://s3-media3.fl.yelpcdn.com/bphoto/8cQi03P9GFcATUwrKiwwjg/o.jpg", "is_closed": false, "url": "https://www.yelp.com/biz/zoll-grill-hamburg?adjust_creative=hBJOknVQJ58S5goQyjmwRw&utm_campaign=yelp_api_v3&utm_medium=api_v3_business_search&utm_source=hBJOknVQJ58S5goQyjmwRw", "review_count": 3, "categories": [{"alias": "currysausage", "title": "Curry Sausage"}], "rating": 4.5, "coordinates": {"latitude": 53.5764, "longitude": 10.0812}, "transactions": [], "location": {"address1": "Wandsbeker Zollstr. 95", "address2": null, "address3": null, "city": "Hamburg", "zip_code": "22041", "country": "DE", "state": "HH", "display_address": ["Wandsbeker Zollstr. 95", "22041 Hamburg", "Germany"]}, "phone": "", "display_phone": "", "distance": 3666.143945656509}, {"id": "-QFWFi-83g57SxW5q-5-pw", "alias": "orient-d\u00f6ner-hamburg", "name": "Orient D\u00f6ner", "image_url": "https://s3-media4.fl.yelpcdn.com/bphoto/ueNVnp_I8sdYCyHqkIvdkg/o.jpg", "is_closed": false, "url": "https://www.yelp.com/biz/orient-d%C3%B6ner-hamburg?adjust_creative=hBJOknVQJ58S5goQyjmwRw&utm_campaign=yelp_api_v3&utm_medium=api_v3_business_search&utm_source=hBJOknVQJ58S5goQyjmwRw", "review_count": 1, "categories": [{"alias": "kebab", "title": "Kebab"}], "rating": 4.0, "coordinates": {"latitude": 53.612235, "longitude": 10.076757}, "transactions": [], "location": {"address1": "Bramfelder Chaussee 230", "address2": "", "address3": null, "city": "Hamburg", "zip_code": "22177", "country": "DE", "state": "HH", "display_address": ["Bramfelder Chaussee 230", "22177 Hamburg", "Germany"]}, "phone": "", "display_phone": "", "distance": 975.5443722396594}, {"id": "PrvsgjS_h1jt_aC2dMhovQ", "alias": "restaurant-lindos-hamburg", "name": "Restaurant Lindos", "image_url": "https://s3-media1.fl.yelpcdn.com/bphoto/xk5nl3yE9qN-Gc0gyR5sCQ/o.jpg", "is_closed": false, "url": "https://www.yelp.com/biz/restaurant-lindos-hamburg?adjust_creative=hBJOknVQJ58S5goQyjmwRw&utm_campaign=yelp_api_v3&utm_medium=api_v3_business_search&utm_source=hBJOknVQJ58S5goQyjmwRw", "review_count": 1, "categories": [{"alias": "greek", "title": "Greek"}], "rating": 5.0, "coordinates": {"latitude": 53.57591, "longitude": 10.09919}, "transactions": [], "location": {"address1": "Ziethenstr. 12", "address2": null, "address3": null, "city": "Hamburg", "zip_code": "22041", "country": "DE", "state": "HH", "display_address": ["Ziethenstr. 12", "22041 Hamburg", "Germany"]}, "phone": "+49406565764", "display_phone": "+49 40 6565764", "distance": 3718.392063532987}, {"id": "nJnN-Sn_oIy_TvA4HyZcaA", "alias": "piccolino-hamburg-2", "name": "Piccolino", "image_url": "https://s3-media3.fl.yelpcdn.com/bphoto/7xcF-UrkkGoYMHOzNgrb9w/o.jpg", "is_closed": false, "url": "https://www.yelp.com/biz/piccolino-hamburg-2?adjust_creative=hBJOknVQJ58S5goQyjmwRw&utm_campaign=yelp_api_v3&utm_medium=api_v3_business_search&utm_source=hBJOknVQJ58S5goQyjmwRw", "review_count": 3, "categories": [{"alias": "italian", "title": "Italian"}], "rating": 4.0, "coordinates": {"latitude": 53.5876995, "longitude": 10.0924982}, "transactions": [], "price": "\u20ac", "location": {"address1": "Friedrich-Ebert-Damm 110", "address2": null, "address3": null, "city": "Hamburg", "zip_code": "22047", "country": "DE", "state": "HH", "display_address": ["Friedrich-Ebert-Damm 110", "22047 Hamburg", "Germany"]}, "phone": "+4940696710", "display_phone": "+49 40 696710", "distance": 2362.496650533664}, {"id": "7yDn3Eb-Oo9lECGO2MS0qw", "alias": "watzmann-wirtshaus-hamburg", "name": "Watzmann Wirtshaus", "image_url": "https://s3-media4.fl.yelpcdn.com/bphoto/fAGbOGkp82110R3lEOTKfw/o.jpg", "is_closed": false, "url": "https://www.yelp.com/biz/watzmann-wirtshaus-hamburg?adjust_creative=hBJOknVQJ58S5goQyjmwRw&utm_campaign=yelp_api_v3&utm_medium=api_v3_business_search&utm_source=hBJOknVQJ58S5goQyjmwRw", "review_count": 66, "categories": [{"alias": "austrian", "title": "Austrian"}], "rating": 4.0, "coordinates": {"latitude": 53.65195, "longitude": 10.10617}, "transactions": [], "price": "\u20ac\u20ac", "location": {"address1": "Saseler Chaussee 166", "address2": null, "address3": null, "city": "Hamburg", "zip_code": "22393", "country": "DE", "state": "HH", "display_address": ["Saseler Chaussee 166", "22393 Hamburg", "Germany"]}, "phone": "+49406003589", "display_phone": "+49 40 6003589", "distance": 4896.881481431925}, {"id": "wndlRXhLYSXU5z7gbGlAdg", "alias": "mama-hamburg-6", "name": "Mama", "image_url": "https://s3-media4.fl.yelpcdn.com/bphoto/k0U6R2baGg14JUzzA2nUrg/o.jpg", "is_closed": false, "url": "https://www.yelp.com/biz/mama-hamburg-6?adjust_creative=hBJOknVQJ58S5goQyjmwRw&utm_campaign=yelp_api_v3&utm_medium=api_v3_business_search&utm_source=hBJOknVQJ58S5goQyjmwRw", "review_count": 6, "categories": [{"alias": "italian", "title": "Italian"}], "rating": 3.0, "coordinates": {"latitude": 53.64165, "longitude": 10.08053}, "transactions": [], "price": "\u20ac\u20ac", "location": {"address1": "Wellingsb\u00fcttler Weg 119", "address2": "", "address3": null, "city": "Hamburg", "zip_code": "22391", "country": "DE", "state": "HH", "display_address": ["Wellingsb\u00fcttler Weg 119", "22391 Hamburg", "Germany"]}, "phone": "+494050798555", "display_phone": "+49 40 50798555", "distance": 3698.6393793201855}, {"id": "LTzTwvPF5ax0D2rrBBXzYg", "alias": "minas-restaurant-hamburg-2", "name": "Minas Restaurant", "image_url": "https://s3-media3.fl.yelpcdn.com/bphoto/vm_6HaynR9Unu0nAAWtCBg/o.jpg", "is_closed": false, "url": "https://www.yelp.com/biz/minas-restaurant-hamburg-2?adjust_creative=hBJOknVQJ58S5goQyjmwRw&utm_campaign=yelp_api_v3&utm_medium=api_v3_business_search&utm_source=hBJOknVQJ58S5goQyjmwRw", "review_count": 57, "categories": [{"alias": "greek", "title": "Greek"}, {"alias": "wine_bars", "title": "Wine Bars"}, {"alias": "mediterranean", "title": "Mediterranean"}], "rating": 4.0, "coordinates": {"latitude": 53.586898, "longitude": 10.08805}, "transactions": [], "price": "\u20ac\u20ac\u20ac", "location": {"address1": "Friedrich-Ebert-Damm 91", "address2": null, "address3": null, "city": "Hamburg", "zip_code": "22047", "country": "DE", "state": "HH", "display_address": ["Friedrich-Ebert-Damm 91", "22047 Hamburg", "Germany"]}, "phone": "+494027865598", "display_phone": "+49 40 27865598", "distance": 2452.8075654762447}, {"id": "pfIlDu9lscJcPY7UWGiq5A", "alias": "gastst\u00e4tte-zum-krombacher-hamburg", "name": "Gastst\u00e4tte Zum Krombacher", "image_url": "https://s3-media4.fl.yelpcdn.com/bphoto/aCdhDL4qJan_zjn5oPMCXA/o.jpg", "is_closed": false, "url": "https://www.yelp.com/biz/gastst%C3%A4tte-zum-krombacher-hamburg?adjust_creative=hBJOknVQJ58S5goQyjmwRw&utm_campaign=yelp_api_v3&utm_medium=api_v3_business_search&utm_source=hBJOknVQJ58S5goQyjmwRw", "review_count": 4, "categories": [{"alias": "restaurants", "title": "Restaurants"}], "rating": 4.0, "coordinates": {"latitude": 53.6395, "longitude": 10.0856}, "transactions": [], "location": {"address1": "Classenweg 1A", "address2": null, "address3": null, "city": "Hamburg", "zip_code": "22391", "country": "DE", "state": "HH", "display_address": ["Classenweg 1A", "22391 Hamburg", "Germany"]}, "phone": "+49405361881", "display_phone": "+49 40 5361881", "distance": 3416.30616896829}, {"id": "Bda7qjlbhgbEimtkgq8IrQ", "alias": "china-ente-restaurant-hamburg-2", "name": "China-Ente-Restaurant", "image_url": "https://s3-media1.fl.yelpcdn.com/bphoto/wrXm4UbqLdIEUZ_hjWLGPg/o.jpg", "is_closed": false, "url": "https://www.yelp.com/biz/china-ente-restaurant-hamburg-2?adjust_creative=hBJOknVQJ58S5goQyjmwRw&utm_campaign=yelp_api_v3&utm_medium=api_v3_business_search&utm_source=hBJOknVQJ58S5goQyjmwRw", "review_count": 14, "categories": [{"alias": "chinese", "title": "Chinese"}], "rating": 4.5, "coordinates": {"latitude": 53.64288, "longitude": 10.09904}, "transactions": [], "price": "\u20ac\u20ac\u20ac", "location": {"address1": "Saseler Chaussee 88 a", "address2": null, "address3": null, "city": "Hamburg", "zip_code": "22393", "country": "DE", "state": "HH", "display_address": ["Saseler Chaussee 88 a", "22393 Hamburg", "Germany"]}, "phone": "+49406014012", "display_phone": "+49 40 6014012", "distance": 3819.499859576824}, {"id": "ObzSylOV-u2s5bKXE-_0Gg", "alias": "tabouli-hamburg", "name": "Tabouli", "image_url": "", "is_closed": false, "url": "https://www.yelp.com/biz/tabouli-hamburg?adjust_creative=hBJOknVQJ58S5goQyjmwRw&utm_campaign=yelp_api_v3&utm_medium=api_v3_business_search&utm_source=hBJOknVQJ58S5goQyjmwRw", "review_count": 1, "categories": [{"alias": "kebab", "title": "Kebab"}, {"alias": "lebanese", "title": "Lebanese"}], "rating": 4.0, "coordinates": {"latitude": 53.57371, "longitude": 10.07152}, "transactions": [], "location": {"address1": "Wandsbeker Markstr. 153", "address2": "", "address3": "", "city": "Hamburg", "zip_code": "22041", "country": "DE", "state": "HH", "display_address": ["Wandsbeker Markstr. 153", "22041 Hamburg", "Germany"]}, "phone": "", "display_phone": "", "distance": 4106.943496064254}, {"id": "6iKUe38dSV5L7Rs8mDL3Yw", "alias": "viet-qu\u00e1n-hamburg", "name": "Viet Qu\u00e1n", "image_url": "https://s3-media4.fl.yelpcdn.com/bphoto/d84jLHm9eyx7aLacMPidgQ/o.jpg", "is_closed": false, "url": "https://www.yelp.com/biz/viet-qu%C3%A1n-hamburg?adjust_creative=hBJOknVQJ58S5goQyjmwRw&utm_campaign=yelp_api_v3&utm_medium=api_v3_business_search&utm_source=hBJOknVQJ58S5goQyjmwRw", "review_count": 9, "categories": [{"alias": "vietnamese", "title": "Vietnamese"}], "rating": 3.5, "coordinates": {"latitude": 53.5744923681108, "longitude": 10.0733970478177}, "transactions": [], "price": "\u20ac\u20ac", "location": {"address1": "Wandsbeker Zollstr. 5", "address2": "", "address3": null, "city": "Hamburg", "zip_code": "22041", "country": "DE", "state": "HH", "display_address": ["Wandsbeker Zollstr. 5", "22041 Hamburg", "Germany"]}, "phone": "+494065726268", "display_phone": "+49 40 65726268", "distance": 3989.0755047365033}, {"id": "9GoJkopWwedyY9fYpYfy_A", "alias": "ritas-das-fr\u00fchst\u00fcckscaf\u00e9-hamburg", "name": "Rita's Das Fr\u00fchst\u00fcckscaf\u00e9", "image_url": "https://s3-media3.fl.yelpcdn.com/bphoto/pT1Da4cbb3RZ8OJV6dE93Q/o.jpg", "is_closed": false, "url": "https://www.yelp.com/biz/ritas-das-fr%C3%BChst%C3%BCckscaf%C3%A9-hamburg?adjust_creative=hBJOknVQJ58S5goQyjmwRw&utm_campaign=yelp_api_v3&utm_medium=api_v3_business_search&utm_source=hBJOknVQJ58S5goQyjmwRw", "review_count": 7, "categories": [{"alias": "cafes", "title": "Cafes"}, {"alias": "breakfast_brunch", "title": "Breakfast & Brunch"}], "rating": 4.5, "coordinates": {"latitude": 53.5792, "longitude": 10.0666}, "transactions": [], "price": "\u20ac", "location": {"address1": "Waldd\u00f6rferstr. 12", "address2": null, "address3": null, "city": "Hamburg", "zip_code": "22049", "country": "DE", "state": "HH", "display_address": ["Waldd\u00f6rferstr. 12", "22049 Hamburg", "Germany"]}, "phone": "+494067049208", "display_phone": "+49 40 67049208", "distance": 3659.266438570812}, {"id": "rcTfSrJfwIFmC3YTBTTUqg", "alias": "kelms-k\u00fcche-hamburg", "name": "Kelm's K\u00fcche", "image_url": "https://s3-media3.fl.yelpcdn.com/bphoto/LlSfqAiHQyljwIp5MTYp_Q/o.jpg", "is_closed": false, "url": "https://www.yelp.com/biz/kelms-k%C3%BCche-hamburg?adjust_creative=hBJOknVQJ58S5goQyjmwRw&utm_campaign=yelp_api_v3&utm_medium=api_v3_business_search&utm_source=hBJOknVQJ58S5goQyjmwRw", "review_count": 18, "categories": [{"alias": "currysausage", "title": "Curry Sausage"}, {"alias": "sandwiches", "title": "Sandwiches"}], "rating": 4.0, "coordinates": {"latitude": 53.6195, "longitude": 10.0805}, "transactions": [], "price": "\u20ac", "location": {"address1": "Bramfelder Chaussee 345", "address2": null, "address3": null, "city": "Hamburg", "zip_code": "22175", "country": "DE", "state": "HH", "display_address": ["Bramfelder Chaussee 345", "22175 Hamburg", "Germany"]}, "phone": "+49406412045", "display_phone": "+49 40 6412045", "distance": 1347.7796290732294}, {"id": "kDHxb-R5T0kHAi4oy906Aw", "alias": "waldd\u00f6rfer-croque-caf\u00e9-hamburg-2", "name": "Waldd\u00f6rfer Croque-Caf\u00e9", "image_url": "https://s3-media3.fl.yelpcdn.com/bphoto/807xuH54VUSZ5yePJuEqhg/o.jpg", "is_closed": false, "url": "https://www.yelp.com/biz/waldd%C3%B6rfer-croque-caf%C3%A9-hamburg-2?adjust_creative=hBJOknVQJ58S5goQyjmwRw&utm_campaign=yelp_api_v3&utm_medium=api_v3_business_search&utm_source=hBJOknVQJ58S5goQyjmwRw", "review_count": 23, "categories": [{"alias": "creperies", "title": "Creperies"}, {"alias": "sandwiches", "title": "Sandwiches"}], "rating": 4.5, "coordinates": {"latitude": 53.5817, "longitude": 10.09398}, "transactions": [], "price": "\u20ac", "location": {"address1": "Waldd\u00f6rferstr. 231", "address2": "", "address3": "", "city": "Hamburg", "zip_code": "22047", "country": "DE", "state": "HH", "display_address": ["Waldd\u00f6rferstr. 231", "22047 Hamburg", "Germany"]}, "phone": "+49406958211", "display_phone": "+49 40 6958211", "distance": 3040.02357692155}, {"id": "Q56Y4jZph_c7ufWsi6mqXA", "alias": "crazy-croque-hamburg-6", "name": "Crazy Croque", "image_url": "https://s3-media1.fl.yelpcdn.com/bphoto/NcnlnHNsCAtRUdPZXZdvbw/o.jpg", "is_closed": false, "url": "https://www.yelp.com/biz/crazy-croque-hamburg-6?adjust_creative=hBJOknVQJ58S5goQyjmwRw&utm_campaign=yelp_api_v3&utm_medium=api_v3_business_search&utm_source=hBJOknVQJ58S5goQyjmwRw", "review_count": 7, "categories": [{"alias": "sandwiches", "title": "Sandwiches"}, {"alias": "burgers", "title": "Burgers"}], "rating": 4.0, "coordinates": {"latitude": 53.625, "longitude": 10.1148}, "transactions": [], "price": "\u20ac\u20ac", "location": {"address1": "Pezolddamm 156", "address2": null, "address3": null, "city": "Hamburg", "zip_code": "22159", "country": "DE", "state": "HH", "display_address": ["Pezolddamm 156", "22159 Hamburg", "Germany"]}, "phone": "+494063645655", "display_phone": "+49 40 63645655", "distance": 2404.523163963919}, {"id": "cUijiT2oQjeakLU-eAivYw", "alias": "hong-kong-wok-hamburg", "name": "Hong Kong Wok", "image_url": "", "is_closed": false, "url": "https://www.yelp.com/biz/hong-kong-wok-hamburg?adjust_creative=hBJOknVQJ58S5goQyjmwRw&utm_campaign=yelp_api_v3&utm_medium=api_v3_business_search&utm_source=hBJOknVQJ58S5goQyjmwRw", "review_count": 5, "categories": [{"alias": "food", "title": "Food"}, {"alias": "chinese", "title": "Chinese"}, {"alias": "hotdogs", "title": "Fast Food"}], "rating": 5.0, "coordinates": {"latitude": 53.56842, "longitude": 10.09183}, "transactions": [], "price": "\u20ac\u20ac\u20ac\u20ac", "location": {"address1": "Kielmannseggstr. 63", "address2": null, "address3": null, "city": "Hamburg", "zip_code": "22043", "country": "DE", "state": "HH", "display_address": ["Kielmannseggstr. 63", "22043 Hamburg", "Germany"]}, "phone": "+494068284860", "display_phone": "+49 40 68284860", "distance": 4503.310384272566}, {"id": "BOHWiX5XA7Svlmx_ipS7Xw", "alias": "alsterliebe-hamburg", "name": "Alsterliebe", "image_url": "https://s3-media2.fl.yelpcdn.com/bphoto/GrKOcNFERGMk2NDokQxRcg/o.jpg", "is_closed": false, "url": "https://www.yelp.com/biz/alsterliebe-hamburg?adjust_creative=hBJOknVQJ58S5goQyjmwRw&utm_campaign=yelp_api_v3&utm_medium=api_v3_business_search&utm_source=hBJOknVQJ58S5goQyjmwRw", "review_count": 2, "categories": [{"alias": "accessories", "title": "Accessories"}, {"alias": "homedecor", "title": "Home Decor"}, {"alias": "cafes", "title": "Cafes"}], "rating": 4.0, "coordinates": {"latitude": 53.6515, "longitude": 10.09596}, "transactions": [], "location": {"address1": "Frahmredder 1", "address2": "", "address3": "", "city": "Hamburg", "zip_code": "22393", "country": "DE", "state": "HH", "display_address": ["Frahmredder 1", "22393 Hamburg", "Germany"]}, "phone": "+494038047131", "display_phone": "+49 40 38047131", "distance": 4758.274440321522}, {"id": "RUREwsfo-PdltbxOndaHrQ", "alias": "thai-china-wok-hamburg", "name": "Thai China Wok", "image_url": "https://s3-media2.fl.yelpcdn.com/bphoto/-VjH3B8ZXVKxNrAGNHdwVg/o.jpg", "is_closed": false, "url": "https://www.yelp.com/biz/thai-china-wok-hamburg?adjust_creative=hBJOknVQJ58S5goQyjmwRw&utm_campaign=yelp_api_v3&utm_medium=api_v3_business_search&utm_source=hBJOknVQJ58S5goQyjmwRw", "review_count": 8, "categories": [{"alias": "panasian", "title": "Pan Asian"}], "rating": 4.0, "coordinates": {"latitude": 53.6462, "longitude": 10.0871}, "transactions": [], "price": "\u20ac", "location": {"address1": "Wellingsb\u00fcttler Landstr. 1", "address2": null, "address3": null, "city": "Hamburg", "zip_code": "22337", "country": "DE", "state": "HH", "display_address": ["Wellingsb\u00fcttler Landstr. 1", "22337 Hamburg", "Germany"]}, "phone": "+494050048724", "display_phone": "+49 40 50048724", "distance": 4152.206768332911}, {"id": "8Hj7wbmTyoNr8OmYj_AUYA", "alias": "argentina-steak-house-hamburg", "name": "Argentina Steak-House", "image_url": "https://s3-media3.fl.yelpcdn.com/bphoto/iOt_pvp8kgqMDIRIh4X7yQ/o.jpg", "is_closed": false, "url": "https://www.yelp.com/biz/argentina-steak-house-hamburg?adjust_creative=hBJOknVQJ58S5goQyjmwRw&utm_campaign=yelp_api_v3&utm_medium=api_v3_business_search&utm_source=hBJOknVQJ58S5goQyjmwRw", "review_count": 40, "categories": [{"alias": "steak", "title": "Steakhouses"}], "rating": 3.5, "coordinates": {"latitude": 53.64447, "longitude": 10.09971}, "transactions": [], "price": "\u20ac\u20ac", "location": {"address1": "Saseler Chaussee 111", "address2": "", "address3": "", "city": "Hamburg", "zip_code": "22393", "country": "DE", "state": "HH", "display_address": ["Saseler Chaussee 111", "22393 Hamburg", "Germany"]}, "phone": "+494053889849", "display_phone": "+49 40 53889849", "distance": 4016.4184000884393}, {"id": "NrKPNavZCmOuBFWLNLTrQA", "alias": "taverna-santorini-hamburg-4", "name": "Taverna Santorini", "image_url": "https://s3-media2.fl.yelpcdn.com/bphoto/eRyaIJu4GHd8hBnS6yoJvg/o.jpg", "is_closed": false, "url": "https://www.yelp.com/biz/taverna-santorini-hamburg-4?adjust_creative=hBJOknVQJ58S5goQyjmwRw&utm_campaign=yelp_api_v3&utm_medium=api_v3_business_search&utm_source=hBJOknVQJ58S5goQyjmwRw", "review_count": 26, "categories": [{"alias": "greek", "title": "Greek"}, {"alias": "mediterranean", "title": "Mediterranean"}], "rating": 3.5, "coordinates": {"latitude": 53.649165, "longitude": 10.1032543}, "transactions": [], "price": "\u20ac\u20ac", "location": {"address1": "Saseler Chaussee 161", "address2": "", "address3": "", "city": "Hamburg", "zip_code": "22393", "country": "DE", "state": "HH", "display_address": ["Saseler Chaussee 161", "22393 Hamburg", "Germany"]}, "phone": "+49406018080", "display_phone": "+49 40 6018080", "distance": 4555.072318359017}, {"id": "stze9iAqFHHnrZV9TFUGVg", "alias": "new-york-hamburg", "name": "New York", "image_url": "", "is_closed": false, "url": "https://www.yelp.com/biz/new-york-hamburg?adjust_creative=hBJOknVQJ58S5goQyjmwRw&utm_campaign=yelp_api_v3&utm_medium=api_v3_business_search&utm_source=hBJOknVQJ58S5goQyjmwRw", "review_count": 2, "categories": [{"alias": "international", "title": "International"}], "rating": 3.0, "coordinates": {"latitude": 53.5849917, "longitude": 10.0780928619018}, "transactions": [], "location": {"address1": "Holzm\u00fchlenstr. 100", "address2": "", "address3": "", "city": "Hamburg", "zip_code": "22041", "country": "DE", "state": "HH", "display_address": ["Holzm\u00fchlenstr. 100", "22041 Hamburg", "Germany"]}, "phone": "+494022600990", "display_phone": "+49 40 22600990", "distance": 2781.744643279358}, {"id": "EYwIrFWjO_u5jfncKewT6A", "alias": "baris-grillhaus-hamburg-3", "name": "Baris Grillhaus", "image_url": "https://s3-media1.fl.yelpcdn.com/bphoto/bzPHNiAGI0yPFEHd2Rz08Q/o.jpg", "is_closed": false, "url": "https://www.yelp.com/biz/baris-grillhaus-hamburg-3?adjust_creative=hBJOknVQJ58S5goQyjmwRw&utm_campaign=yelp_api_v3&utm_medium=api_v3_business_search&utm_source=hBJOknVQJ58S5goQyjmwRw", "review_count": 22, "categories": [{"alias": "kebab", "title": "Kebab"}, {"alias": "bakeries", "title": "Bakeries"}], "rating": 4.0, "coordinates": {"latitude": 53.57218, "longitude": 10.06666}, "transactions": [], "price": "\u20ac", "location": {"address1": "Wandsbeker Marktstr. 80", "address2": "", "address3": null, "city": "Hamburg", "zip_code": "22041", "country": "DE", "state": "HH", "display_address": ["Wandsbeker Marktstr. 80", "22041 Hamburg", "Germany"]}, "phone": "+494068917233", "display_phone": "+49 40 68917233", "distance": 4317.697176619554}, {"id": "SWmfdHsfpfpaN4p1CwKe2Q", "alias": "neovii-hamburg", "name": "neovii", "image_url": "https://s3-media2.fl.yelpcdn.com/bphoto/1qGsK6bb3JCEu8d7LIH4_g/o.jpg", "is_closed": false, "url": "https://www.yelp.com/biz/neovii-hamburg?adjust_creative=hBJOknVQJ58S5goQyjmwRw&utm_campaign=yelp_api_v3&utm_medium=api_v3_business_search&utm_source=hBJOknVQJ58S5goQyjmwRw", "review_count": 5, "categories": [{"alias": "hotdogs", "title": "Fast Food"}], "rating": 4.5, "coordinates": {"latitude": 53.6119, "longitude": 10.0757}, "transactions": [], "price": "\u20ac\u20ac\u20ac", "location": {"address1": "Bramfelder Chaussee 230", "address2": "", "address3": null, "city": "Hamburg", "zip_code": "22177", "country": "DE", "state": "HH", "display_address": ["Bramfelder Chaussee 230", "22177 Hamburg", "Germany"]}, "phone": "+494080007117", "display_phone": "+49 40 80007117", "distance": 1027.7698259881638}, {"id": "BcrHE8L8uhJTwP6XyB-Oeg", "alias": "d\u00f6ner-treff-hamburg-2", "name": "D\u00f6ner Treff", "image_url": "https://s3-media1.fl.yelpcdn.com/bphoto/xfXjDgGvUpCaly9j2bxYJg/o.jpg", "is_closed": false, "url": "https://www.yelp.com/biz/d%C3%B6ner-treff-hamburg-2?adjust_creative=hBJOknVQJ58S5goQyjmwRw&utm_campaign=yelp_api_v3&utm_medium=api_v3_business_search&utm_source=hBJOknVQJ58S5goQyjmwRw", "review_count": 2, "categories": [{"alias": "kebab", "title": "Kebab"}], "rating": 3.0, "coordinates": {"latitude": 53.58337, "longitude": 10.06744}, "transactions": [], "location": {"address1": "Nordschleswiger Str. 59", "address2": "", "address3": "", "city": "Hamburg", "zip_code": "22049", "country": "DE", "state": "HH", "display_address": ["Nordschleswiger Str. 59", "22049 Hamburg", "Germany"]}, "phone": "+4917690294841", "display_phone": "+49 176 90294841", "distance": 3222.595338855878}, {"id": "G5qIXIDFswYYXy_-SlOwgw", "alias": "gut-karlsh\u00f6he-hamburg", "name": "Gut Karlsh\u00f6he", "image_url": "https://s3-media4.fl.yelpcdn.com/bphoto/K4UPzUKEdKdTIArYJNnFdw/o.jpg", "is_closed": false, "url": "https://www.yelp.com/biz/gut-karlsh%C3%B6he-hamburg?adjust_creative=hBJOknVQJ58S5goQyjmwRw&utm_campaign=yelp_api_v3&utm_medium=api_v3_business_search&utm_source=hBJOknVQJ58S5goQyjmwRw", "review_count": 9, "categories": [{"alias": "active", "title": "Active Life"}, {"alias": "cafes", "title": "Cafes"}, {"alias": "museums", "title": "Museums"}], "rating": 4.0, "coordinates": {"latitude": 53.62997, "longitude": 10.11033}, "transactions": [], "location": {"address1": "Karlsh\u00f6he 60d", "address2": null, "address3": null, "city": "Hamburg", "zip_code": "22175", "country": "DE", "state": "HH", "display_address": ["Karlsh\u00f6he 60d", "22175 Hamburg", "Germany"]}, "phone": "+494063702490", "display_phone": "+49 40 63702490", "distance": 2684.003167551382}, {"id": "a_WVWy6H1uXTB5BB0u1iaQ", "alias": "jim-block-hamburg-4", "name": "Jim Block", "image_url": "https://s3-media2.fl.yelpcdn.com/bphoto/qIgTqJXbnSbEiRgXm5Fx8w/o.jpg", "is_closed": false, "url": "https://www.yelp.com/biz/jim-block-hamburg-4?adjust_creative=hBJOknVQJ58S5goQyjmwRw&utm_campaign=yelp_api_v3&utm_medium=api_v3_business_search&utm_source=hBJOknVQJ58S5goQyjmwRw", "review_count": 97, "categories": [{"alias": "burgers", "title": "Burgers"}, {"alias": "hotdogs", "title": "Fast Food"}], "rating": 4.0, "coordinates": {"latitude": 53.57247, "longitude": 10.06747}, "transactions": [], "price": "\u20ac\u20ac", "location": {"address1": "Wandsbeker Marktstr. 97 / 99", "address2": "", "address3": "", "city": "Hamburg", "zip_code": "22041", "country": "DE", "state": "HH", "display_address": ["Wandsbeker Marktstr. 97 / 99", "22041 Hamburg", "Germany"]}, "phone": "+494068282240", "display_phone": "+49 40 68282240", "distance": 4318.291513018238}, {"id": "34AjJqRyzU6Aq57KVC34Kw", "alias": "kim-chi-hamburg-3", "name": "Kim-Chi", "image_url": "https://s3-media3.fl.yelpcdn.com/bphoto/_yOS07aEdpVOGu2_ijvbXQ/o.jpg", "is_closed": false, "url": "https://www.yelp.com/biz/kim-chi-hamburg-3?adjust_creative=hBJOknVQJ58S5goQyjmwRw&utm_campaign=yelp_api_v3&utm_medium=api_v3_business_search&utm_source=hBJOknVQJ58S5goQyjmwRw", "review_count": 9, "categories": [{"alias": "panasian", "title": "Pan Asian"}], "rating": 3.0, "coordinates": {"latitude": 53.6194, "longitude": 10.0973}, "transactions": [], "price": "\u20ac", "location": {"address1": "Fahrenkr\u00f6n 146", "address2": null, "address3": null, "city": "Hamburg", "zip_code": "22179", "country": "DE", "state": "HH", "display_address": ["Fahrenkr\u00f6n 146", "22179 Hamburg", "Germany"]}, "phone": "+494064413900", "display_phone": "+49 40 64413900", "distance": 1250.9776299116065}, {"id": "MsmXXwUr9HGCdeLEXEF_3Q", "alias": "schnoors-hamburg", "name": "Schnoor's", "image_url": "https://s3-media2.fl.yelpcdn.com/bphoto/XUNae9EiZsEJM3P52l7m9A/o.jpg", "is_closed": false, "url": "https://www.yelp.com/biz/schnoors-hamburg?adjust_creative=hBJOknVQJ58S5goQyjmwRw&utm_campaign=yelp_api_v3&utm_medium=api_v3_business_search&utm_source=hBJOknVQJ58S5goQyjmwRw", "review_count": 6, "categories": [{"alias": "modern_european", "title": "Modern European"}, {"alias": "beergarden", "title": "Beer Garden"}], "rating": 2.0, "coordinates": {"latitude": 53.63869, "longitude": 10.1065}, "transactions": [], "price": "\u20ac\u20ac", "location": {"address1": "Donauweg 2", "address2": null, "address3": null, "city": "Hamburg", "zip_code": "22359", "country": "DE", "state": "HH", "display_address": ["Donauweg 2", "22359 Hamburg", "Germany"]}, "phone": "+494064941030", "display_phone": "+49 40 64941030", "distance": 3476.4884434623204}, {"id": "_ySNTQSelVnFcY9RtvkRpA", "alias": "burger-lounge-hamburg-4", "name": "Burger Lounge", "image_url": "https://s3-media3.fl.yelpcdn.com/bphoto/TRtu4X9C5hSlb9c0rACnCQ/o.jpg", "is_closed": false, "url": "https://www.yelp.com/biz/burger-lounge-hamburg-4?adjust_creative=hBJOknVQJ58S5goQyjmwRw&utm_campaign=yelp_api_v3&utm_medium=api_v3_business_search&utm_source=hBJOknVQJ58S5goQyjmwRw", "review_count": 3, "categories": [{"alias": "fooddeliveryservices", "title": "Food Delivery Services"}, {"alias": "tradamerican", "title": "American (Traditional)"}, {"alias": "burgers", "title": "Burgers"}], "rating": 1.5, "coordinates": {"latitude": 53.61135, "longitude": 10.07349}, "transactions": [], "price": "\u20ac\u20ac", "location": {"address1": "Bramfelder Chaussee 215", "address2": "", "address3": "", "city": "Hamburg", "zip_code": "22177", "country": "DE", "state": "HH", "display_address": ["Bramfelder Chaussee 215", "22177 Hamburg", "Germany"]}, "phone": "+494033987217", "display_phone": "+49 40 33987217", "distance": 1150.7584501699248}, {"id": "WtbpnGtcEJTpKRvA9YkBuA", "alias": "l\u00f6ffelhaus-hamburg-2", "name": "L\u00f6ffelhaus", "image_url": "https://s3-media1.fl.yelpcdn.com/bphoto/b2-zfW2ML9tUXT_EcbN5LQ/o.jpg", "is_closed": false, "url": "https://www.yelp.com/biz/l%C3%B6ffelhaus-hamburg-2?adjust_creative=hBJOknVQJ58S5goQyjmwRw&utm_campaign=yelp_api_v3&utm_medium=api_v3_business_search&utm_source=hBJOknVQJ58S5goQyjmwRw", "review_count": 5, "categories": [{"alias": "cafes", "title": "Cafes"}], "rating": 4.0, "coordinates": {"latitude": 53.57444, "longitude": 10.07315}, "transactions": [], "price": "\u20ac\u20ac", "location": {"address1": "Wandsbeker Zollstr. 3", "address2": "", "address3": "", "city": "Hamburg", "zip_code": "22041", "country": "DE", "state": "HH", "display_address": ["Wandsbeker Zollstr. 3", "22041 Hamburg", "Germany"]}, "phone": "+494022600663", "display_phone": "+49 40 22600663", "distance": 3999.1043685392133}, {"id": "nSXVnuHIEnir1B0sGFPLmA", "alias": "pizzaservice-milano-hamburg", "name": "Pizzaservice Milano", "image_url": "https://s3-media4.fl.yelpcdn.com/bphoto/YUwJboHAYm-LWpfUtcq9LQ/o.jpg", "is_closed": false, "url": "https://www.yelp.com/biz/pizzaservice-milano-hamburg?adjust_creative=hBJOknVQJ58S5goQyjmwRw&utm_campaign=yelp_api_v3&utm_medium=api_v3_business_search&utm_source=hBJOknVQJ58S5goQyjmwRw", "review_count": 1, "categories": [{"alias": "fooddeliveryservices", "title": "Food Delivery Services"}, {"alias": "italian", "title": "Italian"}], "rating": 5.0, "coordinates": {"latitude": 53.5991, "longitude": 10.0666}, "transactions": [], "location": {"address1": "Bramfelder Chaussee 73", "address2": null, "address3": null, "city": "Hamburg", "zip_code": "22177", "country": "DE", "state": "HH", "display_address": ["Bramfelder Chaussee 73", "22177 Hamburg", "Germany"]}, "phone": "+494069797758", "display_phone": "+49 40 69797758", "distance": 1914.3535209142335}, {"id": "-U-2RxYNd8E3fTV9sdwzAA", "alias": "block-house-hamburg-4", "name": "Block House", "image_url": "https://s3-media2.fl.yelpcdn.com/bphoto/MIgDU1Z7xbd8xavi0UrUHQ/o.jpg", "is_closed": false, "url": "https://www.yelp.com/biz/block-house-hamburg-4?adjust_creative=hBJOknVQJ58S5goQyjmwRw&utm_campaign=yelp_api_v3&utm_medium=api_v3_business_search&utm_source=hBJOknVQJ58S5goQyjmwRw", "review_count": 90, "categories": [{"alias": "steak", "title": "Steakhouses"}], "rating": 3.5, "coordinates": {"latitude": 53.5715999, "longitude": 10.07001}, "transactions": [], "price": "\u20ac\u20ac\u20ac", "location": {"address1": "Schlo\u00dfstr. 48", "address2": null, "address3": null, "city": "Hamburg", "zip_code": "22041", "country": "DE", "state": "HH", "display_address": ["Schlo\u00dfstr. 48", "22041 Hamburg", "Germany"]}, "phone": "+4940684638", "display_phone": "+49 40 684638", "distance": 4362.814865381306}, {"id": "tSKYzaFFS5n_IyA4B08gwA", "alias": "eiscuisine-hamburg", "name": "Eiscuisine", "image_url": "https://s3-media4.fl.yelpcdn.com/bphoto/9F86yyioKX_cTF6Db5s_Sw/o.jpg", "is_closed": false, "url": "https://www.yelp.com/biz/eiscuisine-hamburg?adjust_creative=hBJOknVQJ58S5goQyjmwRw&utm_campaign=yelp_api_v3&utm_medium=api_v3_business_search&utm_source=hBJOknVQJ58S5goQyjmwRw", "review_count": 8, "categories": [{"alias": "icecream", "title": "Ice Cream & Frozen Yogurt"}, {"alias": "bistros", "title": "Bistros"}], "rating": 4.5, "coordinates": {"latitude": 53.64035, "longitude": 10.08292}, "transactions": [], "price": "\u20ac\u20ac", "location": {"address1": "Rolfinckstr. 12 a", "address2": "", "address3": "", "city": "Hamburg", "zip_code": "22391", "country": "DE", "state": "HH", "display_address": ["Rolfinckstr. 12 a", "22391 Hamburg", "Germany"]}, "phone": "+494052733011", "display_phone": "+49 40 52733011", "distance": 3530.8859197503157}, {"id": "i59YO-Z7DMbsZfuVJkHAbg", "alias": "caf\u00e9-im-herrenhaus-hamburg", "name": "Caf\u00e9 im Herrenhaus", "image_url": "https://s3-media4.fl.yelpcdn.com/bphoto/_O4BK-aezMWcfmA6NauPKg/o.jpg", "is_closed": false, "url": "https://www.yelp.com/biz/caf%C3%A9-im-herrenhaus-hamburg?adjust_creative=hBJOknVQJ58S5goQyjmwRw&utm_campaign=yelp_api_v3&utm_medium=api_v3_business_search&utm_source=hBJOknVQJ58S5goQyjmwRw", "review_count": 17, "categories": [{"alias": "german", "title": "German"}, {"alias": "cafes", "title": "Cafes"}], "rating": 4.0, "coordinates": {"latitude": 53.6435, "longitude": 10.072}, "transactions": [], "price": "\u20ac\u20ac", "location": {"address1": "Wellingsb\u00fcttler Weg 71", "address2": null, "address3": null, "city": "Hamburg", "zip_code": "22391", "country": "DE", "state": "HH", "display_address": ["Wellingsb\u00fcttler Weg 71", "22391 Hamburg", "Germany"]}, "phone": "+494097070980", "display_phone": "+49 40 97070980", "distance": 4033.827803341669}, {"id": "4yetlOy70irj1wTh6xsYxA", "alias": "mundfein-hamburg-2", "name": "Mundfein", "image_url": "", "is_closed": false, "url": "https://www.yelp.com/biz/mundfein-hamburg-2?adjust_creative=hBJOknVQJ58S5goQyjmwRw&utm_campaign=yelp_api_v3&utm_medium=api_v3_business_search&utm_source=hBJOknVQJ58S5goQyjmwRw", "review_count": 3, "categories": [{"alias": "pizza", "title": "Pizza"}], "rating": 4.5, "coordinates": {"latitude": 53.6171999, "longitude": 10.07833}, "transactions": [], "location": {"address1": "Bramfelder Chaussee 296", "address2": "", "address3": "", "city": "Hamburg", "zip_code": "22177", "country": "DE", "state": "HH", "display_address": ["Bramfelder Chaussee 296", "22177 Hamburg", "Germany"]}, "phone": "+494063314390", "display_phone": "+49 40 63314390", "distance": 1211.9074061456215}, {"id": "l0c6eEKReNrsnCczoZ2dag", "alias": "rondell-hamburg", "name": "Rondell", "image_url": "https://s3-media3.fl.yelpcdn.com/bphoto/k-IV0LA2a6RxJ4gECNpPqA/o.jpg", "is_closed": false, "url": "https://www.yelp.com/biz/rondell-hamburg?adjust_creative=hBJOknVQJ58S5goQyjmwRw&utm_campaign=yelp_api_v3&utm_medium=api_v3_business_search&utm_source=hBJOknVQJ58S5goQyjmwRw", "review_count": 46, "categories": [{"alias": "italian", "title": "Italian"}], "rating": 3.0, "coordinates": {"latitude": 53.5715, "longitude": 10.0688998}, "transactions": [], "price": "\u20ac\u20ac", "location": {"address1": "Schlo\u00dfstr. 42", "address2": null, "address3": null, "city": "Hamburg", "zip_code": "22041", "country": "DE", "state": "HH", "display_address": ["Schlo\u00dfstr. 42", "22041 Hamburg", "Germany"]}, "phone": "+4940684220", "display_phone": "+49 40 684220", "distance": 4396.173813816762}, {"id": "lt8UcN8patkOB14upuMwxg", "alias": "wellingten-hamburg", "name": "Wellingten", "image_url": "https://s3-media3.fl.yelpcdn.com/bphoto/Ym5ZLgnRSknz2q18l055NA/o.jpg", "is_closed": false, "url": "https://www.yelp.com/biz/wellingten-hamburg?adjust_creative=hBJOknVQJ58S5goQyjmwRw&utm_campaign=yelp_api_v3&utm_medium=api_v3_business_search&utm_source=hBJOknVQJ58S5goQyjmwRw", "review_count": 48, "categories": [{"alias": "german", "title": "German"}], "rating": 3.0, "coordinates": {"latitude": 53.6424, "longitude": 10.07712}, "transactions": [], "price": "\u20ac\u20ac\u20ac", "location": {"address1": "Wellingsb\u00fcttler Weg 91", "address2": "", "address3": "", "city": "Hamburg", "zip_code": "22391", "country": "DE", "state": "HH", "display_address": ["Wellingsb\u00fcttler Weg 91", "22391 Hamburg", "Germany"]}, "phone": "+49405362402", "display_phone": "+49 40 5362402", "distance": 3829.2323512011603}, {"id": "fDCSXYKbbA6t6hgNhmcLwg", "alias": "ok-pizza-hamburg", "name": "OK Pizza", "image_url": "", "is_closed": false, "url": "https://www.yelp.com/biz/ok-pizza-hamburg?adjust_creative=hBJOknVQJ58S5goQyjmwRw&utm_campaign=yelp_api_v3&utm_medium=api_v3_business_search&utm_source=hBJOknVQJ58S5goQyjmwRw", "review_count": 2, "categories": [{"alias": "pizza", "title": "Pizza"}], "rating": 5.0, "coordinates": {"latitude": 53.6513, "longitude": 10.10565}, "transactions": [], "location": {"address1": "Saseler Chaussee 160", "address2": "", "address3": "", "city": "Hamburg", "zip_code": "22393", "country": "DE", "state": "HH", "display_address": ["Saseler Chaussee 160", "22393 Hamburg", "Germany"]}, "phone": "+49406045544", "display_phone": "+49 40 6045544", "distance": 4807.772397687232}, {"id": "29Em9OzpoLEeCXYLGGlNXA", "alias": "dulsberg-kebaphaus-hamburg", "name": "Dulsberg Kebaphaus", "image_url": "https://s3-media1.fl.yelpcdn.com/bphoto/r35BtvyqFw3xmYHi_jK6SQ/o.jpg", "is_closed": false, "url": "https://www.yelp.com/biz/dulsberg-kebaphaus-hamburg?adjust_creative=hBJOknVQJ58S5goQyjmwRw&utm_campaign=yelp_api_v3&utm_medium=api_v3_business_search&utm_source=hBJOknVQJ58S5goQyjmwRw", "review_count": 9, "categories": [{"alias": "kebab", "title": "Kebab"}, {"alias": "foodstands", "title": "Food Stands"}, {"alias": "hotdogs", "title": "Fast Food"}], "rating": 3.0, "coordinates": {"latitude": 53.58169, "longitude": 10.06514}, "transactions": [], "price": "\u20ac", "location": {"address1": "Stra\u00dfburger Str. 42", "address2": "", "address3": "", "city": "Hamburg", "zip_code": "22049", "country": "DE", "state": "HH", "display_address": ["Stra\u00dfburger Str. 42", "22049 Hamburg", "Germany"]}, "phone": "", "display_phone": "", "distance": 3456.8481775780133}, {"id": "4GAAQpwe0kigUeNlvASv7A", "alias": "mundfein-pizzawerkstatt-hamburg-4", "name": "Mundfein Pizzawerkstatt", "image_url": "https://s3-media1.fl.yelpcdn.com/bphoto/MGq7H1dYvxL6OfY-yswVqQ/o.jpg", "is_closed": false, "url": "https://www.yelp.com/biz/mundfein-pizzawerkstatt-hamburg-4?adjust_creative=hBJOknVQJ58S5goQyjmwRw&utm_campaign=yelp_api_v3&utm_medium=api_v3_business_search&utm_source=hBJOknVQJ58S5goQyjmwRw", "review_count": 24, "categories": [{"alias": "pizza", "title": "Pizza"}], "rating": 4.0, "coordinates": {"latitude": 53.5805, "longitude": 10.1028}, "transactions": [], "price": "\u20ac\u20ac", "location": {"address1": "Ahrensburger Str. 110", "address2": null, "address3": null, "city": "Hamburg", "zip_code": "22045", "country": "DE", "state": "HH", "display_address": ["Ahrensburger Str. 110", "22045 Hamburg", "Germany"]}, "phone": "+494088305335", "display_phone": "+49 40 88305335", "distance": 3262.708660087072}, {"id": "Z_VhoYana9KZlVipdBw58Q", "alias": "kleinhuis-gartenbistro-hamburg", "name": "Kleinhuis' Gartenbistro", "image_url": "https://s3-media2.fl.yelpcdn.com/bphoto/zrIA1rCwZNp2uDeUeVZdew/o.jpg", "is_closed": false, "url": "https://www.yelp.com/biz/kleinhuis-gartenbistro-hamburg?adjust_creative=hBJOknVQJ58S5goQyjmwRw&utm_campaign=yelp_api_v3&utm_medium=api_v3_business_search&utm_source=hBJOknVQJ58S5goQyjmwRw", "review_count": 2, "categories": [{"alias": "german", "title": "German"}, {"alias": "bistros", "title": "Bistros"}], "rating": 3.0, "coordinates": {"latitude": 53.630419, "longitude": 10.110478}, "transactions": [], "location": {"address1": "Karlsh\u00f6he 60 d", "address2": null, "address3": null, "city": "Hamburg", "zip_code": "22175", "country": "DE", "state": "HH", "display_address": ["Karlsh\u00f6he 60 d", "22175 Hamburg", "Germany"]}, "phone": "+494060009245", "display_phone": "+49 40 60009245", "distance": 2732.3746865625917}, {"id": "7U_2DLO4hEKn1f1QrKxURw", "alias": "caf\u00e9-und-bar-celona-hamburg", "name": "Caf\u00e9 & Bar Celona", "image_url": "https://s3-media1.fl.yelpcdn.com/bphoto/MPMnviTYUzq3VW9gVxdCyw/o.jpg", "is_closed": false, "url": "https://www.yelp.com/biz/caf%C3%A9-und-bar-celona-hamburg?adjust_creative=hBJOknVQJ58S5goQyjmwRw&utm_campaign=yelp_api_v3&utm_medium=api_v3_business_search&utm_source=hBJOknVQJ58S5goQyjmwRw", "review_count": 97, "categories": [{"alias": "bars", "title": "Bars"}, {"alias": "cafes", "title": "Cafes"}], "rating": 3.0, "coordinates": {"latitude": 53.57203, "longitude": 10.06734}, "transactions": [], "price": "\u20ac\u20ac", "location": {"address1": "Wandsbeker Marktplatz 1", "address2": "", "address3": "", "city": "Hamburg", "zip_code": "22041", "country": "DE", "state": "HH", "display_address": ["Wandsbeker Marktplatz 1", "22041 Hamburg", "Germany"]}, "phone": "+494068947200", "display_phone": "+49 40 68947200", "distance": 4375.250832676978}, {"id": "Ynp7YmJAy6qTatoZcT66Eg", "alias": "restaurant-pane-e-vino-hamburg", "name": "Restaurant Pane E Vino", "image_url": "https://s3-media1.fl.yelpcdn.com/bphoto/82PXWqUQf_edShIaQHBe5Q/o.jpg", "is_closed": false, "url": "https://www.yelp.com/biz/restaurant-pane-e-vino-hamburg?adjust_creative=hBJOknVQJ58S5goQyjmwRw&utm_campaign=yelp_api_v3&utm_medium=api_v3_business_search&utm_source=hBJOknVQJ58S5goQyjmwRw", "review_count": 17, "categories": [{"alias": "italian", "title": "Italian"}], "rating": 3.0, "coordinates": {"latitude": 53.6202, "longitude": 10.0977}, "transactions": [], "price": "\u20ac\u20ac", "location": {"address1": "Pezolddamm 1", "address2": null, "address3": null, "city": "Hamburg", "zip_code": "22175", "country": "DE", "state": "HH", "display_address": ["Pezolddamm 1", "22175 Hamburg", "Germany"]}, "phone": "+494064426895", "display_phone": "+49 40 64426895", "distance": 1343.474764772819}, {"id": "m6whqSNYR_o5qInFI0fhMw", "alias": "rodizio-rio-hamburg", "name": "Rodizio Rio", "image_url": "https://s3-media4.fl.yelpcdn.com/bphoto/LCa4MUKzRjhj-IqhW94Y1Q/o.jpg", "is_closed": false, "url": "https://www.yelp.com/biz/rodizio-rio-hamburg?adjust_creative=hBJOknVQJ58S5goQyjmwRw&utm_campaign=yelp_api_v3&utm_medium=api_v3_business_search&utm_source=hBJOknVQJ58S5goQyjmwRw", "review_count": 58, "categories": [{"alias": "brazilian", "title": "Brazilian"}], "rating": 3.0, "coordinates": {"latitude": 53.57529, "longitude": 10.0747199}, "transactions": [], "price": "\u20ac\u20ac", "location": {"address1": "Wandsbeker Zollstr. 25 - 29", "address2": null, "address3": null, "city": "Hamburg", "zip_code": "22041", "country": "DE", "state": "HH", "display_address": ["Wandsbeker Zollstr. 25 - 29", "22041 Hamburg", "Germany"]}, "phone": "+494076080878", "display_phone": "+49 40 76080878", "distance": 3848.24526136122}, {"id": "TUy7lxoCFE8JYsEdnFBedw", "alias": "tonndorf-grill-d\u00f6ner-hamburg", "name": "tonndorf grill d\u00f6ner", "image_url": "", "is_closed": false, "url": "https://www.yelp.com/biz/tonndorf-grill-d%C3%B6ner-hamburg?adjust_creative=hBJOknVQJ58S5goQyjmwRw&utm_campaign=yelp_api_v3&utm_medium=api_v3_business_search&utm_source=hBJOknVQJ58S5goQyjmwRw", "review_count": 1, "categories": [{"alias": "kebab", "title": "Kebab"}], "rating": 4.0, "coordinates": {"latitude": 53.5803430024439, "longitude": 10.1042160847894}, "transactions": [], "location": {"address1": "Ahrensburger Str. 111", "address2": "", "address3": null, "city": "Hamburg", "zip_code": "22045", "country": "DE", "state": "HH", "display_address": ["Ahrensburger Str. 111", "22045 Hamburg", "Germany"]}, "phone": "+494064220601", "display_phone": "+49 40 64220601", "distance": 3304.0933305794897}, {"id": "FaDAnhkh9AVB0nx0VLtFHQ", "alias": "croques-und-crepes-hamburg", "name": "Croques und Crepes", "image_url": "https://s3-media2.fl.yelpcdn.com/bphoto/5C8Dy8_FnwafyD5_FuqHnQ/o.jpg", "is_closed": false, "url": "https://www.yelp.com/biz/croques-und-crepes-hamburg?adjust_creative=hBJOknVQJ58S5goQyjmwRw&utm_campaign=yelp_api_v3&utm_medium=api_v3_business_search&utm_source=hBJOknVQJ58S5goQyjmwRw", "review_count": 14, "categories": [{"alias": "creperies", "title": "Creperies"}, {"alias": "sandwiches", "title": "Sandwiches"}], "rating": 3.5, "coordinates": {"latitude": 53.62124, "longitude": 10.08212}, "transactions": [], "price": "\u20ac\u20ac\u20ac", "location": {"address1": "Bramfelder Chaussee 371", "address2": null, "address3": null, "city": "Hamburg", "zip_code": "22175", "country": "DE", "state": "HH", "display_address": ["Bramfelder Chaussee 371", "22175 Hamburg", "Germany"]}, "phone": "+49406428784", "display_phone": "+49 40 6428784", "distance": 1474.9598513052927}, {"id": "sWapCmx9O0m8aDJ7KiwVPQ", "alias": "mai-mai-hamburg-10", "name": "mai-mai", "image_url": "https://s3-media3.fl.yelpcdn.com/bphoto/fqOsLWNMXFf5FOMLXNayhw/o.jpg", "is_closed": false, "url": "https://www.yelp.com/biz/mai-mai-hamburg-10?adjust_creative=hBJOknVQJ58S5goQyjmwRw&utm_campaign=yelp_api_v3&utm_medium=api_v3_business_search&utm_source=hBJOknVQJ58S5goQyjmwRw", "review_count": 9, "categories": [{"alias": "hotdogs", "title": "Fast Food"}, {"alias": "chinese", "title": "Chinese"}], "rating": 3.5, "coordinates": {"latitude": 53.5729, "longitude": 10.0659}, "transactions": [], "price": "\u20ac", "location": {"address1": "Quarree 8 - 10", "address2": "", "address3": null, "city": "Hamburg", "zip_code": "22041", "country": "DE", "state": "HH", "display_address": ["Quarree 8 - 10", "22041 Hamburg", "Germany"]}, "phone": "", "display_phone": "", "distance": 4319.436655771612}, {"id": "JbC6Cvbi4Gr5V6iAXB-0VA", "alias": "crazy-croque-hamburg", "name": "Crazy Croque", "image_url": "https://s3-media2.fl.yelpcdn.com/bphoto/Tmm8hEvPXRWQxtY2jHvYaA/o.jpg", "is_closed": false, "url": "https://www.yelp.com/biz/crazy-croque-hamburg?adjust_creative=hBJOknVQJ58S5goQyjmwRw&utm_campaign=yelp_api_v3&utm_medium=api_v3_business_search&utm_source=hBJOknVQJ58S5goQyjmwRw", "review_count": 54, "categories": [{"alias": "sandwiches", "title": "Sandwiches"}], "rating": 4.0, "coordinates": {"latitude": 53.58855, "longitude": 10.09947}, "transactions": [], "price": "\u20ac\u20ac", "location": {"address1": "Friedrich-Ebert-Damm 160 a", "address2": null, "address3": null, "city": "Hamburg", "zip_code": "22047", "country": "DE", "state": "HH", "display_address": ["Friedrich-Ebert-Damm 160 a", "22047 Hamburg", "Germany"]}, "phone": "+49406939900", "display_phone": "+49 40 6939900", "distance": 2358.317506659708}, {"id": "v854-nr4s49fiRLBZqDarQ", "alias": "kaya-restaurant-hamburg", "name": "Kaya Restaurant", "image_url": "https://s3-media2.fl.yelpcdn.com/bphoto/ulfJg1IAOU6SYx_MQwaABQ/o.jpg", "is_closed": false, "url": "https://www.yelp.com/biz/kaya-restaurant-hamburg?adjust_creative=hBJOknVQJ58S5goQyjmwRw&utm_campaign=yelp_api_v3&utm_medium=api_v3_business_search&utm_source=hBJOknVQJ58S5goQyjmwRw", "review_count": 1, "categories": [{"alias": "kebab", "title": "Kebab"}], "rating": 2.0, "coordinates": {"latitude": 53.61276, "longitude": 10.0779}, "transactions": [], "location": {"address1": "Kaufland", "address2": "Bramfelder Dorfplatz 18", "address3": "", "city": "Hamburg", "zip_code": "22179", "country": "DE", "state": "HH", "display_address": ["Kaufland", "Bramfelder Dorfplatz 18", "22179 Hamburg", "Germany"]}, "phone": "", "display_phone": "", "distance": 898.1631987715596}, {"id": "ObkiMFgeU3angttJ4zUBzg", "alias": "schweinske-hamburg-10", "name": "Schweinske", "image_url": "https://s3-media2.fl.yelpcdn.com/bphoto/DrFgUr1lCSFEMfnpyiX_Bw/o.jpg", "is_closed": false, "url": "https://www.yelp.com/biz/schweinske-hamburg-10?adjust_creative=hBJOknVQJ58S5goQyjmwRw&utm_campaign=yelp_api_v3&utm_medium=api_v3_business_search&utm_source=hBJOknVQJ58S5goQyjmwRw", "review_count": 77, "categories": [{"alias": "german", "title": "German"}], "rating": 3.5, "coordinates": {"latitude": 53.5736599, "longitude": 10.0713}, "transactions": [], "price": "\u20ac\u20ac", "location": {"address1": "Wandsbeker Marktstr. 149 - 151", "address2": null, "address3": null, "city": "Hamburg", "zip_code": "22041", "country": "DE", "state": "HH", "display_address": ["Wandsbeker Marktstr. 149 - 151", "22041 Hamburg", "Germany"]}, "phone": "+494032904160", "display_phone": "+49 40 32904160", "distance": 4141.08302112281}, {"id": "FbN6KildHZgXT9zuAgl29g", "alias": "dominos-hamburg-4", "name": "Domino's", "image_url": "https://s3-media2.fl.yelpcdn.com/bphoto/_PhnLjjNmn9OT0QcXTUonw/o.jpg", "is_closed": false, "url": "https://www.yelp.com/biz/dominos-hamburg-4?adjust_creative=hBJOknVQJ58S5goQyjmwRw&utm_campaign=yelp_api_v3&utm_medium=api_v3_business_search&utm_source=hBJOknVQJ58S5goQyjmwRw", "review_count": 2, "categories": [{"alias": "pizza", "title": "Pizza"}], "rating": 1.5, "coordinates": {"latitude": 53.59872, "longitude": 10.06603}, "transactions": [], "location": {"address1": "Bramfelder Chaussee 69", "address2": null, "address3": null, "city": "Hamburg", "zip_code": "22177", "country": "DE", "state": "HH", "display_address": ["Bramfelder Chaussee 69", "22177 Hamburg", "Germany"]}, "phone": "+494064604460", "display_phone": "+49 40 64604460", "distance": 1972.1973499510354}, {"id": "kkYgNFjF7HhGHjVvzpE9mQ", "alias": "traditionshaus-lackemann-hamburg", "name": "Traditionshaus Lackemann", "image_url": "https://s3-media2.fl.yelpcdn.com/bphoto/J56jdyFqkQsY059uskBSug/o.jpg", "is_closed": false, "url": "https://www.yelp.com/biz/traditionshaus-lackemann-hamburg?adjust_creative=hBJOknVQJ58S5goQyjmwRw&utm_campaign=yelp_api_v3&utm_medium=api_v3_business_search&utm_source=hBJOknVQJ58S5goQyjmwRw", "review_count": 1, "categories": [{"alias": "venues", "title": "Venues & Event Spaces"}, {"alias": "german", "title": "German"}], "rating": 3.0, "coordinates": {"latitude": 53.57354, "longitude": 10.06835}, "transactions": [], "location": {"address1": "Litzowstieg 8", "address2": null, "address3": null, "city": "Hamburg", "zip_code": "22041", "country": "DE", "state": "HH", "display_address": ["Litzowstieg 8", "22041 Hamburg", "Germany"]}, "phone": "+494069455193", "display_phone": "+49 40 69455193", "distance": 4183.8995281451425}, {"id": "0rtjjs84qERlPhD69Rc80A", "alias": "kanasia-hamburg-4", "name": "Kanasia", "image_url": "https://s3-media3.fl.yelpcdn.com/bphoto/RSDkg4MaLvFlIXo0AYCvcA/o.jpg", "is_closed": false, "url": "https://www.yelp.com/biz/kanasia-hamburg-4?adjust_creative=hBJOknVQJ58S5goQyjmwRw&utm_campaign=yelp_api_v3&utm_medium=api_v3_business_search&utm_source=hBJOknVQJ58S5goQyjmwRw", "review_count": 6, "categories": [{"alias": "sushi", "title": "Sushi Bars"}, {"alias": "thai", "title": "Thai"}, {"alias": "panasian", "title": "Pan Asian"}], "rating": 2.0, "coordinates": {"latitude": 53.57078, "longitude": 10.06094}, "transactions": [], "location": {"address1": "Wandsbeker Marktstr. 1", "address2": "", "address3": null, "city": "Hamburg", "zip_code": "22041", "country": "DE", "state": "HH", "display_address": ["Wandsbeker Marktstr. 1", "22041 Hamburg", "Germany"]}, "phone": "+494069463232", "display_phone": "+49 40 69463232", "distance": 4373.033449002446}, {"id": "PpeIXNZ4AYLVmE5o3lc7oA", "alias": "wiener-caf\u00e9haus-hamburg-2", "name": "Wiener Caf\u00e9haus", "image_url": "https://s3-media3.fl.yelpcdn.com/bphoto/viPKn3jVDPRzzr18k4jP5g/o.jpg", "is_closed": false, "url": "https://www.yelp.com/biz/wiener-caf%C3%A9haus-hamburg-2?adjust_creative=hBJOknVQJ58S5goQyjmwRw&utm_campaign=yelp_api_v3&utm_medium=api_v3_business_search&utm_source=hBJOknVQJ58S5goQyjmwRw", "review_count": 13, "categories": [{"alias": "cafes", "title": "Cafes"}, {"alias": "austrian", "title": "Austrian"}], "rating": 3.0, "coordinates": {"latitude": 53.573141, "longitude": 10.066273}, "transactions": [], "price": "\u20ac\u20ac", "location": {"address1": "Quarree 8 - 10", "address2": "", "address3": "", "city": "Hamburg", "zip_code": "22041", "country": "DE", "state": "HH", "display_address": ["Quarree 8 - 10", "22041 Hamburg", "Germany"]}, "phone": "+494068915010", "display_phone": "+49 40 68915010", "distance": 4285.379993703238}, {"id": "-l_RNA2c163_SVwTu4n9Ww", "alias": "asia-kitchen-hamburg", "name": "Asia Kitchen", "image_url": "https://s3-media4.fl.yelpcdn.com/bphoto/QnNn3L-643W28T85CIlhcw/o.jpg", "is_closed": false, "url": "https://www.yelp.com/biz/asia-kitchen-hamburg?adjust_creative=hBJOknVQJ58S5goQyjmwRw&utm_campaign=yelp_api_v3&utm_medium=api_v3_business_search&utm_source=hBJOknVQJ58S5goQyjmwRw", "review_count": 12, "categories": [{"alias": "fooddeliveryservices", "title": "Food Delivery Services"}, {"alias": "panasian", "title": "Pan Asian"}, {"alias": "sushi", "title": "Sushi Bars"}], "rating": 2.0, "coordinates": {"latitude": 53.60762, "longitude": 10.07148}, "transactions": [], "price": "\u20ac\u20ac", "location": {"address1": "Bramfelder Chaussee 179", "address2": "", "address3": "", "city": "Hamburg", "zip_code": "22177", "country": "DE", "state": "HH", "display_address": ["Bramfelder Chaussee 179", "22177 Hamburg", "Germany"]}, "phone": "+494063973181", "display_phone": "+49 40 63973181", "distance": 1266.8939566907038}, {"id": "kD8Ix_dghW0M_aqCOxqcyQ", "alias": "hallo-pizza-hamburg-11", "name": "Hallo Pizza!", "image_url": "https://s3-media3.fl.yelpcdn.com/bphoto/irdJeeiQGZMEz6uhP_hTdQ/o.jpg", "is_closed": false, "url": "https://www.yelp.com/biz/hallo-pizza-hamburg-11?adjust_creative=hBJOknVQJ58S5goQyjmwRw&utm_campaign=yelp_api_v3&utm_medium=api_v3_business_search&utm_source=hBJOknVQJ58S5goQyjmwRw", "review_count": 14, "categories": [{"alias": "pizza", "title": "Pizza"}], "rating": 3.0, "coordinates": {"latitude": 53.62, "longitude": 10.0816}, "transactions": [], "price": "\u20ac\u20ac", "location": {"address1": "Bramfelder Chaussee 340", "address2": null, "address3": null, "city": "Hamburg", "zip_code": "22175", "country": "DE", "state": "HH", "display_address": ["Bramfelder Chaussee 340", "22175 Hamburg", "Germany"]}, "phone": "+49406364616", "display_phone": "+49 40 6364616", "distance": 1364.0435306454613}, {"id": "ot9AhuGZkWvfgM8nqguOXQ", "alias": "gastst\u00e4tte-la-grotta-hamburg", "name": "Gastst\u00e4tte La Grotta", "image_url": "https://s3-media3.fl.yelpcdn.com/bphoto/4WaghbZdqHhdM6P-qpfJMg/o.jpg", "is_closed": false, "url": "https://www.yelp.com/biz/gastst%C3%A4tte-la-grotta-hamburg?adjust_creative=hBJOknVQJ58S5goQyjmwRw&utm_campaign=yelp_api_v3&utm_medium=api_v3_business_search&utm_source=hBJOknVQJ58S5goQyjmwRw", "review_count": 25, "categories": [{"alias": "italian", "title": "Italian"}], "rating": 2.0, "coordinates": {"latitude": 53.5967672549208, "longitude": 10.0725930556655}, "transactions": [], "price": "\u20ac\u20ac", "location": {"address1": "Werner-Otto-Str. 43", "address2": null, "address3": null, "city": "Hamburg", "zip_code": "22179", "country": "DE", "state": "HH", "display_address": ["Werner-Otto-Str. 43", "22179 Hamburg", "Germany"]}, "phone": "+49406417940", "display_phone": "+49 40 6417940", "distance": 1791.7465875652003}, {"id": "YhlJNvznZqWqu4YBvJ3ysQ", "alias": "caf\u00e9-reinhardt-hamburg-4", "name": "Caf\u00e9 Reinhardt", "image_url": "https://s3-media4.fl.yelpcdn.com/bphoto/K_TmNNnmC3o5zoHUhdjv3g/o.jpg", "is_closed": false, "url": "https://www.yelp.com/biz/caf%C3%A9-reinhardt-hamburg-4?adjust_creative=hBJOknVQJ58S5goQyjmwRw&utm_campaign=yelp_api_v3&utm_medium=api_v3_business_search&utm_source=hBJOknVQJ58S5goQyjmwRw", "review_count": 7, "categories": [{"alias": "cafes", "title": "Cafes"}, {"alias": "cakeshop", "title": "Patisserie/Cake Shop"}, {"alias": "bakeries", "title": "Bakeries"}], "rating": 4.0, "coordinates": {"latitude": 53.64058, "longitude": 10.08246}, "transactions": [], "location": {"address1": "Rolfinckstr. 8 - 10", "address2": "", "address3": null, "city": "Hamburg", "zip_code": "22391", "country": "DE", "state": "HH", "display_address": ["Rolfinckstr. 8 - 10", "22391 Hamburg", "Germany"]}, "phone": "+494053908727", "display_phone": "+49 40 53908727", "distance": 3560.2514147336024}, {"id": "BBf28emT3PZT20SacrlPhw", "alias": "restaurant-seehof-hamburg-2", "name": "Restaurant  Seehof", "image_url": "https://s3-media1.fl.yelpcdn.com/bphoto/rrWnNBU9JjxefXeeJWtpqw/o.jpg", "is_closed": false, "url": "https://www.yelp.com/biz/restaurant-seehof-hamburg-2?adjust_creative=hBJOknVQJ58S5goQyjmwRw&utm_campaign=yelp_api_v3&utm_medium=api_v3_business_search&utm_source=hBJOknVQJ58S5goQyjmwRw", "review_count": 9, "categories": [{"alias": "german", "title": "German"}], "rating": 3.0, "coordinates": {"latitude": 53.6178, "longitude": 10.0729}, "transactions": [], "price": "\u20ac\u20ac\u20ac", "location": {"address1": "Fabriciusstr. 288", "address2": null, "address3": null, "city": "Hamburg", "zip_code": "22177", "country": "DE", "state": "HH", "display_address": ["Fabriciusstr. 288", "22177 Hamburg", "Germany"]}, "phone": "+49406426930", "display_phone": "+49 40 6426930", "distance": 1521.8505240011077}, {"id": "bxcXQzVAuqamyJzD4V_9sQ", "alias": "zum-eichtalpark-hamburg", "name": "Zum Eichtalpark", "image_url": "https://s3-media2.fl.yelpcdn.com/bphoto/FSIyltYEAB2Rnymeoh56RA/o.jpg", "is_closed": false, "url": "https://www.yelp.com/biz/zum-eichtalpark-hamburg?adjust_creative=hBJOknVQJ58S5goQyjmwRw&utm_campaign=yelp_api_v3&utm_medium=api_v3_business_search&utm_source=hBJOknVQJ58S5goQyjmwRw", "review_count": 21, "categories": [{"alias": "german", "title": "German"}, {"alias": "seafood", "title": "Seafood"}], "rating": 2.5, "coordinates": {"latitude": 53.57835, "longitude": 10.08849}, "transactions": [], "price": "\u20ac\u20ac\u20ac", "location": {"address1": "Ahrensburger Str. 14 a", "address2": null, "address3": null, "city": "Hamburg", "zip_code": "22041", "country": "DE", "state": "HH", "display_address": ["Ahrensburger Str. 14 a", "22041 Hamburg", "Germany"]}, "phone": "+49406560913", "display_phone": "+49 40 6560913", "distance": 3400.656706424391}, {"id": "t2bkFox54IoryVQeUhjv8A", "alias": "alexis-pizza-factory-hamburg", "name": "Alexi's Pizza Factory", "image_url": "https://s3-media2.fl.yelpcdn.com/bphoto/T7Nhjyq3fhxYa2anBwm3ow/o.jpg", "is_closed": false, "url": "https://www.yelp.com/biz/alexis-pizza-factory-hamburg?adjust_creative=hBJOknVQJ58S5goQyjmwRw&utm_campaign=yelp_api_v3&utm_medium=api_v3_business_search&utm_source=hBJOknVQJ58S5goQyjmwRw", "review_count": 15, "categories": [{"alias": "pizza", "title": "Pizza"}, {"alias": "italian", "title": "Italian"}], "rating": 3.5, "coordinates": {"latitude": 53.6072564804072, "longitude": 10.0791299343109}, "transactions": [], "price": "\u20ac", "location": {"address1": "Maimoorweg 64", "address2": "", "address3": "", "city": "Hamburg", "zip_code": "22179", "country": "DE", "state": "HH", "display_address": ["Maimoorweg 64", "22179 Hamburg", "Germany"]}, "phone": "+494055503913", "display_phone": "+49 40 55503913", "distance": 768.6544390071672}, {"id": "onL_LBuNCJPqKnDVBTTojw", "alias": "mai-mai-asia-food-hamburg-2", "name": "Mai-Mai Asia Food", "image_url": "", "is_closed": false, "url": "https://www.yelp.com/biz/mai-mai-asia-food-hamburg-2?adjust_creative=hBJOknVQJ58S5goQyjmwRw&utm_campaign=yelp_api_v3&utm_medium=api_v3_business_search&utm_source=hBJOknVQJ58S5goQyjmwRw", "review_count": 4, "categories": [{"alias": "panasian", "title": "Pan Asian"}], "rating": 2.0, "coordinates": {"latitude": 53.6121, "longitude": 10.0749}, "transactions": [], "price": "\u20ac", "location": {"address1": "Bramfelder Chaussee 230", "address2": "", "address3": "", "city": "Hamburg", "zip_code": "22177", "country": "DE", "state": "HH", "display_address": ["Bramfelder Chaussee 230", "22177 Hamburg", "Germany"]}, "phone": "", "display_phone": "", "distance": 1084.9059247713724}, {"id": "Gr15a4gakDfrng6HX5k4EA", "alias": "fisherman-hamburg-2", "name": "Fisherman", "image_url": "https://s3-media1.fl.yelpcdn.com/bphoto/URS1XobAYi1oNG9wIzWwDw/o.jpg", "is_closed": false, "url": "https://www.yelp.com/biz/fisherman-hamburg-2?adjust_creative=hBJOknVQJ58S5goQyjmwRw&utm_campaign=yelp_api_v3&utm_medium=api_v3_business_search&utm_source=hBJOknVQJ58S5goQyjmwRw", "review_count": 9, "categories": [{"alias": "seafood", "title": "Seafood"}, {"alias": "delicatessen", "title": "Delicatessen"}], "rating": 3.5, "coordinates": {"latitude": 53.5728384, "longitude": 10.066994}, "transactions": [], "location": {"address1": "Quarree 8 - 10", "address2": "", "address3": "", "city": "Hamburg", "zip_code": "22041", "country": "DE", "state": "HH", "display_address": ["Quarree 8 - 10", "22041 Hamburg", "Germany"]}, "phone": "+494068268176", "display_phone": "+49 40 68268176", "distance": 4299.272494563243}, {"id": "gwmc_oZaieNm-BjZP-HF4A", "alias": "burger-king-hamburg-4", "name": "Burger King", "image_url": "https://s3-media1.fl.yelpcdn.com/bphoto/J9hsVi15vDrPdibU3DSE2Q/o.jpg", "is_closed": false, "url": "https://www.yelp.com/biz/burger-king-hamburg-4?adjust_creative=hBJOknVQJ58S5goQyjmwRw&utm_campaign=yelp_api_v3&utm_medium=api_v3_business_search&utm_source=hBJOknVQJ58S5goQyjmwRw", "review_count": 19, "categories": [{"alias": "hotdogs", "title": "Fast Food"}, {"alias": "burgers", "title": "Burgers"}], "rating": 2.5, "coordinates": {"latitude": 53.62153, "longitude": 10.08334}, "transactions": [], "price": "\u20ac", "location": {"address1": "Bramfelder Chaussee 366", "address2": null, "address3": null, "city": "Hamburg", "zip_code": "22177", "country": "DE", "state": "HH", "display_address": ["Bramfelder Chaussee 366", "22177 Hamburg", "Germany"]}, "phone": "+494064221001", "display_phone": "+49 40 64221001", "distance": 1479.3195671739882}, {"id": "cGOzMBGdA4DBQ4dIOqMavw", "alias": "ming-yue-hamburg", "name": "Ming-Yue", "image_url": "", "is_closed": false, "url": "https://www.yelp.com/biz/ming-yue-hamburg?adjust_creative=hBJOknVQJ58S5goQyjmwRw&utm_campaign=yelp_api_v3&utm_medium=api_v3_business_search&utm_source=hBJOknVQJ58S5goQyjmwRw", "review_count": 1, "categories": [{"alias": "chinese", "title": "Chinese"}], "rating": 4.0, "coordinates": {"latitude": 53.5781599, "longitude": 10.08569}, "transactions": [], "location": {"address1": "Wandsbeker Zollstr. 155", "address2": null, "address3": null, "city": "Hamburg", "zip_code": "22041", "country": "DE", "state": "HH", "display_address": ["Wandsbeker Zollstr. 155", "22041 Hamburg", "Germany"]}, "phone": "+494068914933", "display_phone": "+49 40 68914933", "distance": 3442.502188938692}, {"id": "_L60Mh6FuXBBdizEXwssvg", "alias": "happy-donazz-und-co-hamburg", "name": "Happy Donazz & Co", "image_url": "https://s3-media3.fl.yelpcdn.com/bphoto/4Pr4jx0OLi7_6OgoaZz_yA/o.jpg", "is_closed": false, "url": "https://www.yelp.com/biz/happy-donazz-und-co-hamburg?adjust_creative=hBJOknVQJ58S5goQyjmwRw&utm_campaign=yelp_api_v3&utm_medium=api_v3_business_search&utm_source=hBJOknVQJ58S5goQyjmwRw", "review_count": 13, "categories": [{"alias": "cafes", "title": "Cafes"}, {"alias": "donuts", "title": "Donuts"}], "rating": 4.5, "coordinates": {"latitude": 53.5730217, "longitude": 10.0675016}, "transactions": [], "price": "\u20ac", "location": {"address1": "Quarree", "address2": "Wandsbeker Marktstr. 103 - 107", "address3": "", "city": "Hamburg", "zip_code": "22041", "country": "DE", "state": "HH", "display_address": ["Quarree", "Wandsbeker Marktstr. 103 - 107", "22041 Hamburg", "Germany"]}, "phone": "+494069207120", "display_phone": "+49 40 69207120", "distance": 4268.263376712458}, {"id": "0Yg_n8D_kyqpgHWXYMmLWw", "alias": "asia-hung-hamburg-18", "name": "Asia Hung", "image_url": "https://s3-media2.fl.yelpcdn.com/bphoto/jVG-dFcB9lHdne7O_MUklQ/o.jpg", "is_closed": false, "url": "https://www.yelp.com/biz/asia-hung-hamburg-18?adjust_creative=hBJOknVQJ58S5goQyjmwRw&utm_campaign=yelp_api_v3&utm_medium=api_v3_business_search&utm_source=hBJOknVQJ58S5goQyjmwRw", "review_count": 2, "categories": [{"alias": "hotdogs", "title": "Fast Food"}, {"alias": "panasian", "title": "Pan Asian"}], "rating": 3.0, "coordinates": {"latitude": 53.57192, "longitude": 10.06669}, "transactions": [], "location": {"address1": "U-Bahnhof Wandsbek Markt", "address2": "", "address3": "Unterf\u00fchrung zum Quarree", "city": "Hamburg", "zip_code": "22041", "country": "DE", "state": "HH", "display_address": ["U-Bahnhof Wandsbek Markt", "Unterf\u00fchrung zum Quarree", "22041 Hamburg", "Germany"]}, "phone": "", "display_phone": "", "distance": 4340.052050994712}, {"id": "SCgZkpgd50RxpulUiaU7Bg", "alias": "asia-hung-hamburg-8", "name": "Asia Hung", "image_url": "https://s3-media4.fl.yelpcdn.com/bphoto/gVv48jlXwln6ju2nQc-NPg/o.jpg", "is_closed": false, "url": "https://www.yelp.com/biz/asia-hung-hamburg-8?adjust_creative=hBJOknVQJ58S5goQyjmwRw&utm_campaign=yelp_api_v3&utm_medium=api_v3_business_search&utm_source=hBJOknVQJ58S5goQyjmwRw", "review_count": 11, "categories": [{"alias": "hotdogs", "title": "Fast Food"}, {"alias": "panasian", "title": "Pan Asian"}], "rating": 3.5, "coordinates": {"latitude": 53.5719, "longitude": 10.0653}, "transactions": [], "price": "\u20ac\u20ac", "location": {"address1": "Wandsbeker Marktstr. 63 - 65", "address2": "", "address3": null, "city": "Hamburg", "zip_code": "22041", "country": "DE", "state": "HH", "display_address": ["Wandsbeker Marktstr. 63 - 65", "22041 Hamburg", "Germany"]}, "phone": "", "display_phone": "", "distance": 4437.376985217761}, {"id": "0E6MSfGiFGVRqcp2U5mTFA", "alias": "burger-king-hamburg-2", "name": "Burger King", "image_url": "https://s3-media2.fl.yelpcdn.com/bphoto/gkIdKVwfl1R2DEnu_5LRoQ/o.jpg", "is_closed": false, "url": "https://www.yelp.com/biz/burger-king-hamburg-2?adjust_creative=hBJOknVQJ58S5goQyjmwRw&utm_campaign=yelp_api_v3&utm_medium=api_v3_business_search&utm_source=hBJOknVQJ58S5goQyjmwRw", "review_count": 48, "categories": [{"alias": "hotdogs", "title": "Fast Food"}, {"alias": "burgers", "title": "Burgers"}], "rating": 2.0, "coordinates": {"latitude": 53.58894, "longitude": 10.100627}, "transactions": [], "price": "\u20ac\u20ac", "location": {"address1": "Friedrich-Ebert-Damm 166", "address2": null, "address3": null, "city": "Hamburg", "zip_code": "22047", "country": "DE", "state": "HH", "display_address": ["Friedrich-Ebert-Damm 166", "22047 Hamburg", "Germany"]}, "phone": "+494046631170", "display_phone": "+49 40 46631170", "distance": 2327.455631848409}, {"id": "xyymwJq0MiHfsyAQ3Z4OMQ", "alias": "mcdonalds-hamburg-11", "name": "McDonald's", "image_url": "https://s3-media4.fl.yelpcdn.com/bphoto/SSWeJBniJGsfaWu7XKf45g/o.jpg", "is_closed": false, "url": "https://www.yelp.com/biz/mcdonalds-hamburg-11?adjust_creative=hBJOknVQJ58S5goQyjmwRw&utm_campaign=yelp_api_v3&utm_medium=api_v3_business_search&utm_source=hBJOknVQJ58S5goQyjmwRw", "review_count": 42, "categories": [{"alias": "hotdogs", "title": "Fast Food"}, {"alias": "burgers", "title": "Burgers"}], "rating": 2.5, "coordinates": {"latitude": 53.58737, "longitude": 10.0896}, "transactions": [], "price": "\u20ac", "location": {"address1": "Friedrich-Ebert-Damm 101", "address2": "", "address3": "", "city": "Hamburg", "zip_code": "22047", "country": "DE", "state": "HH", "display_address": ["Friedrich-Ebert-Damm 101", "22047 Hamburg", "Germany"]}, "phone": "+494027824931", "display_phone": "+49 40 27824931", "distance": 2381.640068892242}, {"id": "OpGe1OJEVxjT8ZNEsk4JTA", "alias": "mcdonalds-hamburg-9", "name": "McDonald's", "image_url": "https://s3-media1.fl.yelpcdn.com/bphoto/9fnI_TExddDBzlROyDKoJg/o.jpg", "is_closed": false, "url": "https://www.yelp.com/biz/mcdonalds-hamburg-9?adjust_creative=hBJOknVQJ58S5goQyjmwRw&utm_campaign=yelp_api_v3&utm_medium=api_v3_business_search&utm_source=hBJOknVQJ58S5goQyjmwRw", "review_count": 11, "categories": [{"alias": "hotdogs", "title": "Fast Food"}, {"alias": "burgers", "title": "Burgers"}], "rating": 3.0, "coordinates": {"latitude": 53.57189, "longitude": 10.06659}, "transactions": [], "price": "\u20ac\u20ac", "location": {"address1": "Wandsbeker Marktstra\u00dfe", "address2": null, "address3": null, "city": "Hamburg", "zip_code": "22041", "country": "DE", "state": "HH", "display_address": ["Wandsbeker Marktstra\u00dfe", "22041 Hamburg", "Germany"]}, "phone": "+49406524729", "display_phone": "+49 40 6524729", "distance": 4370.080426730132}, {"id": "BA5-NSW0_WnaaGEu-c4toA", "alias": "india-cup-hamburg", "name": "India Cup", "image_url": "https://s3-media2.fl.yelpcdn.com/bphoto/PJwloYZEua7KSjTnDP5u8w/o.jpg", "is_closed": false, "url": "https://www.yelp.com/biz/india-cup-hamburg?adjust_creative=hBJOknVQJ58S5goQyjmwRw&utm_campaign=yelp_api_v3&utm_medium=api_v3_business_search&utm_source=hBJOknVQJ58S5goQyjmwRw", "review_count": 12, "categories": [{"alias": "hotdogs", "title": "Fast Food"}, {"alias": "indpak", "title": "Indian"}], "rating": 3.5, "coordinates": {"latitude": 53.5731534, "longitude": 10.0659607}, "transactions": [], "price": "\u20ac\u20ac", "location": {"address1": "U-Bahnhof Wandsbek Markt", "address2": "Unterf\u00fchrung zum Quarree", "address3": null, "city": "Hamburg", "zip_code": "20041", "country": "DE", "state": "HH", "display_address": ["U-Bahnhof Wandsbek Markt", "Unterf\u00fchrung zum Quarree", "20041 Hamburg", "Germany"]}, "phone": "", "display_phone": "", "distance": 4291.817429782175}, {"id": "KyGT4jcVOJbnwTUZ8pJiwQ", "alias": "nordsee-hamburg-2", "name": "Nordsee", "image_url": "https://s3-media2.fl.yelpcdn.com/bphoto/UOugAu4K7-ZsrCW7DCMxCg/o.jpg", "is_closed": false, "url": "https://www.yelp.com/biz/nordsee-hamburg-2?adjust_creative=hBJOknVQJ58S5goQyjmwRw&utm_campaign=yelp_api_v3&utm_medium=api_v3_business_search&utm_source=hBJOknVQJ58S5goQyjmwRw", "review_count": 17, "categories": [{"alias": "seafood", "title": "Seafood"}, {"alias": "fischbroetchen", "title": "Fischbroetchen"}], "rating": 2.5, "coordinates": {"latitude": 53.5724, "longitude": 10.0675}, "transactions": [], "price": "\u20ac\u20ac", "location": {"address1": "Wandsbeker Marktstr. 89 - 91", "address2": null, "address3": null, "city": "Hamburg", "zip_code": "22041", "country": "DE", "state": "HH", "display_address": ["Wandsbeker Marktstr. 89 - 91", "22041 Hamburg", "Germany"]}, "phone": "+494068910950", "display_phone": "+49 40 68910950", "distance": 4333.007789247801}, {"id": "zSNIGhj5NtIfyFxvzZDp7A", "alias": "pizza-max-hamburg-6", "name": "Pizza Max", "image_url": "https://s3-media2.fl.yelpcdn.com/bphoto/_pLL7A0gR7JC9YnJghE4xw/o.jpg", "is_closed": false, "url": "https://www.yelp.com/biz/pizza-max-hamburg-6?adjust_creative=hBJOknVQJ58S5goQyjmwRw&utm_campaign=yelp_api_v3&utm_medium=api_v3_business_search&utm_source=hBJOknVQJ58S5goQyjmwRw", "review_count": 11, "categories": [{"alias": "pizza", "title": "Pizza"}], "rating": 2.5, "coordinates": {"latitude": 53.6072, "longitude": 10.0716}, "transactions": [], "price": "\u20ac\u20ac", "location": {"address1": "Bramfelder Chaussee 175", "address2": null, "address3": null, "city": "Hamburg", "zip_code": "22177", "country": "DE", "state": "HH", "display_address": ["Bramfelder Chaussee 175", "22177 Hamburg", "Germany"]}, "phone": "+494060039455", "display_phone": "+49 40 60039455", "distance": 1257.5581421649183}, {"id": "d2O1JjjiV91LmgqkMYWGPg", "alias": "mcdonalds-hamburg-42", "name": "McDonald's", "image_url": "https://s3-media3.fl.yelpcdn.com/bphoto/OdGo7sTqg26QCDf0Zwsvtw/o.jpg", "is_closed": false, "url": "https://www.yelp.com/biz/mcdonalds-hamburg-42?adjust_creative=hBJOknVQJ58S5goQyjmwRw&utm_campaign=yelp_api_v3&utm_medium=api_v3_business_search&utm_source=hBJOknVQJ58S5goQyjmwRw", "review_count": 15, "categories": [{"alias": "hotdogs", "title": "Fast Food"}, {"alias": "burgers", "title": "Burgers"}], "rating": 2.0, "coordinates": {"latitude": 53.5817, "longitude": 10.1089}, "transactions": [], "price": "\u20ac", "location": {"address1": "Ahrensburger Str. 156", "address2": null, "address3": null, "city": "Hamburg", "zip_code": "22045", "country": "DE", "state": "HH", "display_address": ["Ahrensburger Str. 156", "22045 Hamburg", "Germany"]}, "phone": "+4940661881", "display_phone": "+49 40 661881", "distance": 3261.686357436165}, {"id": "qj5bOPBNMeG7pF_tsz-3PA", "alias": "allcafe-hamburg-5", "name": "ALLcafe", "image_url": "https://s3-media2.fl.yelpcdn.com/bphoto/8oZBxkQpizsfrUsikY8pPg/o.jpg", "is_closed": false, "url": "https://www.yelp.com/biz/allcafe-hamburg-5?adjust_creative=hBJOknVQJ58S5goQyjmwRw&utm_campaign=yelp_api_v3&utm_medium=api_v3_business_search&utm_source=hBJOknVQJ58S5goQyjmwRw", "review_count": 3, "categories": [{"alias": "cafes", "title": "Cafes"}], "rating": 2.5, "coordinates": {"latitude": 53.6123638, "longitude": 10.0755506}, "transactions": [], "price": "\u20ac\u20ac\u20ac", "location": {"address1": "Bramfelder Chaussee 230", "address2": "", "address3": null, "city": "Hamburg", "zip_code": "22177", "country": "DE", "state": "HH", "display_address": ["Bramfelder Chaussee 230", "22177 Hamburg", "Germany"]}, "phone": "+494088178548", "display_phone": "+49 40 88178548", "distance": 1054.7556514730497}, {"id": "THiQx27gTKO93V2VwDRcOw", "alias": "lounge-caf\u00e9-hamburg", "name": "Lounge Caf\u00e9", "image_url": "https://s3-media3.fl.yelpcdn.com/bphoto/c8LvIhVRdsNrgQGxYohjcg/o.jpg", "is_closed": false, "url": "https://www.yelp.com/biz/lounge-caf%C3%A9-hamburg?adjust_creative=hBJOknVQJ58S5goQyjmwRw&utm_campaign=yelp_api_v3&utm_medium=api_v3_business_search&utm_source=hBJOknVQJ58S5goQyjmwRw", "review_count": 1, "categories": [{"alias": "cafes", "title": "Cafes"}, {"alias": "coffee", "title": "Coffee & Tea"}], "rating": 1.0, "coordinates": {"latitude": 53.587841213227, "longitude": 10.0959847784911}, "transactions": [], "price": "\u20ac\u20ac", "location": {"address1": "Helbingtwiete 7", "address2": "", "address3": "", "city": "Hamburg", "zip_code": "22047", "country": "DE", "state": "HH", "display_address": ["Helbingtwiete 7", "22047 Hamburg", "Germany"]}, "phone": "", "display_phone": "", "distance": 2371.214574812004}, {"id": "HObQtAcQIPyQujRCkY9yug", "alias": "mon-ami-hamburg", "name": "Mon Ami", "image_url": "https://s3-media4.fl.yelpcdn.com/bphoto/_OUmVcRqI51CCbAa3NQ6gw/o.jpg", "is_closed": false, "url": "https://www.yelp.com/biz/mon-ami-hamburg?adjust_creative=hBJOknVQJ58S5goQyjmwRw&utm_campaign=yelp_api_v3&utm_medium=api_v3_business_search&utm_source=hBJOknVQJ58S5goQyjmwRw", "review_count": 1, "categories": [{"alias": "seafood", "title": "Seafood"}, {"alias": "mediterranean", "title": "Mediterranean"}, {"alias": "pizza", "title": "Pizza"}], "rating": 1.0, "coordinates": {"latitude": 53.5710073412351, "longitude": 10.111719109118}, "transactions": [], "price": "\u20ac\u20ac\u20ac", "location": {"address1": "Rodigallee 139", "address2": "", "address3": "", "city": "Hamburg", "zip_code": "22043", "country": "DE", "state": "HH", "display_address": ["Rodigallee 139", "22043 Hamburg", "Germany"]}, "phone": "+494068946363", "display_phone": "+49 40 68946363", "distance": 4442.467477321968}, {"id": "o_LN9k-Z3QJkZvz0X4rBDA", "alias": "pizza-max-hamburg-12", "name": "Pizza Max", "image_url": "https://s3-media4.fl.yelpcdn.com/bphoto/_AzpobkYYDAl3_R92xh7iQ/o.jpg", "is_closed": false, "url": "https://www.yelp.com/biz/pizza-max-hamburg-12?adjust_creative=hBJOknVQJ58S5goQyjmwRw&utm_campaign=yelp_api_v3&utm_medium=api_v3_business_search&utm_source=hBJOknVQJ58S5goQyjmwRw", "review_count": 1, "categories": [{"alias": "pizza", "title": "Pizza"}], "rating": 1.0, "coordinates": {"latitude": 53.6513347185164, "longitude": 10.1057185789401}, "transactions": [], "price": "\u20ac\u20ac\u20ac", "location": {"address1": "Stadtbahnstr. 19 a", "address2": "", "address3": "", "city": "Hamburg", "zip_code": "22393", "country": "DE", "state": "HH", "display_address": ["Stadtbahnstr. 19 a", "22393 Hamburg", "Germany"]}, "phone": "+4940600886800", "display_phone": "+49 40 600886800", "distance": 4823.64899323577}, {"id": "QLVxNy77PyuZZNE5JWjMtQ", "alias": "rialto-grill-imbiss-hamburg", "name": "Rialto Grill-Imbiss", "image_url": "https://s3-media1.fl.yelpcdn.com/bphoto/B68zzZxERQhwK6g1AB7GXg/o.jpg", "is_closed": false, "url": "https://www.yelp.com/biz/rialto-grill-imbiss-hamburg?adjust_creative=hBJOknVQJ58S5goQyjmwRw&utm_campaign=yelp_api_v3&utm_medium=api_v3_business_search&utm_source=hBJOknVQJ58S5goQyjmwRw", "review_count": 4, "categories": [{"alias": "fooddeliveryservices", "title": "Food Delivery Services"}, {"alias": "pizza", "title": "Pizza"}], "rating": 1.5, "coordinates": {"latitude": 53.5991, "longitude": 10.0663}, "transactions": [], "price": "\u20ac", "location": {"address1": "Bramfelder Chaussee 73", "address2": null, "address3": null, "city": "Hamburg", "zip_code": "22117", "country": "DE", "state": "HH", "display_address": ["Bramfelder Chaussee 73", "22117 Hamburg", "Germany"]}, "phone": "+494069797758", "display_phone": "+49 40 69797758", "distance": 1930.65167772546}]