[{"id": "n7W1ITUtp9K6w9kvV1Bcmw", "alias": "luna-hamburg-3", "name": "Luna", "image_url": "https://s3-media3.fl.yelpcdn.com/bphoto/JqUdwuBoeQGJ2_hEQelUDw/o.jpg", "is_closed": false, "url": "https://www.yelp.com/biz/luna-hamburg-3?adjust_creative=hBJOknVQJ58S5goQyjmwRw&utm_campaign=yelp_api_v3&utm_medium=api_v3_business_search&utm_source=hBJOknVQJ58S5goQyjmwRw", "review_count": 27, "categories": [{"alias": "italian", "title": "Italian"}], "rating": 4.5, "coordinates": {"latitude": 53.5873798815073, "longitude": 10.1283631958008}, "transactions": [], "price": "\u20ac\u20ac", "location": {"address1": "Tonndorfer Hauptstr. 96 a", "address2": null, "address3": null, "city": "Hamburg", "zip_code": "22045", "country": "DE", "state": "HH", "display_address": ["Tonndorfer Hauptstr. 96 a", "22045 Hamburg", "Germany"]}, "phone": "+49406535749", "display_phone": "+49 40 6535749", "distance": 2764.7331861895223}, {"id": "89DUlDc6Tdus-vGGNx_NZQ", "alias": "asia-lam-hamburg", "name": "Asia Lam", "image_url": "https://s3-media1.fl.yelpcdn.com/bphoto/ZHoPNF40FBAasBdWAyMunQ/o.jpg", "is_closed": false, "url": "https://www.yelp.com/biz/asia-lam-hamburg?adjust_creative=hBJOknVQJ58S5goQyjmwRw&utm_campaign=yelp_api_v3&utm_medium=api_v3_business_search&utm_source=hBJOknVQJ58S5goQyjmwRw", "review_count": 36, "categories": [{"alias": "vietnamese", "title": "Vietnamese"}, {"alias": "thai", "title": "Thai"}], "rating": 4.5, "coordinates": {"latitude": 53.60269, "longitude": 10.15467}, "transactions": [], "price": "\u20ac\u20ac", "location": {"address1": "Rahlstedter Bahnhofstr. 41", "address2": "", "address3": "", "city": "Hamburg", "zip_code": "22143", "country": "DE", "state": "HH", "display_address": ["Rahlstedter Bahnhofstr. 41", "22143 Hamburg", "Germany"]}, "phone": "+49406721160", "display_phone": "+49 40 6721160", "distance": 678.142242950556}, {"id": "wEV2Tj7LeuEyfpcC8Amjhg", "alias": "d\u00f6ner-haus-hamburg", "name": "D\u00f6ner Haus", "image_url": "https://s3-media2.fl.yelpcdn.com/bphoto/looQoC83702ERaKzMnGumQ/o.jpg", "is_closed": false, "url": "https://www.yelp.com/biz/d%C3%B6ner-haus-hamburg?adjust_creative=hBJOknVQJ58S5goQyjmwRw&utm_campaign=yelp_api_v3&utm_medium=api_v3_business_search&utm_source=hBJOknVQJ58S5goQyjmwRw", "review_count": 3, "categories": [{"alias": "kebab", "title": "Kebab"}], "rating": 4.5, "coordinates": {"latitude": 53.6052899, "longitude": 10.15619}, "transactions": [], "price": "\u20ac\u20ac", "location": {"address1": "Schweriner Str. 1a", "address2": "", "address3": "", "city": "Hamburg", "zip_code": "22143", "country": "DE", "state": "HH", "display_address": ["Schweriner Str. 1a", "22143 Hamburg", "Germany"]}, "phone": "+491724981854", "display_phone": "+49 172 4981854", "distance": 470.00774706137526}, {"id": "X5XoKvZuLvLXLnpodFFrNA", "alias": "bei-dino-hamburg", "name": "Bei Dino", "image_url": "https://s3-media2.fl.yelpcdn.com/bphoto/06_Gyg3earR7qRtpM_0lgQ/o.jpg", "is_closed": false, "url": "https://www.yelp.com/biz/bei-dino-hamburg?adjust_creative=hBJOknVQJ58S5goQyjmwRw&utm_campaign=yelp_api_v3&utm_medium=api_v3_business_search&utm_source=hBJOknVQJ58S5goQyjmwRw", "review_count": 1, "categories": [{"alias": "italian", "title": "Italian"}, {"alias": "pizza", "title": "Pizza"}], "rating": 5.0, "coordinates": {"latitude": 53.602, "longitude": 10.1574}, "transactions": [], "price": "\u20ac\u20ac\u20ac\u20ac", "location": {"address1": "Rahlstedter Str. 159", "address2": "", "address3": null, "city": "Hamburg", "zip_code": "22143", "country": "DE", "state": "HH", "display_address": ["Rahlstedter Str. 159", "22143 Hamburg", "Germany"]}, "phone": "+494024439963", "display_phone": "+49 40 24439963", "distance": 826.0483554923397}, {"id": "wOkXiQHPzK0HX43phYsJGA", "alias": "aivy-c\u00e0-ph\u00ea-hamburg", "name": "Aivy C\u00e0 Ph\u00ea", "image_url": "https://s3-media1.fl.yelpcdn.com/bphoto/djbexpAiW5UpXns-kJ-ifA/o.jpg", "is_closed": false, "url": "https://www.yelp.com/biz/aivy-c%C3%A0-ph%C3%AA-hamburg?adjust_creative=hBJOknVQJ58S5goQyjmwRw&utm_campaign=yelp_api_v3&utm_medium=api_v3_business_search&utm_source=hBJOknVQJ58S5goQyjmwRw", "review_count": 1, "categories": [{"alias": "vietnamese", "title": "Vietnamese"}], "rating": 5.0, "coordinates": {"latitude": 53.58065, "longitude": 10.1268}, "transactions": [], "location": {"address1": "Jenfelder Allee 55", "address2": "", "address3": "", "city": "Hamburg", "zip_code": "22043", "country": "DE", "state": "HH", "display_address": ["Jenfelder Allee 55", "22043 Hamburg", "Germany"]}, "phone": "+4917637000370", "display_phone": "+49 176 37000370", "distance": 3452.8455113293458}, {"id": "PwnixbNNj6YxpjgCZXA3lQ", "alias": "hoang-mai-hamburg-2", "name": "Hoang Mai", "image_url": "https://s3-media1.fl.yelpcdn.com/bphoto/awdWkMRK6HkE6VeRsgv5EQ/o.jpg", "is_closed": false, "url": "https://www.yelp.com/biz/hoang-mai-hamburg-2?adjust_creative=hBJOknVQJ58S5goQyjmwRw&utm_campaign=yelp_api_v3&utm_medium=api_v3_business_search&utm_source=hBJOknVQJ58S5goQyjmwRw", "review_count": 29, "categories": [{"alias": "vietnamese", "title": "Vietnamese"}], "rating": 4.5, "coordinates": {"latitude": 53.5704, "longitude": 10.1358}, "transactions": [], "price": "\u20ac", "location": {"address1": "\u00d6jendorfer Damm 42", "address2": null, "address3": null, "city": "Hamburg", "zip_code": "22043", "country": "DE", "state": "HH", "display_address": ["\u00d6jendorfer Damm 42", "22043 Hamburg", "Germany"]}, "phone": "+494063643661", "display_phone": "+49 40 63643661", "distance": 4335.1934872334095}, {"id": "iiU4A7Sr1OXCibvmS1756Q", "alias": "restaurant-bacchus-hamburg-3", "name": "Restaurant Bacchus", "image_url": "https://s3-media3.fl.yelpcdn.com/bphoto/v2Vk0hpRqSVwoJ16pQ0m3w/o.jpg", "is_closed": false, "url": "https://www.yelp.com/biz/restaurant-bacchus-hamburg-3?adjust_creative=hBJOknVQJ58S5goQyjmwRw&utm_campaign=yelp_api_v3&utm_medium=api_v3_business_search&utm_source=hBJOknVQJ58S5goQyjmwRw", "review_count": 20, "categories": [{"alias": "greek", "title": "Greek"}], "rating": 4.5, "coordinates": {"latitude": 53.5913493, "longitude": 10.1451886}, "transactions": [], "price": "\u20ac\u20ac", "location": {"address1": "Ellerneck 58", "address2": null, "address3": null, "city": "Hamburg", "zip_code": "22149", "country": "DE", "state": "HH", "display_address": ["Ellerneck 58", "22149 Hamburg", "Germany"]}, "phone": "+49406733983", "display_phone": "+49 40 6733983", "distance": 1917.7087291706855}, {"id": "iwXSKpZOGyaWXg1anpHhGg", "alias": "olive-hamburg-2", "name": "Olive", "image_url": "https://s3-media3.fl.yelpcdn.com/bphoto/eQlaod-mJn-8tNsAOdv_Fw/o.jpg", "is_closed": false, "url": "https://www.yelp.com/biz/olive-hamburg-2?adjust_creative=hBJOknVQJ58S5goQyjmwRw&utm_campaign=yelp_api_v3&utm_medium=api_v3_business_search&utm_source=hBJOknVQJ58S5goQyjmwRw", "review_count": 52, "categories": [{"alias": "greek", "title": "Greek"}, {"alias": "mediterranean", "title": "Mediterranean"}], "rating": 4.5, "coordinates": {"latitude": 53.64738, "longitude": 10.16931}, "transactions": [], "price": "\u20ac\u20ac", "location": {"address1": "Eulenkrugstr. 66", "address2": "", "address3": "", "city": "Hamburg", "zip_code": "22359", "country": "DE", "state": "HH", "display_address": ["Eulenkrugstr. 66", "22359 Hamburg", "Germany"]}, "phone": "+494064532649", "display_phone": "+49 40 64532649", "distance": 4502.3041301378535}, {"id": "i4G260d44HKnXhPBWZBRoQ", "alias": "little-monsters-hamburg", "name": "Little Monsters", "image_url": "https://s3-media3.fl.yelpcdn.com/bphoto/D00F7XBpSb0VWtLZnGYB_A/o.jpg", "is_closed": false, "url": "https://www.yelp.com/biz/little-monsters-hamburg?adjust_creative=hBJOknVQJ58S5goQyjmwRw&utm_campaign=yelp_api_v3&utm_medium=api_v3_business_search&utm_source=hBJOknVQJ58S5goQyjmwRw", "review_count": 5, "categories": [{"alias": "bagels", "title": "Bagels"}, {"alias": "breakfast_brunch", "title": "Breakfast & Brunch"}], "rating": 4.0, "coordinates": {"latitude": 53.6052899, "longitude": 10.15633}, "transactions": [], "price": "\u20ac", "location": {"address1": "Schweriner Str. 3 a", "address2": "", "address3": null, "city": "Hamburg", "zip_code": "22143", "country": "DE", "state": "HH", "display_address": ["Schweriner Str. 3 a", "22143 Hamburg", "Germany"]}, "phone": "", "display_phone": "", "distance": 488.2296105746421}, {"id": "bg_AEMghxinAeoxAGdC3zw", "alias": "medallion-hamburg", "name": "Medallion", "image_url": "https://s3-media1.fl.yelpcdn.com/bphoto/-KQn8FnNV-ppK4NIYMFYXQ/o.jpg", "is_closed": false, "url": "https://www.yelp.com/biz/medallion-hamburg?adjust_creative=hBJOknVQJ58S5goQyjmwRw&utm_campaign=yelp_api_v3&utm_medium=api_v3_business_search&utm_source=hBJOknVQJ58S5goQyjmwRw", "review_count": 14, "categories": [{"alias": "international", "title": "International"}], "rating": 4.0, "coordinates": {"latitude": 53.5943, "longitude": 10.1458}, "transactions": [], "price": "\u20ac", "location": {"address1": "Rahlstedter Str. 38", "address2": "", "address3": null, "city": "Hamburg", "zip_code": "22149", "country": "DE", "state": "HH", "display_address": ["Rahlstedter Str. 38", "22149 Hamburg", "Germany"]}, "phone": "+494067599669", "display_phone": "+49 40 67599669", "distance": 1597.3895558169575}, {"id": "gnp5pdA_TxC3aFsnA-LlgA", "alias": "adria-grill-hamburg", "name": "Adria Grill", "image_url": "https://s3-media3.fl.yelpcdn.com/bphoto/jFEMqyesLufR1vwtNQe2nQ/o.jpg", "is_closed": false, "url": "https://www.yelp.com/biz/adria-grill-hamburg?adjust_creative=hBJOknVQJ58S5goQyjmwRw&utm_campaign=yelp_api_v3&utm_medium=api_v3_business_search&utm_source=hBJOknVQJ58S5goQyjmwRw", "review_count": 16, "categories": [{"alias": "serbocroatian", "title": "Serbo Croatian"}], "rating": 4.0, "coordinates": {"latitude": 53.622511493136, "longitude": 10.1650228334827}, "transactions": [], "price": "\u20ac\u20ac", "location": {"address1": "Saseler Str. 1", "address2": null, "address3": null, "city": "Hamburg", "zip_code": "22145", "country": "DE", "state": "HH", "display_address": ["Saseler Str. 1", "22145 Hamburg", "Germany"]}, "phone": "+49406787053", "display_phone": "+49 40 6787053", "distance": 1830.5001818478372}, {"id": "940V-dSxxhkDtFeOEH4wIQ", "alias": "tunicis-restaurant-dubrovnik-hamburg-4", "name": "Tunici's Restaurant Dubrovnik", "image_url": "https://s3-media2.fl.yelpcdn.com/bphoto/K3gBaOXXk1oSNdZb-gVnxw/o.jpg", "is_closed": false, "url": "https://www.yelp.com/biz/tunicis-restaurant-dubrovnik-hamburg-4?adjust_creative=hBJOknVQJ58S5goQyjmwRw&utm_campaign=yelp_api_v3&utm_medium=api_v3_business_search&utm_source=hBJOknVQJ58S5goQyjmwRw", "review_count": 49, "categories": [{"alias": "serbocroatian", "title": "Serbo Croatian"}], "rating": 4.0, "coordinates": {"latitude": 53.60064, "longitude": 10.15234}, "transactions": [], "price": "\u20ac\u20ac", "location": {"address1": "Rahlstedter Bahnhofstr. 48", "address2": null, "address3": null, "city": "Hamburg", "zip_code": "22143", "country": "DE", "state": "HH", "display_address": ["Rahlstedter Bahnhofstr. 48", "22143 Hamburg", "Germany"]}, "phone": "+49406771182", "display_phone": "+49 40 6771182", "distance": 883.016995992044}, {"id": "BR1UH5Y4E3qiLmlDjffDbw", "alias": "burger-lounge-rahlstedt-hamburg", "name": "Burger Lounge Rahlstedt", "image_url": "https://s3-media3.fl.yelpcdn.com/bphoto/84bAe9vaamfztth3GEpPmg/o.jpg", "is_closed": false, "url": "https://www.yelp.com/biz/burger-lounge-rahlstedt-hamburg?adjust_creative=hBJOknVQJ58S5goQyjmwRw&utm_campaign=yelp_api_v3&utm_medium=api_v3_business_search&utm_source=hBJOknVQJ58S5goQyjmwRw", "review_count": 1, "categories": [{"alias": "tradamerican", "title": "American (Traditional)"}], "rating": 5.0, "coordinates": {"latitude": 53.6136, "longitude": 10.155576}, "transactions": [], "location": {"address1": "Bargteheiderstr. 174", "address2": "", "address3": null, "city": "Hamburg", "zip_code": "22143", "country": "DE", "state": "HH", "display_address": ["Bargteheiderstr. 174", "22143 Hamburg", "Germany"]}, "phone": "+494078013111", "display_phone": "+49 40 78013111", "distance": 661.1412217878606}, {"id": "iJ_ll0vgvroDzBmPm7lncQ", "alias": "athen-palast-hamburg", "name": "Athen Palast", "image_url": "https://s3-media2.fl.yelpcdn.com/bphoto/HIJIJFHTZg4YodN1lKgeAA/o.jpg", "is_closed": false, "url": "https://www.yelp.com/biz/athen-palast-hamburg?adjust_creative=hBJOknVQJ58S5goQyjmwRw&utm_campaign=yelp_api_v3&utm_medium=api_v3_business_search&utm_source=hBJOknVQJ58S5goQyjmwRw", "review_count": 15, "categories": [{"alias": "greek", "title": "Greek"}], "rating": 4.5, "coordinates": {"latitude": 53.571, "longitude": 10.132}, "transactions": [], "price": "\u20ac\u20ac", "location": {"address1": "Rodigallee 294", "address2": null, "address3": null, "city": "Hamburg", "zip_code": "22043", "country": "DE", "state": "HH", "display_address": ["Rodigallee 294", "22043 Hamburg", "Germany"]}, "phone": "+494076976861", "display_phone": "+49 40 76976861", "distance": 4335.638154633802}, {"id": "FAHAE9hqEqYelG_fjDrxFg", "alias": "caf\u00e9-ol\u00e9-hamburg-3", "name": "Caf\u00e9 Ol\u00e9", "image_url": "https://s3-media4.fl.yelpcdn.com/bphoto/VWnPzcmoFpqNR4UOVBxqMw/o.jpg", "is_closed": false, "url": "https://www.yelp.com/biz/caf%C3%A9-ol%C3%A9-hamburg-3?adjust_creative=hBJOknVQJ58S5goQyjmwRw&utm_campaign=yelp_api_v3&utm_medium=api_v3_business_search&utm_source=hBJOknVQJ58S5goQyjmwRw", "review_count": 56, "categories": [{"alias": "bars", "title": "Bars"}, {"alias": "international", "title": "International"}], "rating": 4.0, "coordinates": {"latitude": 53.60526, "longitude": 10.1606}, "transactions": [], "price": "\u20ac\u20ac", "location": {"address1": "Schweriner Str. 23", "address2": null, "address3": null, "city": "Hamburg", "zip_code": "22143", "country": "DE", "state": "HH", "display_address": ["Schweriner Str. 23", "22143 Hamburg", "Germany"]}, "phone": "+494067586133", "display_phone": "+49 40 67586133", "distance": 718.7406590268345}, {"id": "zcyPh_LDb0i7LU4UEzuy4g", "alias": "restaurant-karyatis-hamburg", "name": "Restaurant Karyatis", "image_url": "https://s3-media3.fl.yelpcdn.com/bphoto/67pfw1jfKNRCqfWb_oYpSA/o.jpg", "is_closed": false, "url": "https://www.yelp.com/biz/restaurant-karyatis-hamburg?adjust_creative=hBJOknVQJ58S5goQyjmwRw&utm_campaign=yelp_api_v3&utm_medium=api_v3_business_search&utm_source=hBJOknVQJ58S5goQyjmwRw", "review_count": 8, "categories": [{"alias": "greek", "title": "Greek"}], "rating": 4.0, "coordinates": {"latitude": 53.5960856, "longitude": 10.1519664}, "transactions": [], "price": "\u20ac\u20ac", "location": {"address1": "Rahlstedter Str. 71", "address2": "", "address3": null, "city": "Hamburg", "zip_code": "22149", "country": "DE", "state": "HH", "display_address": ["Rahlstedter Str. 71", "22149 Hamburg", "Germany"]}, "phone": "+49406724411", "display_phone": "+49 40 6724411", "distance": 1365.0220712392493}, {"id": "dbuDvcKN08AwyYSCumGXLw", "alias": "mr-grande-hamburg-3", "name": "Mr. Grande", "image_url": "https://s3-media4.fl.yelpcdn.com/bphoto/WonA8UDiFLw53BTfqLFcPg/o.jpg", "is_closed": false, "url": "https://www.yelp.com/biz/mr-grande-hamburg-3?adjust_creative=hBJOknVQJ58S5goQyjmwRw&utm_campaign=yelp_api_v3&utm_medium=api_v3_business_search&utm_source=hBJOknVQJ58S5goQyjmwRw", "review_count": 13, "categories": [{"alias": "tradamerican", "title": "American (Traditional)"}, {"alias": "steak", "title": "Steakhouses"}, {"alias": "bistros", "title": "Bistros"}], "rating": 4.0, "coordinates": {"latitude": 53.571000771076, "longitude": 10.1257433742285}, "transactions": [], "price": "\u20ac\u20ac", "location": {"address1": "Rodigallee 233", "address2": "", "address3": "", "city": "Hamburg", "zip_code": "22043", "country": "DE", "state": "HH", "display_address": ["Rodigallee 233", "22043 Hamburg", "Germany"]}, "phone": "+494065726655", "display_phone": "+49 40 65726655", "distance": 4471.815968708406}, {"id": "ypHVhf7L_rr3Nhu5HwMb1A", "alias": "ciao-bella-hamburg", "name": "Ciao Bella", "image_url": "https://s3-media3.fl.yelpcdn.com/bphoto/yIY12ET3EWu3aLu1raurOw/o.jpg", "is_closed": false, "url": "https://www.yelp.com/biz/ciao-bella-hamburg?adjust_creative=hBJOknVQJ58S5goQyjmwRw&utm_campaign=yelp_api_v3&utm_medium=api_v3_business_search&utm_source=hBJOknVQJ58S5goQyjmwRw", "review_count": 16, "categories": [{"alias": "italian", "title": "Italian"}], "rating": 3.5, "coordinates": {"latitude": 53.6045614, "longitude": 10.1555168}, "transactions": [], "price": "\u20ac\u20ac", "location": {"address1": "Boizenburger Weg 1", "address2": "", "address3": "", "city": "Hamburg", "zip_code": "22143", "country": "DE", "state": "HH", "display_address": ["Boizenburger Weg 1", "22143 Hamburg", "Germany"]}, "phone": "+49406771827", "display_phone": "+49 40 6771827", "distance": 511.7418356133341}, {"id": "V8J4Trv5qPEySUdi3AOlWQ", "alias": "auszeit-hamburg-4", "name": "Auszeit", "image_url": "https://s3-media1.fl.yelpcdn.com/bphoto/ZcuOQNpXtCJGJwk4QYqTPQ/o.jpg", "is_closed": false, "url": "https://www.yelp.com/biz/auszeit-hamburg-4?adjust_creative=hBJOknVQJ58S5goQyjmwRw&utm_campaign=yelp_api_v3&utm_medium=api_v3_business_search&utm_source=hBJOknVQJ58S5goQyjmwRw", "review_count": 9, "categories": [{"alias": "bowling", "title": "Bowling"}, {"alias": "german", "title": "German"}, {"alias": "international", "title": "International"}], "rating": 4.5, "coordinates": {"latitude": 53.586142, "longitude": 10.160171}, "transactions": [], "price": "\u20ac\u20ac\u20ac", "location": {"address1": "H\u00fcllenkoppel 56", "address2": null, "address3": null, "city": "Hamburg", "zip_code": "22149", "country": "DE", "state": "HH", "display_address": ["H\u00fcllenkoppel 56", "22149 Hamburg", "Germany"]}, "phone": "+494067391007", "display_phone": "+49 40 67391007", "distance": 2543.708424638257}, {"id": "bI0qJy2AIyI4aa3FoDZ1ZQ", "alias": "mister-wu-hamburg", "name": "Mister-wu", "image_url": "https://s3-media4.fl.yelpcdn.com/bphoto/OoHPXXxwY5e3fSHod529gg/o.jpg", "is_closed": false, "url": "https://www.yelp.com/biz/mister-wu-hamburg?adjust_creative=hBJOknVQJ58S5goQyjmwRw&utm_campaign=yelp_api_v3&utm_medium=api_v3_business_search&utm_source=hBJOknVQJ58S5goQyjmwRw", "review_count": 67, "categories": [{"alias": "german", "title": "German"}, {"alias": "panasian", "title": "Pan Asian"}], "rating": 3.5, "coordinates": {"latitude": 53.59565, "longitude": 10.14978}, "transactions": [], "price": "\u20ac\u20ac", "location": {"address1": "Rahlstedter Str. 61", "address2": "", "address3": null, "city": "Hamburg", "zip_code": "22149", "country": "DE", "state": "HH", "display_address": ["Rahlstedter Str. 61", "22149 Hamburg", "Germany"]}, "phone": "+494067998618", "display_phone": "+49 40 67998618", "distance": 1405.731210220105}, {"id": "ePKrRNTPT_56S0x2690GAQ", "alias": "das-caf\u00e9haus-hamburg-2", "name": "Das Caf\u00e9haus", "image_url": "https://s3-media1.fl.yelpcdn.com/bphoto/fVGddGQ7I8XTlA33Yai9vA/o.jpg", "is_closed": false, "url": "https://www.yelp.com/biz/das-caf%C3%A9haus-hamburg-2?adjust_creative=hBJOknVQJ58S5goQyjmwRw&utm_campaign=yelp_api_v3&utm_medium=api_v3_business_search&utm_source=hBJOknVQJ58S5goQyjmwRw", "review_count": 35, "categories": [{"alias": "cafes", "title": "Cafes"}, {"alias": "cakeshop", "title": "Patisserie/Cake Shop"}], "rating": 4.0, "coordinates": {"latitude": 53.5955, "longitude": 10.15}, "transactions": [], "price": "\u20ac\u20ac", "location": {"address1": "Rahlstedter Str. 68", "address2": null, "address3": null, "city": "Hamburg", "zip_code": "22149", "country": "DE", "state": "HH", "display_address": ["Rahlstedter Str. 68", "22149 Hamburg", "Germany"]}, "phone": "+49406733234", "display_phone": "+49 40 6733234", "distance": 1429.4819523048354}, {"id": "YORyYpWGC59Sojp4lW8dBQ", "alias": "ristorante-villaggio-hamburg", "name": "Ristorante Villaggio", "image_url": "https://s3-media4.fl.yelpcdn.com/bphoto/UzpkW0HSJWPx3-mPVsy_kg/o.jpg", "is_closed": false, "url": "https://www.yelp.com/biz/ristorante-villaggio-hamburg?adjust_creative=hBJOknVQJ58S5goQyjmwRw&utm_campaign=yelp_api_v3&utm_medium=api_v3_business_search&utm_source=hBJOknVQJ58S5goQyjmwRw", "review_count": 3, "categories": [{"alias": "italian", "title": "Italian"}], "rating": 4.0, "coordinates": {"latitude": 53.649162, "longitude": 10.16791}, "transactions": [], "price": "\u20ac\u20ac", "location": {"address1": "Hotel du Nord", "address2": "Im Alten Dorfe 40", "address3": "", "city": "Hamburg", "zip_code": "22359", "country": "DE", "state": "HH", "display_address": ["Hotel du Nord", "Im Alten Dorfe 40", "22359 Hamburg", "Germany"]}, "phone": "+49406034042", "display_phone": "+49 40 6034042", "distance": 4683.651426254}, {"id": "RUsc-zTQmaVMzE4XthLrrw", "alias": "asia-hoang-hamburg-2", "name": "Asia Hoang", "image_url": "https://s3-media2.fl.yelpcdn.com/bphoto/Z6KMUKJZi2ZizhCAxpM2NA/o.jpg", "is_closed": false, "url": "https://www.yelp.com/biz/asia-hoang-hamburg-2?adjust_creative=hBJOknVQJ58S5goQyjmwRw&utm_campaign=yelp_api_v3&utm_medium=api_v3_business_search&utm_source=hBJOknVQJ58S5goQyjmwRw", "review_count": 11, "categories": [{"alias": "chinese", "title": "Chinese"}, {"alias": "hotdogs", "title": "Fast Food"}, {"alias": "thai", "title": "Thai"}], "rating": 4.0, "coordinates": {"latitude": 53.60314, "longitude": 10.15414}, "transactions": [], "price": "\u20ac", "location": {"address1": "Rahlstedter Bahnhofstr. 16", "address2": null, "address3": null, "city": "Hamburg", "zip_code": "22143", "country": "DE", "state": "HH", "display_address": ["Rahlstedter Bahnhofstr. 16", "22143 Hamburg", "Germany"]}, "phone": "+49406775077", "display_phone": "+49 40 6775077", "distance": 621.7494684201931}, {"id": "JgAdQhdsjWBMXxqPTRTjTA", "alias": "chios-grill-hamburg-2", "name": "Chios Grill", "image_url": "https://s3-media3.fl.yelpcdn.com/bphoto/fZaJtT-ZO5Ivv4cdF_mRSA/o.jpg", "is_closed": false, "url": "https://www.yelp.com/biz/chios-grill-hamburg-2?adjust_creative=hBJOknVQJ58S5goQyjmwRw&utm_campaign=yelp_api_v3&utm_medium=api_v3_business_search&utm_source=hBJOknVQJ58S5goQyjmwRw", "review_count": 10, "categories": [{"alias": "greek", "title": "Greek"}], "rating": 4.5, "coordinates": {"latitude": 53.5924887, "longitude": 10.1373915}, "transactions": [], "price": "\u20ac\u20ac", "location": {"address1": "Tonndorfer Hauptstr. 176", "address2": "", "address3": "", "city": "Hamburg", "zip_code": "22045", "country": "DE", "state": "HH", "display_address": ["Tonndorfer Hauptstr. 176", "22045 Hamburg", "Germany"]}, "phone": "+494087093156", "display_phone": "+49 40 87093156", "distance": 1975.2646195839864}, {"id": "IsbYSMWRDpbbZLT3fBHYkg", "alias": "crazy-croque-hamburg-2", "name": "Crazy Croque", "image_url": "https://s3-media3.fl.yelpcdn.com/bphoto/WUzL0UeAwXG_LVlKdaFzSw/o.jpg", "is_closed": false, "url": "https://www.yelp.com/biz/crazy-croque-hamburg-2?adjust_creative=hBJOknVQJ58S5goQyjmwRw&utm_campaign=yelp_api_v3&utm_medium=api_v3_business_search&utm_source=hBJOknVQJ58S5goQyjmwRw", "review_count": 41, "categories": [{"alias": "hotdogs", "title": "Fast Food"}, {"alias": "burgers", "title": "Burgers"}], "rating": 4.0, "coordinates": {"latitude": 53.59841, "longitude": 10.15373}, "transactions": [], "price": "\u20ac\u20ac", "location": {"address1": "Rahlstedter Str. 123", "address2": null, "address3": null, "city": "Hamburg", "zip_code": "22149", "country": "DE", "state": "HH", "display_address": ["Rahlstedter Str. 123", "22149 Hamburg", "Germany"]}, "phone": "+49406777816", "display_phone": "+49 40 6777816", "distance": 1116.5818851530858}, {"id": "dwbv8cRWOzfD4_VBMTzVCA", "alias": "hotel-meiendorfer-park-hamburg", "name": "Hotel Meiendorfer Park", "image_url": "https://s3-media1.fl.yelpcdn.com/bphoto/LmGe4FROxtNpJjZ4qdPDgw/o.jpg", "is_closed": false, "url": "https://www.yelp.com/biz/hotel-meiendorfer-park-hamburg?adjust_creative=hBJOknVQJ58S5goQyjmwRw&utm_campaign=yelp_api_v3&utm_medium=api_v3_business_search&utm_source=hBJOknVQJ58S5goQyjmwRw", "review_count": 1, "categories": [{"alias": "hotels", "title": "Hotels"}, {"alias": "german", "title": "German"}], "rating": 4.0, "coordinates": {"latitude": 53.62308, "longitude": 10.1664}, "transactions": [], "location": {"address1": "Meiendorfer Str. 101", "address2": null, "address3": null, "city": "Hamburg", "zip_code": "22145", "country": "DE", "state": "SH", "display_address": ["Meiendorfer Str. 101", "22145 Hamburg", "Germany"]}, "phone": "+49406781718", "display_phone": "+49 40 6781718", "distance": 1933.311579791654}, {"id": "WsUam5VAAQ7yWpoBggzFSQ", "alias": "asia-k\u00fcche-hamburg", "name": "Asia K\u00fcche", "image_url": "https://s3-media2.fl.yelpcdn.com/bphoto/91FbganovwNRnmQaB3b1iw/o.jpg", "is_closed": false, "url": "https://www.yelp.com/biz/asia-k%C3%BCche-hamburg?adjust_creative=hBJOknVQJ58S5goQyjmwRw&utm_campaign=yelp_api_v3&utm_medium=api_v3_business_search&utm_source=hBJOknVQJ58S5goQyjmwRw", "review_count": 8, "categories": [{"alias": "panasian", "title": "Pan Asian"}], "rating": 2.5, "coordinates": {"latitude": 53.6251717, "longitude": 10.1404104}, "transactions": [], "price": "\u20ac\u20ac", "location": {"address1": "Hermann-Balk-Str. 120", "address2": "", "address3": "", "city": "Hamburg", "zip_code": "22147", "country": "DE", "state": "HH", "display_address": ["Hermann-Balk-Str. 120", "22147 Hamburg", "Germany"]}, "phone": "+49406446988", "display_phone": "+49 40 6446988", "distance": 1992.6738484031282}, {"id": "_qZTgjOKo5EyR8wl4VtzOw", "alias": "saigon-cuisine-hamburg-2", "name": "Saigon Cuisine", "image_url": "https://s3-media1.fl.yelpcdn.com/bphoto/-4oR_6QaJyFqUpOOVLMf7g/o.jpg", "is_closed": false, "url": "https://www.yelp.com/biz/saigon-cuisine-hamburg-2?adjust_creative=hBJOknVQJ58S5goQyjmwRw&utm_campaign=yelp_api_v3&utm_medium=api_v3_business_search&utm_source=hBJOknVQJ58S5goQyjmwRw", "review_count": 2, "categories": [{"alias": "vietnamese", "title": "Vietnamese"}], "rating": 2.0, "coordinates": {"latitude": 53.5846424024781, "longitude": 10.1334889233112}, "transactions": [], "location": {"address1": "Sch\u00f6neberger Str. 1", "address2": "", "address3": null, "city": "Hamburg", "zip_code": "22045", "country": "DE", "state": "HH", "display_address": ["Sch\u00f6neberger Str. 1", "22045 Hamburg", "Germany"]}, "phone": "+494066997688", "display_phone": "+49 40 66997688", "distance": 2874.8228917027977}, {"id": "4hyYnYXQgIEaiilM2OMyqA", "alias": "conditorei-steidl-hamburg", "name": "Conditorei Steidl", "image_url": "https://s3-media1.fl.yelpcdn.com/bphoto/oHpBuJRFYkA7y7UI1XCDNw/o.jpg", "is_closed": false, "url": "https://www.yelp.com/biz/conditorei-steidl-hamburg?adjust_creative=hBJOknVQJ58S5goQyjmwRw&utm_campaign=yelp_api_v3&utm_medium=api_v3_business_search&utm_source=hBJOknVQJ58S5goQyjmwRw", "review_count": 19, "categories": [{"alias": "bakeries", "title": "Bakeries"}, {"alias": "cafes", "title": "Cafes"}, {"alias": "cakeshop", "title": "Patisserie/Cake Shop"}], "rating": 4.5, "coordinates": {"latitude": 53.6035, "longitude": 10.1547}, "transactions": [], "price": "\u20ac\u20ac", "location": {"address1": "Rahlstedter Bahnhofstr. 12", "address2": null, "address3": null, "city": "Hamburg", "zip_code": "22143", "country": "DE", "state": "HH", "display_address": ["Rahlstedter Bahnhofstr. 12", "22143 Hamburg", "Germany"]}, "phone": "+49406772269", "display_phone": "+49 40 6772269", "distance": 594.5430583349496}, {"id": "7cmEUHIsFpaiEo8p7EFRag", "alias": "cafe-del-sol-hamburg-2", "name": "Cafe Del Sol", "image_url": "https://s3-media2.fl.yelpcdn.com/bphoto/VOKdSBA9DkdZ4ffBiN3WpQ/o.jpg", "is_closed": false, "url": "https://www.yelp.com/biz/cafe-del-sol-hamburg-2?adjust_creative=hBJOknVQJ58S5goQyjmwRw&utm_campaign=yelp_api_v3&utm_medium=api_v3_business_search&utm_source=hBJOknVQJ58S5goQyjmwRw", "review_count": 145, "categories": [{"alias": "german", "title": "German"}, {"alias": "breakfast_brunch", "title": "Breakfast & Brunch"}], "rating": 3.5, "coordinates": {"latitude": 53.58419, "longitude": 10.126157}, "transactions": [], "price": "\u20ac\u20ac", "location": {"address1": "Jenfelder Allee 80 A", "address2": "", "address3": null, "city": "Hamburg", "zip_code": "22045", "country": "DE", "state": "HH", "display_address": ["Jenfelder Allee 80 A", "22045 Hamburg", "Germany"]}, "phone": "+494066857534", "display_phone": "+49 40 66857534", "distance": 3188.4860726572033}, {"id": "bGDTPY4glhsdwHxJi8SAEg", "alias": "apos-bistro-hamburg", "name": "Apos Bistro", "image_url": "https://s3-media3.fl.yelpcdn.com/bphoto/fyCZlRLbHPxAve_Kc8LJ2g/o.jpg", "is_closed": false, "url": "https://www.yelp.com/biz/apos-bistro-hamburg?adjust_creative=hBJOknVQJ58S5goQyjmwRw&utm_campaign=yelp_api_v3&utm_medium=api_v3_business_search&utm_source=hBJOknVQJ58S5goQyjmwRw", "review_count": 9, "categories": [{"alias": "bistros", "title": "Bistros"}], "rating": 3.5, "coordinates": {"latitude": 53.6179411, "longitude": 10.1445135}, "transactions": [], "price": "\u20ac\u20ac", "location": {"address1": "Greifenberger Str. 61", "address2": null, "address3": null, "city": "Hamburg", "zip_code": "22147", "country": "DE", "state": "HH", "display_address": ["Greifenberger Str. 61", "22147 Hamburg", "Germany"]}, "phone": "+494064891941", "display_phone": "+49 40 64891941", "distance": 1146.9097989903678}, {"id": "HC4LSmTCh1Xm_N3F8HRalA", "alias": "thai-foo-hamburg-2", "name": "thai foo", "image_url": "https://s3-media2.fl.yelpcdn.com/bphoto/AszGYatnLkzlbEc7BjMzlg/o.jpg", "is_closed": false, "url": "https://www.yelp.com/biz/thai-foo-hamburg-2?adjust_creative=hBJOknVQJ58S5goQyjmwRw&utm_campaign=yelp_api_v3&utm_medium=api_v3_business_search&utm_source=hBJOknVQJ58S5goQyjmwRw", "review_count": 7, "categories": [{"alias": "thai", "title": "Thai"}], "rating": 4.0, "coordinates": {"latitude": 53.6042, "longitude": 10.157}, "transactions": [], "price": "\u20ac\u20ac", "location": {"address1": "Wariner Weg 1", "address2": "", "address3": null, "city": "Hamburg", "zip_code": "22143", "country": "DE", "state": "HH", "display_address": ["Wariner Weg 1", "22143 Hamburg", "Germany"]}, "phone": "+494066977966", "display_phone": "+49 40 66977966", "distance": 612.3976079343394}, {"id": "_XirIBJrLshZc3lwO8uC0A", "alias": "sultans-kepub-hamburg-2", "name": "Sultan's Kepub", "image_url": "https://s3-media4.fl.yelpcdn.com/bphoto/aaPhwuwSP93ZK8RAmJ45_A/o.jpg", "is_closed": false, "url": "https://www.yelp.com/biz/sultans-kepub-hamburg-2?adjust_creative=hBJOknVQJ58S5goQyjmwRw&utm_campaign=yelp_api_v3&utm_medium=api_v3_business_search&utm_source=hBJOknVQJ58S5goQyjmwRw", "review_count": 15, "categories": [{"alias": "turkish", "title": "Turkish"}, {"alias": "kebab", "title": "Kebab"}], "rating": 3.0, "coordinates": {"latitude": 53.60413, "longitude": 10.15482}, "transactions": [], "price": "\u20ac", "location": {"address1": "Rahlstedter Bahnhofstr. 6", "address2": "", "address3": "", "city": "Hamburg", "zip_code": "22143", "country": "DE", "state": "HH", "display_address": ["Rahlstedter Bahnhofstr. 6", "22143 Hamburg", "Germany"]}, "phone": "+494067563119", "display_phone": "+49 40 67563119", "distance": 529.9042971305258}, {"id": "LA5p9GlUaSHvqWi1VDtTVg", "alias": "croque-insel-hamburg", "name": "Croque-Insel", "image_url": "https://s3-media3.fl.yelpcdn.com/bphoto/pNpDWMSFo2Ex7lbiUS8CSw/o.jpg", "is_closed": false, "url": "https://www.yelp.com/biz/croque-insel-hamburg?adjust_creative=hBJOknVQJ58S5goQyjmwRw&utm_campaign=yelp_api_v3&utm_medium=api_v3_business_search&utm_source=hBJOknVQJ58S5goQyjmwRw", "review_count": 2, "categories": [{"alias": "sandwiches", "title": "Sandwiches"}], "rating": 5.0, "coordinates": {"latitude": 53.6223993598285, "longitude": 10.1652405883885}, "transactions": [], "location": {"address1": "Saseler Str. 1", "address2": null, "address3": null, "city": "Hamburg", "zip_code": "22145", "country": "DE", "state": "HH", "display_address": ["Saseler Str. 1", "22145 Hamburg", "Germany"]}, "phone": "+49406792179", "display_phone": "+49 40 6792179", "distance": 1827.1825544166998}, {"id": "GUNxVSa-aaUv5jV8oEqxRw", "alias": "das-leben-isst-sch\u00f6n-hamburg", "name": "Das Leben isst sch\u00f6n!", "image_url": "https://s3-media1.fl.yelpcdn.com/bphoto/n1uOkoVERAGng3b8_5os2g/o.jpg", "is_closed": false, "url": "https://www.yelp.com/biz/das-leben-isst-sch%C3%B6n-hamburg?adjust_creative=hBJOknVQJ58S5goQyjmwRw&utm_campaign=yelp_api_v3&utm_medium=api_v3_business_search&utm_source=hBJOknVQJ58S5goQyjmwRw", "review_count": 24, "categories": [{"alias": "cafes", "title": "Cafes"}, {"alias": "breakfast_brunch", "title": "Breakfast & Brunch"}], "rating": 4.0, "coordinates": {"latitude": 53.648382, "longitude": 10.16816}, "transactions": [], "price": "\u20ac\u20ac", "location": {"address1": "Wiesenh\u00f6fen 7", "address2": "", "address3": "", "city": "Hamburg", "zip_code": "22359", "country": "DE", "state": "HH", "display_address": ["Wiesenh\u00f6fen 7", "22359 Hamburg", "Germany"]}, "phone": "+494080079090", "display_phone": "+49 40 80079090", "distance": 4598.739753757761}, {"id": "W7Di0VFheedEkLU5yw2Hqg", "alias": "dorfkrug-volksdorf-hamburg", "name": "Dorfkrug Volksdorf", "image_url": "https://s3-media1.fl.yelpcdn.com/bphoto/OB6qQYoIeK9_pQrFSgkyvw/o.jpg", "is_closed": false, "url": "https://www.yelp.com/biz/dorfkrug-volksdorf-hamburg?adjust_creative=hBJOknVQJ58S5goQyjmwRw&utm_campaign=yelp_api_v3&utm_medium=api_v3_business_search&utm_source=hBJOknVQJ58S5goQyjmwRw", "review_count": 31, "categories": [{"alias": "german", "title": "German"}], "rating": 4.0, "coordinates": {"latitude": 53.6494979, "longitude": 10.1678128}, "transactions": [], "price": "\u20ac\u20ac\u20ac", "location": {"address1": "Im Alten Dorfe 44", "address2": null, "address3": null, "city": "Hamburg", "zip_code": "22359", "country": "DE", "state": "HH", "display_address": ["Im Alten Dorfe 44", "22359 Hamburg", "Germany"]}, "phone": "+49406039294", "display_phone": "+49 40 6039294", "distance": 4710.132629567645}, {"id": "2nEhazu2nscUQp8p2rEhgA", "alias": "hallo-pizza-hamburg-13", "name": "Hallo Pizza!", "image_url": "https://s3-media1.fl.yelpcdn.com/bphoto/HZKg-zU9v4ugvI_qHn2d-Q/o.jpg", "is_closed": false, "url": "https://www.yelp.com/biz/hallo-pizza-hamburg-13?adjust_creative=hBJOknVQJ58S5goQyjmwRw&utm_campaign=yelp_api_v3&utm_medium=api_v3_business_search&utm_source=hBJOknVQJ58S5goQyjmwRw", "review_count": 3, "categories": [{"alias": "pizza", "title": "Pizza"}], "rating": 4.0, "coordinates": {"latitude": 53.623527, "longitude": 10.1671349}, "transactions": [], "price": "\u20ac", "location": {"address1": "Meiendorfer Str. 109", "address2": null, "address3": null, "city": "Hamburg", "zip_code": "22145", "country": "DE", "state": "HH", "display_address": ["Meiendorfer Str. 109", "22145 Hamburg", "Germany"]}, "phone": "+494067595050", "display_phone": "+49 40 67595050", "distance": 1999.599327842987}, {"id": "nSE3LIJsKM9f6IPKG6nbAw", "alias": "eichenkrug-hamburg", "name": "Eichenkrug", "image_url": "https://s3-media3.fl.yelpcdn.com/bphoto/lO1r45ThqzbrYxNocZH01Q/o.jpg", "is_closed": false, "url": "https://www.yelp.com/biz/eichenkrug-hamburg?adjust_creative=hBJOknVQJ58S5goQyjmwRw&utm_campaign=yelp_api_v3&utm_medium=api_v3_business_search&utm_source=hBJOknVQJ58S5goQyjmwRw", "review_count": 24, "categories": [{"alias": "northerngerman", "title": "Northern German"}], "rating": 4.0, "coordinates": {"latitude": 53.65057, "longitude": 10.1674399}, "transactions": [], "price": "\u20ac\u20ac\u20ac", "location": {"address1": "Im Alten Dorfe 60", "address2": "", "address3": "", "city": "Hamburg", "zip_code": "22359", "country": "DE", "state": "HH", "display_address": ["Im Alten Dorfe 60", "22359 Hamburg", "Germany"]}, "phone": "+49406038781", "display_phone": "+49 40 6038781", "distance": 4818.569399259432}, {"id": "LH5ahW4cXmyBSr1D4dSeHA", "alias": "dominos-hamburg-9", "name": "Domino's", "image_url": "https://s3-media1.fl.yelpcdn.com/bphoto/FCXTVrzDPp-nKJjDZzUr0A/o.jpg", "is_closed": false, "url": "https://www.yelp.com/biz/dominos-hamburg-9?adjust_creative=hBJOknVQJ58S5goQyjmwRw&utm_campaign=yelp_api_v3&utm_medium=api_v3_business_search&utm_source=hBJOknVQJ58S5goQyjmwRw", "review_count": 1, "categories": [{"alias": "pizza", "title": "Pizza"}], "rating": 5.0, "coordinates": {"latitude": 53.60255, "longitude": 10.14512}, "transactions": [], "location": {"address1": "Bargteheider Str. 75", "address2": "", "address3": null, "city": "Hamburg", "zip_code": "22143", "country": "DE", "state": "HH", "display_address": ["Bargteheider Str. 75", "22143 Hamburg", "Germany"]}, "phone": "+49406736070", "display_phone": "+49 40 6736070", "distance": 764.3283016284521}, {"id": "oohAJFC5eClaPZO9dcsrsw", "alias": "taverna-bei-anna-hamburg", "name": "Taverna Bei Anna", "image_url": "https://s3-media2.fl.yelpcdn.com/bphoto/4r4ro1JOdeeszyl0G917-w/o.jpg", "is_closed": false, "url": "https://www.yelp.com/biz/taverna-bei-anna-hamburg?adjust_creative=hBJOknVQJ58S5goQyjmwRw&utm_campaign=yelp_api_v3&utm_medium=api_v3_business_search&utm_source=hBJOknVQJ58S5goQyjmwRw", "review_count": 24, "categories": [{"alias": "greek", "title": "Greek"}], "rating": 3.5, "coordinates": {"latitude": 53.6141, "longitude": 10.1357}, "transactions": [], "price": "\u20ac\u20ac", "location": {"address1": "Bekassinenau 67", "address2": null, "address3": null, "city": "Hamburg", "zip_code": "22147", "country": "DE", "state": "HH", "display_address": ["Bekassinenau 67", "22147 Hamburg", "Germany"]}, "phone": "+49406471357", "display_phone": "+49 40 6471357", "distance": 1188.8366117185708}, {"id": "33QlrSuFYe5OTSqG3j7i-A", "alias": "hofladen-bernekehof-barsb\u00fcttel", "name": "Hofladen Bernekehof", "image_url": "https://s3-media2.fl.yelpcdn.com/bphoto/lcWzMgACoqFSse7iGh6FIQ/o.jpg", "is_closed": false, "url": "https://www.yelp.com/biz/hofladen-bernekehof-barsb%C3%BCttel?adjust_creative=hBJOknVQJ58S5goQyjmwRw&utm_campaign=yelp_api_v3&utm_medium=api_v3_business_search&utm_source=hBJOknVQJ58S5goQyjmwRw", "review_count": 1, "categories": [{"alias": "cafes", "title": "Cafes"}, {"alias": "organic_stores", "title": "Organic Stores"}], "rating": 5.0, "coordinates": {"latitude": 53.576038190667, "longitude": 10.169076807797}, "transactions": [], "location": {"address1": "R\u00e4hnwischredder 5", "address2": "", "address3": "", "city": "Barsb\u00fcttel", "zip_code": "22885", "country": "DE", "state": "SH", "display_address": ["R\u00e4hnwischredder 5", "22885 Barsb\u00fcttel", "Germany"]}, "phone": "+494067081458", "display_phone": "+49 40 67081458", "distance": 3787.595633770171}, {"id": "9-KFAI9eGa6am7T29THPOg", "alias": "la-plaza-hamburg", "name": "La Plaza", "image_url": "https://s3-media2.fl.yelpcdn.com/bphoto/zFpzVFW5yBUSChkwpCsxMw/o.jpg", "is_closed": false, "url": "https://www.yelp.com/biz/la-plaza-hamburg?adjust_creative=hBJOknVQJ58S5goQyjmwRw&utm_campaign=yelp_api_v3&utm_medium=api_v3_business_search&utm_source=hBJOknVQJ58S5goQyjmwRw", "review_count": 8, "categories": [{"alias": "tapas", "title": "Tapas Bars"}, {"alias": "cafes", "title": "Cafes"}], "rating": 4.0, "coordinates": {"latitude": 53.64931, "longitude": 10.16334}, "transactions": [], "price": "\u20ac\u20ac", "location": {"address1": "Claus-Ferck-Str. 9-11", "address2": "", "address3": "", "city": "Hamburg", "zip_code": "22359", "country": "DE", "state": "HH", "display_address": ["Claus-Ferck-Str. 9-11", "22359 Hamburg", "Germany"]}, "phone": "+494069464411", "display_phone": "+49 40 69464411", "distance": 4629.101587615566}, {"id": "DsJCxIY0iM8FWMt5Eel8sQ", "alias": "braaker-m\u00fchle-hamburg-4", "name": "Braaker M\u00fchle", "image_url": "https://s3-media3.fl.yelpcdn.com/bphoto/NcXvstHEjtJ3DGFlP3Z_yA/o.jpg", "is_closed": false, "url": "https://www.yelp.com/biz/braaker-m%C3%BChle-hamburg-4?adjust_creative=hBJOknVQJ58S5goQyjmwRw&utm_campaign=yelp_api_v3&utm_medium=api_v3_business_search&utm_source=hBJOknVQJ58S5goQyjmwRw", "review_count": 4, "categories": [{"alias": "bakeries", "title": "Bakeries"}, {"alias": "cafes", "title": "Cafes"}, {"alias": "sandwiches", "title": "Sandwiches"}], "rating": 5.0, "coordinates": {"latitude": 53.6141431, "longitude": 10.1563974}, "transactions": [], "price": "\u20ac", "location": {"address1": "Oldenfelder Stieg 2", "address2": null, "address3": null, "city": "Hamburg", "zip_code": "22143", "country": "DE", "state": "HH", "display_address": ["Oldenfelder Stieg 2", "22143 Hamburg", "Germany"]}, "phone": "+494066854242", "display_phone": "+49 40 66854242", "distance": 740.1233411185415}, {"id": "bp2Z3UichsPCMfokIAluvA", "alias": "san-marino-hamburg-2", "name": "San Marino", "image_url": "https://s3-media1.fl.yelpcdn.com/bphoto/TP-eYZnMzYNO3_GGkPkLRA/o.jpg", "is_closed": false, "url": "https://www.yelp.com/biz/san-marino-hamburg-2?adjust_creative=hBJOknVQJ58S5goQyjmwRw&utm_campaign=yelp_api_v3&utm_medium=api_v3_business_search&utm_source=hBJOknVQJ58S5goQyjmwRw", "review_count": 6, "categories": [{"alias": "italian", "title": "Italian"}], "rating": 3.0, "coordinates": {"latitude": 53.6186151617801, "longitude": 10.1356185972691}, "transactions": [], "price": "\u20ac\u20ac", "location": {"address1": "Bekassinenau 114", "address2": "", "address3": "", "city": "Hamburg", "zip_code": "22147", "country": "DE", "state": "HH", "display_address": ["Bekassinenau 114", "22147 Hamburg", "Germany"]}, "phone": "+494067103931", "display_phone": "+49 40 67103931", "distance": 1522.7152784905238}, {"id": "od8bKF_bhe-OquHKaGo6eA", "alias": "block-house-hamburg-10", "name": "Block House", "image_url": "https://s3-media2.fl.yelpcdn.com/bphoto/FOB6HXZlBKthwIBWBZ5v_w/o.jpg", "is_closed": false, "url": "https://www.yelp.com/biz/block-house-hamburg-10?adjust_creative=hBJOknVQJ58S5goQyjmwRw&utm_campaign=yelp_api_v3&utm_medium=api_v3_business_search&utm_source=hBJOknVQJ58S5goQyjmwRw", "review_count": 41, "categories": [{"alias": "steak", "title": "Steakhouses"}], "rating": 4.0, "coordinates": {"latitude": 53.6476514, "longitude": 10.1639881}, "transactions": [], "price": "\u20ac\u20ac\u20ac", "location": {"address1": "Groten Hoff 12", "address2": null, "address3": null, "city": "Hamburg", "zip_code": "22359", "country": "DE", "state": "HH", "display_address": ["Groten Hoff 12", "22359 Hamburg", "Germany"]}, "phone": "+49406037025", "display_phone": "+49 40 6037025", "distance": 4455.234474847159}, {"id": "KjsENxvgT0hjC0YGFjZjoQ", "alias": "huus-no-5-hamburg", "name": "huus no. 5", "image_url": "https://s3-media2.fl.yelpcdn.com/bphoto/gKMffzsjbSKFdQNTrac3yw/o.jpg", "is_closed": false, "url": "https://www.yelp.com/biz/huus-no-5-hamburg?adjust_creative=hBJOknVQJ58S5goQyjmwRw&utm_campaign=yelp_api_v3&utm_medium=api_v3_business_search&utm_source=hBJOknVQJ58S5goQyjmwRw", "review_count": 2, "categories": [{"alias": "international", "title": "International"}, {"alias": "bistros", "title": "Bistros"}], "rating": 4.5, "coordinates": {"latitude": 53.64934, "longitude": 10.16612}, "transactions": [], "price": "\u20ac\u20ac", "location": {"address1": "Dorfwinkel 5", "address2": null, "address3": "", "city": "Hamburg", "zip_code": "22359", "country": "DE", "state": "HH", "display_address": ["Dorfwinkel 5", "22359 Hamburg", "Germany"]}, "phone": "+494037020027", "display_phone": "+49 40 37020027", "distance": 4670.824823815464}, {"id": "efI_NlXd4vZz03SsjaLRCA", "alias": "d\u00f6-back-hamburg-2", "name": "D\u00d6-Back", "image_url": "https://s3-media3.fl.yelpcdn.com/bphoto/OLOR81E_mA0YOlaFQbz4_w/o.jpg", "is_closed": false, "url": "https://www.yelp.com/biz/d%C3%B6-back-hamburg-2?adjust_creative=hBJOknVQJ58S5goQyjmwRw&utm_campaign=yelp_api_v3&utm_medium=api_v3_business_search&utm_source=hBJOknVQJ58S5goQyjmwRw", "review_count": 5, "categories": [{"alias": "kebab", "title": "Kebab"}], "rating": 3.0, "coordinates": {"latitude": 53.6267, "longitude": 10.13893}, "transactions": [], "price": "\u20ac", "location": {"address1": "Berner Heerweg 372", "address2": null, "address3": "", "city": "Hamburg", "zip_code": "22159", "country": "DE", "state": "HH", "display_address": ["Berner Heerweg 372", "22159 Hamburg", "Germany"]}, "phone": "+494064861088", "display_phone": "+49 40 64861088", "distance": 2187.338671434947}, {"id": "-A_pku1o6DuLFe-3vy88-Q", "alias": "restaurant-estia-hamburg", "name": "Restaurant Estia", "image_url": "https://s3-media1.fl.yelpcdn.com/bphoto/oS_czziV0V8yNLRCLi2wow/o.jpg", "is_closed": false, "url": "https://www.yelp.com/biz/restaurant-estia-hamburg?adjust_creative=hBJOknVQJ58S5goQyjmwRw&utm_campaign=yelp_api_v3&utm_medium=api_v3_business_search&utm_source=hBJOknVQJ58S5goQyjmwRw", "review_count": 9, "categories": [{"alias": "greek", "title": "Greek"}], "rating": 3.5, "coordinates": {"latitude": 53.6244, "longitude": 10.1405}, "transactions": [], "price": "\u20ac\u20ac", "location": {"address1": "Hermann-Balk-Str. 112", "address2": null, "address3": null, "city": "Hamburg", "zip_code": "22147", "country": "DE", "state": "HH", "display_address": ["Hermann-Balk-Str. 112", "22147 Hamburg", "Germany"]}, "phone": "+494064400995", "display_phone": "+49 40 64400995", "distance": 1912.2173969441778}, {"id": "t-8RttB1p7LGZ96k3mLZJg", "alias": "asia-bistro-saigon-hamburg", "name": "Asia Bistro Saigon", "image_url": "https://s3-media1.fl.yelpcdn.com/bphoto/wV6V5DfgSvT2QrkqUvU8gA/o.jpg", "is_closed": false, "url": "https://www.yelp.com/biz/asia-bistro-saigon-hamburg?adjust_creative=hBJOknVQJ58S5goQyjmwRw&utm_campaign=yelp_api_v3&utm_medium=api_v3_business_search&utm_source=hBJOknVQJ58S5goQyjmwRw", "review_count": 9, "categories": [{"alias": "chinese", "title": "Chinese"}, {"alias": "panasian", "title": "Pan Asian"}], "rating": 4.5, "coordinates": {"latitude": 53.6, "longitude": 10.1394}, "transactions": [], "price": "\u20ac\u20ac", "location": {"address1": "Scharbeutzer Str. 85", "address2": null, "address3": null, "city": "Hamburg", "zip_code": "22147", "country": "DE", "state": "HH", "display_address": ["Scharbeutzer Str. 85", "22147 Hamburg", "Germany"]}, "phone": "+49406431206", "display_phone": "+49 40 6431206", "distance": 1198.120254395377}, {"id": "u3ub5f0MS4qY67Q8XF9ZoA", "alias": "sodemanns-fisch-kutter-nr-1-hamburg", "name": "Sodemann's Fisch-Kutter Nr. 1", "image_url": "https://s3-media3.fl.yelpcdn.com/bphoto/BlysP6fVPaL0eEjKvEbByw/o.jpg", "is_closed": false, "url": "https://www.yelp.com/biz/sodemanns-fisch-kutter-nr-1-hamburg?adjust_creative=hBJOknVQJ58S5goQyjmwRw&utm_campaign=yelp_api_v3&utm_medium=api_v3_business_search&utm_source=hBJOknVQJ58S5goQyjmwRw", "review_count": 3, "categories": [{"alias": "foodtrucks", "title": "Food Trucks"}, {"alias": "fischbroetchen", "title": "Fischbroetchen"}], "rating": 5.0, "coordinates": {"latitude": 53.5537490844727, "longitude": 9.99182987213135}, "transactions": [], "price": "\u20ac\u20ac", "location": {"address1": "", "address2": null, "address3": "", "city": "Hamburg", "zip_code": "", "country": "DE", "state": "HH", "display_address": ["Hamburg", "Germany"]}, "phone": "+491773606663", "display_phone": "+49 177 3606663", "distance": 12175.660896337893}, {"id": "WfoA3dcI1IFBi5CIlp4AOA", "alias": "haralds-imbiss-hamburg-2", "name": "Haralds Imbiss", "image_url": "https://s3-media4.fl.yelpcdn.com/bphoto/b8Qk_6KhK-Dod1iTQOVrCQ/o.jpg", "is_closed": false, "url": "https://www.yelp.com/biz/haralds-imbiss-hamburg-2?adjust_creative=hBJOknVQJ58S5goQyjmwRw&utm_campaign=yelp_api_v3&utm_medium=api_v3_business_search&utm_source=hBJOknVQJ58S5goQyjmwRw", "review_count": 6, "categories": [{"alias": "currysausage", "title": "Curry Sausage"}], "rating": 4.5, "coordinates": {"latitude": 53.6509, "longitude": 10.163}, "transactions": [], "price": "\u20ac\u20ac", "location": {"address1": "Marktplatz Volksdorf", "address2": "", "address3": null, "city": "Hamburg", "zip_code": "22359", "country": "DE", "state": "HH", "display_address": ["Marktplatz Volksdorf", "22359 Hamburg", "Germany"]}, "phone": "+4917620821577", "display_phone": "+49 176 20821577", "distance": 4798.837974019228}, {"id": "0soS9xKofIm-drjJJrW74Q", "alias": "asiahub-hamburg-2", "name": "asiahub", "image_url": "https://s3-media2.fl.yelpcdn.com/bphoto/VCaQR_LGNvgAAU8Wugm1Bg/o.jpg", "is_closed": false, "url": "https://www.yelp.com/biz/asiahub-hamburg-2?adjust_creative=hBJOknVQJ58S5goQyjmwRw&utm_campaign=yelp_api_v3&utm_medium=api_v3_business_search&utm_source=hBJOknVQJ58S5goQyjmwRw", "review_count": 11, "categories": [{"alias": "sushi", "title": "Sushi Bars"}, {"alias": "panasian", "title": "Pan Asian"}], "rating": 2.5, "coordinates": {"latitude": 53.6047978946913, "longitude": 10.1549449190497}, "transactions": [], "location": {"address1": "Helmut-Steidl-Platz 3 - 5", "address2": "", "address3": "", "city": "Hamburg", "zip_code": "22143", "country": "DE", "state": "HH", "display_address": ["Helmut-Steidl-Platz 3 - 5", "22143 Hamburg", "Germany"]}, "phone": "+494067105272", "display_phone": "+49 40 67105272", "distance": 476.6556767094169}, {"id": "2xjOX59KWs7KLgcpw86Eiw", "alias": "louisiana-hamburg-6", "name": "Louisiana", "image_url": "https://s3-media2.fl.yelpcdn.com/bphoto/kIPkpQv0hobKQ61bqkBsdg/o.jpg", "is_closed": false, "url": "https://www.yelp.com/biz/louisiana-hamburg-6?adjust_creative=hBJOknVQJ58S5goQyjmwRw&utm_campaign=yelp_api_v3&utm_medium=api_v3_business_search&utm_source=hBJOknVQJ58S5goQyjmwRw", "review_count": 60, "categories": [{"alias": "tradamerican", "title": "American (Traditional)"}, {"alias": "cocktailbars", "title": "Cocktail Bars"}], "rating": 3.0, "coordinates": {"latitude": 53.64881, "longitude": 10.16691}, "transactions": [], "price": "\u20ac\u20ac", "location": {"address1": "Im alten Dorfe 36", "address2": "", "address3": "", "city": "Hamburg", "zip_code": "22359", "country": "DE", "state": "HH", "display_address": ["Im alten Dorfe 36", "22359 Hamburg", "Germany"]}, "phone": "+494045063323", "display_phone": "+49 40 45063323", "distance": 4618.668482833336}, {"id": "zYxi8TgYgSkaL-SIVAYZRg", "alias": "restaurante-hacienda-hamburg", "name": "Restaurante Hacienda", "image_url": "https://s3-media3.fl.yelpcdn.com/bphoto/1RBAKjM3rQpzYw8Svd4n4w/o.jpg", "is_closed": false, "url": "https://www.yelp.com/biz/restaurante-hacienda-hamburg?adjust_creative=hBJOknVQJ58S5goQyjmwRw&utm_campaign=yelp_api_v3&utm_medium=api_v3_business_search&utm_source=hBJOknVQJ58S5goQyjmwRw", "review_count": 39, "categories": [{"alias": "brazilian", "title": "Brazilian"}], "rating": 3.0, "coordinates": {"latitude": 53.64905, "longitude": 10.1678599}, "transactions": [], "price": "\u20ac\u20ac\u20ac", "location": {"address1": "Alten Dorfe 38", "address2": null, "address3": null, "city": "Hamburg", "zip_code": "22359", "country": "DE", "state": "HH", "display_address": ["Alten Dorfe 38", "22359 Hamburg", "Germany"]}, "phone": "+49406095858", "display_phone": "+49 40 6095858", "distance": 4661.461372815931}, {"id": "ZBdsClM5VLExQkhKt9LXpw", "alias": "budai-hamburg", "name": "Budai", "image_url": "https://s3-media4.fl.yelpcdn.com/bphoto/jfibhyWOvP87ReXvqdf0AA/o.jpg", "is_closed": false, "url": "https://www.yelp.com/biz/budai-hamburg?adjust_creative=hBJOknVQJ58S5goQyjmwRw&utm_campaign=yelp_api_v3&utm_medium=api_v3_business_search&utm_source=hBJOknVQJ58S5goQyjmwRw", "review_count": 10, "categories": [{"alias": "mongolian", "title": "Mongolian"}, {"alias": "panasian", "title": "Pan Asian"}], "rating": 3.0, "coordinates": {"latitude": 53.60516, "longitude": 10.16089}, "transactions": [], "price": "\u20ac\u20ac", "location": {"address1": "Schweriner Str. 25", "address2": "", "address3": "", "city": "Hamburg", "zip_code": "22143", "country": "DE", "state": "HH", "display_address": ["Schweriner Str. 25", "22143 Hamburg", "Germany"]}, "phone": "+494065912760", "display_phone": "+49 40 65912760", "distance": 718.7406590268345}, {"id": "veiIRrnbIIY3Udy0wRlpXw", "alias": "hallo-pizza-hamburg-12", "name": "Hallo Pizza!", "image_url": "https://s3-media3.fl.yelpcdn.com/bphoto/vn2q6AmBLXTUn0mkYIIPWQ/o.jpg", "is_closed": false, "url": "https://www.yelp.com/biz/hallo-pizza-hamburg-12?adjust_creative=hBJOknVQJ58S5goQyjmwRw&utm_campaign=yelp_api_v3&utm_medium=api_v3_business_search&utm_source=hBJOknVQJ58S5goQyjmwRw", "review_count": 6, "categories": [{"alias": "pizza", "title": "Pizza"}], "rating": 5.0, "coordinates": {"latitude": 53.58424, "longitude": 10.13803}, "transactions": [], "price": "\u20ac\u20ac\u20ac\u20ac", "location": {"address1": "Sch\u00f6neberger Str. 20", "address2": null, "address3": null, "city": "Hamburg", "zip_code": "22045", "country": "DE", "state": "HH", "display_address": ["Sch\u00f6neberger Str. 20", "22045 Hamburg", "Germany"]}, "phone": "+494052388700", "display_phone": "+49 40 52388700", "distance": 2811.4304398231843}, {"id": "1qV1Wz2aohC6Rp-CZPGRVg", "alias": "berne-kebap-haus-hamburg", "name": "Berne Kebap Haus", "image_url": "https://s3-media4.fl.yelpcdn.com/bphoto/bpsRMMVl8g8lAmfmV5YO9g/o.jpg", "is_closed": false, "url": "https://www.yelp.com/biz/berne-kebap-haus-hamburg?adjust_creative=hBJOknVQJ58S5goQyjmwRw&utm_campaign=yelp_api_v3&utm_medium=api_v3_business_search&utm_source=hBJOknVQJ58S5goQyjmwRw", "review_count": 1, "categories": [{"alias": "kebab", "title": "Kebab"}], "rating": 5.0, "coordinates": {"latitude": 53.6252153896313, "longitude": 10.1390706002712}, "transactions": [], "price": "\u20ac", "location": {"address1": "Hermann-Balk-Str. 117", "address2": "", "address3": null, "city": "Hamburg", "zip_code": "22147", "country": "DE", "state": "HH", "display_address": ["Hermann-Balk-Str. 117", "22147 Hamburg", "Germany"]}, "phone": "+494032843723", "display_phone": "+49 40 32843723", "distance": 2031.403385835051}, {"id": "yYwGm74NMQzZOS179rAIyg", "alias": "tunicis-restaurant-dubrovnik-hamburg-8", "name": "Tunici's Restaurant Dubrovnik", "image_url": "https://s3-media4.fl.yelpcdn.com/bphoto/zlt-f8RcuTk_ZBTqSBTIhQ/o.jpg", "is_closed": false, "url": "https://www.yelp.com/biz/tunicis-restaurant-dubrovnik-hamburg-8?adjust_creative=hBJOknVQJ58S5goQyjmwRw&utm_campaign=yelp_api_v3&utm_medium=api_v3_business_search&utm_source=hBJOknVQJ58S5goQyjmwRw", "review_count": 9, "categories": [{"alias": "serbocroatian", "title": "Serbo Croatian"}], "rating": 4.0, "coordinates": {"latitude": 53.5690861, "longitude": 10.1481019}, "transactions": [], "price": "\u20ac\u20ac", "location": {"address1": "Holsteiner Tor 2", "address2": "", "address3": "", "city": "Hamburg", "zip_code": "22043", "country": "DE", "state": "HH", "display_address": ["Holsteiner Tor 2", "22043 Hamburg", "Germany"]}, "phone": "+494053034944", "display_phone": "+49 40 53034944", "distance": 4369.240499359296}, {"id": "Dcf5kwdsqjvnsa70xtC1kg", "alias": "gastst\u00e4tte-le-rustique-hamburg", "name": "Gastst\u00e4tte Le Rustique", "image_url": "https://s3-media1.fl.yelpcdn.com/bphoto/GLrrwqVrMl8vAAzjKmYATA/o.jpg", "is_closed": false, "url": "https://www.yelp.com/biz/gastst%C3%A4tte-le-rustique-hamburg?adjust_creative=hBJOknVQJ58S5goQyjmwRw&utm_campaign=yelp_api_v3&utm_medium=api_v3_business_search&utm_source=hBJOknVQJ58S5goQyjmwRw", "review_count": 18, "categories": [{"alias": "international", "title": "International"}], "rating": 4.0, "coordinates": {"latitude": 53.64971, "longitude": 10.16393}, "transactions": [], "price": "\u20ac\u20ac", "location": {"address1": "Claus-Ferck-Str. 14", "address2": null, "address3": null, "city": "Hamburg", "zip_code": "22359", "country": "DE", "state": "HH", "display_address": ["Claus-Ferck-Str. 14", "22359 Hamburg", "Germany"]}, "phone": "+49406036851", "display_phone": "+49 40 6036851", "distance": 4692.11593331768}, {"id": "RbgazphzWysS4xHd-TU1Bg", "alias": "filmkantine-hamburg", "name": "Filmkantine", "image_url": "https://s3-media2.fl.yelpcdn.com/bphoto/0i1NzGhMcO-WIwsKXppxhQ/o.jpg", "is_closed": false, "url": "https://www.yelp.com/biz/filmkantine-hamburg?adjust_creative=hBJOknVQJ58S5goQyjmwRw&utm_campaign=yelp_api_v3&utm_medium=api_v3_business_search&utm_source=hBJOknVQJ58S5goQyjmwRw", "review_count": 6, "categories": [{"alias": "canteen", "title": "Canteen"}], "rating": 3.5, "coordinates": {"latitude": 53.586, "longitude": 10.1269}, "transactions": [], "price": "\u20ac\u20ac\u20ac", "location": {"address1": "Studio Hamburg", "address2": "Jenfelder Allee 80", "address3": null, "city": "Hamburg", "zip_code": "22039", "country": "DE", "state": "HH", "display_address": ["Studio Hamburg", "Jenfelder Allee 80", "22039 Hamburg", "Germany"]}, "phone": "+4966885310", "display_phone": "+49 6688 5310", "distance": 2946.0316206134953}, {"id": "HGRU7GpWZzUNXHFZySx0Pg", "alias": "le-qu\u00e1n-hamburg-6", "name": "Le Qu\u00e1n", "image_url": "https://s3-media2.fl.yelpcdn.com/bphoto/vvREouObluQmMvIQVl-3gw/o.jpg", "is_closed": false, "url": "https://www.yelp.com/biz/le-qu%C3%A1n-hamburg-6?adjust_creative=hBJOknVQJ58S5goQyjmwRw&utm_campaign=yelp_api_v3&utm_medium=api_v3_business_search&utm_source=hBJOknVQJ58S5goQyjmwRw", "review_count": 5, "categories": [{"alias": "vietnamese", "title": "Vietnamese"}], "rating": 3.5, "coordinates": {"latitude": 53.648544, "longitude": 10.165218}, "transactions": [], "price": "\u20ac\u20ac", "location": {"address1": "Im Alten Dorfe 24", "address2": "", "address3": null, "city": "Hamburg", "zip_code": "22359", "country": "DE", "state": "HH", "display_address": ["Im Alten Dorfe 24", "22359 Hamburg", "Germany"]}, "phone": "+494064532657", "display_phone": "+49 40 64532657", "distance": 4568.724673209908}, {"id": "ciJqgCeUUG0U0DJMSJFfUA", "alias": "ristorante-italia-hamburg-2", "name": "Ristorante Italia", "image_url": "https://s3-media3.fl.yelpcdn.com/bphoto/ATtLebNmvMdhDCYYO_Bxgw/o.jpg", "is_closed": false, "url": "https://www.yelp.com/biz/ristorante-italia-hamburg-2?adjust_creative=hBJOknVQJ58S5goQyjmwRw&utm_campaign=yelp_api_v3&utm_medium=api_v3_business_search&utm_source=hBJOknVQJ58S5goQyjmwRw", "review_count": 21, "categories": [{"alias": "italian", "title": "Italian"}], "rating": 3.5, "coordinates": {"latitude": 53.64922, "longitude": 10.1678}, "transactions": [], "price": "\u20ac\u20ac", "location": {"address1": "Im Alten Dorfe 40", "address2": null, "address3": null, "city": "Hamburg", "zip_code": "22359", "country": "DE", "state": "HH", "display_address": ["Im Alten Dorfe 40", "22359 Hamburg", "Germany"]}, "phone": "+49406034042", "display_phone": "+49 40 6034042", "distance": 4683.651426254}, {"id": "gHkp_3gVMlfUi3ioBkPyig", "alias": "atelier-gourmand-hamburg", "name": "Atelier Gourmand", "image_url": "https://s3-media4.fl.yelpcdn.com/bphoto/WOcLkUV0kCv53cWf1SlKug/o.jpg", "is_closed": false, "url": "https://www.yelp.com/biz/atelier-gourmand-hamburg?adjust_creative=hBJOknVQJ58S5goQyjmwRw&utm_campaign=yelp_api_v3&utm_medium=api_v3_business_search&utm_source=hBJOknVQJ58S5goQyjmwRw", "review_count": 3, "categories": [{"alias": "creperies", "title": "Creperies"}, {"alias": "cafes", "title": "Cafes"}, {"alias": "icecream", "title": "Ice Cream & Frozen Yogurt"}], "rating": 4.5, "coordinates": {"latitude": 53.6494770873162, "longitude": 10.1634323693115}, "transactions": [], "price": "\u20ac", "location": {"address1": "Claus-Ferck-Str. 10", "address2": "", "address3": "", "city": "Hamburg", "zip_code": "22359", "country": "DE", "state": "HH", "display_address": ["Claus-Ferck-Str. 10", "22359 Hamburg", "Germany"]}, "phone": "+494060442988", "display_phone": "+49 40 60442988", "distance": 4647.890347276475}, {"id": "Ct8p-l9z7Irdh6DK6ujlkg", "alias": "smileys-hamburg", "name": "Smiley's", "image_url": "https://s3-media4.fl.yelpcdn.com/bphoto/ZeAhxSEvejN5QMK3EBRGjA/o.jpg", "is_closed": false, "url": "https://www.yelp.com/biz/smileys-hamburg?adjust_creative=hBJOknVQJ58S5goQyjmwRw&utm_campaign=yelp_api_v3&utm_medium=api_v3_business_search&utm_source=hBJOknVQJ58S5goQyjmwRw", "review_count": 23, "categories": [{"alias": "pizza", "title": "Pizza"}], "rating": 3.5, "coordinates": {"latitude": 53.60262, "longitude": 10.1291}, "transactions": [], "price": "\u20ac\u20ac", "location": {"address1": "Alter Zollweg 192", "address2": null, "address3": null, "city": "Hamburg", "zip_code": "22147", "country": "DE", "state": "HH", "display_address": ["Alter Zollweg 192", "22147 Hamburg", "Germany"]}, "phone": "+494064539560", "display_phone": "+49 40 64539560", "distance": 1509.9707176595207}, {"id": "BL-u2e43zzO4lPtZvN-eWg", "alias": "schelles-imbiss-hamburg", "name": "Schelle's Imbiss", "image_url": "https://s3-media2.fl.yelpcdn.com/bphoto/Ux7xJWMsxPKJbRB_i72dHg/o.jpg", "is_closed": false, "url": "https://www.yelp.com/biz/schelles-imbiss-hamburg?adjust_creative=hBJOknVQJ58S5goQyjmwRw&utm_campaign=yelp_api_v3&utm_medium=api_v3_business_search&utm_source=hBJOknVQJ58S5goQyjmwRw", "review_count": 6, "categories": [{"alias": "hotdogs", "title": "Fast Food"}], "rating": 4.0, "coordinates": {"latitude": 53.6219, "longitude": 10.1548}, "transactions": [], "price": "\u20ac", "location": {"address1": "Bargkoppelweg 56", "address2": null, "address3": null, "city": "Hamburg", "zip_code": "22145", "country": "DE", "state": "HH", "display_address": ["Bargkoppelweg 56", "22145 Hamburg", "Germany"]}, "phone": "", "display_phone": "", "distance": 1529.1925839941716}, {"id": "BnU3fJl_W0xfbLbUxy8JNQ", "alias": "schweinske-hamburg-21", "name": "Schweinske", "image_url": "https://s3-media2.fl.yelpcdn.com/bphoto/ZhfgHKFDPyXMIC0OBZzg7g/o.jpg", "is_closed": false, "url": "https://www.yelp.com/biz/schweinske-hamburg-21?adjust_creative=hBJOknVQJ58S5goQyjmwRw&utm_campaign=yelp_api_v3&utm_medium=api_v3_business_search&utm_source=hBJOknVQJ58S5goQyjmwRw", "review_count": 36, "categories": [{"alias": "german", "title": "German"}, {"alias": "breakfast_brunch", "title": "Breakfast & Brunch"}], "rating": 3.0, "coordinates": {"latitude": 53.6046159, "longitude": 10.1591506}, "transactions": [], "price": "\u20ac\u20ac", "location": {"address1": "Schweriner Str. 8 - 12", "address2": "", "address3": "", "city": "Hamburg", "zip_code": "22143", "country": "DE", "state": "HH", "display_address": ["Schweriner Str. 8 - 12", "22143 Hamburg", "Germany"]}, "phone": "+494067584422", "display_phone": "+49 40 67584422", "distance": 684.9109176980579}, {"id": "nNbSvvMMKcvhIioI8bkMCw", "alias": "yummy-deli-hamburg", "name": "Yummy Deli", "image_url": "", "is_closed": false, "url": "https://www.yelp.com/biz/yummy-deli-hamburg?adjust_creative=hBJOknVQJ58S5goQyjmwRw&utm_campaign=yelp_api_v3&utm_medium=api_v3_business_search&utm_source=hBJOknVQJ58S5goQyjmwRw", "review_count": 3, "categories": [{"alias": "vietnamese", "title": "Vietnamese"}, {"alias": "sushi", "title": "Sushi Bars"}], "rating": 3.5, "coordinates": {"latitude": 53.586710289306, "longitude": 10.125789642334}, "transactions": [], "location": {"address1": "Tonndorfer Hauptstr. 69 - 71", "address2": "", "address3": "Im Rewe Center", "city": "Hamburg", "zip_code": "22045", "country": "DE", "state": "HH", "display_address": ["Tonndorfer Hauptstr. 69 - 71", "Im Rewe Center", "22045 Hamburg", "Germany"]}, "phone": "+494018230060", "display_phone": "+49 40 18230060", "distance": 2920.64353483526}, {"id": "aIUJZyGJvftjDPuVqYqW9Q", "alias": "china-restaurant-china-town-barsb\u00fcttel", "name": "China-Restaurant China-Town", "image_url": "", "is_closed": false, "url": "https://www.yelp.com/biz/china-restaurant-china-town-barsb%C3%BCttel?adjust_creative=hBJOknVQJ58S5goQyjmwRw&utm_campaign=yelp_api_v3&utm_medium=api_v3_business_search&utm_source=hBJOknVQJ58S5goQyjmwRw", "review_count": 10, "categories": [{"alias": "chinese", "title": "Chinese"}], "rating": 3.5, "coordinates": {"latitude": 53.568716, "longitude": 10.170994}, "transactions": [], "price": "\u20ac\u20ac\u20ac", "location": {"address1": "Willinghusener Landstr. 18", "address2": null, "address3": null, "city": "Barsb\u00fcttel", "zip_code": "22885", "country": "DE", "state": "SH", "display_address": ["Willinghusener Landstr. 18", "22885 Barsb\u00fcttel", "Germany"]}, "phone": "+49406703677", "display_phone": "+49 40 6703677", "distance": 4602.016838187322}, {"id": "_KEs5iyxsJzhE6dmiur-_Q", "alias": "corfu-grill-hamburg-6", "name": "Corfu Grill", "image_url": "https://s3-media1.fl.yelpcdn.com/bphoto/PjW1pXfqtgldYbIZW1EB3A/o.jpg", "is_closed": false, "url": "https://www.yelp.com/biz/corfu-grill-hamburg-6?adjust_creative=hBJOknVQJ58S5goQyjmwRw&utm_campaign=yelp_api_v3&utm_medium=api_v3_business_search&utm_source=hBJOknVQJ58S5goQyjmwRw", "review_count": 14, "categories": [{"alias": "greek", "title": "Greek"}, {"alias": "hotdogs", "title": "Fast Food"}], "rating": 3.5, "coordinates": {"latitude": 53.6034816, "longitude": 10.1304022}, "transactions": [], "price": "\u20ac\u20ac\u20ac", "location": {"address1": "Alter Zollweg 197", "address2": "", "address3": "", "city": "Hamburg", "zip_code": "22147", "country": "DE", "state": "HH", "display_address": ["Alter Zollweg 197", "22147 Hamburg", "Germany"]}, "phone": "+49406470946", "display_phone": "+49 40 6470946", "distance": 1455.7232024230589}, {"id": "DMrcITnMvwtK9UQQuQ_lVw", "alias": "crazy-kebab-hamburg", "name": "Crazy Kebab", "image_url": "", "is_closed": false, "url": "https://www.yelp.com/biz/crazy-kebab-hamburg?adjust_creative=hBJOknVQJ58S5goQyjmwRw&utm_campaign=yelp_api_v3&utm_medium=api_v3_business_search&utm_source=hBJOknVQJ58S5goQyjmwRw", "review_count": 1, "categories": [{"alias": "kebab", "title": "Kebab"}], "rating": 4.0, "coordinates": {"latitude": 53.627943, "longitude": 10.167453}, "transactions": [], "location": {"address1": "Spitzbergenweg 34 f", "address2": "", "address3": "", "city": "Hamburg", "zip_code": "22145", "country": "DE", "state": "HH", "display_address": ["Spitzbergenweg 34 f", "22145 Hamburg", "Germany"]}, "phone": "+4915205270901", "display_phone": "+49 1520 5270901", "distance": 2408.100440552199}, {"id": "oj5pmfBRQjrqELlYgh8VQw", "alias": "zenthai-hamburg-5", "name": "Zenthai", "image_url": "https://s3-media1.fl.yelpcdn.com/bphoto/cuSqnTvLsBJUzL8nLxdukg/o.jpg", "is_closed": false, "url": "https://www.yelp.com/biz/zenthai-hamburg-5?adjust_creative=hBJOknVQJ58S5goQyjmwRw&utm_campaign=yelp_api_v3&utm_medium=api_v3_business_search&utm_source=hBJOknVQJ58S5goQyjmwRw", "review_count": 12, "categories": [{"alias": "panasian", "title": "Pan Asian"}], "rating": 3.5, "coordinates": {"latitude": 53.6048, "longitude": 10.1578}, "transactions": [], "price": "\u20ac", "location": {"address1": "Wariner Weg 1", "address2": "", "address3": "", "city": "Hamburg", "zip_code": "22143", "country": "DE", "state": "HH", "display_address": ["Wariner Weg 1", "22143 Hamburg", "Germany"]}, "phone": "+494067105239", "display_phone": "+49 40 67105239", "distance": 602.7725452389584}, {"id": "CAsdxz7NDDTmobcMTR9adQ", "alias": "peters-h\u00e4hnchen-grill-hamburg-2", "name": "Peter's H\u00e4hnchen Grill", "image_url": "https://s3-media2.fl.yelpcdn.com/bphoto/bCTklMfBHdjSSHRJaPG7Jg/o.jpg", "is_closed": false, "url": "https://www.yelp.com/biz/peters-h%C3%A4hnchen-grill-hamburg-2?adjust_creative=hBJOknVQJ58S5goQyjmwRw&utm_campaign=yelp_api_v3&utm_medium=api_v3_business_search&utm_source=hBJOknVQJ58S5goQyjmwRw", "review_count": 14, "categories": [{"alias": "hotdogs", "title": "Fast Food"}], "rating": 2.0, "coordinates": {"latitude": 53.58432, "longitude": 10.14268}, "transactions": [], "price": "\u20ac\u20ac", "location": {"address1": "Berliner Platz 19", "address2": "", "address3": null, "city": "Hamburg", "zip_code": "22045", "country": "DE", "state": "HH", "display_address": ["Berliner Platz 19", "22045 Hamburg", "Germany"]}, "phone": "+49406533121", "display_phone": "+49 40 6533121", "distance": 2731.2082614818546}, {"id": "XAYxj7jgDCYCHeeeW6EZpA", "alias": "leandros-hamburg", "name": "Leandros", "image_url": "https://s3-media2.fl.yelpcdn.com/bphoto/uvaiNTyOECCTTC-0czXxKg/o.jpg", "is_closed": false, "url": "https://www.yelp.com/biz/leandros-hamburg?adjust_creative=hBJOknVQJ58S5goQyjmwRw&utm_campaign=yelp_api_v3&utm_medium=api_v3_business_search&utm_source=hBJOknVQJ58S5goQyjmwRw", "review_count": 7, "categories": [{"alias": "greek", "title": "Greek"}], "rating": 2.5, "coordinates": {"latitude": 53.6427, "longitude": 10.12886}, "transactions": [], "price": "\u20ac\u20ac\u20ac", "location": {"address1": "Meiendorfer M\u00fchlenweg 35", "address2": "", "address3": null, "city": "Hamburg", "zip_code": "22393", "country": "DE", "state": "HH", "display_address": ["Meiendorfer M\u00fchlenweg 35", "22393 Hamburg", "Germany"]}, "phone": "+494049207616", "display_phone": "+49 40 49207616", "distance": 3905.0882565414618}, {"id": "FNX8Da9zS2soVlmTYnDobQ", "alias": "de-fries-express-hamburg-3", "name": "de Fries Express", "image_url": "https://s3-media3.fl.yelpcdn.com/bphoto/eCMlAK1i79t6mK3wrx9ZSA/o.jpg", "is_closed": false, "url": "https://www.yelp.com/biz/de-fries-express-hamburg-3?adjust_creative=hBJOknVQJ58S5goQyjmwRw&utm_campaign=yelp_api_v3&utm_medium=api_v3_business_search&utm_source=hBJOknVQJ58S5goQyjmwRw", "review_count": 24, "categories": [{"alias": "foodstands", "title": "Food Stands"}, {"alias": "hotdogs", "title": "Fast Food"}], "rating": 4.5, "coordinates": {"latitude": 53.64919, "longitude": 10.16395}, "transactions": [], "price": "\u20ac", "location": {"address1": "Claus-Ferck-Str. 6", "address2": "", "address3": "", "city": "Hamburg", "zip_code": "22359", "country": "DE", "state": "HH", "display_address": ["Claus-Ferck-Str. 6", "22359 Hamburg", "Germany"]}, "phone": "+494060951366", "display_phone": "+49 40 60951366", "distance": 4626.292493830096}, {"id": "bk2qiPr9VurFqhpSBY8uoA", "alias": "hamers-hamburg", "name": "Hamer's", "image_url": "https://s3-media2.fl.yelpcdn.com/bphoto/mKbkUqobN8q_Ke-gSrSVXw/o.jpg", "is_closed": false, "url": "https://www.yelp.com/biz/hamers-hamburg?adjust_creative=hBJOknVQJ58S5goQyjmwRw&utm_campaign=yelp_api_v3&utm_medium=api_v3_business_search&utm_source=hBJOknVQJ58S5goQyjmwRw", "review_count": 2, "categories": [{"alias": "cafes", "title": "Cafes"}], "rating": 2.5, "coordinates": {"latitude": 53.649061, "longitude": 10.164155}, "transactions": [], "price": "\u20ac", "location": {"address1": "Claus-Ferck-Str. 4", "address2": null, "address3": "", "city": "Hamburg", "zip_code": "22359", "country": "DE", "state": "HH", "display_address": ["Claus-Ferck-Str. 4", "22359 Hamburg", "Germany"]}, "phone": "+494030740830", "display_phone": "+49 40 30740830", "distance": 4611.172870914451}, {"id": "2jzIbZsfzca5drJYk7JwbQ", "alias": "the-bao-bros-hamburg-2", "name": "The Bao Bros", "image_url": "https://s3-media1.fl.yelpcdn.com/bphoto/vUMA4Y35x3UwZk6fMJfZRw/o.jpg", "is_closed": false, "url": "https://www.yelp.com/biz/the-bao-bros-hamburg-2?adjust_creative=hBJOknVQJ58S5goQyjmwRw&utm_campaign=yelp_api_v3&utm_medium=api_v3_business_search&utm_source=hBJOknVQJ58S5goQyjmwRw", "review_count": 2, "categories": [{"alias": "foodtrucks", "title": "Food Trucks"}, {"alias": "burgers", "title": "Burgers"}], "rating": 4.0, "coordinates": {"latitude": 53.5533409118652, "longitude": 9.99246978759766}, "transactions": [], "price": "\u20ac", "location": {"address1": "", "address2": "", "address3": "", "city": "Hamburg", "zip_code": "", "country": "DE", "state": "HH", "display_address": ["Hamburg", "Germany"]}, "phone": "+4915140700076", "display_phone": "+49 1514 0700076", "distance": 12175.666523434711}, {"id": "APvIA_7ssxgC0atmQEFMcg", "alias": "burgerkultour-food-truck-hamburg-2", "name": "BurgerKultour Food Truck", "image_url": "https://s3-media4.fl.yelpcdn.com/bphoto/KoAuwalMnlAO8139MmdYBQ/o.jpg", "is_closed": false, "url": "https://www.yelp.com/biz/burgerkultour-food-truck-hamburg-2?adjust_creative=hBJOknVQJ58S5goQyjmwRw&utm_campaign=yelp_api_v3&utm_medium=api_v3_business_search&utm_source=hBJOknVQJ58S5goQyjmwRw", "review_count": 3, "categories": [{"alias": "foodtrucks", "title": "Food Trucks"}, {"alias": "burgers", "title": "Burgers"}], "rating": 4.5, "coordinates": {"latitude": 53.57154, "longitude": 9.95575}, "transactions": [], "price": "\u20ac\u20ac", "location": {"address1": "", "address2": "", "address3": "", "city": "Hamburg", "zip_code": "20259", "country": "DE", "state": "HH", "display_address": ["20259 Hamburg", "Germany"]}, "phone": "+4917626055122", "display_phone": "+49 176 26055122", "distance": 13494.93951466019}, {"id": "n_Yio-a9VzssOtDbgezpRA", "alias": "subu-sushi-burrito-hamburg-3", "name": "Subu Sushi Burrito", "image_url": "https://s3-media3.fl.yelpcdn.com/bphoto/x2oh5mzvkzvrXjswE_MjXQ/o.jpg", "is_closed": false, "url": "https://www.yelp.com/biz/subu-sushi-burrito-hamburg-3?adjust_creative=hBJOknVQJ58S5goQyjmwRw&utm_campaign=yelp_api_v3&utm_medium=api_v3_business_search&utm_source=hBJOknVQJ58S5goQyjmwRw", "review_count": 3, "categories": [{"alias": "foodtrucks", "title": "Food Trucks"}, {"alias": "sushi", "title": "Sushi Bars"}], "rating": 5.0, "coordinates": {"latitude": 53.5526819869811, "longitude": 10.0010880455375}, "transactions": [], "price": "\u20ac", "location": {"address1": "", "address2": "", "address3": "", "city": "Hamburg", "zip_code": "", "country": "DE", "state": "HH", "display_address": ["Hamburg", "Germany"]}, "phone": "+4917670834316", "display_phone": "+49 176 70834316", "distance": 11666.33394598203}, {"id": "hsO_CX7RKshbcl1B-WRiUQ", "alias": "fischhaus-volksdorf-hamburg", "name": "Fischhaus Volksdorf", "image_url": "https://s3-media2.fl.yelpcdn.com/bphoto/W2_U5l3vXS6bQyO6FYqXig/o.jpg", "is_closed": false, "url": "https://www.yelp.com/biz/fischhaus-volksdorf-hamburg?adjust_creative=hBJOknVQJ58S5goQyjmwRw&utm_campaign=yelp_api_v3&utm_medium=api_v3_business_search&utm_source=hBJOknVQJ58S5goQyjmwRw", "review_count": 5, "categories": [{"alias": "seafoodmarkets", "title": "Seafood Markets"}, {"alias": "bistros", "title": "Bistros"}], "rating": 4.0, "coordinates": {"latitude": 53.64923, "longitude": 10.16645}, "transactions": [], "price": "\u20ac", "location": {"address1": "Dorfwinkel 4-6", "address2": null, "address3": null, "city": "Hamburg", "zip_code": "22359", "country": "DE", "state": "HH", "display_address": ["Dorfwinkel 4-6", "22359 Hamburg", "Germany"]}, "phone": "+49406032018", "display_phone": "+49 40 6032018", "distance": 4666.377826161502}, {"id": "FcY_keScM6glMY9XkSzYqA", "alias": "die-villa-wiener-kaffeehaus-hamburg", "name": "Die Villa - Wiener Kaffeehaus", "image_url": "https://s3-media2.fl.yelpcdn.com/bphoto/sbmQ_n00mxSp73REyvCzbw/o.jpg", "is_closed": false, "url": "https://www.yelp.com/biz/die-villa-wiener-kaffeehaus-hamburg?adjust_creative=hBJOknVQJ58S5goQyjmwRw&utm_campaign=yelp_api_v3&utm_medium=api_v3_business_search&utm_source=hBJOknVQJ58S5goQyjmwRw", "review_count": 17, "categories": [{"alias": "cafes", "title": "Cafes"}], "rating": 3.5, "coordinates": {"latitude": 53.64847, "longitude": 10.166}, "transactions": [], "price": "\u20ac\u20ac", "location": {"address1": "Ohlendorff'sche Villa", "address2": "Im Alten Dorfe 28", "address3": "", "city": "Hamburg", "zip_code": "22359", "country": "DE", "state": "HH", "display_address": ["Ohlendorff'sche Villa", "Im Alten Dorfe 28", "22359 Hamburg", "Germany"]}, "phone": "+49406032558", "display_phone": "+49 40 6032558", "distance": 4569.4329304501325}, {"id": "UpKUUfX-1rNcTiUdrg572Q", "alias": "restaurant-dubrovnik-barsb\u00fcttel", "name": "Restaurant Dubrovnik", "image_url": "https://s3-media2.fl.yelpcdn.com/bphoto/Xy_hh92yz7f-Iu7zSU8LJg/o.jpg", "is_closed": false, "url": "https://www.yelp.com/biz/restaurant-dubrovnik-barsb%C3%BCttel?adjust_creative=hBJOknVQJ58S5goQyjmwRw&utm_campaign=yelp_api_v3&utm_medium=api_v3_business_search&utm_source=hBJOknVQJ58S5goQyjmwRw", "review_count": 11, "categories": [{"alias": "serbocroatian", "title": "Serbo Croatian"}], "rating": 3.5, "coordinates": {"latitude": 53.5686, "longitude": 10.1744}, "transactions": [], "price": "\u20ac\u20ac", "location": {"address1": "Buchenstr. 1", "address2": null, "address3": null, "city": "Barsb\u00fcttel", "zip_code": "22885", "country": "DE", "state": "SH", "display_address": ["Buchenstr. 1", "22885 Barsb\u00fcttel", "Germany"]}, "phone": "+494097074211", "display_phone": "+49 40 97074211", "distance": 4683.974064734696}, {"id": "A8N57ICSJD8o7yw5XrY9Gg", "alias": "zum-\u00f6sterreicher-hamburg", "name": "Zum \u00d6sterreicher", "image_url": "https://s3-media1.fl.yelpcdn.com/bphoto/s8GD9zEsmwMJcwUt1gfYig/o.jpg", "is_closed": false, "url": "https://www.yelp.com/biz/zum-%C3%B6sterreicher-hamburg?adjust_creative=hBJOknVQJ58S5goQyjmwRw&utm_campaign=yelp_api_v3&utm_medium=api_v3_business_search&utm_source=hBJOknVQJ58S5goQyjmwRw", "review_count": 20, "categories": [{"alias": "austrian", "title": "Austrian"}], "rating": 3.0, "coordinates": {"latitude": 53.5704, "longitude": 10.1432}, "transactions": [], "price": "\u20ac\u20ac", "location": {"address1": "Barsb\u00fctteler Str. 43", "address2": null, "address3": null, "city": "Hamburg", "zip_code": "22043", "country": "DE", "state": "HH", "display_address": ["Barsb\u00fctteler Str. 43", "22043 Hamburg", "Germany"]}, "phone": "+49406545362", "display_phone": "+49 40 6545362", "distance": 4249.671504447307}, {"id": "GAr3zXBkM2Nevra3ynvanA", "alias": "mcdonalds-hamburg-47", "name": "McDonald's", "image_url": "https://s3-media2.fl.yelpcdn.com/bphoto/L2HglFM6lp7VrexwqSLaYw/o.jpg", "is_closed": false, "url": "https://www.yelp.com/biz/mcdonalds-hamburg-47?adjust_creative=hBJOknVQJ58S5goQyjmwRw&utm_campaign=yelp_api_v3&utm_medium=api_v3_business_search&utm_source=hBJOknVQJ58S5goQyjmwRw", "review_count": 2, "categories": [{"alias": "burgers", "title": "Burgers"}, {"alias": "hotdogs", "title": "Fast Food"}], "rating": 4.0, "coordinates": {"latitude": 53.6044046711992, "longitude": 10.1541911744995}, "transactions": [], "price": "\u20ac", "location": {"address1": "Helmut-Steidl-Platz 5", "address2": "", "address3": "", "city": "Hamburg", "zip_code": "22143", "country": "DE", "state": "HH", "display_address": ["Helmut-Steidl-Platz 5", "22143 Hamburg", "Germany"]}, "phone": "+494066851611", "display_phone": "+49 40 66851611", "distance": 489.3409861267477}, {"id": "57LCrGUEZ8tfhIu1x3iuUA", "alias": "super-fly-pizza-hamburg", "name": "Super Fly Pizza", "image_url": "https://s3-media1.fl.yelpcdn.com/bphoto/AKSSAI-k-ym8RnvK10ZC3g/o.jpg", "is_closed": false, "url": "https://www.yelp.com/biz/super-fly-pizza-hamburg?adjust_creative=hBJOknVQJ58S5goQyjmwRw&utm_campaign=yelp_api_v3&utm_medium=api_v3_business_search&utm_source=hBJOknVQJ58S5goQyjmwRw", "review_count": 2, "categories": [{"alias": "international", "title": "International"}], "rating": 2.5, "coordinates": {"latitude": 53.59565, "longitude": 10.15009}, "transactions": [], "location": {"address1": "Rahlstedter Str. 63", "address2": null, "address3": null, "city": "Hamburg", "zip_code": "22149", "country": "DE", "state": "HH", "display_address": ["Rahlstedter Str. 63", "22149 Hamburg", "Germany"]}, "phone": "+49406724594", "display_phone": "+49 40 6724594", "distance": 1412.583147260588}, {"id": "Z9ed1JBXupt9ULdZXNRbNg", "alias": "asialong-hamburg", "name": "asialong", "image_url": "", "is_closed": false, "url": "https://www.yelp.com/biz/asialong-hamburg?adjust_creative=hBJOknVQJ58S5goQyjmwRw&utm_campaign=yelp_api_v3&utm_medium=api_v3_business_search&utm_source=hBJOknVQJ58S5goQyjmwRw", "review_count": 4, "categories": [{"alias": "vietnamese", "title": "Vietnamese"}, {"alias": "panasian", "title": "Pan Asian"}], "rating": 3.5, "coordinates": {"latitude": 53.6000801166592, "longitude": 10.1389519202378}, "transactions": [], "location": {"address1": "Scharbeutzer Str. 85", "address2": null, "address3": "", "city": "Hamburg", "zip_code": "22147", "country": "DE", "state": "HH", "display_address": ["Scharbeutzer Str. 85", "22147 Hamburg", "Germany"]}, "phone": "+494088187329", "display_phone": "+49 40 88187329", "distance": 1210.2591469370789}, {"id": "rVH0jMvK1fmqnssif1buPQ", "alias": "backparadies-hornung-barsb\u00fcttel", "name": "Backparadies Hornung", "image_url": "https://s3-media1.fl.yelpcdn.com/bphoto/CCyhElpkoLsR8UCV6MwTOg/o.jpg", "is_closed": false, "url": "https://www.yelp.com/biz/backparadies-hornung-barsb%C3%BCttel?adjust_creative=hBJOknVQJ58S5goQyjmwRw&utm_campaign=yelp_api_v3&utm_medium=api_v3_business_search&utm_source=hBJOknVQJ58S5goQyjmwRw", "review_count": 4, "categories": [{"alias": "bakeries", "title": "Bakeries"}, {"alias": "restaurants", "title": "Restaurants"}], "rating": 4.5, "coordinates": {"latitude": 53.5692, "longitude": 10.1654}, "transactions": [], "price": "\u20ac\u20ac", "location": {"address1": "Barsb\u00fctteler Hof 2", "address2": null, "address3": null, "city": "Barsb\u00fcttel", "zip_code": "22885", "country": "DE", "state": "SH", "display_address": ["Barsb\u00fctteler Hof 2", "22885 Barsb\u00fcttel", "Germany"]}, "phone": "+49406704164", "display_phone": "+49 40 6704164", "distance": 4456.848886726461}, {"id": "SeodQIjOcsrznD7rwIB-Jw", "alias": "the-big-balmy-hamburg-2", "name": "The Big Balmy", "image_url": "https://s3-media2.fl.yelpcdn.com/bphoto/KWUCQvGDONs_iDxlKXzgvQ/o.jpg", "is_closed": false, "url": "https://www.yelp.com/biz/the-big-balmy-hamburg-2?adjust_creative=hBJOknVQJ58S5goQyjmwRw&utm_campaign=yelp_api_v3&utm_medium=api_v3_business_search&utm_source=hBJOknVQJ58S5goQyjmwRw", "review_count": 27, "categories": [{"alias": "burgers", "title": "Burgers"}, {"alias": "foodtrucks", "title": "Food Trucks"}], "rating": 3.5, "coordinates": {"latitude": 53.537786, "longitude": 10.028218}, "transactions": [], "price": "\u20ac\u20ac", "location": {"address1": "", "address2": null, "address3": null, "city": "Hamburg", "zip_code": "", "country": "DE", "state": "HH", "display_address": ["Hamburg", "Germany"]}, "phone": "+494069278630", "display_phone": "+49 40 69278630", "distance": 11276.465850277551}, {"id": "vSymknDtUzXUuaIthyyr3w", "alias": "mega-d\u00f6ner-hamburg-2", "name": "Mega D\u00f6ner", "image_url": "https://s3-media2.fl.yelpcdn.com/bphoto/Jk3yRhsjWPCjXqus-ua5oA/o.jpg", "is_closed": false, "url": "https://www.yelp.com/biz/mega-d%C3%B6ner-hamburg-2?adjust_creative=hBJOknVQJ58S5goQyjmwRw&utm_campaign=yelp_api_v3&utm_medium=api_v3_business_search&utm_source=hBJOknVQJ58S5goQyjmwRw", "review_count": 14, "categories": [{"alias": "kebab", "title": "Kebab"}], "rating": 3.5, "coordinates": {"latitude": 53.6502, "longitude": 10.16274}, "transactions": [], "price": "\u20ac", "location": {"address1": "Farmsener Landstr. 195", "address2": "", "address3": "", "city": "Hamburg", "zip_code": "22359", "country": "DE", "state": "HH", "display_address": ["Farmsener Landstr. 195", "22359 Hamburg", "Germany"]}, "phone": "", "display_phone": "", "distance": 4749.427819089977}, {"id": "vrlAmOoaKTGM_b4_FMaRdQ", "alias": "h\u00e4hnchen-grill-hamburg", "name": "H\u00e4hnchen Grill", "image_url": "https://s3-media2.fl.yelpcdn.com/bphoto/vAQnrItTD_GSC9Xj0rNbEg/o.jpg", "is_closed": false, "url": "https://www.yelp.com/biz/h%C3%A4hnchen-grill-hamburg?adjust_creative=hBJOknVQJ58S5goQyjmwRw&utm_campaign=yelp_api_v3&utm_medium=api_v3_business_search&utm_source=hBJOknVQJ58S5goQyjmwRw", "review_count": 4, "categories": [{"alias": "hotdogs", "title": "Fast Food"}, {"alias": "kebab", "title": "Kebab"}], "rating": 3.5, "coordinates": {"latitude": 53.5726, "longitude": 10.1362}, "transactions": [], "location": {"address1": "Bei den H\u00f6fen 82", "address2": null, "address3": null, "city": "Hamburg", "zip_code": "22043", "country": "DE", "state": "HH", "display_address": ["Bei den H\u00f6fen 82", "22043 Hamburg", "Germany"]}, "phone": "+494049297744", "display_phone": "+49 40 49297744", "distance": 4091.149575792217}, {"id": "cGIKCcR0wZszz8VldC2-7g", "alias": "currywerk-hamburg", "name": "curryWERK", "image_url": "https://s3-media4.fl.yelpcdn.com/bphoto/j_ZPQAB6JrAru84VDuLiRA/o.jpg", "is_closed": false, "url": "https://www.yelp.com/biz/currywerk-hamburg?adjust_creative=hBJOknVQJ58S5goQyjmwRw&utm_campaign=yelp_api_v3&utm_medium=api_v3_business_search&utm_source=hBJOknVQJ58S5goQyjmwRw", "review_count": 1, "categories": [{"alias": "foodtrucks", "title": "Food Trucks"}, {"alias": "currysausage", "title": "Curry Sausage"}], "rating": 4.0, "coordinates": {"latitude": 53.5498886108398, "longitude": 9.94732189178467}, "transactions": [], "price": "\u20ac\u20ac", "location": {"address1": "", "address2": "", "address3": "", "city": "Hamburg", "zip_code": "22767", "country": "DE", "state": "HH", "display_address": ["22767 Hamburg", "Germany"]}, "phone": "+4917632443433", "display_phone": "+49 176 32443433", "distance": 15257.15362662389}, {"id": "05yN6vX4GZjaksTXtS9yoA", "alias": "mcdonalds-hamburg-54", "name": "McDonald's", "image_url": "", "is_closed": false, "url": "https://www.yelp.com/biz/mcdonalds-hamburg-54?adjust_creative=hBJOknVQJ58S5goQyjmwRw&utm_campaign=yelp_api_v3&utm_medium=api_v3_business_search&utm_source=hBJOknVQJ58S5goQyjmwRw", "review_count": 8, "categories": [{"alias": "hotdogs", "title": "Fast Food"}, {"alias": "burgers", "title": "Burgers"}], "rating": 2.0, "coordinates": {"latitude": 53.5704, "longitude": 10.144}, "transactions": [], "price": "\u20ac\u20ac\u20ac", "location": {"address1": "Barsb\u00fctteler Str. 45", "address2": null, "address3": null, "city": "Hamburg", "zip_code": "22043", "country": "DE", "state": "HH", "display_address": ["Barsb\u00fctteler Str. 45", "22043 Hamburg", "Germany"]}, "phone": "+494071403859", "display_phone": "+49 40 71403859", "distance": 4243.690884130525}, {"id": "LIA9nEzM_IPAg7aWOAuvjg", "alias": "tasty-croque-barsb\u00fcttel", "name": "Tasty Croque", "image_url": "", "is_closed": false, "url": "https://www.yelp.com/biz/tasty-croque-barsb%C3%BCttel?adjust_creative=hBJOknVQJ58S5goQyjmwRw&utm_campaign=yelp_api_v3&utm_medium=api_v3_business_search&utm_source=hBJOknVQJ58S5goQyjmwRw", "review_count": 13, "categories": [{"alias": "creperies", "title": "Creperies"}, {"alias": "sandwiches", "title": "Sandwiches"}], "rating": 3.5, "coordinates": {"latitude": 53.5689387, "longitude": 10.1739782}, "transactions": [], "price": "\u20ac", "location": {"address1": "Willinghusener Landstr. 11b", "address2": null, "address3": null, "city": "Barsb\u00fcttel", "zip_code": "22885", "country": "DE", "state": "SH", "display_address": ["Willinghusener Landstr. 11b", "22885 Barsb\u00fcttel", "Germany"]}, "phone": "+49406703588", "display_phone": "+49 40 6703588", "distance": 4639.234129813987}, {"id": "cVtqr-CLZgOP7-5DzRs-FQ", "alias": "asia-wok-leviet-hamburg", "name": "Asia Wok Leviet", "image_url": "https://s3-media1.fl.yelpcdn.com/bphoto/HvgxnIlIqtwPUvmoanLiwA/o.jpg", "is_closed": false, "url": "https://www.yelp.com/biz/asia-wok-leviet-hamburg?adjust_creative=hBJOknVQJ58S5goQyjmwRw&utm_campaign=yelp_api_v3&utm_medium=api_v3_business_search&utm_source=hBJOknVQJ58S5goQyjmwRw", "review_count": 2, "categories": [{"alias": "chinese", "title": "Chinese"}], "rating": 2.5, "coordinates": {"latitude": 53.5711, "longitude": 10.1355}, "transactions": [], "price": "\u20ac", "location": {"address1": "Rodigallee 303", "address2": null, "address3": null, "city": "Hamburg", "zip_code": "22043", "country": "DE", "state": "HH", "display_address": ["Rodigallee 303", "22043 Hamburg", "Germany"]}, "phone": "+494088305569", "display_phone": "+49 40 88305569", "distance": 4264.146589706567}, {"id": "T_tQNhEpiurIvuZS3nRbEw", "alias": "le-petit-hamburg", "name": "Le Petit", "image_url": "https://s3-media1.fl.yelpcdn.com/bphoto/NFwrLZWqzWuwQ04gJCm8kA/o.jpg", "is_closed": false, "url": "https://www.yelp.com/biz/le-petit-hamburg?adjust_creative=hBJOknVQJ58S5goQyjmwRw&utm_campaign=yelp_api_v3&utm_medium=api_v3_business_search&utm_source=hBJOknVQJ58S5goQyjmwRw", "review_count": 7, "categories": [{"alias": "cafes", "title": "Cafes"}, {"alias": "bistros", "title": "Bistros"}], "rating": 3.0, "coordinates": {"latitude": 53.6488113, "longitude": 10.1679096}, "transactions": [], "price": "\u20ac", "location": {"address1": "Wiesenh\u00f6fen 3", "address2": "", "address3": "", "city": "Hamburg", "zip_code": "22359", "country": "DE", "state": "HH", "display_address": ["Wiesenh\u00f6fen 3", "22359 Hamburg", "Germany"]}, "phone": "+494054756660", "display_phone": "+49 40 54756660", "distance": 4648.948567811891}, {"id": "5Sn38ahcsarLwL27Rsy5NQ", "alias": "urfa-sofrasi-hamburg", "name": "Urfa Sofrasi", "image_url": "", "is_closed": false, "url": "https://www.yelp.com/biz/urfa-sofrasi-hamburg?adjust_creative=hBJOknVQJ58S5goQyjmwRw&utm_campaign=yelp_api_v3&utm_medium=api_v3_business_search&utm_source=hBJOknVQJ58S5goQyjmwRw", "review_count": 2, "categories": [{"alias": "turkish", "title": "Turkish"}, {"alias": "hotdogs", "title": "Fast Food"}], "rating": 3.0, "coordinates": {"latitude": 53.5709, "longitude": 10.1364}, "transactions": [], "location": {"address1": "Barsb\u00fctteler Str. 2", "address2": null, "address3": null, "city": "Hamburg", "zip_code": "22043", "country": "DE", "state": "HH", "display_address": ["Barsb\u00fctteler Str. 2", "22043 Hamburg", "Germany"]}, "phone": "", "display_phone": "", "distance": 4272.062635056702}]