[{"id": "X5XoKvZuLvLXLnpodFFrNA", "alias": "bei-dino-hamburg", "name": "Bei Dino", "image_url": "https://s3-media2.fl.yelpcdn.com/bphoto/06_Gyg3earR7qRtpM_0lgQ/o.jpg", "is_closed": false, "url": "https://www.yelp.com/biz/bei-dino-hamburg?adjust_creative=hBJOknVQJ58S5goQyjmwRw&utm_campaign=yelp_api_v3&utm_medium=api_v3_business_search&utm_source=hBJOknVQJ58S5goQyjmwRw", "review_count": 1, "categories": [{"alias": "italian", "title": "Italian"}, {"alias": "pizza", "title": "Pizza"}], "rating": 5.0, "coordinates": {"latitude": 53.602, "longitude": 10.1574}, "transactions": [], "price": "\u20ac\u20ac\u20ac\u20ac", "location": {"address1": "Rahlstedter Str. 159", "address2": "", "address3": null, "city": "Hamburg", "zip_code": "22143", "country": "DE", "state": "HH", "display_address": ["Rahlstedter Str. 159", "22143 Hamburg", "Germany"]}, "phone": "+494024439963", "display_phone": "+49 40 24439963", "distance": 1702.8360787721651}, {"id": "wEV2Tj7LeuEyfpcC8Amjhg", "alias": "d\u00f6ner-haus-hamburg", "name": "D\u00f6ner Haus", "image_url": "https://s3-media2.fl.yelpcdn.com/bphoto/looQoC83702ERaKzMnGumQ/o.jpg", "is_closed": false, "url": "https://www.yelp.com/biz/d%C3%B6ner-haus-hamburg?adjust_creative=hBJOknVQJ58S5goQyjmwRw&utm_campaign=yelp_api_v3&utm_medium=api_v3_business_search&utm_source=hBJOknVQJ58S5goQyjmwRw", "review_count": 3, "categories": [{"alias": "kebab", "title": "Kebab"}], "rating": 4.5, "coordinates": {"latitude": 53.6052899, "longitude": 10.15619}, "transactions": [], "price": "\u20ac\u20ac", "location": {"address1": "Schweriner Str. 1a", "address2": "", "address3": "", "city": "Hamburg", "zip_code": "22143", "country": "DE", "state": "HH", "display_address": ["Schweriner Str. 1a", "22143 Hamburg", "Germany"]}, "phone": "+491724981854", "display_phone": "+49 172 4981854", "distance": 1687.3585477338331}, {"id": "V8J4Trv5qPEySUdi3AOlWQ", "alias": "auszeit-hamburg-4", "name": "Auszeit", "image_url": "https://s3-media1.fl.yelpcdn.com/bphoto/ZcuOQNpXtCJGJwk4QYqTPQ/o.jpg", "is_closed": false, "url": "https://www.yelp.com/biz/auszeit-hamburg-4?adjust_creative=hBJOknVQJ58S5goQyjmwRw&utm_campaign=yelp_api_v3&utm_medium=api_v3_business_search&utm_source=hBJOknVQJ58S5goQyjmwRw", "review_count": 9, "categories": [{"alias": "bowling", "title": "Bowling"}, {"alias": "german", "title": "German"}, {"alias": "international", "title": "International"}], "rating": 4.5, "coordinates": {"latitude": 53.586142, "longitude": 10.160171}, "transactions": [], "price": "\u20ac\u20ac\u20ac", "location": {"address1": "H\u00fcllenkoppel 56", "address2": null, "address3": null, "city": "Hamburg", "zip_code": "22149", "country": "DE", "state": "HH", "display_address": ["H\u00fcllenkoppel 56", "22149 Hamburg", "Germany"]}, "phone": "+494067391007", "display_phone": "+49 40 67391007", "distance": 2800.672343219859}, {"id": "i4G260d44HKnXhPBWZBRoQ", "alias": "little-monsters-hamburg", "name": "Little Monsters", "image_url": "https://s3-media3.fl.yelpcdn.com/bphoto/D00F7XBpSb0VWtLZnGYB_A/o.jpg", "is_closed": false, "url": "https://www.yelp.com/biz/little-monsters-hamburg?adjust_creative=hBJOknVQJ58S5goQyjmwRw&utm_campaign=yelp_api_v3&utm_medium=api_v3_business_search&utm_source=hBJOknVQJ58S5goQyjmwRw", "review_count": 5, "categories": [{"alias": "bagels", "title": "Bagels"}, {"alias": "breakfast_brunch", "title": "Breakfast & Brunch"}], "rating": 4.0, "coordinates": {"latitude": 53.6052899, "longitude": 10.15633}, "transactions": [], "price": "\u20ac", "location": {"address1": "Schweriner Str. 3 a", "address2": "", "address3": null, "city": "Hamburg", "zip_code": "22143", "country": "DE", "state": "HH", "display_address": ["Schweriner Str. 3 a", "22143 Hamburg", "Germany"]}, "phone": "", "display_phone": "", "distance": 1678.068929141905}, {"id": "gnp5pdA_TxC3aFsnA-LlgA", "alias": "adria-grill-hamburg", "name": "Adria Grill", "image_url": "https://s3-media3.fl.yelpcdn.com/bphoto/jFEMqyesLufR1vwtNQe2nQ/o.jpg", "is_closed": false, "url": "https://www.yelp.com/biz/adria-grill-hamburg?adjust_creative=hBJOknVQJ58S5goQyjmwRw&utm_campaign=yelp_api_v3&utm_medium=api_v3_business_search&utm_source=hBJOknVQJ58S5goQyjmwRw", "review_count": 16, "categories": [{"alias": "serbocroatian", "title": "Serbo Croatian"}], "rating": 4.0, "coordinates": {"latitude": 53.622511493136, "longitude": 10.1650228334827}, "transactions": [], "price": "\u20ac\u20ac", "location": {"address1": "Saseler Str. 1", "address2": null, "address3": null, "city": "Hamburg", "zip_code": "22145", "country": "DE", "state": "HH", "display_address": ["Saseler Str. 1", "22145 Hamburg", "Germany"]}, "phone": "+49406787053", "display_phone": "+49 40 6787053", "distance": 1926.5549675487416}, {"id": "FAHAE9hqEqYelG_fjDrxFg", "alias": "caf\u00e9-ol\u00e9-hamburg-3", "name": "Caf\u00e9 Ol\u00e9", "image_url": "https://s3-media4.fl.yelpcdn.com/bphoto/VWnPzcmoFpqNR4UOVBxqMw/o.jpg", "is_closed": false, "url": "https://www.yelp.com/biz/caf%C3%A9-ol%C3%A9-hamburg-3?adjust_creative=hBJOknVQJ58S5goQyjmwRw&utm_campaign=yelp_api_v3&utm_medium=api_v3_business_search&utm_source=hBJOknVQJ58S5goQyjmwRw", "review_count": 56, "categories": [{"alias": "bars", "title": "Bars"}, {"alias": "international", "title": "International"}], "rating": 4.0, "coordinates": {"latitude": 53.60526, "longitude": 10.1606}, "transactions": [], "price": "\u20ac\u20ac", "location": {"address1": "Schweriner Str. 23", "address2": null, "address3": null, "city": "Hamburg", "zip_code": "22143", "country": "DE", "state": "HH", "display_address": ["Schweriner Str. 23", "22143 Hamburg", "Germany"]}, "phone": "+494067586133", "display_phone": "+49 40 67586133", "distance": 1411.8259557835054}, {"id": "iwXSKpZOGyaWXg1anpHhGg", "alias": "olive-hamburg-2", "name": "Olive", "image_url": "https://s3-media3.fl.yelpcdn.com/bphoto/eQlaod-mJn-8tNsAOdv_Fw/o.jpg", "is_closed": false, "url": "https://www.yelp.com/biz/olive-hamburg-2?adjust_creative=hBJOknVQJ58S5goQyjmwRw&utm_campaign=yelp_api_v3&utm_medium=api_v3_business_search&utm_source=hBJOknVQJ58S5goQyjmwRw", "review_count": 52, "categories": [{"alias": "greek", "title": "Greek"}, {"alias": "mediterranean", "title": "Mediterranean"}], "rating": 4.5, "coordinates": {"latitude": 53.64738, "longitude": 10.16931}, "transactions": [], "price": "\u20ac\u20ac", "location": {"address1": "Eulenkrugstr. 66", "address2": "", "address3": "", "city": "Hamburg", "zip_code": "22359", "country": "DE", "state": "HH", "display_address": ["Eulenkrugstr. 66", "22359 Hamburg", "Germany"]}, "phone": "+494064532649", "display_phone": "+49 40 64532649", "distance": 4436.702544136081}, {"id": "2nEhazu2nscUQp8p2rEhgA", "alias": "hallo-pizza-hamburg-13", "name": "Hallo Pizza!", "image_url": "https://s3-media1.fl.yelpcdn.com/bphoto/HZKg-zU9v4ugvI_qHn2d-Q/o.jpg", "is_closed": false, "url": "https://www.yelp.com/biz/hallo-pizza-hamburg-13?adjust_creative=hBJOknVQJ58S5goQyjmwRw&utm_campaign=yelp_api_v3&utm_medium=api_v3_business_search&utm_source=hBJOknVQJ58S5goQyjmwRw", "review_count": 3, "categories": [{"alias": "pizza", "title": "Pizza"}], "rating": 4.0, "coordinates": {"latitude": 53.623527, "longitude": 10.1671349}, "transactions": [], "price": "\u20ac", "location": {"address1": "Meiendorfer Str. 109", "address2": null, "address3": null, "city": "Hamburg", "zip_code": "22145", "country": "DE", "state": "HH", "display_address": ["Meiendorfer Str. 109", "22145 Hamburg", "Germany"]}, "phone": "+494067595050", "display_phone": "+49 40 67595050", "distance": 1952.2411510193895}, {"id": "dwbv8cRWOzfD4_VBMTzVCA", "alias": "hotel-meiendorfer-park-hamburg", "name": "Hotel Meiendorfer Park", "image_url": "https://s3-media1.fl.yelpcdn.com/bphoto/LmGe4FROxtNpJjZ4qdPDgw/o.jpg", "is_closed": false, "url": "https://www.yelp.com/biz/hotel-meiendorfer-park-hamburg?adjust_creative=hBJOknVQJ58S5goQyjmwRw&utm_campaign=yelp_api_v3&utm_medium=api_v3_business_search&utm_source=hBJOknVQJ58S5goQyjmwRw", "review_count": 1, "categories": [{"alias": "hotels", "title": "Hotels"}, {"alias": "german", "title": "German"}], "rating": 4.0, "coordinates": {"latitude": 53.62308, "longitude": 10.1664}, "transactions": [], "location": {"address1": "Meiendorfer Str. 101", "address2": null, "address3": null, "city": "Hamburg", "zip_code": "22145", "country": "DE", "state": "SH", "display_address": ["Meiendorfer Str. 101", "22145 Hamburg", "Germany"]}, "phone": "+49406781718", "display_phone": "+49 40 6781718", "distance": 1940.4168845864713}, {"id": "YORyYpWGC59Sojp4lW8dBQ", "alias": "ristorante-villaggio-hamburg", "name": "Ristorante Villaggio", "image_url": "https://s3-media4.fl.yelpcdn.com/bphoto/UzpkW0HSJWPx3-mPVsy_kg/o.jpg", "is_closed": false, "url": "https://www.yelp.com/biz/ristorante-villaggio-hamburg?adjust_creative=hBJOknVQJ58S5goQyjmwRw&utm_campaign=yelp_api_v3&utm_medium=api_v3_business_search&utm_source=hBJOknVQJ58S5goQyjmwRw", "review_count": 3, "categories": [{"alias": "italian", "title": "Italian"}], "rating": 4.0, "coordinates": {"latitude": 53.649162, "longitude": 10.16791}, "transactions": [], "price": "\u20ac\u20ac", "location": {"address1": "Hotel du Nord", "address2": "Im Alten Dorfe 40", "address3": "", "city": "Hamburg", "zip_code": "22359", "country": "DE", "state": "HH", "display_address": ["Hotel du Nord", "Im Alten Dorfe 40", "22359 Hamburg", "Germany"]}, "phone": "+49406034042", "display_phone": "+49 40 6034042", "distance": 4655.611236420791}, {"id": "od8bKF_bhe-OquHKaGo6eA", "alias": "block-house-hamburg-10", "name": "Block House", "image_url": "https://s3-media2.fl.yelpcdn.com/bphoto/FOB6HXZlBKthwIBWBZ5v_w/o.jpg", "is_closed": false, "url": "https://www.yelp.com/biz/block-house-hamburg-10?adjust_creative=hBJOknVQJ58S5goQyjmwRw&utm_campaign=yelp_api_v3&utm_medium=api_v3_business_search&utm_source=hBJOknVQJ58S5goQyjmwRw", "review_count": 41, "categories": [{"alias": "steak", "title": "Steakhouses"}], "rating": 4.0, "coordinates": {"latitude": 53.6476514, "longitude": 10.1639881}, "transactions": [], "price": "\u20ac\u20ac\u20ac", "location": {"address1": "Groten Hoff 12", "address2": null, "address3": null, "city": "Hamburg", "zip_code": "22359", "country": "DE", "state": "HH", "display_address": ["Groten Hoff 12", "22359 Hamburg", "Germany"]}, "phone": "+49406037025", "display_phone": "+49 40 6037025", "distance": 4545.862583874489}, {"id": "X0mS5-c6ES1xNI3RQ9zLpg", "alias": "miss-pepper-barsb\u00fcttel", "name": "Miss Pepper", "image_url": "https://s3-media1.fl.yelpcdn.com/bphoto/t8sTs0r2D75DA3Y8klw18g/o.jpg", "is_closed": false, "url": "https://www.yelp.com/biz/miss-pepper-barsb%C3%BCttel?adjust_creative=hBJOknVQJ58S5goQyjmwRw&utm_campaign=yelp_api_v3&utm_medium=api_v3_business_search&utm_source=hBJOknVQJ58S5goQyjmwRw", "review_count": 82, "categories": [{"alias": "burgers", "title": "Burgers"}, {"alias": "tradamerican", "title": "American (Traditional)"}, {"alias": "diners", "title": "Diners"}], "rating": 3.0, "coordinates": {"latitude": 53.577, "longitude": 10.1915}, "transactions": [], "price": "\u20ac\u20ac", "location": {"address1": "Hanskampring 1", "address2": null, "address3": null, "city": "Barsb\u00fcttel", "zip_code": "22885", "country": "DE", "state": "SH", "display_address": ["Hanskampring 1", "22885 Barsb\u00fcttel", "Germany"]}, "phone": "+494038088282", "display_phone": "+49 40 38088282", "distance": 3520.078647269637}, {"id": "HC4LSmTCh1Xm_N3F8HRalA", "alias": "thai-foo-hamburg-2", "name": "thai foo", "image_url": "https://s3-media2.fl.yelpcdn.com/bphoto/AszGYatnLkzlbEc7BjMzlg/o.jpg", "is_closed": false, "url": "https://www.yelp.com/biz/thai-foo-hamburg-2?adjust_creative=hBJOknVQJ58S5goQyjmwRw&utm_campaign=yelp_api_v3&utm_medium=api_v3_business_search&utm_source=hBJOknVQJ58S5goQyjmwRw", "review_count": 7, "categories": [{"alias": "thai", "title": "Thai"}], "rating": 4.0, "coordinates": {"latitude": 53.6042, "longitude": 10.157}, "transactions": [], "price": "\u20ac\u20ac", "location": {"address1": "Wariner Weg 1", "address2": "", "address3": null, "city": "Hamburg", "zip_code": "22143", "country": "DE", "state": "HH", "display_address": ["Wariner Weg 1", "22143 Hamburg", "Germany"]}, "phone": "+494066977966", "display_phone": "+49 40 66977966", "distance": 1647.260458943309}, {"id": "GUNxVSa-aaUv5jV8oEqxRw", "alias": "das-leben-isst-sch\u00f6n-hamburg", "name": "Das Leben isst sch\u00f6n!", "image_url": "https://s3-media1.fl.yelpcdn.com/bphoto/n1uOkoVERAGng3b8_5os2g/o.jpg", "is_closed": false, "url": "https://www.yelp.com/biz/das-leben-isst-sch%C3%B6n-hamburg?adjust_creative=hBJOknVQJ58S5goQyjmwRw&utm_campaign=yelp_api_v3&utm_medium=api_v3_business_search&utm_source=hBJOknVQJ58S5goQyjmwRw", "review_count": 24, "categories": [{"alias": "cafes", "title": "Cafes"}, {"alias": "breakfast_brunch", "title": "Breakfast & Brunch"}], "rating": 4.0, "coordinates": {"latitude": 53.648382, "longitude": 10.16816}, "transactions": [], "price": "\u20ac\u20ac", "location": {"address1": "Wiesenh\u00f6fen 7", "address2": "", "address3": "", "city": "Hamburg", "zip_code": "22359", "country": "DE", "state": "HH", "display_address": ["Wiesenh\u00f6fen 7", "22359 Hamburg", "Germany"]}, "phone": "+494080079090", "display_phone": "+49 40 80079090", "distance": 4567.314140362824}, {"id": "Dcf5kwdsqjvnsa70xtC1kg", "alias": "gastst\u00e4tte-le-rustique-hamburg", "name": "Gastst\u00e4tte Le Rustique", "image_url": "https://s3-media1.fl.yelpcdn.com/bphoto/GLrrwqVrMl8vAAzjKmYATA/o.jpg", "is_closed": false, "url": "https://www.yelp.com/biz/gastst%C3%A4tte-le-rustique-hamburg?adjust_creative=hBJOknVQJ58S5goQyjmwRw&utm_campaign=yelp_api_v3&utm_medium=api_v3_business_search&utm_source=hBJOknVQJ58S5goQyjmwRw", "review_count": 18, "categories": [{"alias": "international", "title": "International"}], "rating": 4.0, "coordinates": {"latitude": 53.64971, "longitude": 10.16393}, "transactions": [], "price": "\u20ac\u20ac", "location": {"address1": "Claus-Ferck-Str. 14", "address2": null, "address3": null, "city": "Hamburg", "zip_code": "22359", "country": "DE", "state": "HH", "display_address": ["Claus-Ferck-Str. 14", "22359 Hamburg", "Germany"]}, "phone": "+49406036851", "display_phone": "+49 40 6036851", "distance": 4801.595484322757}, {"id": "DsJCxIY0iM8FWMt5Eel8sQ", "alias": "braaker-m\u00fchle-hamburg-4", "name": "Braaker M\u00fchle", "image_url": "https://s3-media3.fl.yelpcdn.com/bphoto/NcXvstHEjtJ3DGFlP3Z_yA/o.jpg", "is_closed": false, "url": "https://www.yelp.com/biz/braaker-m%C3%BChle-hamburg-4?adjust_creative=hBJOknVQJ58S5goQyjmwRw&utm_campaign=yelp_api_v3&utm_medium=api_v3_business_search&utm_source=hBJOknVQJ58S5goQyjmwRw", "review_count": 4, "categories": [{"alias": "bakeries", "title": "Bakeries"}, {"alias": "cafes", "title": "Cafes"}, {"alias": "sandwiches", "title": "Sandwiches"}], "rating": 5.0, "coordinates": {"latitude": 53.6141431, "longitude": 10.1563974}, "transactions": [], "price": "\u20ac", "location": {"address1": "Oldenfelder Stieg 2", "address2": null, "address3": null, "city": "Hamburg", "zip_code": "22143", "country": "DE", "state": "HH", "display_address": ["Oldenfelder Stieg 2", "22143 Hamburg", "Germany"]}, "phone": "+494066854242", "display_phone": "+49 40 66854242", "distance": 1765.3814020612408}, {"id": "2xjOX59KWs7KLgcpw86Eiw", "alias": "louisiana-hamburg-6", "name": "Louisiana", "image_url": "https://s3-media2.fl.yelpcdn.com/bphoto/kIPkpQv0hobKQ61bqkBsdg/o.jpg", "is_closed": false, "url": "https://www.yelp.com/biz/louisiana-hamburg-6?adjust_creative=hBJOknVQJ58S5goQyjmwRw&utm_campaign=yelp_api_v3&utm_medium=api_v3_business_search&utm_source=hBJOknVQJ58S5goQyjmwRw", "review_count": 60, "categories": [{"alias": "tradamerican", "title": "American (Traditional)"}, {"alias": "cocktailbars", "title": "Cocktail Bars"}], "rating": 3.0, "coordinates": {"latitude": 53.64881, "longitude": 10.16691}, "transactions": [], "price": "\u20ac\u20ac", "location": {"address1": "Im alten Dorfe 36", "address2": "", "address3": "", "city": "Hamburg", "zip_code": "22359", "country": "DE", "state": "HH", "display_address": ["Im alten Dorfe 36", "22359 Hamburg", "Germany"]}, "phone": "+494045063323", "display_phone": "+49 40 45063323", "distance": 4622.470117179971}, {"id": "aVaZDngIN9749uYxaPgmbw", "alias": "denos-grill-imbiss-hamburg", "name": "Deno's Grill Imbiss", "image_url": "https://s3-media3.fl.yelpcdn.com/bphoto/wKWCJNGroPugFMKTC3qQNw/o.jpg", "is_closed": false, "url": "https://www.yelp.com/biz/denos-grill-imbiss-hamburg?adjust_creative=hBJOknVQJ58S5goQyjmwRw&utm_campaign=yelp_api_v3&utm_medium=api_v3_business_search&utm_source=hBJOknVQJ58S5goQyjmwRw", "review_count": 1, "categories": [{"alias": "hotdogs", "title": "Fast Food"}], "rating": 2.0, "coordinates": {"latitude": 53.602819, "longitude": 10.180077}, "transactions": [], "location": {"address1": "Stapelfelder Str. 88", "address2": "", "address3": null, "city": "Hamburg", "zip_code": "22143", "country": "DE", "state": "HH", "display_address": ["Stapelfelder Str. 88", "22143 Hamburg", "Germany"]}, "phone": "+494063859942", "display_phone": "+49 40 63859942", "distance": 585.6788129519615}, {"id": "nSE3LIJsKM9f6IPKG6nbAw", "alias": "eichenkrug-hamburg", "name": "Eichenkrug", "image_url": "https://s3-media3.fl.yelpcdn.com/bphoto/lO1r45ThqzbrYxNocZH01Q/o.jpg", "is_closed": false, "url": "https://www.yelp.com/biz/eichenkrug-hamburg?adjust_creative=hBJOknVQJ58S5goQyjmwRw&utm_campaign=yelp_api_v3&utm_medium=api_v3_business_search&utm_source=hBJOknVQJ58S5goQyjmwRw", "review_count": 24, "categories": [{"alias": "northerngerman", "title": "Northern German"}], "rating": 4.0, "coordinates": {"latitude": 53.65057, "longitude": 10.1674399}, "transactions": [], "price": "\u20ac\u20ac\u20ac", "location": {"address1": "Im Alten Dorfe 60", "address2": "", "address3": "", "city": "Hamburg", "zip_code": "22359", "country": "DE", "state": "HH", "display_address": ["Im Alten Dorfe 60", "22359 Hamburg", "Germany"]}, "phone": "+49406038781", "display_phone": "+49 40 6038781", "distance": 4809.526349347771}, {"id": "ZBdsClM5VLExQkhKt9LXpw", "alias": "budai-hamburg", "name": "Budai", "image_url": "https://s3-media4.fl.yelpcdn.com/bphoto/jfibhyWOvP87ReXvqdf0AA/o.jpg", "is_closed": false, "url": "https://www.yelp.com/biz/budai-hamburg?adjust_creative=hBJOknVQJ58S5goQyjmwRw&utm_campaign=yelp_api_v3&utm_medium=api_v3_business_search&utm_source=hBJOknVQJ58S5goQyjmwRw", "review_count": 10, "categories": [{"alias": "mongolian", "title": "Mongolian"}, {"alias": "panasian", "title": "Pan Asian"}], "rating": 3.0, "coordinates": {"latitude": 53.60516, "longitude": 10.16089}, "transactions": [], "price": "\u20ac\u20ac", "location": {"address1": "Schweriner Str. 25", "address2": "", "address3": "", "city": "Hamburg", "zip_code": "22143", "country": "DE", "state": "HH", "display_address": ["Schweriner Str. 25", "22143 Hamburg", "Germany"]}, "phone": "+494065912760", "display_phone": "+49 40 65912760", "distance": 1411.8259557835054}, {"id": "33QlrSuFYe5OTSqG3j7i-A", "alias": "hofladen-bernekehof-barsb\u00fcttel", "name": "Hofladen Bernekehof", "image_url": "https://s3-media2.fl.yelpcdn.com/bphoto/lcWzMgACoqFSse7iGh6FIQ/o.jpg", "is_closed": false, "url": "https://www.yelp.com/biz/hofladen-bernekehof-barsb%C3%BCttel?adjust_creative=hBJOknVQJ58S5goQyjmwRw&utm_campaign=yelp_api_v3&utm_medium=api_v3_business_search&utm_source=hBJOknVQJ58S5goQyjmwRw", "review_count": 1, "categories": [{"alias": "cafes", "title": "Cafes"}, {"alias": "organic_stores", "title": "Organic Stores"}], "rating": 5.0, "coordinates": {"latitude": 53.576038190667, "longitude": 10.169076807797}, "transactions": [], "location": {"address1": "R\u00e4hnwischredder 5", "address2": "", "address3": "", "city": "Barsb\u00fcttel", "zip_code": "22885", "country": "DE", "state": "SH", "display_address": ["R\u00e4hnwischredder 5", "22885 Barsb\u00fcttel", "Germany"]}, "phone": "+494067081458", "display_phone": "+49 40 67081458", "distance": 3647.099148156323}, {"id": "9eBv6GtbwqA4gGBq85AqAA", "alias": "mcdonalds-hamburg-55", "name": "McDonald's", "image_url": "https://s3-media3.fl.yelpcdn.com/bphoto/JeDYo2mONIAZAIE6XTp7yw/o.jpg", "is_closed": false, "url": "https://www.yelp.com/biz/mcdonalds-hamburg-55?adjust_creative=hBJOknVQJ58S5goQyjmwRw&utm_campaign=yelp_api_v3&utm_medium=api_v3_business_search&utm_source=hBJOknVQJ58S5goQyjmwRw", "review_count": 18, "categories": [{"alias": "hotdogs", "title": "Fast Food"}, {"alias": "burgers", "title": "Burgers"}], "rating": 3.0, "coordinates": {"latitude": 53.60832, "longitude": 10.19007}, "transactions": [], "price": "\u20ac\u20ac", "location": {"address1": "Sieker Landstr. 126", "address2": null, "address3": null, "city": "Hamburg", "zip_code": "22143", "country": "DE", "state": "HH", "display_address": ["Sieker Landstr. 126", "22143 Hamburg", "Germany"]}, "phone": "+49406779502", "display_phone": "+49 40 6779502", "distance": 598.5490103123766}, {"id": "LA5p9GlUaSHvqWi1VDtTVg", "alias": "croque-insel-hamburg", "name": "Croque-Insel", "image_url": "https://s3-media3.fl.yelpcdn.com/bphoto/pNpDWMSFo2Ex7lbiUS8CSw/o.jpg", "is_closed": false, "url": "https://www.yelp.com/biz/croque-insel-hamburg?adjust_creative=hBJOknVQJ58S5goQyjmwRw&utm_campaign=yelp_api_v3&utm_medium=api_v3_business_search&utm_source=hBJOknVQJ58S5goQyjmwRw", "review_count": 2, "categories": [{"alias": "sandwiches", "title": "Sandwiches"}], "rating": 5.0, "coordinates": {"latitude": 53.6223993598285, "longitude": 10.1652405883885}, "transactions": [], "location": {"address1": "Saseler Str. 1", "address2": null, "address3": null, "city": "Hamburg", "zip_code": "22145", "country": "DE", "state": "HH", "display_address": ["Saseler Str. 1", "22145 Hamburg", "Germany"]}, "phone": "+49406792179", "display_phone": "+49 40 6792179", "distance": 1908.2445844105284}, {"id": "W7Di0VFheedEkLU5yw2Hqg", "alias": "dorfkrug-volksdorf-hamburg", "name": "Dorfkrug Volksdorf", "image_url": "https://s3-media1.fl.yelpcdn.com/bphoto/OB6qQYoIeK9_pQrFSgkyvw/o.jpg", "is_closed": false, "url": "https://www.yelp.com/biz/dorfkrug-volksdorf-hamburg?adjust_creative=hBJOknVQJ58S5goQyjmwRw&utm_campaign=yelp_api_v3&utm_medium=api_v3_business_search&utm_source=hBJOknVQJ58S5goQyjmwRw", "review_count": 31, "categories": [{"alias": "german", "title": "German"}], "rating": 4.0, "coordinates": {"latitude": 53.6494979, "longitude": 10.1678128}, "transactions": [], "price": "\u20ac\u20ac\u20ac", "location": {"address1": "Im Alten Dorfe 44", "address2": null, "address3": null, "city": "Hamburg", "zip_code": "22359", "country": "DE", "state": "HH", "display_address": ["Im Alten Dorfe 44", "22359 Hamburg", "Germany"]}, "phone": "+49406039294", "display_phone": "+49 40 6039294", "distance": 4691.411045521154}, {"id": "FNX8Da9zS2soVlmTYnDobQ", "alias": "de-fries-express-hamburg-3", "name": "de Fries Express", "image_url": "https://s3-media3.fl.yelpcdn.com/bphoto/eCMlAK1i79t6mK3wrx9ZSA/o.jpg", "is_closed": false, "url": "https://www.yelp.com/biz/de-fries-express-hamburg-3?adjust_creative=hBJOknVQJ58S5goQyjmwRw&utm_campaign=yelp_api_v3&utm_medium=api_v3_business_search&utm_source=hBJOknVQJ58S5goQyjmwRw", "review_count": 24, "categories": [{"alias": "foodstands", "title": "Food Stands"}, {"alias": "hotdogs", "title": "Fast Food"}], "rating": 4.5, "coordinates": {"latitude": 53.64919, "longitude": 10.16395}, "transactions": [], "price": "\u20ac", "location": {"address1": "Claus-Ferck-Str. 6", "address2": "", "address3": "", "city": "Hamburg", "zip_code": "22359", "country": "DE", "state": "HH", "display_address": ["Claus-Ferck-Str. 6", "22359 Hamburg", "Germany"]}, "phone": "+494060951366", "display_phone": "+49 40 60951366", "distance": 4714.885762680544}, {"id": "oj5pmfBRQjrqELlYgh8VQw", "alias": "zenthai-hamburg-5", "name": "Zenthai", "image_url": "https://s3-media1.fl.yelpcdn.com/bphoto/cuSqnTvLsBJUzL8nLxdukg/o.jpg", "is_closed": false, "url": "https://www.yelp.com/biz/zenthai-hamburg-5?adjust_creative=hBJOknVQJ58S5goQyjmwRw&utm_campaign=yelp_api_v3&utm_medium=api_v3_business_search&utm_source=hBJOknVQJ58S5goQyjmwRw", "review_count": 12, "categories": [{"alias": "panasian", "title": "Pan Asian"}], "rating": 3.5, "coordinates": {"latitude": 53.6048, "longitude": 10.1578}, "transactions": [], "price": "\u20ac", "location": {"address1": "Wariner Weg 1", "address2": "", "address3": "", "city": "Hamburg", "zip_code": "22143", "country": "DE", "state": "HH", "display_address": ["Wariner Weg 1", "22143 Hamburg", "Germany"]}, "phone": "+494067105239", "display_phone": "+49 40 67105239", "distance": 1579.7567970665386}, {"id": "EObVY2Iy5wPsnu6thHvPmQ", "alias": "restaurant-kochm\u00fctze-barsb\u00fcttel", "name": "Restaurant Kochm\u00fctze", "image_url": "https://s3-media3.fl.yelpcdn.com/bphoto/8wiQPvzjpnMQktB0UCiBVA/o.jpg", "is_closed": false, "url": "https://www.yelp.com/biz/restaurant-kochm%C3%BCtze-barsb%C3%BCttel?adjust_creative=hBJOknVQJ58S5goQyjmwRw&utm_campaign=yelp_api_v3&utm_medium=api_v3_business_search&utm_source=hBJOknVQJ58S5goQyjmwRw", "review_count": 3, "categories": [{"alias": "breakfast_brunch", "title": "Breakfast & Brunch"}, {"alias": "buffets", "title": "Buffets"}], "rating": 3.5, "coordinates": {"latitude": 53.5781469080702, "longitude": 10.1961060985923}, "transactions": [], "location": {"address1": "Im H\u00f6ffner", "address2": "Rahlstedter Str. 1", "address3": "", "city": "Barsb\u00fcttel", "zip_code": "22885", "country": "DE", "state": "SH", "display_address": ["Im H\u00f6ffner", "Rahlstedter Str. 1", "22885 Barsb\u00fcttel", "Germany"]}, "phone": "+494039891334", "display_phone": "+49 40 39891334", "distance": 3469.27561097137}, {"id": "KjsENxvgT0hjC0YGFjZjoQ", "alias": "huus-no-5-hamburg", "name": "huus no. 5", "image_url": "https://s3-media2.fl.yelpcdn.com/bphoto/gKMffzsjbSKFdQNTrac3yw/o.jpg", "is_closed": false, "url": "https://www.yelp.com/biz/huus-no-5-hamburg?adjust_creative=hBJOknVQJ58S5goQyjmwRw&utm_campaign=yelp_api_v3&utm_medium=api_v3_business_search&utm_source=hBJOknVQJ58S5goQyjmwRw", "review_count": 2, "categories": [{"alias": "international", "title": "International"}, {"alias": "bistros", "title": "Bistros"}], "rating": 4.5, "coordinates": {"latitude": 53.64934, "longitude": 10.16612}, "transactions": [], "price": "\u20ac\u20ac", "location": {"address1": "Dorfwinkel 5", "address2": null, "address3": "", "city": "Hamburg", "zip_code": "22359", "country": "DE", "state": "HH", "display_address": ["Dorfwinkel 5", "22359 Hamburg", "Germany"]}, "phone": "+494037020027", "display_phone": "+49 40 37020027", "distance": 4699.090618369602}, {"id": "9-KFAI9eGa6am7T29THPOg", "alias": "la-plaza-hamburg", "name": "La Plaza", "image_url": "https://s3-media2.fl.yelpcdn.com/bphoto/zFpzVFW5yBUSChkwpCsxMw/o.jpg", "is_closed": false, "url": "https://www.yelp.com/biz/la-plaza-hamburg?adjust_creative=hBJOknVQJ58S5goQyjmwRw&utm_campaign=yelp_api_v3&utm_medium=api_v3_business_search&utm_source=hBJOknVQJ58S5goQyjmwRw", "review_count": 8, "categories": [{"alias": "tapas", "title": "Tapas Bars"}, {"alias": "cafes", "title": "Cafes"}], "rating": 4.0, "coordinates": {"latitude": 53.64931, "longitude": 10.16334}, "transactions": [], "price": "\u20ac\u20ac", "location": {"address1": "Claus-Ferck-Str. 9-11", "address2": "", "address3": "", "city": "Hamburg", "zip_code": "22359", "country": "DE", "state": "HH", "display_address": ["Claus-Ferck-Str. 9-11", "22359 Hamburg", "Germany"]}, "phone": "+494069464411", "display_phone": "+49 40 69464411", "distance": 4731.349213955835}, {"id": "u3ub5f0MS4qY67Q8XF9ZoA", "alias": "sodemanns-fisch-kutter-nr-1-hamburg", "name": "Sodemann's Fisch-Kutter Nr. 1", "image_url": "https://s3-media3.fl.yelpcdn.com/bphoto/BlysP6fVPaL0eEjKvEbByw/o.jpg", "is_closed": false, "url": "https://www.yelp.com/biz/sodemanns-fisch-kutter-nr-1-hamburg?adjust_creative=hBJOknVQJ58S5goQyjmwRw&utm_campaign=yelp_api_v3&utm_medium=api_v3_business_search&utm_source=hBJOknVQJ58S5goQyjmwRw", "review_count": 3, "categories": [{"alias": "foodtrucks", "title": "Food Trucks"}, {"alias": "fischbroetchen", "title": "Fischbroetchen"}], "rating": 5.0, "coordinates": {"latitude": 53.5537490844727, "longitude": 9.99182987213135}, "transactions": [], "price": "\u20ac\u20ac", "location": {"address1": "", "address2": null, "address3": "", "city": "Hamburg", "zip_code": "", "country": "DE", "state": "HH", "display_address": ["Hamburg", "Germany"]}, "phone": "+491773606663", "display_phone": "+49 177 3606663", "distance": 13900.529112417584}, {"id": "HGRU7GpWZzUNXHFZySx0Pg", "alias": "le-qu\u00e1n-hamburg-6", "name": "Le Qu\u00e1n", "image_url": "https://s3-media2.fl.yelpcdn.com/bphoto/vvREouObluQmMvIQVl-3gw/o.jpg", "is_closed": false, "url": "https://www.yelp.com/biz/le-qu%C3%A1n-hamburg-6?adjust_creative=hBJOknVQJ58S5goQyjmwRw&utm_campaign=yelp_api_v3&utm_medium=api_v3_business_search&utm_source=hBJOknVQJ58S5goQyjmwRw", "review_count": 5, "categories": [{"alias": "vietnamese", "title": "Vietnamese"}], "rating": 3.5, "coordinates": {"latitude": 53.648544, "longitude": 10.165218}, "transactions": [], "price": "\u20ac\u20ac", "location": {"address1": "Im Alten Dorfe 24", "address2": "", "address3": null, "city": "Hamburg", "zip_code": "22359", "country": "DE", "state": "HH", "display_address": ["Im Alten Dorfe 24", "22359 Hamburg", "Germany"]}, "phone": "+494064532657", "display_phone": "+49 40 64532657", "distance": 4623.012338480263}, {"id": "UpKUUfX-1rNcTiUdrg572Q", "alias": "restaurant-dubrovnik-barsb\u00fcttel", "name": "Restaurant Dubrovnik", "image_url": "https://s3-media2.fl.yelpcdn.com/bphoto/Xy_hh92yz7f-Iu7zSU8LJg/o.jpg", "is_closed": false, "url": "https://www.yelp.com/biz/restaurant-dubrovnik-barsb%C3%BCttel?adjust_creative=hBJOknVQJ58S5goQyjmwRw&utm_campaign=yelp_api_v3&utm_medium=api_v3_business_search&utm_source=hBJOknVQJ58S5goQyjmwRw", "review_count": 11, "categories": [{"alias": "serbocroatian", "title": "Serbo Croatian"}], "rating": 3.5, "coordinates": {"latitude": 53.5686, "longitude": 10.1744}, "transactions": [], "price": "\u20ac\u20ac", "location": {"address1": "Buchenstr. 1", "address2": null, "address3": null, "city": "Barsb\u00fcttel", "zip_code": "22885", "country": "DE", "state": "SH", "display_address": ["Buchenstr. 1", "22885 Barsb\u00fcttel", "Germany"]}, "phone": "+494097074211", "display_phone": "+49 40 97074211", "distance": 4408.975384945726}, {"id": "rVH0jMvK1fmqnssif1buPQ", "alias": "backparadies-hornung-barsb\u00fcttel", "name": "Backparadies Hornung", "image_url": "https://s3-media1.fl.yelpcdn.com/bphoto/CCyhElpkoLsR8UCV6MwTOg/o.jpg", "is_closed": false, "url": "https://www.yelp.com/biz/backparadies-hornung-barsb%C3%BCttel?adjust_creative=hBJOknVQJ58S5goQyjmwRw&utm_campaign=yelp_api_v3&utm_medium=api_v3_business_search&utm_source=hBJOknVQJ58S5goQyjmwRw", "review_count": 4, "categories": [{"alias": "bakeries", "title": "Bakeries"}, {"alias": "restaurants", "title": "Restaurants"}], "rating": 4.5, "coordinates": {"latitude": 53.5692, "longitude": 10.1654}, "transactions": [], "price": "\u20ac\u20ac", "location": {"address1": "Barsb\u00fctteler Hof 2", "address2": null, "address3": null, "city": "Barsb\u00fcttel", "zip_code": "22885", "country": "DE", "state": "SH", "display_address": ["Barsb\u00fctteler Hof 2", "22885 Barsb\u00fcttel", "Germany"]}, "phone": "+49406704164", "display_phone": "+49 40 6704164", "distance": 4442.655180125846}, {"id": "zYxi8TgYgSkaL-SIVAYZRg", "alias": "restaurante-hacienda-hamburg", "name": "Restaurante Hacienda", "image_url": "https://s3-media3.fl.yelpcdn.com/bphoto/1RBAKjM3rQpzYw8Svd4n4w/o.jpg", "is_closed": false, "url": "https://www.yelp.com/biz/restaurante-hacienda-hamburg?adjust_creative=hBJOknVQJ58S5goQyjmwRw&utm_campaign=yelp_api_v3&utm_medium=api_v3_business_search&utm_source=hBJOknVQJ58S5goQyjmwRw", "review_count": 39, "categories": [{"alias": "brazilian", "title": "Brazilian"}], "rating": 3.0, "coordinates": {"latitude": 53.64905, "longitude": 10.1678599}, "transactions": [], "price": "\u20ac\u20ac\u20ac", "location": {"address1": "Alten Dorfe 38", "address2": null, "address3": null, "city": "Hamburg", "zip_code": "22359", "country": "DE", "state": "HH", "display_address": ["Alten Dorfe 38", "22359 Hamburg", "Germany"]}, "phone": "+49406095858", "display_phone": "+49 40 6095858", "distance": 4639.204148755685}, {"id": "WfoA3dcI1IFBi5CIlp4AOA", "alias": "haralds-imbiss-hamburg-2", "name": "Haralds Imbiss", "image_url": "https://s3-media4.fl.yelpcdn.com/bphoto/b8Qk_6KhK-Dod1iTQOVrCQ/o.jpg", "is_closed": false, "url": "https://www.yelp.com/biz/haralds-imbiss-hamburg-2?adjust_creative=hBJOknVQJ58S5goQyjmwRw&utm_campaign=yelp_api_v3&utm_medium=api_v3_business_search&utm_source=hBJOknVQJ58S5goQyjmwRw", "review_count": 6, "categories": [{"alias": "currysausage", "title": "Curry Sausage"}], "rating": 4.5, "coordinates": {"latitude": 53.6509, "longitude": 10.163}, "transactions": [], "price": "\u20ac\u20ac", "location": {"address1": "Marktplatz Volksdorf", "address2": "", "address3": null, "city": "Hamburg", "zip_code": "22359", "country": "DE", "state": "HH", "display_address": ["Marktplatz Volksdorf", "22359 Hamburg", "Germany"]}, "phone": "+4917620821577", "display_phone": "+49 176 20821577", "distance": 4912.015099199914}, {"id": "hsO_CX7RKshbcl1B-WRiUQ", "alias": "fischhaus-volksdorf-hamburg", "name": "Fischhaus Volksdorf", "image_url": "https://s3-media2.fl.yelpcdn.com/bphoto/W2_U5l3vXS6bQyO6FYqXig/o.jpg", "is_closed": false, "url": "https://www.yelp.com/biz/fischhaus-volksdorf-hamburg?adjust_creative=hBJOknVQJ58S5goQyjmwRw&utm_campaign=yelp_api_v3&utm_medium=api_v3_business_search&utm_source=hBJOknVQJ58S5goQyjmwRw", "review_count": 5, "categories": [{"alias": "seafoodmarkets", "title": "Seafood Markets"}, {"alias": "bistros", "title": "Bistros"}], "rating": 4.0, "coordinates": {"latitude": 53.64923, "longitude": 10.16645}, "transactions": [], "price": "\u20ac", "location": {"address1": "Dorfwinkel 4-6", "address2": null, "address3": null, "city": "Hamburg", "zip_code": "22359", "country": "DE", "state": "HH", "display_address": ["Dorfwinkel 4-6", "22359 Hamburg", "Germany"]}, "phone": "+49406032018", "display_phone": "+49 40 6032018", "distance": 4690.141581913852}, {"id": "DMrcITnMvwtK9UQQuQ_lVw", "alias": "crazy-kebab-hamburg", "name": "Crazy Kebab", "image_url": "", "is_closed": false, "url": "https://www.yelp.com/biz/crazy-kebab-hamburg?adjust_creative=hBJOknVQJ58S5goQyjmwRw&utm_campaign=yelp_api_v3&utm_medium=api_v3_business_search&utm_source=hBJOknVQJ58S5goQyjmwRw", "review_count": 1, "categories": [{"alias": "kebab", "title": "Kebab"}], "rating": 4.0, "coordinates": {"latitude": 53.627943, "longitude": 10.167453}, "transactions": [], "location": {"address1": "Spitzbergenweg 34 f", "address2": "", "address3": "", "city": "Hamburg", "zip_code": "22145", "country": "DE", "state": "HH", "display_address": ["Spitzbergenweg 34 f", "22145 Hamburg", "Germany"]}, "phone": "+4915205270901", "display_phone": "+49 1520 5270901", "distance": 2366.162885007759}, {"id": "aIUJZyGJvftjDPuVqYqW9Q", "alias": "china-restaurant-china-town-barsb\u00fcttel", "name": "China-Restaurant China-Town", "image_url": "", "is_closed": false, "url": "https://www.yelp.com/biz/china-restaurant-china-town-barsb%C3%BCttel?adjust_creative=hBJOknVQJ58S5goQyjmwRw&utm_campaign=yelp_api_v3&utm_medium=api_v3_business_search&utm_source=hBJOknVQJ58S5goQyjmwRw", "review_count": 10, "categories": [{"alias": "chinese", "title": "Chinese"}], "rating": 3.5, "coordinates": {"latitude": 53.568716, "longitude": 10.170994}, "transactions": [], "price": "\u20ac\u20ac\u20ac", "location": {"address1": "Willinghusener Landstr. 18", "address2": null, "address3": null, "city": "Barsb\u00fcttel", "zip_code": "22885", "country": "DE", "state": "SH", "display_address": ["Willinghusener Landstr. 18", "22885 Barsb\u00fcttel", "Germany"]}, "phone": "+49406703677", "display_phone": "+49 40 6703677", "distance": 4424.4457217148465}, {"id": "vSymknDtUzXUuaIthyyr3w", "alias": "mega-d\u00f6ner-hamburg-2", "name": "Mega D\u00f6ner", "image_url": "https://s3-media2.fl.yelpcdn.com/bphoto/Jk3yRhsjWPCjXqus-ua5oA/o.jpg", "is_closed": false, "url": "https://www.yelp.com/biz/mega-d%C3%B6ner-hamburg-2?adjust_creative=hBJOknVQJ58S5goQyjmwRw&utm_campaign=yelp_api_v3&utm_medium=api_v3_business_search&utm_source=hBJOknVQJ58S5goQyjmwRw", "review_count": 14, "categories": [{"alias": "kebab", "title": "Kebab"}], "rating": 3.5, "coordinates": {"latitude": 53.6502, "longitude": 10.16274}, "transactions": [], "price": "\u20ac", "location": {"address1": "Farmsener Landstr. 195", "address2": "", "address3": "", "city": "Hamburg", "zip_code": "22359", "country": "DE", "state": "HH", "display_address": ["Farmsener Landstr. 195", "22359 Hamburg", "Germany"]}, "phone": "", "display_phone": "", "distance": 4864.6834234077105}, {"id": "gHkp_3gVMlfUi3ioBkPyig", "alias": "atelier-gourmand-hamburg", "name": "Atelier Gourmand", "image_url": "https://s3-media4.fl.yelpcdn.com/bphoto/WOcLkUV0kCv53cWf1SlKug/o.jpg", "is_closed": false, "url": "https://www.yelp.com/biz/atelier-gourmand-hamburg?adjust_creative=hBJOknVQJ58S5goQyjmwRw&utm_campaign=yelp_api_v3&utm_medium=api_v3_business_search&utm_source=hBJOknVQJ58S5goQyjmwRw", "review_count": 3, "categories": [{"alias": "creperies", "title": "Creperies"}, {"alias": "cafes", "title": "Cafes"}, {"alias": "icecream", "title": "Ice Cream & Frozen Yogurt"}], "rating": 4.5, "coordinates": {"latitude": 53.6494770873162, "longitude": 10.1634323693115}, "transactions": [], "price": "\u20ac", "location": {"address1": "Claus-Ferck-Str. 10", "address2": "", "address3": "", "city": "Hamburg", "zip_code": "22359", "country": "DE", "state": "HH", "display_address": ["Claus-Ferck-Str. 10", "22359 Hamburg", "Germany"]}, "phone": "+494060442988", "display_phone": "+49 40 60442988", "distance": 4751.627410022558}, {"id": "ciJqgCeUUG0U0DJMSJFfUA", "alias": "ristorante-italia-hamburg-2", "name": "Ristorante Italia", "image_url": "https://s3-media3.fl.yelpcdn.com/bphoto/ATtLebNmvMdhDCYYO_Bxgw/o.jpg", "is_closed": false, "url": "https://www.yelp.com/biz/ristorante-italia-hamburg-2?adjust_creative=hBJOknVQJ58S5goQyjmwRw&utm_campaign=yelp_api_v3&utm_medium=api_v3_business_search&utm_source=hBJOknVQJ58S5goQyjmwRw", "review_count": 21, "categories": [{"alias": "italian", "title": "Italian"}], "rating": 3.5, "coordinates": {"latitude": 53.64922, "longitude": 10.1678}, "transactions": [], "price": "\u20ac\u20ac", "location": {"address1": "Im Alten Dorfe 40", "address2": null, "address3": null, "city": "Hamburg", "zip_code": "22359", "country": "DE", "state": "HH", "display_address": ["Im Alten Dorfe 40", "22359 Hamburg", "Germany"]}, "phone": "+49406034042", "display_phone": "+49 40 6034042", "distance": 4655.611236420791}, {"id": "FcY_keScM6glMY9XkSzYqA", "alias": "die-villa-wiener-kaffeehaus-hamburg", "name": "Die Villa - Wiener Kaffeehaus", "image_url": "https://s3-media2.fl.yelpcdn.com/bphoto/sbmQ_n00mxSp73REyvCzbw/o.jpg", "is_closed": false, "url": "https://www.yelp.com/biz/die-villa-wiener-kaffeehaus-hamburg?adjust_creative=hBJOknVQJ58S5goQyjmwRw&utm_campaign=yelp_api_v3&utm_medium=api_v3_business_search&utm_source=hBJOknVQJ58S5goQyjmwRw", "review_count": 17, "categories": [{"alias": "cafes", "title": "Cafes"}], "rating": 3.5, "coordinates": {"latitude": 53.64847, "longitude": 10.166}, "transactions": [], "price": "\u20ac\u20ac", "location": {"address1": "Ohlendorff'sche Villa", "address2": "Im Alten Dorfe 28", "address3": "", "city": "Hamburg", "zip_code": "22359", "country": "DE", "state": "HH", "display_address": ["Ohlendorff'sche Villa", "Im Alten Dorfe 28", "22359 Hamburg", "Germany"]}, "phone": "+49406032558", "display_phone": "+49 40 6032558", "distance": 4599.698841592254}, {"id": "bk2qiPr9VurFqhpSBY8uoA", "alias": "hamers-hamburg", "name": "Hamer's", "image_url": "https://s3-media2.fl.yelpcdn.com/bphoto/mKbkUqobN8q_Ke-gSrSVXw/o.jpg", "is_closed": false, "url": "https://www.yelp.com/biz/hamers-hamburg?adjust_creative=hBJOknVQJ58S5goQyjmwRw&utm_campaign=yelp_api_v3&utm_medium=api_v3_business_search&utm_source=hBJOknVQJ58S5goQyjmwRw", "review_count": 2, "categories": [{"alias": "cafes", "title": "Cafes"}], "rating": 2.5, "coordinates": {"latitude": 53.649061, "longitude": 10.164155}, "transactions": [], "price": "\u20ac", "location": {"address1": "Claus-Ferck-Str. 4", "address2": null, "address3": "", "city": "Hamburg", "zip_code": "22359", "country": "DE", "state": "HH", "display_address": ["Claus-Ferck-Str. 4", "22359 Hamburg", "Germany"]}, "phone": "+494030740830", "display_phone": "+49 40 30740830", "distance": 4695.215688580321}, {"id": "LIA9nEzM_IPAg7aWOAuvjg", "alias": "tasty-croque-barsb\u00fcttel", "name": "Tasty Croque", "image_url": "", "is_closed": false, "url": "https://www.yelp.com/biz/tasty-croque-barsb%C3%BCttel?adjust_creative=hBJOknVQJ58S5goQyjmwRw&utm_campaign=yelp_api_v3&utm_medium=api_v3_business_search&utm_source=hBJOknVQJ58S5goQyjmwRw", "review_count": 13, "categories": [{"alias": "creperies", "title": "Creperies"}, {"alias": "sandwiches", "title": "Sandwiches"}], "rating": 3.5, "coordinates": {"latitude": 53.5689387, "longitude": 10.1739782}, "transactions": [], "price": "\u20ac", "location": {"address1": "Willinghusener Landstr. 11b", "address2": null, "address3": null, "city": "Barsb\u00fcttel", "zip_code": "22885", "country": "DE", "state": "SH", "display_address": ["Willinghusener Landstr. 11b", "22885 Barsb\u00fcttel", "Germany"]}, "phone": "+49406703588", "display_phone": "+49 40 6703588", "distance": 4374.4136762234975}, {"id": "APvIA_7ssxgC0atmQEFMcg", "alias": "burgerkultour-food-truck-hamburg-2", "name": "BurgerKultour Food Truck", "image_url": "https://s3-media4.fl.yelpcdn.com/bphoto/KoAuwalMnlAO8139MmdYBQ/o.jpg", "is_closed": false, "url": "https://www.yelp.com/biz/burgerkultour-food-truck-hamburg-2?adjust_creative=hBJOknVQJ58S5goQyjmwRw&utm_campaign=yelp_api_v3&utm_medium=api_v3_business_search&utm_source=hBJOknVQJ58S5goQyjmwRw", "review_count": 3, "categories": [{"alias": "foodtrucks", "title": "Food Trucks"}, {"alias": "burgers", "title": "Burgers"}], "rating": 4.5, "coordinates": {"latitude": 53.57154, "longitude": 9.95575}, "transactions": [], "price": "\u20ac\u20ac", "location": {"address1": "", "address2": "", "address3": "", "city": "Hamburg", "zip_code": "20259", "country": "DE", "state": "HH", "display_address": ["20259 Hamburg", "Germany"]}, "phone": "+4917626055122", "display_phone": "+49 176 26055122", "distance": 15396.134475077986}, {"id": "BnU3fJl_W0xfbLbUxy8JNQ", "alias": "schweinske-hamburg-21", "name": "Schweinske", "image_url": "https://s3-media2.fl.yelpcdn.com/bphoto/ZhfgHKFDPyXMIC0OBZzg7g/o.jpg", "is_closed": false, "url": "https://www.yelp.com/biz/schweinske-hamburg-21?adjust_creative=hBJOknVQJ58S5goQyjmwRw&utm_campaign=yelp_api_v3&utm_medium=api_v3_business_search&utm_source=hBJOknVQJ58S5goQyjmwRw", "review_count": 36, "categories": [{"alias": "german", "title": "German"}, {"alias": "breakfast_brunch", "title": "Breakfast & Brunch"}], "rating": 3.0, "coordinates": {"latitude": 53.6046159, "longitude": 10.1591506}, "transactions": [], "price": "\u20ac\u20ac", "location": {"address1": "Schweriner Str. 8 - 12", "address2": "", "address3": "", "city": "Hamburg", "zip_code": "22143", "country": "DE", "state": "HH", "display_address": ["Schweriner Str. 8 - 12", "22143 Hamburg", "Germany"]}, "phone": "+494067584422", "display_phone": "+49 40 67584422", "distance": 1498.243244911565}, {"id": "n_Yio-a9VzssOtDbgezpRA", "alias": "subu-sushi-burrito-hamburg-3", "name": "Subu Sushi Burrito", "image_url": "https://s3-media3.fl.yelpcdn.com/bphoto/x2oh5mzvkzvrXjswE_MjXQ/o.jpg", "is_closed": false, "url": "https://www.yelp.com/biz/subu-sushi-burrito-hamburg-3?adjust_creative=hBJOknVQJ58S5goQyjmwRw&utm_campaign=yelp_api_v3&utm_medium=api_v3_business_search&utm_source=hBJOknVQJ58S5goQyjmwRw", "review_count": 3, "categories": [{"alias": "foodtrucks", "title": "Food Trucks"}, {"alias": "sushi", "title": "Sushi Bars"}], "rating": 5.0, "coordinates": {"latitude": 53.5526819869811, "longitude": 10.0010880455375}, "transactions": [], "price": "\u20ac", "location": {"address1": "", "address2": "", "address3": "", "city": "Hamburg", "zip_code": "", "country": "DE", "state": "HH", "display_address": ["Hamburg", "Germany"]}, "phone": "+4917670834316", "display_phone": "+49 176 70834316", "distance": 13384.329525289324}, {"id": "d2mtc7YgETaFKEbli95msg", "alias": "bambusgarten-hamburg-3", "name": "Bambusgarten", "image_url": "https://s3-media4.fl.yelpcdn.com/bphoto/QBICO3wxOhAUOB0f56We9g/o.jpg", "is_closed": false, "url": "https://www.yelp.com/biz/bambusgarten-hamburg-3?adjust_creative=hBJOknVQJ58S5goQyjmwRw&utm_campaign=yelp_api_v3&utm_medium=api_v3_business_search&utm_source=hBJOknVQJ58S5goQyjmwRw", "review_count": 29, "categories": [{"alias": "cafes", "title": "Cafes"}], "rating": 2.5, "coordinates": {"latitude": 53.6444, "longitude": 10.19}, "transactions": [], "price": "\u20ac\u20ac", "location": {"address1": "Eulenkrugstr. 190", "address2": null, "address3": null, "city": "Hamburg", "zip_code": "22359", "country": "DE", "state": "HH", "display_address": ["Eulenkrugstr. 190", "22359 Hamburg", "Germany"]}, "phone": "+49405330449190", "display_phone": "+49 40 5330449190", "distance": 4084.185470814838}, {"id": "2jzIbZsfzca5drJYk7JwbQ", "alias": "the-bao-bros-hamburg-2", "name": "The Bao Bros", "image_url": "https://s3-media1.fl.yelpcdn.com/bphoto/vUMA4Y35x3UwZk6fMJfZRw/o.jpg", "is_closed": false, "url": "https://www.yelp.com/biz/the-bao-bros-hamburg-2?adjust_creative=hBJOknVQJ58S5goQyjmwRw&utm_campaign=yelp_api_v3&utm_medium=api_v3_business_search&utm_source=hBJOknVQJ58S5goQyjmwRw", "review_count": 2, "categories": [{"alias": "foodtrucks", "title": "Food Trucks"}, {"alias": "burgers", "title": "Burgers"}], "rating": 4.0, "coordinates": {"latitude": 53.5533409118652, "longitude": 9.99246978759766}, "transactions": [], "price": "\u20ac", "location": {"address1": "", "address2": "", "address3": "", "city": "Hamburg", "zip_code": "", "country": "DE", "state": "HH", "display_address": ["Hamburg", "Germany"]}, "phone": "+4915140700076", "display_phone": "+49 1514 0700076", "distance": 13900.534988847818}, {"id": "T_tQNhEpiurIvuZS3nRbEw", "alias": "le-petit-hamburg", "name": "Le Petit", "image_url": "https://s3-media1.fl.yelpcdn.com/bphoto/NFwrLZWqzWuwQ04gJCm8kA/o.jpg", "is_closed": false, "url": "https://www.yelp.com/biz/le-petit-hamburg?adjust_creative=hBJOknVQJ58S5goQyjmwRw&utm_campaign=yelp_api_v3&utm_medium=api_v3_business_search&utm_source=hBJOknVQJ58S5goQyjmwRw", "review_count": 7, "categories": [{"alias": "cafes", "title": "Cafes"}, {"alias": "bistros", "title": "Bistros"}], "rating": 3.0, "coordinates": {"latitude": 53.6488113, "longitude": 10.1679096}, "transactions": [], "price": "\u20ac", "location": {"address1": "Wiesenh\u00f6fen 3", "address2": "", "address3": "", "city": "Hamburg", "zip_code": "22359", "country": "DE", "state": "HH", "display_address": ["Wiesenh\u00f6fen 3", "22359 Hamburg", "Germany"]}, "phone": "+494054756660", "display_phone": "+49 40 54756660", "distance": 4635.733522646301}, {"id": "SeodQIjOcsrznD7rwIB-Jw", "alias": "the-big-balmy-hamburg-2", "name": "The Big Balmy", "image_url": "https://s3-media2.fl.yelpcdn.com/bphoto/KWUCQvGDONs_iDxlKXzgvQ/o.jpg", "is_closed": false, "url": "https://www.yelp.com/biz/the-big-balmy-hamburg-2?adjust_creative=hBJOknVQJ58S5goQyjmwRw&utm_campaign=yelp_api_v3&utm_medium=api_v3_business_search&utm_source=hBJOknVQJ58S5goQyjmwRw", "review_count": 27, "categories": [{"alias": "burgers", "title": "Burgers"}, {"alias": "foodtrucks", "title": "Food Trucks"}], "rating": 3.5, "coordinates": {"latitude": 53.537786, "longitude": 10.028218}, "transactions": [], "price": "\u20ac\u20ac", "location": {"address1": "", "address2": null, "address3": null, "city": "Hamburg", "zip_code": "", "country": "DE", "state": "HH", "display_address": ["Hamburg", "Germany"]}, "phone": "+494069278630", "display_phone": "+49 40 69278630", "distance": 12765.311369825933}, {"id": "cGIKCcR0wZszz8VldC2-7g", "alias": "currywerk-hamburg", "name": "curryWERK", "image_url": "https://s3-media4.fl.yelpcdn.com/bphoto/j_ZPQAB6JrAru84VDuLiRA/o.jpg", "is_closed": false, "url": "https://www.yelp.com/biz/currywerk-hamburg?adjust_creative=hBJOknVQJ58S5goQyjmwRw&utm_campaign=yelp_api_v3&utm_medium=api_v3_business_search&utm_source=hBJOknVQJ58S5goQyjmwRw", "review_count": 1, "categories": [{"alias": "foodtrucks", "title": "Food Trucks"}, {"alias": "currysausage", "title": "Curry Sausage"}], "rating": 4.0, "coordinates": {"latitude": 53.5498886108398, "longitude": 9.94732189178467}, "transactions": [], "price": "\u20ac\u20ac", "location": {"address1": "", "address2": "", "address3": "", "city": "Hamburg", "zip_code": "22767", "country": "DE", "state": "HH", "display_address": ["22767 Hamburg", "Germany"]}, "phone": "+4917632443433", "display_phone": "+49 176 32443433", "distance": 17064.607097787906}]