[{"id": "4yIsT-7h9V8UdhBeRka-yA", "alias": "restaurant-dubrovnik-hamburg-10", "name": "Restaurant Dubrovnik", "image_url": "https://s3-media1.fl.yelpcdn.com/bphoto/88k35qKYNLbtMpg_44iU1A/o.jpg", "is_closed": false, "url": "https://www.yelp.com/biz/restaurant-dubrovnik-hamburg-10?adjust_creative=hBJOknVQJ58S5goQyjmwRw&utm_campaign=yelp_api_v3&utm_medium=api_v3_business_search&utm_source=hBJOknVQJ58S5goQyjmwRw", "review_count": 24, "categories": [{"alias": "serbocroatian", "title": "Serbo Croatian"}, {"alias": "bowling", "title": "Bowling"}], "rating": 4.5, "coordinates": {"latitude": 53.591581, "longitude": 9.929407}, "transactions": [], "price": "\u20ac\u20ac", "location": {"address1": "Kieler Str. 407", "address2": null, "address3": null, "city": "Hamburg", "zip_code": "22525", "country": "DE", "state": "HH", "display_address": ["Kieler Str. 407", "22525 Hamburg", "Germany"]}, "phone": "+494052014130", "display_phone": "+49 40 52014130", "distance": 2487.417887624792}, {"id": "5b9LYo195qsUCPPLFapjkQ", "alias": "platinum-restaurant-hamburg", "name": "Platinum Restaurant", "image_url": "https://s3-media3.fl.yelpcdn.com/bphoto/amRCSZkKqQVCLf_zPpisJQ/o.jpg", "is_closed": false, "url": "https://www.yelp.com/biz/platinum-restaurant-hamburg?adjust_creative=hBJOknVQJ58S5goQyjmwRw&utm_campaign=yelp_api_v3&utm_medium=api_v3_business_search&utm_source=hBJOknVQJ58S5goQyjmwRw", "review_count": 1, "categories": [{"alias": "restaurants", "title": "Restaurants"}], "rating": 5.0, "coordinates": {"latitude": 53.5891, "longitude": 9.89967}, "transactions": [], "location": {"address1": "Barclaycard Arena", "address2": "Sylvesterallee 10", "address3": null, "city": "Hamburg", "zip_code": "22525", "country": "DE", "state": "HH", "display_address": ["Barclaycard Arena", "Sylvesterallee 10", "22525 Hamburg", "Germany"]}, "phone": "+494088163400", "display_phone": "+49 40 88163400", "distance": 2451.5272583838264}, {"id": "9iU4GLxDHx0fdrS9BKkH2g", "alias": "restaurant-charmant-hamburg", "name": "Restaurant Charmant", "image_url": "https://s3-media4.fl.yelpcdn.com/bphoto/YM5hDRybtZNargM8lqhLTA/o.jpg", "is_closed": false, "url": "https://www.yelp.com/biz/restaurant-charmant-hamburg?adjust_creative=hBJOknVQJ58S5goQyjmwRw&utm_campaign=yelp_api_v3&utm_medium=api_v3_business_search&utm_source=hBJOknVQJ58S5goQyjmwRw", "review_count": 56, "categories": [{"alias": "international", "title": "International"}], "rating": 4.5, "coordinates": {"latitude": 53.596683, "longitude": 9.932584}, "transactions": [], "price": "\u20ac\u20ac\u20ac", "location": {"address1": "Basselweg 102", "address2": "", "address3": null, "city": "Hamburg", "zip_code": "22527", "country": "DE", "state": "HH", "display_address": ["Basselweg 102", "22527 Hamburg", "Germany"]}, "phone": "+494054007071", "display_phone": "+49 40 54007071", "distance": 2176.4866243268543}, {"id": "8LAxLlweKVtus23DrB4Rcg", "alias": "china-restaurant-ho-schnelsen-hamburg-3", "name": "China-Restaurant Ho Schnelsen", "image_url": "https://s3-media3.fl.yelpcdn.com/bphoto/4qydCYSzwz_4WE6qo_Qj5A/o.jpg", "is_closed": false, "url": "https://www.yelp.com/biz/china-restaurant-ho-schnelsen-hamburg-3?adjust_creative=hBJOknVQJ58S5goQyjmwRw&utm_campaign=yelp_api_v3&utm_medium=api_v3_business_search&utm_source=hBJOknVQJ58S5goQyjmwRw", "review_count": 29, "categories": [{"alias": "chinese", "title": "Chinese"}], "rating": 4.5, "coordinates": {"latitude": 53.6358, "longitude": 9.91842}, "transactions": [], "price": "\u20ac\u20ac", "location": {"address1": "Frohmestr. 7", "address2": null, "address3": null, "city": "Hamburg", "zip_code": "22457", "country": "DE", "state": "HH", "display_address": ["Frohmestr. 7", "22457 Hamburg", "Germany"]}, "phone": "+49405504454", "display_phone": "+49 40 5504454", "distance": 2887.7092861306605}, {"id": "oozu61zVmfuI5Vsf6SFdWA", "alias": "bistro-samarkand-hamburg", "name": "Bistro Samarkand", "image_url": "https://s3-media2.fl.yelpcdn.com/bphoto/eYhobGvGzbJDQHyT7x6jrg/o.jpg", "is_closed": false, "url": "https://www.yelp.com/biz/bistro-samarkand-hamburg?adjust_creative=hBJOknVQJ58S5goQyjmwRw&utm_campaign=yelp_api_v3&utm_medium=api_v3_business_search&utm_source=hBJOknVQJ58S5goQyjmwRw", "review_count": 19, "categories": [{"alias": "international", "title": "International"}], "rating": 4.5, "coordinates": {"latitude": 53.5734, "longitude": 9.89109}, "transactions": [], "price": "\u20ac", "location": {"address1": "Notke Str. 2", "address2": null, "address3": null, "city": "Hamburg", "zip_code": "22607", "country": "DE", "state": "HH", "display_address": ["Notke Str. 2", "22607 Hamburg", "Germany"]}, "phone": "+49408903228", "display_phone": "+49 40 8903228", "distance": 4285.143372201413}, {"id": "qUJfOZZ4S69Amwf8J8SS8w", "alias": "osteria-da-vino-hamburg", "name": "Osteria da Vino", "image_url": "https://s3-media3.fl.yelpcdn.com/bphoto/p7gn9gWX4XVKALvT-dZGOA/o.jpg", "is_closed": false, "url": "https://www.yelp.com/biz/osteria-da-vino-hamburg?adjust_creative=hBJOknVQJ58S5goQyjmwRw&utm_campaign=yelp_api_v3&utm_medium=api_v3_business_search&utm_source=hBJOknVQJ58S5goQyjmwRw", "review_count": 25, "categories": [{"alias": "italian", "title": "Italian"}], "rating": 4.0, "coordinates": {"latitude": 53.6289366, "longitude": 9.92505}, "transactions": [], "price": "\u20ac\u20ac", "location": {"address1": "Heidlohstr. 20", "address2": null, "address3": null, "city": "Hamburg", "zip_code": "22459", "country": "DE", "state": "HH", "display_address": ["Heidlohstr. 20", "22459 Hamburg", "Germany"]}, "phone": "+49405592696", "display_phone": "+49 40 5592696", "distance": 2311.689870213214}, {"id": "KMR_rm7jfAIowh9B9bj6Kw", "alias": "il-cortile-hamburg-2", "name": "Il Cortile", "image_url": "https://s3-media4.fl.yelpcdn.com/bphoto/2Zzcm6kmMhhwnJPXwVOSlw/o.jpg", "is_closed": false, "url": "https://www.yelp.com/biz/il-cortile-hamburg-2?adjust_creative=hBJOknVQJ58S5goQyjmwRw&utm_campaign=yelp_api_v3&utm_medium=api_v3_business_search&utm_source=hBJOknVQJ58S5goQyjmwRw", "review_count": 7, "categories": [{"alias": "bistros", "title": "Bistros"}, {"alias": "italian", "title": "Italian"}, {"alias": "wine_bars", "title": "Wine Bars"}], "rating": 4.5, "coordinates": {"latitude": 53.5700549275886, "longitude": 9.89661578427286}, "transactions": [], "price": "\u20ac\u20ac", "location": {"address1": "Theodorstr. 41z", "address2": "", "address3": "", "city": "Hamburg", "zip_code": "22761", "country": "DE", "state": "HH", "display_address": ["Theodorstr. 41z", "22761 Hamburg", "Germany"]}, "phone": "+494088167216", "display_phone": "+49 40 88167216", "distance": 4563.97738862822}, {"id": "Dz59pZ2DIT0jAMfgy005SQ", "alias": "makalu-kitchen-hamburg", "name": "Makalu Kitchen", "image_url": "https://s3-media1.fl.yelpcdn.com/bphoto/wXmB_Me-urUFCV75wbKfuw/o.jpg", "is_closed": false, "url": "https://www.yelp.com/biz/makalu-kitchen-hamburg?adjust_creative=hBJOknVQJ58S5goQyjmwRw&utm_campaign=yelp_api_v3&utm_medium=api_v3_business_search&utm_source=hBJOknVQJ58S5goQyjmwRw", "review_count": 5, "categories": [{"alias": "sushi", "title": "Sushi Bars"}, {"alias": "panasian", "title": "Pan Asian"}], "rating": 5.0, "coordinates": {"latitude": 53.5898899, "longitude": 9.91967}, "transactions": [], "price": "\u20ac\u20ac", "location": {"address1": "Randstr. 111", "address2": "", "address3": null, "city": "Hamburg", "zip_code": "22525", "country": "DE", "state": "HH", "display_address": ["Randstr. 111", "22525 Hamburg", "Germany"]}, "phone": "+494056194442", "display_phone": "+49 40 56194442", "distance": 2373.618066508414}, {"id": "QtVFQJkzY8laiJ_BKZbVhA", "alias": "l-incontro-hamburg-2", "name": "L'Incontro", "image_url": "https://s3-media2.fl.yelpcdn.com/bphoto/3WH_NqkyvxVdTD_A9EafNw/o.jpg", "is_closed": false, "url": "https://www.yelp.com/biz/l-incontro-hamburg-2?adjust_creative=hBJOknVQJ58S5goQyjmwRw&utm_campaign=yelp_api_v3&utm_medium=api_v3_business_search&utm_source=hBJOknVQJ58S5goQyjmwRw", "review_count": 9, "categories": [{"alias": "italian", "title": "Italian"}], "rating": 4.0, "coordinates": {"latitude": 53.57328, "longitude": 9.89216}, "transactions": [], "price": "\u20ac\u20ac", "location": {"address1": "Ebertallee 232", "address2": "", "address3": "", "city": "Hamburg", "zip_code": "22607", "country": "DE", "state": "HH", "display_address": ["Ebertallee 232", "22607 Hamburg", "Germany"]}, "phone": "+494031992211", "display_phone": "+49 40 31992211", "distance": 4278.979613238863}, {"id": "r15cYTTdWBpHc7bgEk7YLQ", "alias": "iss-gut-hamburg", "name": "Iss Gut", "image_url": "https://s3-media4.fl.yelpcdn.com/bphoto/A7l6Zm9SvU5sE9gH0Ob86w/o.jpg", "is_closed": false, "url": "https://www.yelp.com/biz/iss-gut-hamburg?adjust_creative=hBJOknVQJ58S5goQyjmwRw&utm_campaign=yelp_api_v3&utm_medium=api_v3_business_search&utm_source=hBJOknVQJ58S5goQyjmwRw", "review_count": 1, "categories": [{"alias": "indpak", "title": "Indian"}, {"alias": "international", "title": "International"}], "rating": 4.0, "coordinates": {"latitude": 53.590977, "longitude": 9.907776}, "transactions": [], "price": "\u20ac", "location": {"address1": "Ottensener Str. 86", "address2": null, "address3": null, "city": "Hamburg", "zip_code": "22525", "country": "DE", "state": "HH", "display_address": ["Ottensener Str. 86", "22525 Hamburg", "Germany"]}, "phone": "+494046634096", "display_phone": "+49 40 46634096", "distance": 2164.369958976095}, {"id": "v7pzQnz0d0xs8fFyLXFP5g", "alias": "joks-steakhouse-hamburg", "name": "Jok's Steakhouse", "image_url": "https://s3-media2.fl.yelpcdn.com/bphoto/7P1RhkDr4svJE6oEe69NsA/o.jpg", "is_closed": false, "url": "https://www.yelp.com/biz/joks-steakhouse-hamburg?adjust_creative=hBJOknVQJ58S5goQyjmwRw&utm_campaign=yelp_api_v3&utm_medium=api_v3_business_search&utm_source=hBJOknVQJ58S5goQyjmwRw", "review_count": 71, "categories": [{"alias": "steak", "title": "Steakhouses"}], "rating": 4.0, "coordinates": {"latitude": 53.63533, "longitude": 9.91884}, "transactions": [], "price": "\u20ac\u20ac", "location": {"address1": "Frohmestr. 11", "address2": null, "address3": null, "city": "Hamburg", "zip_code": "22457", "country": "DE", "state": "HH", "display_address": ["Frohmestr. 11", "22457 Hamburg", "Germany"]}, "phone": "+49405594459", "display_phone": "+49 40 5594459", "distance": 2867.5027357604604}, {"id": "y99Dx16-iQnGbYewdY2avQ", "alias": "cafesito-hamburg", "name": "Cafesito", "image_url": "https://s3-media2.fl.yelpcdn.com/bphoto/Vhj9HucNteaHZLfXDDpQZQ/o.jpg", "is_closed": false, "url": "https://www.yelp.com/biz/cafesito-hamburg?adjust_creative=hBJOknVQJ58S5goQyjmwRw&utm_campaign=yelp_api_v3&utm_medium=api_v3_business_search&utm_source=hBJOknVQJ58S5goQyjmwRw", "review_count": 7, "categories": [{"alias": "cafes", "title": "Cafes"}], "rating": 4.5, "coordinates": {"latitude": 53.6076505056097, "longitude": 9.90251942255149}, "transactions": [], "price": "\u20ac", "location": {"address1": "Ekenknick 7", "address2": "", "address3": "", "city": "Hamburg", "zip_code": "22523", "country": "DE", "state": "HH", "display_address": ["Ekenknick 7", "22523 Hamburg", "Germany"]}, "phone": "+494020226583", "display_phone": "+49 40 20226583", "distance": 532.3694092986483}, {"id": "YRasnJiv7h-b4tRn0KNpYg", "alias": "osteria-da-vino-due-ellerbek-2", "name": "Osteria da vino due", "image_url": "https://s3-media1.fl.yelpcdn.com/bphoto/BiR08U4iMiR6srOZCVnVbw/o.jpg", "is_closed": false, "url": "https://www.yelp.com/biz/osteria-da-vino-due-ellerbek-2?adjust_creative=hBJOknVQJ58S5goQyjmwRw&utm_campaign=yelp_api_v3&utm_medium=api_v3_business_search&utm_source=hBJOknVQJ58S5goQyjmwRw", "review_count": 9, "categories": [{"alias": "italian", "title": "Italian"}], "rating": 4.5, "coordinates": {"latitude": 53.6383, "longitude": 9.89487}, "transactions": [], "price": "\u20ac\u20ac", "location": {"address1": "Pinneberger Str. 167", "address2": null, "address3": null, "city": "Ellerbek", "zip_code": "25474", "country": "DE", "state": "SH", "display_address": ["Pinneberger Str. 167", "25474 Ellerbek", "Germany"]}, "phone": "+4941015389474", "display_phone": "+49 4101 5389474", "distance": 3238.304883944345}, {"id": "t2bfjk3lmkS4tJJnwkIdJg", "alias": "achillion-hamburg", "name": "Achillion", "image_url": "https://s3-media1.fl.yelpcdn.com/bphoto/3n7FSMvN_Ng2k3IULfhJzQ/o.jpg", "is_closed": false, "url": "https://www.yelp.com/biz/achillion-hamburg?adjust_creative=hBJOknVQJ58S5goQyjmwRw&utm_campaign=yelp_api_v3&utm_medium=api_v3_business_search&utm_source=hBJOknVQJ58S5goQyjmwRw", "review_count": 6, "categories": [{"alias": "greek", "title": "Greek"}], "rating": 4.5, "coordinates": {"latitude": 53.609, "longitude": 9.90392}, "transactions": [], "location": {"address1": "Pinneberger Chaussee  4", "address2": null, "address3": null, "city": "Hamburg", "zip_code": "22523", "country": "DE", "state": "HH", "display_address": ["Pinneberger Chaussee  4", "22523 Hamburg", "Germany"]}, "phone": "+494057260833", "display_phone": "+49 40 57260833", "distance": 376.4126089116887}, {"id": "qAIUokSR7-diqB_3ecp_JQ", "alias": "taverna-kronos-hamburg", "name": "Taverna Kronos", "image_url": "https://s3-media3.fl.yelpcdn.com/bphoto/YcOLKxFk8Li3tGRPjV6V9A/o.jpg", "is_closed": false, "url": "https://www.yelp.com/biz/taverna-kronos-hamburg?adjust_creative=hBJOknVQJ58S5goQyjmwRw&utm_campaign=yelp_api_v3&utm_medium=api_v3_business_search&utm_source=hBJOknVQJ58S5goQyjmwRw", "review_count": 12, "categories": [{"alias": "mediterranean", "title": "Mediterranean"}, {"alias": "greek", "title": "Greek"}], "rating": 4.0, "coordinates": {"latitude": 53.624055, "longitude": 9.908812}, "transactions": [], "price": "\u20ac\u20ac", "location": {"address1": "Holsteiner Chaussee 177", "address2": null, "address3": "", "city": "Hamburg", "zip_code": "22457", "country": "DE", "state": "HH", "display_address": ["Holsteiner Chaussee 177", "22457 Hamburg", "Germany"]}, "phone": "+494055009337", "display_phone": "+49 40 55009337", "distance": 1515.5969993958588}, {"id": "0EyKrwJO8JP_WDWCP005MQ", "alias": "fr\u00fchst\u00fccksladen-hamburg", "name": "Fr\u00fchst\u00fccksladen", "image_url": "https://s3-media1.fl.yelpcdn.com/bphoto/ChSkmGWkSxtfPe-yRMMBWQ/o.jpg", "is_closed": false, "url": "https://www.yelp.com/biz/fr%C3%BChst%C3%BCcksladen-hamburg?adjust_creative=hBJOknVQJ58S5goQyjmwRw&utm_campaign=yelp_api_v3&utm_medium=api_v3_business_search&utm_source=hBJOknVQJ58S5goQyjmwRw", "review_count": 4, "categories": [{"alias": "breakfast_brunch", "title": "Breakfast & Brunch"}], "rating": 5.0, "coordinates": {"latitude": 53.595812, "longitude": 9.903667}, "transactions": [], "price": "\u20ac", "location": {"address1": "Fangdieckstr. 20", "address2": "", "address3": "", "city": "Hamburg", "zip_code": "22547", "country": "DE", "state": "HH", "display_address": ["Fangdieckstr. 20", "22547 Hamburg", "Germany"]}, "phone": "+4940545624", "display_phone": "+49 40 545624", "distance": 1663.9898851665732}, {"id": "zKyHWJSARvZG1rKvKqRL6w", "alias": "athina-hamburg", "name": "Athina", "image_url": "https://s3-media1.fl.yelpcdn.com/bphoto/36so5xs6iI1wF8fSaA9ifA/o.jpg", "is_closed": false, "url": "https://www.yelp.com/biz/athina-hamburg?adjust_creative=hBJOknVQJ58S5goQyjmwRw&utm_campaign=yelp_api_v3&utm_medium=api_v3_business_search&utm_source=hBJOknVQJ58S5goQyjmwRw", "review_count": 18, "categories": [{"alias": "greek", "title": "Greek"}], "rating": 4.5, "coordinates": {"latitude": 53.62741, "longitude": 9.90948}, "transactions": [], "price": "\u20ac\u20ac", "location": {"address1": "Holsteiner Chaussee 211", "address2": null, "address3": null, "city": "Hamburg", "zip_code": "22457", "country": "DE", "state": "HH", "display_address": ["Holsteiner Chaussee 211", "22457 Hamburg", "Germany"]}, "phone": "+49405509376", "display_phone": "+49 40 5509376", "distance": 1888.7114530206043}, {"id": "6wCuSmqX1oPUMp2jrFQUlA", "alias": "il-tesoro-hamburg", "name": "Il Tesoro", "image_url": "https://s3-media3.fl.yelpcdn.com/bphoto/wOM2tOtdTE55Qdz9uEZ-_w/o.jpg", "is_closed": false, "url": "https://www.yelp.com/biz/il-tesoro-hamburg?adjust_creative=hBJOknVQJ58S5goQyjmwRw&utm_campaign=yelp_api_v3&utm_medium=api_v3_business_search&utm_source=hBJOknVQJ58S5goQyjmwRw", "review_count": 36, "categories": [{"alias": "italian", "title": "Italian"}], "rating": 3.5, "coordinates": {"latitude": 53.607782, "longitude": 9.906191}, "transactions": [], "price": "\u20ac\u20ac", "location": {"address1": "Kieler Str. 702", "address2": "", "address3": null, "city": "Hamburg", "zip_code": "22527", "country": "DE", "state": "HH", "display_address": ["Kieler Str. 702", "22527 Hamburg", "Germany"]}, "phone": "+49405704330", "display_phone": "+49 40 5704330", "distance": 350.9007641349135}, {"id": "WOqDzqq1Tc8HOuFbNJlbeg", "alias": "das-caf\u00e9-hamburg-5", "name": "Das Caf\u00e9", "image_url": "https://s3-media2.fl.yelpcdn.com/bphoto/N0gPtpYLl4DS5ESvdER3MQ/o.jpg", "is_closed": false, "url": "https://www.yelp.com/biz/das-caf%C3%A9-hamburg-5?adjust_creative=hBJOknVQJ58S5goQyjmwRw&utm_campaign=yelp_api_v3&utm_medium=api_v3_business_search&utm_source=hBJOknVQJ58S5goQyjmwRw", "review_count": 1, "categories": [{"alias": "cafes", "title": "Cafes"}], "rating": 5.0, "coordinates": {"latitude": 53.57038, "longitude": 9.88707}, "transactions": [], "location": {"address1": "Steenkamp 16", "address2": "", "address3": "", "city": "Hamburg", "zip_code": "22607", "country": "DE", "state": "HH", "display_address": ["Steenkamp 16", "22607 Hamburg", "Germany"]}, "phone": "", "display_phone": "", "distance": 4684.975024767643}, {"id": "9ie_J-ExumhDRpSA_XMdJA", "alias": "tunicis-restaurant-dubrovnik-hamburg-7", "name": "Tunici's Restaurant Dubrovnik", "image_url": "https://s3-media1.fl.yelpcdn.com/bphoto/VZy1pwItmkX7S00N0p7RqQ/o.jpg", "is_closed": false, "url": "https://www.yelp.com/biz/tunicis-restaurant-dubrovnik-hamburg-7?adjust_creative=hBJOknVQJ58S5goQyjmwRw&utm_campaign=yelp_api_v3&utm_medium=api_v3_business_search&utm_source=hBJOknVQJ58S5goQyjmwRw", "review_count": 11, "categories": [{"alias": "serbocroatian", "title": "Serbo Croatian"}], "rating": 4.5, "coordinates": {"latitude": 53.5708602092456, "longitude": 9.89808987826109}, "transactions": [], "price": "\u20ac\u20ac", "location": {"address1": "Luruper Chaussee 2", "address2": "", "address3": "", "city": "Hamburg", "zip_code": "22761", "country": "DE", "state": "HH", "display_address": ["Luruper Chaussee 2", "22761 Hamburg", "Germany"]}, "phone": "+494089066444", "display_phone": "+49 40 89066444", "distance": 4459.055292922439}, {"id": "XUcJ8_4fM5UYeIvddit8Cw", "alias": "salat-paradies-hamburg", "name": "Salat Paradies", "image_url": "https://s3-media2.fl.yelpcdn.com/bphoto/20oszzjcj1Do5jfzrffP-g/o.jpg", "is_closed": false, "url": "https://www.yelp.com/biz/salat-paradies-hamburg?adjust_creative=hBJOknVQJ58S5goQyjmwRw&utm_campaign=yelp_api_v3&utm_medium=api_v3_business_search&utm_source=hBJOknVQJ58S5goQyjmwRw", "review_count": 6, "categories": [{"alias": "salad", "title": "Salad"}], "rating": 5.0, "coordinates": {"latitude": 53.60903, "longitude": 9.90259}, "transactions": [], "price": "\u20ac", "location": {"address1": "Pinneberger Chaussee 9", "address2": "", "address3": "", "city": "Hamburg", "zip_code": "22523", "country": "DE", "state": "HH", "display_address": ["Pinneberger Chaussee 9", "22523 Hamburg", "Germany"]}, "phone": "", "display_phone": "", "distance": 456.3385699291764}, {"id": "FieMzM-1Zvj3Ngdq1-A8nA", "alias": "hunger-und-durst-hamburg", "name": "Hunger & Durst", "image_url": "https://s3-media1.fl.yelpcdn.com/bphoto/mlSPKn6dFKdLHd3xdjC3Mw/o.jpg", "is_closed": false, "url": "https://www.yelp.com/biz/hunger-und-durst-hamburg?adjust_creative=hBJOknVQJ58S5goQyjmwRw&utm_campaign=yelp_api_v3&utm_medium=api_v3_business_search&utm_source=hBJOknVQJ58S5goQyjmwRw", "review_count": 3, "categories": [{"alias": "drugstores", "title": "Drugstores"}, {"alias": "bistros", "title": "Bistros"}, {"alias": "pubs", "title": "Pubs"}], "rating": 4.5, "coordinates": {"latitude": 53.5898, "longitude": 9.91892}, "transactions": [], "location": {"address1": "Volksparkstr. 81", "address2": null, "address3": null, "city": "Hamburg", "zip_code": "22525", "country": "DE", "state": "HH", "display_address": ["Volksparkstr. 81", "22525 Hamburg", "Germany"]}, "phone": "+494054763736", "display_phone": "+49 40 54763736", "distance": 2383.3642836875274}, {"id": "tEEGKkgP0IHjMxXlhZuV8g", "alias": "d\u00f6ner-pavillon-hamburg", "name": "D\u00f6ner Pavillon", "image_url": "https://s3-media1.fl.yelpcdn.com/bphoto/zymlHwZCyYFWuL_WKs6stw/o.jpg", "is_closed": false, "url": "https://www.yelp.com/biz/d%C3%B6ner-pavillon-hamburg?adjust_creative=hBJOknVQJ58S5goQyjmwRw&utm_campaign=yelp_api_v3&utm_medium=api_v3_business_search&utm_source=hBJOknVQJ58S5goQyjmwRw", "review_count": 16, "categories": [{"alias": "cafes", "title": "Cafes"}, {"alias": "kebab", "title": "Kebab"}, {"alias": "sportsbars", "title": "Sports Bars"}], "rating": 4.5, "coordinates": {"latitude": 53.6327876988814, "longitude": 9.91132510004275}, "transactions": [], "price": "\u20ac", "location": {"address1": "Oldesloer Str. 2", "address2": "", "address3": "", "city": "Hamburg", "zip_code": "22457", "country": "DE", "state": "HH", "display_address": ["Oldesloer Str. 2", "22457 Hamburg", "Germany"]}, "phone": "+494018107415", "display_phone": "+49 40 18107415", "distance": 2490.859214613824}, {"id": "o2T6iyuombynllX-qGb-AQ", "alias": "hellas-hamburg-2", "name": "Hellas", "image_url": "https://s3-media3.fl.yelpcdn.com/bphoto/w2DIGy_eKDVLfLWp_HTF0A/o.jpg", "is_closed": false, "url": "https://www.yelp.com/biz/hellas-hamburg-2?adjust_creative=hBJOknVQJ58S5goQyjmwRw&utm_campaign=yelp_api_v3&utm_medium=api_v3_business_search&utm_source=hBJOknVQJ58S5goQyjmwRw", "review_count": 28, "categories": [{"alias": "greek", "title": "Greek"}], "rating": 4.5, "coordinates": {"latitude": 53.6333, "longitude": 9.91477}, "transactions": [], "price": "\u20ac\u20ac", "location": {"address1": "Riekbornweg 16", "address2": null, "address3": null, "city": "Hamburg", "zip_code": "22457", "country": "DE", "state": "HH", "display_address": ["Riekbornweg 16", "22457 Hamburg", "Germany"]}, "phone": "+494097078235", "display_phone": "+49 40 97078235", "distance": 2570.8682932673732}, {"id": "ezC_Io9n1-wurgfn109CTQ", "alias": "rach-and-ritchy-hamburg", "name": "Rach & Ritchy", "image_url": "https://s3-media2.fl.yelpcdn.com/bphoto/cyQ3XL2j24Rs9P8gOfVfVA/o.jpg", "is_closed": false, "url": "https://www.yelp.com/biz/rach-and-ritchy-hamburg?adjust_creative=hBJOknVQJ58S5goQyjmwRw&utm_campaign=yelp_api_v3&utm_medium=api_v3_business_search&utm_source=hBJOknVQJ58S5goQyjmwRw", "review_count": 143, "categories": [{"alias": "steak", "title": "Steakhouses"}, {"alias": "modern_european", "title": "Modern European"}], "rating": 4.0, "coordinates": {"latitude": 53.570595, "longitude": 9.918336}, "transactions": [], "price": "\u20ac\u20ac\u20ac", "location": {"address1": "Holstenkamp 71", "address2": null, "address3": null, "city": "Hamburg", "zip_code": "22525", "country": "DE", "state": "HH", "display_address": ["Holstenkamp 71", "22525 Hamburg", "Germany"]}, "phone": "+494089726170", "display_phone": "+49 40 89726170", "distance": 4467.2451130981}, {"id": "xQ9m6F0tj5fb9bv2I4zcLA", "alias": "hofcaf\u00e9-ramcke-hamburg", "name": "Hofcaf\u00e9 Ramcke", "image_url": "https://s3-media1.fl.yelpcdn.com/bphoto/mPeKR8z7zqCu74Q39Ct39g/o.jpg", "is_closed": false, "url": "https://www.yelp.com/biz/hofcaf%C3%A9-ramcke-hamburg?adjust_creative=hBJOknVQJ58S5goQyjmwRw&utm_campaign=yelp_api_v3&utm_medium=api_v3_business_search&utm_source=hBJOknVQJ58S5goQyjmwRw", "review_count": 5, "categories": [{"alias": "cafes", "title": "Cafes"}], "rating": 4.0, "coordinates": {"latitude": 53.6023809449393, "longitude": 9.90948289632797}, "transactions": [], "price": "\u20ac", "location": {"address1": "Reichsbahnstr. 10", "address2": "", "address3": "", "city": "Hamburg", "zip_code": "22525", "country": "DE", "state": "HH", "display_address": ["Reichsbahnstr. 10", "22525 Hamburg", "Germany"]}, "phone": "+494043261980", "display_phone": "+49 40 43261980", "distance": 894.9263104994649}, {"id": "7-IKoXs-UJw0hoGlVu7tRQ", "alias": "mahlzeit-live-hamburg", "name": "Mahlzeit Live", "image_url": "https://s3-media1.fl.yelpcdn.com/bphoto/9-61pLmaQKtLBN5DAIp87w/o.jpg", "is_closed": false, "url": "https://www.yelp.com/biz/mahlzeit-live-hamburg?adjust_creative=hBJOknVQJ58S5goQyjmwRw&utm_campaign=yelp_api_v3&utm_medium=api_v3_business_search&utm_source=hBJOknVQJ58S5goQyjmwRw", "review_count": 105, "categories": [{"alias": "mongolian", "title": "Mongolian"}, {"alias": "chinese", "title": "Chinese"}, {"alias": "panasian", "title": "Pan Asian"}], "rating": 3.5, "coordinates": {"latitude": 53.575429, "longitude": 9.888661}, "transactions": [], "price": "\u20ac\u20ac", "location": {"address1": "Albert-Einstein-Ring 8", "address2": "", "address3": "", "city": "Hamburg", "zip_code": "22761", "country": "DE", "state": "HH", "display_address": ["Albert-Einstein-Ring 8", "22761 Hamburg", "Germany"]}, "phone": "+494080030308", "display_phone": "+49 40 80030308", "distance": 4113.152970590802}, {"id": "BNhgwuvCDpYl1P9VZqxUXQ", "alias": "tao-hamburg", "name": "TAO", "image_url": "https://s3-media3.fl.yelpcdn.com/bphoto/A-jJ7kuxIvQZq5vgpku80Q/o.jpg", "is_closed": false, "url": "https://www.yelp.com/biz/tao-hamburg?adjust_creative=hBJOknVQJ58S5goQyjmwRw&utm_campaign=yelp_api_v3&utm_medium=api_v3_business_search&utm_source=hBJOknVQJ58S5goQyjmwRw", "review_count": 37, "categories": [{"alias": "chinese", "title": "Chinese"}], "rating": 3.5, "coordinates": {"latitude": 53.5923654, "longitude": 9.9340022}, "transactions": [], "price": "\u20ac\u20ac", "location": {"address1": "Basselweg 73", "address2": "", "address3": "", "city": "Hamburg", "zip_code": "22527", "country": "DE", "state": "HH", "display_address": ["Basselweg 73", "22527 Hamburg", "Germany"]}, "phone": "+494057004318", "display_phone": "+49 40 57004318", "distance": 2594.9871945042364}, {"id": "N4FRaSViYY5GMzVIm5bMag", "alias": "waldcafe-restaurant-corell-hamburg", "name": "Waldcafe Restaurant Corell", "image_url": "https://s3-media3.fl.yelpcdn.com/bphoto/7r7cFFhZjmvt6tuCXpE8yg/o.jpg", "is_closed": false, "url": "https://www.yelp.com/biz/waldcafe-restaurant-corell-hamburg?adjust_creative=hBJOknVQJ58S5goQyjmwRw&utm_campaign=yelp_api_v3&utm_medium=api_v3_business_search&utm_source=hBJOknVQJ58S5goQyjmwRw", "review_count": 59, "categories": [{"alias": "northerngerman", "title": "Northern German"}], "rating": 4.0, "coordinates": {"latitude": 53.61578, "longitude": 9.93239}, "transactions": [], "price": "\u20ac\u20ac", "location": {"address1": "Niendorfer Gehege 50", "address2": null, "address3": null, "city": "Hamburg", "zip_code": "22453", "country": "DE", "state": "HH", "display_address": ["Niendorfer Gehege 50", "22453 Hamburg", "Germany"]}, "phone": "+4940585378", "display_phone": "+49 40 585378", "distance": 1631.7721443498133}, {"id": "zaR5yCUNiVbofbciH46tTQ", "alias": "montgomery-champs-hamburg-2", "name": "Montgomery Champs", "image_url": "https://s3-media1.fl.yelpcdn.com/bphoto/APKqvOnmSjrLokmzeQPwWw/o.jpg", "is_closed": false, "url": "https://www.yelp.com/biz/montgomery-champs-hamburg-2?adjust_creative=hBJOknVQJ58S5goQyjmwRw&utm_campaign=yelp_api_v3&utm_medium=api_v3_business_search&utm_source=hBJOknVQJ58S5goQyjmwRw", "review_count": 187, "categories": [{"alias": "bars", "title": "Bars"}, {"alias": "tradamerican", "title": "American (Traditional)"}], "rating": 3.5, "coordinates": {"latitude": 53.6475099, "longitude": 9.90794}, "transactions": [], "price": "\u20ac\u20ac", "location": {"address1": "Holsteiner Chaussee 402", "address2": null, "address3": null, "city": "Hamburg", "zip_code": "22457", "country": "DE", "state": "HH", "display_address": ["Holsteiner Chaussee 402", "22457 Hamburg", "Germany"]}, "phone": "+494055979x10", "display_phone": "+49 40 55979 ext. 10", "distance": 4125.473297349034}, {"id": "BQdrXWu6EZznHBDNu3C3aA", "alias": "qur-thai-drei-jai-hamburg", "name": "Qur Thai drei Jai", "image_url": "https://s3-media1.fl.yelpcdn.com/bphoto/qEn2kdcFTkh16Ue7jtdSqg/o.jpg", "is_closed": false, "url": "https://www.yelp.com/biz/qur-thai-drei-jai-hamburg?adjust_creative=hBJOknVQJ58S5goQyjmwRw&utm_campaign=yelp_api_v3&utm_medium=api_v3_business_search&utm_source=hBJOknVQJ58S5goQyjmwRw", "review_count": 4, "categories": [{"alias": "thai", "title": "Thai"}], "rating": 4.0, "coordinates": {"latitude": 53.63584, "longitude": 9.91656}, "transactions": [], "location": {"address1": "Oldesloer Str. 33", "address2": "", "address3": null, "city": "Hamburg", "zip_code": "22457", "country": "DE", "state": "HH", "display_address": ["Oldesloer Str. 33", "22457 Hamburg", "Germany"]}, "phone": "+4957148736", "display_phone": "+49 571 48736", "distance": 2870.486732407374}, {"id": "80eTRYVDuR5XxRO-ytB3rA", "alias": "apollon-hamburg-2", "name": "Apollon", "image_url": "https://s3-media4.fl.yelpcdn.com/bphoto/W3VUqrNgb-u0B-cYtM5hBA/o.jpg", "is_closed": false, "url": "https://www.yelp.com/biz/apollon-hamburg-2?adjust_creative=hBJOknVQJ58S5goQyjmwRw&utm_campaign=yelp_api_v3&utm_medium=api_v3_business_search&utm_source=hBJOknVQJ58S5goQyjmwRw", "review_count": 9, "categories": [{"alias": "greek", "title": "Greek"}], "rating": 3.5, "coordinates": {"latitude": 53.5994664555587, "longitude": 9.92218751460314}, "transactions": [], "price": "\u20ac\u20ac", "location": {"address1": "Nienredder 1", "address2": "", "address3": "", "city": "Hamburg", "zip_code": "22527", "country": "DE", "state": "HH", "display_address": ["Nienredder 1", "22527 Hamburg", "Germany"]}, "phone": "+49405408436", "display_phone": "+49 40 5408436", "distance": 1493.7370678736102}, {"id": "cwCtFenHJchTmZJoGXUq1g", "alias": "al-amir-hamburg-2", "name": "Al Amir", "image_url": "https://s3-media4.fl.yelpcdn.com/bphoto/wS6Zm0JlJnXAVBXtF--e0g/o.jpg", "is_closed": false, "url": "https://www.yelp.com/biz/al-amir-hamburg-2?adjust_creative=hBJOknVQJ58S5goQyjmwRw&utm_campaign=yelp_api_v3&utm_medium=api_v3_business_search&utm_source=hBJOknVQJ58S5goQyjmwRw", "review_count": 1, "categories": [{"alias": "falafel", "title": "Falafel"}, {"alias": "arabian", "title": "Arabian"}], "rating": 4.0, "coordinates": {"latitude": 53.6064816604014, "longitude": 9.90122202783823}, "transactions": [], "location": {"address1": "Elbgaustr. 34", "address2": "", "address3": null, "city": "Hamburg", "zip_code": "22523", "country": "DE", "state": "HH", "display_address": ["Elbgaustr. 34", "22523 Hamburg", "Germany"]}, "phone": "+494030722934", "display_phone": "+49 40 30722934", "distance": 679.7938858556977}, {"id": "wCu4eQoOsWynAadvGCkfWA", "alias": "block-house-hamburg-16", "name": "Block House", "image_url": "https://s3-media2.fl.yelpcdn.com/bphoto/fFeTmLZ458Kle4uUO_iizg/o.jpg", "is_closed": false, "url": "https://www.yelp.com/biz/block-house-hamburg-16?adjust_creative=hBJOknVQJ58S5goQyjmwRw&utm_campaign=yelp_api_v3&utm_medium=api_v3_business_search&utm_source=hBJOknVQJ58S5goQyjmwRw", "review_count": 45, "categories": [{"alias": "steak", "title": "Steakhouses"}], "rating": 4.0, "coordinates": {"latitude": 53.6067964922858, "longitude": 9.90292561421343}, "transactions": [], "price": "\u20ac\u20ac\u20ac", "location": {"address1": "Alte Elbgaustr. 9", "address2": null, "address3": null, "city": "Hamburg", "zip_code": "22523", "country": "DE", "state": "HH", "display_address": ["Alte Elbgaustr. 9", "22523 Hamburg", "Germany"]}, "phone": "+49405703434", "display_phone": "+49 40 5703434", "distance": 573.1671983137147}, {"id": "zdoi8QqUP5r4YBd22NJx5Q", "alias": "moin-moin-hamburg-2", "name": "Moin Moin", "image_url": "", "is_closed": false, "url": "https://www.yelp.com/biz/moin-moin-hamburg-2?adjust_creative=hBJOknVQJ58S5goQyjmwRw&utm_campaign=yelp_api_v3&utm_medium=api_v3_business_search&utm_source=hBJOknVQJ58S5goQyjmwRw", "review_count": 1, "categories": [{"alias": "currysausage", "title": "Curry Sausage"}], "rating": 5.0, "coordinates": {"latitude": 53.5945, "longitude": 9.9046}, "transactions": [], "price": "\u20ac", "location": {"address1": "Schnackenburgallee 200", "address2": null, "address3": null, "city": "Hamburg", "zip_code": "22525", "country": "DE", "state": "HH", "display_address": ["Schnackenburgallee 200", "22525 Hamburg", "Germany"]}, "phone": "+4940542895", "display_phone": "+49 40 542895", "distance": 1795.543660548751}, {"id": "F8G8WNeh7tWkHGsHMKzWcA", "alias": "stadion-eck-hamburg", "name": "Stadion Eck", "image_url": "https://s3-media1.fl.yelpcdn.com/bphoto/HtkwzYkXoOzY7mudJ-S2Aw/o.jpg", "is_closed": false, "url": "https://www.yelp.com/biz/stadion-eck-hamburg?adjust_creative=hBJOknVQJ58S5goQyjmwRw&utm_campaign=yelp_api_v3&utm_medium=api_v3_business_search&utm_source=hBJOknVQJ58S5goQyjmwRw", "review_count": 5, "categories": [{"alias": "german", "title": "German"}, {"alias": "beergarden", "title": "Beer Garden"}, {"alias": "cafes", "title": "Cafes"}], "rating": 4.5, "coordinates": {"latitude": 53.5814, "longitude": 9.88443}, "transactions": [], "price": "\u20ac", "location": {"address1": "Stadionstr. 1", "address2": null, "address3": null, "city": "Hamburg", "zip_code": "22525", "country": "DE", "state": "HH", "display_address": ["Stadionstr. 1", "22525 Hamburg", "Germany"]}, "phone": "+4940836011", "display_phone": "+49 40 836011", "distance": 3614.7321736898684}, {"id": "zDTCnV42IWDiLU634mtuvw", "alias": "fisch-keyser-hamburg", "name": "Fisch Keyser", "image_url": "https://s3-media3.fl.yelpcdn.com/bphoto/FqasgwpXGPaetxfOzM2KLQ/o.jpg", "is_closed": false, "url": "https://www.yelp.com/biz/fisch-keyser-hamburg?adjust_creative=hBJOknVQJ58S5goQyjmwRw&utm_campaign=yelp_api_v3&utm_medium=api_v3_business_search&utm_source=hBJOknVQJ58S5goQyjmwRw", "review_count": 1, "categories": [{"alias": "seafood", "title": "Seafood"}, {"alias": "fishmonger", "title": "Fishmonger"}], "rating": 5.0, "coordinates": {"latitude": 53.6076, "longitude": 9.90247}, "transactions": [], "price": "\u20ac\u20ac\u20ac", "location": {"address1": "Ekenknick 7", "address2": null, "address3": null, "city": "Hamburg", "zip_code": "22523", "country": "DE", "state": "HH", "display_address": ["Ekenknick 7", "22523 Hamburg", "Germany"]}, "phone": "+49405709230", "display_phone": "+49 40 5709230", "distance": 538.2885982439049}, {"id": "RIhcQWsdgvH44Pivzb8eBw", "alias": "namaste-hamburg-hamburg", "name": "Namaste Hamburg", "image_url": "https://s3-media2.fl.yelpcdn.com/bphoto/AGbdM8lLzIefzlBra5NOXA/o.jpg", "is_closed": false, "url": "https://www.yelp.com/biz/namaste-hamburg-hamburg?adjust_creative=hBJOknVQJ58S5goQyjmwRw&utm_campaign=yelp_api_v3&utm_medium=api_v3_business_search&utm_source=hBJOknVQJ58S5goQyjmwRw", "review_count": 3, "categories": [{"alias": "indpak", "title": "Indian"}], "rating": 3.0, "coordinates": {"latitude": 53.59066, "longitude": 9.90765}, "transactions": [], "price": "\u20ac", "location": {"address1": "Ottensener Str. 86", "address2": "", "address3": "", "city": "Hamburg", "zip_code": "22525", "country": "DE", "state": "HH", "display_address": ["Ottensener Str. 86", "22525 Hamburg", "Germany"]}, "phone": "+494046634096", "display_phone": "+49 40 46634096", "distance": 2194.6280686885607}, {"id": "55JYOJRFeHW8qLzwwvLJFw", "alias": "asia-quick-hamburg-17", "name": "Asia Quick", "image_url": "https://s3-media4.fl.yelpcdn.com/bphoto/nNkM1dQccxuP9KotNtvyBw/o.jpg", "is_closed": false, "url": "https://www.yelp.com/biz/asia-quick-hamburg-17?adjust_creative=hBJOknVQJ58S5goQyjmwRw&utm_campaign=yelp_api_v3&utm_medium=api_v3_business_search&utm_source=hBJOknVQJ58S5goQyjmwRw", "review_count": 4, "categories": [{"alias": "panasian", "title": "Pan Asian"}], "rating": 4.0, "coordinates": {"latitude": 53.6031, "longitude": 9.91081}, "transactions": [], "price": "\u20ac", "location": {"address1": "Kieler Str. 641", "address2": "", "address3": null, "city": "Hamburg", "zip_code": "22527", "country": "DE", "state": "HH", "display_address": ["Kieler Str. 641", "22527 Hamburg", "Germany"]}, "phone": "+494059354469", "display_phone": "+49 40 59354469", "distance": 825.3727878044448}, {"id": "n-AURQpw5qG2Oow99UuPFw", "alias": "grando-sukredo-hamburg-5", "name": "Grando Sukredo", "image_url": "https://s3-media3.fl.yelpcdn.com/bphoto/YpW8gUEvHP1WhTo3qpdghA/o.jpg", "is_closed": false, "url": "https://www.yelp.com/biz/grando-sukredo-hamburg-5?adjust_creative=hBJOknVQJ58S5goQyjmwRw&utm_campaign=yelp_api_v3&utm_medium=api_v3_business_search&utm_source=hBJOknVQJ58S5goQyjmwRw", "review_count": 5, "categories": [{"alias": "steak", "title": "Steakhouses"}], "rating": 3.5, "coordinates": {"latitude": 53.6335867874537, "longitude": 9.90645425352155}, "transactions": [], "price": "\u20ac\u20ac", "location": {"address1": "Pinneberger Str. 28", "address2": "", "address3": "", "city": "Hamburg", "zip_code": "22457", "country": "DE", "state": "HH", "display_address": ["Pinneberger Str. 28", "22457 Hamburg", "Germany"]}, "phone": "+494054805430", "display_phone": "+49 40 54805430", "distance": 2581.2490276109356}, {"id": "YD_wj0hSNT71phTuYzXNtw", "alias": "gastst\u00e4tte-am-sportplatzring-hamburg", "name": "Gastst\u00e4tte Am Sportplatzring", "image_url": "https://s3-media3.fl.yelpcdn.com/bphoto/R-faClwu-N204bhwNAY1Dw/o.jpg", "is_closed": false, "url": "https://www.yelp.com/biz/gastst%C3%A4tte-am-sportplatzring-hamburg?adjust_creative=hBJOknVQJ58S5goQyjmwRw&utm_campaign=yelp_api_v3&utm_medium=api_v3_business_search&utm_source=hBJOknVQJ58S5goQyjmwRw", "review_count": 4, "categories": [{"alias": "german", "title": "German"}], "rating": 4.0, "coordinates": {"latitude": 53.5990653, "longitude": 9.930842}, "transactions": [], "price": "\u20ac", "location": {"address1": "Sportplatzring 47", "address2": "", "address3": null, "city": "Hamburg", "zip_code": "22527", "country": "DE", "state": "HH", "display_address": ["Sportplatzring 47", "22527 Hamburg", "Germany"]}, "phone": "+4954765470", "display_phone": "+49 5476 5470", "distance": 1911.6735514948866}, {"id": "hkQRtzqajHTR6AZsbr7IOg", "alias": "mi-pho-hamburg", "name": "Mi PHO", "image_url": "https://s3-media1.fl.yelpcdn.com/bphoto/psyZCrp0EecR0fjzImb-jA/o.jpg", "is_closed": false, "url": "https://www.yelp.com/biz/mi-pho-hamburg?adjust_creative=hBJOknVQJ58S5goQyjmwRw&utm_campaign=yelp_api_v3&utm_medium=api_v3_business_search&utm_source=hBJOknVQJ58S5goQyjmwRw", "review_count": 1, "categories": [{"alias": "vietnamese", "title": "Vietnamese"}], "rating": 5.0, "coordinates": {"latitude": 53.63248, "longitude": 9.90905}, "transactions": [], "location": {"address1": "Pinneberger Str. 9", "address2": null, "address3": "", "city": "Hamburg", "zip_code": "22457", "country": "DE", "state": "HH", "display_address": ["Pinneberger Str. 9", "22457 Hamburg", "Germany"]}, "phone": "+494066873124", "display_phone": "+49 40 66873124", "distance": 2447.5018223031507}, {"id": "1w_lWa-fLXN-3ghsDp09rw", "alias": "odysseus-hamburg-2", "name": "Odysseus", "image_url": "https://s3-media1.fl.yelpcdn.com/bphoto/387UO3-M0mSvzV3FSE8grQ/o.jpg", "is_closed": false, "url": "https://www.yelp.com/biz/odysseus-hamburg-2?adjust_creative=hBJOknVQJ58S5goQyjmwRw&utm_campaign=yelp_api_v3&utm_medium=api_v3_business_search&utm_source=hBJOknVQJ58S5goQyjmwRw", "review_count": 25, "categories": [{"alias": "greek", "title": "Greek"}], "rating": 4.0, "coordinates": {"latitude": 53.6069, "longitude": 9.903345}, "transactions": [], "price": "\u20ac\u20ac", "location": {"address1": "Alte Elbgaustr. 7", "address2": null, "address3": null, "city": "Hamburg", "zip_code": "22523", "country": "DE", "state": "HH", "display_address": ["Alte Elbgaustr. 7", "22523 Hamburg", "Germany"]}, "phone": "+494057260224", "display_phone": "+49 40 57260224", "distance": 545.5336756131038}, {"id": "siT-6-1zcdDFGSsyXtgi9w", "alias": "schweinske-hamburg-30", "name": "Schweinske", "image_url": "https://s3-media1.fl.yelpcdn.com/bphoto/L9_gWi7d05Dd4xys2_gQmA/o.jpg", "is_closed": false, "url": "https://www.yelp.com/biz/schweinske-hamburg-30?adjust_creative=hBJOknVQJ58S5goQyjmwRw&utm_campaign=yelp_api_v3&utm_medium=api_v3_business_search&utm_source=hBJOknVQJ58S5goQyjmwRw", "review_count": 38, "categories": [{"alias": "german", "title": "German"}], "rating": 3.5, "coordinates": {"latitude": 53.60983, "longitude": 9.90431}, "transactions": [], "price": "\u20ac", "location": {"address1": "Nebenbahnstr. 3", "address2": "", "address3": "", "city": "Hamburg", "zip_code": "22523", "country": "DE", "state": "HH", "display_address": ["Nebenbahnstr. 3", "22523 Hamburg", "Germany"]}, "phone": "+494057260020", "display_phone": "+49 40 57260020", "distance": 322.3013470104546}, {"id": "vImYVDX2a0kYn92XZpOa6g", "alias": "zum-zeppelin-hamburg-3", "name": "Zum Zeppelin", "image_url": "https://s3-media2.fl.yelpcdn.com/bphoto/RXga_Eqzb-_AFkA-Grgi3A/o.jpg", "is_closed": false, "url": "https://www.yelp.com/biz/zum-zeppelin-hamburg-3?adjust_creative=hBJOknVQJ58S5goQyjmwRw&utm_campaign=yelp_api_v3&utm_medium=api_v3_business_search&utm_source=hBJOknVQJ58S5goQyjmwRw", "review_count": 4, "categories": [{"alias": "german", "title": "German"}], "rating": 4.0, "coordinates": {"latitude": 53.62855, "longitude": 9.93248}, "transactions": [], "price": "\u20ac\u20ac\u20ac", "location": {"address1": "Frohmestr. 123-125", "address2": null, "address3": null, "city": "Hamburg", "zip_code": "22459", "country": "DE", "state": "HH", "display_address": ["Frohmestr. 123-125", "22459 Hamburg", "Germany"]}, "phone": "+4940559060", "display_phone": "+49 40 559060", "distance": 2542.8292688766574}, {"id": "q751u517rYS5qAihIRfxSQ", "alias": "arena-imbiss-hamburg-2", "name": "Arena Imbiss", "image_url": "https://s3-media4.fl.yelpcdn.com/bphoto/cN7Tl_Xftf6MFvBuMZbY2w/o.jpg", "is_closed": false, "url": "https://www.yelp.com/biz/arena-imbiss-hamburg-2?adjust_creative=hBJOknVQJ58S5goQyjmwRw&utm_campaign=yelp_api_v3&utm_medium=api_v3_business_search&utm_source=hBJOknVQJ58S5goQyjmwRw", "review_count": 6, "categories": [{"alias": "kebab", "title": "Kebab"}], "rating": 2.5, "coordinates": {"latitude": 53.5735706, "longitude": 9.8925726}, "transactions": [], "location": {"address1": "Luruper Chaussee 141", "address2": null, "address3": null, "city": "Hamburg", "zip_code": "22761", "country": "DE", "state": "HH", "display_address": ["Luruper Chaussee 141", "22761 Hamburg", "Germany"]}, "phone": "+494080601671", "display_phone": "+49 40 80601671", "distance": 4240.712098298617}, {"id": "_rUcjaXxVbhxG0H_wRYmCg", "alias": "tre-posi-hamburg", "name": "Tre Posi", "image_url": "https://s3-media3.fl.yelpcdn.com/bphoto/iT3Ud4odpPI7wdBvKMYz9Q/o.jpg", "is_closed": false, "url": "https://www.yelp.com/biz/tre-posi-hamburg?adjust_creative=hBJOknVQJ58S5goQyjmwRw&utm_campaign=yelp_api_v3&utm_medium=api_v3_business_search&utm_source=hBJOknVQJ58S5goQyjmwRw", "review_count": 20, "categories": [{"alias": "italian", "title": "Italian"}], "rating": 3.5, "coordinates": {"latitude": 53.5711, "longitude": 9.8987}, "transactions": [], "price": "\u20ac\u20ac\u20ac", "location": {"address1": "Bahrenfelder Chaussee 178", "address2": null, "address3": null, "city": "Hamburg", "zip_code": "22761", "country": "DE", "state": "HH", "display_address": ["Bahrenfelder Chaussee 178", "22761 Hamburg", "Germany"]}, "phone": "+49408993978", "display_phone": "+49 40 8993978", "distance": 4426.329888752243}, {"id": "sjYZERZfg44QTFTtefyGzQ", "alias": "grill-imbiss-zur-bratkartoffel-hamburg", "name": "Grill Imbiss Zur Bratkartoffel", "image_url": "https://s3-media3.fl.yelpcdn.com/bphoto/K04pCVoERBJs2fSRkRXR0A/o.jpg", "is_closed": false, "url": "https://www.yelp.com/biz/grill-imbiss-zur-bratkartoffel-hamburg?adjust_creative=hBJOknVQJ58S5goQyjmwRw&utm_campaign=yelp_api_v3&utm_medium=api_v3_business_search&utm_source=hBJOknVQJ58S5goQyjmwRw", "review_count": 14, "categories": [{"alias": "currysausage", "title": "Curry Sausage"}, {"alias": "hotdogs", "title": "Fast Food"}], "rating": 4.5, "coordinates": {"latitude": 53.63296, "longitude": 9.90983}, "transactions": [], "price": "\u20ac", "location": {"address1": "Pinneberger Str. 2a", "address2": null, "address3": null, "city": "Hamburg", "zip_code": "22457", "country": "DE", "state": "HH", "display_address": ["Pinneberger Str. 2a", "22457 Hamburg", "Germany"]}, "phone": "+49405505801", "display_phone": "+49 40 5505801", "distance": 2506.140777038132}, {"id": "UHFzAT1P_l6FNvvP-zGbaQ", "alias": "burger-lounge-hamburg-2", "name": "Burger Lounge", "image_url": "https://s3-media2.fl.yelpcdn.com/bphoto/eT4tR2zZv-vCoezxgM5CQw/o.jpg", "is_closed": false, "url": "https://www.yelp.com/biz/burger-lounge-hamburg-2?adjust_creative=hBJOknVQJ58S5goQyjmwRw&utm_campaign=yelp_api_v3&utm_medium=api_v3_business_search&utm_source=hBJOknVQJ58S5goQyjmwRw", "review_count": 75, "categories": [{"alias": "burgers", "title": "Burgers"}], "rating": 3.0, "coordinates": {"latitude": 53.60008, "longitude": 9.91687}, "transactions": [], "price": "\u20ac\u20ac", "location": {"address1": "Kielerstr. 566", "address2": "", "address3": "", "city": "Hamburg", "zip_code": "22525", "country": "DE", "state": "HH", "display_address": ["Kielerstr. 566", "22525 Hamburg", "Germany"]}, "phone": "+49408515554", "display_phone": "+49 40 8515554", "distance": 1259.984370316873}, {"id": "kIa0M8MDb9HJZ6SCIfLDMQ", "alias": "croque-cafe-hamburg", "name": "Croque-Cafe", "image_url": "https://s3-media2.fl.yelpcdn.com/bphoto/2AhwyNGoChzZUxXhLizfgw/o.jpg", "is_closed": false, "url": "https://www.yelp.com/biz/croque-cafe-hamburg?adjust_creative=hBJOknVQJ58S5goQyjmwRw&utm_campaign=yelp_api_v3&utm_medium=api_v3_business_search&utm_source=hBJOknVQJ58S5goQyjmwRw", "review_count": 6, "categories": [{"alias": "hotdogs", "title": "Fast Food"}, {"alias": "sandwiches", "title": "Sandwiches"}, {"alias": "pizza", "title": "Pizza"}], "rating": 4.0, "coordinates": {"latitude": 53.61059, "longitude": 9.89978}, "transactions": [], "location": {"address1": "Pinneberger Chaussee 21 b", "address2": "", "address3": "", "city": "Hamburg", "zip_code": "22523", "country": "DE", "state": "HH", "display_address": ["Pinneberger Chaussee 21 b", "22523 Hamburg", "Germany"]}, "phone": "+494057144915", "display_phone": "+49 40 57144915", "distance": 616.5613832625418}, {"id": "zR-dbwR5pqF3-A9z48W-FA", "alias": "kings-d\u00f6ner-hamburg", "name": "King's D\u00f6ner", "image_url": "", "is_closed": false, "url": "https://www.yelp.com/biz/kings-d%C3%B6ner-hamburg?adjust_creative=hBJOknVQJ58S5goQyjmwRw&utm_campaign=yelp_api_v3&utm_medium=api_v3_business_search&utm_source=hBJOknVQJ58S5goQyjmwRw", "review_count": 2, "categories": [{"alias": "kebab", "title": "Kebab"}], "rating": 4.0, "coordinates": {"latitude": 53.6088, "longitude": 9.9017}, "transactions": [], "location": {"address1": "Lohkampstr. 11", "address2": null, "address3": null, "city": "Hamburg", "zip_code": "22523", "country": "DE", "state": "HH", "display_address": ["Lohkampstr. 11", "22523 Hamburg", "Germany"]}, "phone": "+49405709577", "display_phone": "+49 40 5709577", "distance": 520.2672525626484}, {"id": "RhjvmKthSzftkhOc2gtnyw", "alias": "grillpavillon-hamburg", "name": "Grillpavillon", "image_url": "https://s3-media2.fl.yelpcdn.com/bphoto/fIqQGlaCuHGp0kEKcPSydw/o.jpg", "is_closed": false, "url": "https://www.yelp.com/biz/grillpavillon-hamburg?adjust_creative=hBJOknVQJ58S5goQyjmwRw&utm_campaign=yelp_api_v3&utm_medium=api_v3_business_search&utm_source=hBJOknVQJ58S5goQyjmwRw", "review_count": 1, "categories": [{"alias": "currysausage", "title": "Curry Sausage"}], "rating": 5.0, "coordinates": {"latitude": 53.589098, "longitude": 9.904048}, "transactions": [], "location": {"address1": "Schnackenburgallee 119", "address2": null, "address3": null, "city": "Hamburg", "zip_code": "22525", "country": "DE", "state": "HH", "display_address": ["Schnackenburgallee 119", "22525 Hamburg", "Germany"]}, "phone": "+494054767826", "display_phone": "+49 40 54767826", "distance": 2394.8227426448407}, {"id": "mvDSnVnLEFuntk9Eh0IS8w", "alias": "hagenah-hamburg", "name": "Hagenah", "image_url": "https://s3-media4.fl.yelpcdn.com/bphoto/inJhrgHWvzRGgrArpk8cNQ/o.jpg", "is_closed": false, "url": "https://www.yelp.com/biz/hagenah-hamburg?adjust_creative=hBJOknVQJ58S5goQyjmwRw&utm_campaign=yelp_api_v3&utm_medium=api_v3_business_search&utm_source=hBJOknVQJ58S5goQyjmwRw", "review_count": 55, "categories": [{"alias": "fishmonger", "title": "Fishmonger"}, {"alias": "bistros", "title": "Bistros"}], "rating": 4.5, "coordinates": {"latitude": 53.5723, "longitude": 9.91879}, "transactions": [], "price": "\u20ac\u20ac", "location": {"address1": "Schnackenburgallee 8", "address2": null, "address3": null, "city": "Hamburg", "zip_code": "22525", "country": "DE", "state": "HH", "display_address": ["Schnackenburgallee 8", "22525 Hamburg", "Germany"]}, "phone": "+4940822970", "display_phone": "+49 40 822970", "distance": 4287.420766451337}, {"id": "QyUAygr98_lAVXEnJuJGww", "alias": "peters-futter-express-hamburg-2", "name": "Peters Futter-Express", "image_url": "https://s3-media2.fl.yelpcdn.com/bphoto/ydaVtcs96C-98PM3jNdufg/o.jpg", "is_closed": false, "url": "https://www.yelp.com/biz/peters-futter-express-hamburg-2?adjust_creative=hBJOknVQJ58S5goQyjmwRw&utm_campaign=yelp_api_v3&utm_medium=api_v3_business_search&utm_source=hBJOknVQJ58S5goQyjmwRw", "review_count": 4, "categories": [{"alias": "food", "title": "Food"}, {"alias": "hotdogs", "title": "Fast Food"}], "rating": 4.5, "coordinates": {"latitude": 53.5711, "longitude": 9.92315}, "transactions": [], "location": {"address1": "Holstenkamp 48", "address2": null, "address3": null, "city": "Hamburg", "zip_code": "22525", "country": "DE", "state": "HH", "display_address": ["Holstenkamp 48", "22525 Hamburg", "Germany"]}, "phone": "+49408512037", "display_phone": "+49 40 8512037", "distance": 4470.146832673294}, {"id": "-mN4eGrBTgb2vdMbx8EYTg", "alias": "restaurant-ausspann-hamburg", "name": "Restaurant Ausspann", "image_url": "https://s3-media4.fl.yelpcdn.com/bphoto/6a5UlFlWwnbYa6N7TU0-GQ/o.jpg", "is_closed": false, "url": "https://www.yelp.com/biz/restaurant-ausspann-hamburg?adjust_creative=hBJOknVQJ58S5goQyjmwRw&utm_campaign=yelp_api_v3&utm_medium=api_v3_business_search&utm_source=hBJOknVQJ58S5goQyjmwRw", "review_count": 5, "categories": [{"alias": "modern_european", "title": "Modern European"}, {"alias": "german", "title": "German"}], "rating": 4.5, "coordinates": {"latitude": 53.6507, "longitude": 9.90749}, "transactions": [], "location": {"address1": "Holsteiner Chaussee 428", "address2": null, "address3": null, "city": "Hamburg", "zip_code": "22457", "country": "DE", "state": "HH", "display_address": ["Holsteiner Chaussee 428", "22457 Hamburg", "Germany"]}, "phone": "+494055987010", "display_phone": "+49 40 55987010", "distance": 4479.517818328725}, {"id": "GvDAHM3QbfXICoTJor4ahA", "alias": "gaumenschmaus-hamburg-3", "name": "Gaumenschmaus", "image_url": "https://s3-media2.fl.yelpcdn.com/bphoto/AKj2edpaMUfqewoKOd2PUw/o.jpg", "is_closed": false, "url": "https://www.yelp.com/biz/gaumenschmaus-hamburg-3?adjust_creative=hBJOknVQJ58S5goQyjmwRw&utm_campaign=yelp_api_v3&utm_medium=api_v3_business_search&utm_source=hBJOknVQJ58S5goQyjmwRw", "review_count": 2, "categories": [{"alias": "chickenshop", "title": "Chicken Shop"}], "rating": 4.0, "coordinates": {"latitude": 53.581417, "longitude": 9.913065}, "transactions": [], "location": {"address1": "Kieler Str. 236", "address2": "", "address3": null, "city": "Hamburg", "zip_code": "22525", "country": "DE", "state": "HH", "display_address": ["Kieler Str. 236", "22525 Hamburg", "Germany"]}, "phone": "+492634956116", "display_phone": "+49 2634 956116", "distance": 3236.264078144137}, {"id": "XPjnWZ9ddKKn2w_T_pdNww", "alias": "ristorante-la-costa-smeralda-hamburg", "name": "Ristorante La Costa Smeralda", "image_url": "https://s3-media1.fl.yelpcdn.com/bphoto/plMHtB6o48u_Z8rmcJQj1A/o.jpg", "is_closed": false, "url": "https://www.yelp.com/biz/ristorante-la-costa-smeralda-hamburg?adjust_creative=hBJOknVQJ58S5goQyjmwRw&utm_campaign=yelp_api_v3&utm_medium=api_v3_business_search&utm_source=hBJOknVQJ58S5goQyjmwRw", "review_count": 12, "categories": [{"alias": "italian", "title": "Italian"}], "rating": 3.0, "coordinates": {"latitude": 53.6339, "longitude": 9.91975}, "transactions": [], "price": "\u20ac\u20ac", "location": {"address1": "Frohmestr. 29", "address2": null, "address3": null, "city": "Hamburg", "zip_code": "22457", "country": "DE", "state": "HH", "display_address": ["Frohmestr. 29", "22457 Hamburg", "Germany"]}, "phone": "+49405591041", "display_phone": "+49 40 5591041", "distance": 2703.130669540239}, {"id": "5M9UAgzkeIS4M1gcysM4OA", "alias": "klempaus-biergarten-an-der-milchhalle-hamburg", "name": "Klempau's Biergarten An Der Milchhalle", "image_url": "https://s3-media2.fl.yelpcdn.com/bphoto/n19eNGZCEZVk8kmsXAYWbw/o.jpg", "is_closed": false, "url": "https://www.yelp.com/biz/klempaus-biergarten-an-der-milchhalle-hamburg?adjust_creative=hBJOknVQJ58S5goQyjmwRw&utm_campaign=yelp_api_v3&utm_medium=api_v3_business_search&utm_source=hBJOknVQJ58S5goQyjmwRw", "review_count": 11, "categories": [{"alias": "german", "title": "German"}, {"alias": "beergarden", "title": "Beer Garden"}], "rating": 3.5, "coordinates": {"latitude": 53.577844, "longitude": 9.898028}, "transactions": [], "price": "\u20ac\u20ac", "location": {"address1": "August-Kirch-Str. 55", "address2": "", "address3": "", "city": "Hamburg", "zip_code": "22525", "country": "DE", "state": "HH", "display_address": ["August-Kirch-Str. 55", "22525 Hamburg", "Germany"]}, "phone": "+491737949921", "display_phone": "+49 173 7949921", "distance": 3695.824246724317}, {"id": "L1dXoEQuJKUY-T8aWGmp3Q", "alias": "ess-bahn-hamburg", "name": "ESS-Bahn", "image_url": "https://s3-media1.fl.yelpcdn.com/bphoto/jGlgMnmbJsq9hAd_qHWLRQ/o.jpg", "is_closed": false, "url": "https://www.yelp.com/biz/ess-bahn-hamburg?adjust_creative=hBJOknVQJ58S5goQyjmwRw&utm_campaign=yelp_api_v3&utm_medium=api_v3_business_search&utm_source=hBJOknVQJ58S5goQyjmwRw", "review_count": 6, "categories": [{"alias": "kebab", "title": "Kebab"}, {"alias": "hotdogs", "title": "Fast Food"}], "rating": 3.5, "coordinates": {"latitude": 53.6035625910885, "longitude": 9.89310401951185}, "transactions": [], "price": "\u20ac", "location": {"address1": "Elbgaustr", "address2": null, "address3": null, "city": "Hamburg", "zip_code": "22523", "country": "DE", "state": "HH", "display_address": ["Elbgaustr", "22523 Hamburg", "Germany"]}, "phone": "", "display_phone": "", "distance": 1302.0832269142365}, {"id": "_SeEoymbbIQPXSjviHH8ug", "alias": "barthmann-hamburg-2", "name": "Barthmann", "image_url": "https://s3-media4.fl.yelpcdn.com/bphoto/Igpa83CmHWZV3l8f8_aZeg/o.jpg", "is_closed": false, "url": "https://www.yelp.com/biz/barthmann-hamburg-2?adjust_creative=hBJOknVQJ58S5goQyjmwRw&utm_campaign=yelp_api_v3&utm_medium=api_v3_business_search&utm_source=hBJOknVQJ58S5goQyjmwRw", "review_count": 1, "categories": [{"alias": "german", "title": "German"}], "rating": 5.0, "coordinates": {"latitude": 53.608907, "longitude": 9.903056}, "transactions": [], "price": "\u20ac\u20ac", "location": {"address1": "Pinneberger Chaussee 5 - 7", "address2": null, "address3": null, "city": "Hamburg", "zip_code": "22523", "country": "DE", "state": "HH", "display_address": ["Pinneberger Chaussee 5 - 7", "22523 Hamburg", "Germany"]}, "phone": "+494024181792", "display_phone": "+49 40 24181792", "distance": 432.71099668082707}, {"id": "Vi6Cq54lDLlKrJ6a-o__kQ", "alias": "skylight-caf\u00e9-hamburg", "name": "Skylight Caf\u00e9", "image_url": "https://s3-media2.fl.yelpcdn.com/bphoto/IYka2zqb_aX4nW2G5CoEZg/o.jpg", "is_closed": false, "url": "https://www.yelp.com/biz/skylight-caf%C3%A9-hamburg?adjust_creative=hBJOknVQJ58S5goQyjmwRw&utm_campaign=yelp_api_v3&utm_medium=api_v3_business_search&utm_source=hBJOknVQJ58S5goQyjmwRw", "review_count": 2, "categories": [{"alias": "restaurants", "title": "Restaurants"}], "rating": 3.5, "coordinates": {"latitude": 53.5898, "longitude": 9.89875}, "transactions": [], "location": {"address1": "Barclaycard Arena", "address2": "Sylvesterallee 10", "address3": null, "city": "Hamburg", "zip_code": "22525", "country": "DE", "state": "HH", "display_address": ["Barclaycard Arena", "Sylvesterallee 10", "22525 Hamburg", "Germany"]}, "phone": "+494088163400", "display_phone": "+49 40 88163400", "distance": 2392.9224962142493}, {"id": "0bRB2Dk1RuO_XYvigryCrw", "alias": "hamaliya-pizzaservice-hamburg", "name": "Hamaliya Pizzaservice", "image_url": "", "is_closed": false, "url": "https://www.yelp.com/biz/hamaliya-pizzaservice-hamburg?adjust_creative=hBJOknVQJ58S5goQyjmwRw&utm_campaign=yelp_api_v3&utm_medium=api_v3_business_search&utm_source=hBJOknVQJ58S5goQyjmwRw", "review_count": 3, "categories": [{"alias": "pizza", "title": "Pizza"}], "rating": 3.5, "coordinates": {"latitude": 53.63412, "longitude": 9.91615}, "transactions": [], "location": {"address1": "Riekbornweg 2", "address2": "", "address3": "", "city": "Hamburg", "zip_code": "22457", "country": "DE", "state": "HH", "display_address": ["Riekbornweg 2", "22457 Hamburg", "Germany"]}, "phone": "+494055505719", "display_phone": "+49 40 55505719", "distance": 2678.8583890371983}, {"id": "xeT9_0tTWIQF0HUo_pB2RA", "alias": "schweinske-hamburg-2", "name": "Schweinske", "image_url": "https://s3-media2.fl.yelpcdn.com/bphoto/Qyr3H9B4mr56Vi-hLn3eyA/o.jpg", "is_closed": false, "url": "https://www.yelp.com/biz/schweinske-hamburg-2?adjust_creative=hBJOknVQJ58S5goQyjmwRw&utm_campaign=yelp_api_v3&utm_medium=api_v3_business_search&utm_source=hBJOknVQJ58S5goQyjmwRw", "review_count": 51, "categories": [{"alias": "german", "title": "German"}], "rating": 3.0, "coordinates": {"latitude": 53.5829499, "longitude": 9.93407}, "transactions": [], "price": "\u20ac\u20ac", "location": {"address1": "Kieler Str. 284", "address2": null, "address3": null, "city": "Hamburg", "zip_code": "22525", "country": "DE", "state": "HH", "display_address": ["Kieler Str. 284", "22525 Hamburg", "Germany"]}, "phone": "+49405406722", "display_phone": "+49 40 5406722", "distance": 3475.9334127152397}, {"id": "SjEJ3foOrd3oFKFL2Nqrvw", "alias": "caf\u00e9-buena-vista-hamburg", "name": "Caf\u00e9 Buena Vista", "image_url": "", "is_closed": false, "url": "https://www.yelp.com/biz/caf%C3%A9-buena-vista-hamburg?adjust_creative=hBJOknVQJ58S5goQyjmwRw&utm_campaign=yelp_api_v3&utm_medium=api_v3_business_search&utm_source=hBJOknVQJ58S5goQyjmwRw", "review_count": 1, "categories": [{"alias": "bars", "title": "Bars"}, {"alias": "cafes", "title": "Cafes"}, {"alias": "cuban", "title": "Cuban"}], "rating": 5.0, "coordinates": {"latitude": 53.568825, "longitude": 9.9328762}, "transactions": [], "location": {"address1": "Am Diebsteich 2", "address2": null, "address3": "", "city": "Hamburg", "zip_code": "22761", "country": "DE", "state": "HH", "display_address": ["Am Diebsteich 2", "22761 Hamburg", "Germany"]}, "phone": "+494064568810", "display_phone": "+49 40 64568810", "distance": 4883.771347621369}, {"id": "MdXVTDBp0qb2fzp-AR6U3A", "alias": "oh-its-fresh-hamburg-15", "name": "Oh It's Fresh", "image_url": "https://s3-media4.fl.yelpcdn.com/bphoto/e7-YVjyWd562Ts1IRPAp0A/o.jpg", "is_closed": false, "url": "https://www.yelp.com/biz/oh-its-fresh-hamburg-15?adjust_creative=hBJOknVQJ58S5goQyjmwRw&utm_campaign=yelp_api_v3&utm_medium=api_v3_business_search&utm_source=hBJOknVQJ58S5goQyjmwRw", "review_count": 1, "categories": [{"alias": "cafes", "title": "Cafes"}], "rating": 4.0, "coordinates": {"latitude": 53.5694696030728, "longitude": 9.8995341346945}, "transactions": [], "location": {"address1": "Theodorstr. 48", "address2": "", "address3": "", "city": "Hamburg", "zip_code": "22761", "country": "DE", "state": "HH", "display_address": ["Theodorstr. 48", "22761 Hamburg", "Germany"]}, "phone": "+494027867390", "display_phone": "+49 40 27867390", "distance": 4597.639493558633}, {"id": "KayjcGzyocTlDonXgRLl6w", "alias": "shuttle-imbiss-hamburg", "name": "Shuttle Imbiss", "image_url": "https://s3-media3.fl.yelpcdn.com/bphoto/bwYb5yyzu9sSlyBwRk9F9Q/o.jpg", "is_closed": false, "url": "https://www.yelp.com/biz/shuttle-imbiss-hamburg?adjust_creative=hBJOknVQJ58S5goQyjmwRw&utm_campaign=yelp_api_v3&utm_medium=api_v3_business_search&utm_source=hBJOknVQJ58S5goQyjmwRw", "review_count": 4, "categories": [{"alias": "foodstands", "title": "Food Stands"}], "rating": 4.5, "coordinates": {"latitude": 53.5901120455389, "longitude": 9.91830674981713}, "transactions": [], "price": "\u20ac", "location": {"address1": "Volksparkstr. 62", "address2": "", "address3": "", "city": "Hamburg", "zip_code": "22525", "country": "DE", "state": "HH", "display_address": ["Volksparkstr. 62", "22525 Hamburg", "Germany"]}, "phone": "", "display_phone": "", "distance": 2339.153140465504}, {"id": "Ci897JLvU6ZQkLMXslVpOw", "alias": "welcome-india-hamburg-4", "name": "Welcome India", "image_url": "https://s3-media4.fl.yelpcdn.com/bphoto/2TPQa28fX1M6iq7T_d6oBA/o.jpg", "is_closed": false, "url": "https://www.yelp.com/biz/welcome-india-hamburg-4?adjust_creative=hBJOknVQJ58S5goQyjmwRw&utm_campaign=yelp_api_v3&utm_medium=api_v3_business_search&utm_source=hBJOknVQJ58S5goQyjmwRw", "review_count": 1, "categories": [{"alias": "indpak", "title": "Indian"}], "rating": 3.0, "coordinates": {"latitude": 53.61041, "longitude": 9.90013}, "transactions": [], "location": {"address1": "Pinneberger Chaussee 21", "address2": null, "address3": "", "city": "Hamburg", "zip_code": "22523", "country": "DE", "state": "HH", "display_address": ["Pinneberger Chaussee 21", "22523 Hamburg", "Germany"]}, "phone": "+494057002297", "display_phone": "+49 40 57002297", "distance": 587.935632494473}, {"id": "v9ZEwpx6nakbsvaJrFp-Bw", "alias": "fischhaus-timm-hamburg", "name": "Fischhaus Timm", "image_url": "https://s3-media2.fl.yelpcdn.com/bphoto/f62XnNQgC3zmAAJZA6vFPA/o.jpg", "is_closed": false, "url": "https://www.yelp.com/biz/fischhaus-timm-hamburg?adjust_creative=hBJOknVQJ58S5goQyjmwRw&utm_campaign=yelp_api_v3&utm_medium=api_v3_business_search&utm_source=hBJOknVQJ58S5goQyjmwRw", "review_count": 3, "categories": [{"alias": "seafood", "title": "Seafood"}, {"alias": "fishnchips", "title": "Fish & Chips"}], "rating": 3.5, "coordinates": {"latitude": 53.6352, "longitude": 9.917}, "transactions": [], "location": {"address1": "Gli\u00dfmannweg 11", "address2": null, "address3": null, "city": "Hamburg", "zip_code": "22457", "country": "DE", "state": "HH", "display_address": ["Gli\u00dfmannweg 11", "22457 Hamburg", "Germany"]}, "phone": "+49405592213", "display_phone": "+49 40 5592213", "distance": 2803.645562585465}, {"id": "veek4OBOkG19MI_y4-kfcA", "alias": "r\u00fcya-restaurant-hamburg", "name": "R\u00fcya Restaurant", "image_url": "https://s3-media2.fl.yelpcdn.com/bphoto/-aQqEQcApNp2mRDDbL6l4Q/o.jpg", "is_closed": false, "url": "https://www.yelp.com/biz/r%C3%BCya-restaurant-hamburg?adjust_creative=hBJOknVQJ58S5goQyjmwRw&utm_campaign=yelp_api_v3&utm_medium=api_v3_business_search&utm_source=hBJOknVQJ58S5goQyjmwRw", "review_count": 3, "categories": [{"alias": "kebab", "title": "Kebab"}], "rating": 3.5, "coordinates": {"latitude": 53.6076, "longitude": 9.9025}, "transactions": [], "price": "\u20ac", "location": {"address1": "Ekenknick 5", "address2": null, "address3": null, "city": "Hamburg", "zip_code": "22523", "country": "DE", "state": "HH", "display_address": ["Ekenknick 5", "22523 Hamburg", "Germany"]}, "phone": "+4917657445616", "display_phone": "+49 176 57445616", "distance": 536.6829258881519}, {"id": "XFxWQHvOryVof0btQgmYvw", "alias": "metaxa-grill-hamburg", "name": "Metaxa Grill", "image_url": "https://s3-media1.fl.yelpcdn.com/bphoto/byTSbl9HgDlzLbs2QnUPYQ/o.jpg", "is_closed": false, "url": "https://www.yelp.com/biz/metaxa-grill-hamburg?adjust_creative=hBJOknVQJ58S5goQyjmwRw&utm_campaign=yelp_api_v3&utm_medium=api_v3_business_search&utm_source=hBJOknVQJ58S5goQyjmwRw", "review_count": 16, "categories": [{"alias": "greek", "title": "Greek"}], "rating": 3.5, "coordinates": {"latitude": 53.6122532485485, "longitude": 9.89839999595038}, "transactions": [], "price": "\u20ac\u20ac", "location": {"address1": "Pinneberger Chaussee 46", "address2": "", "address3": "", "city": "Hamburg", "zip_code": "22523", "country": "DE", "state": "HH", "display_address": ["Pinneberger Chaussee 46", "22523 Hamburg", "Germany"]}, "phone": "+4940579747", "display_phone": "+49 40 579747", "distance": 734.1926038343553}, {"id": "F09QZ5eyYNif_4yxJ1R6xw", "alias": "restaurant-naxos-ellerbek", "name": "Restaurant Naxos", "image_url": "", "is_closed": false, "url": "https://www.yelp.com/biz/restaurant-naxos-ellerbek?adjust_creative=hBJOknVQJ58S5goQyjmwRw&utm_campaign=yelp_api_v3&utm_medium=api_v3_business_search&utm_source=hBJOknVQJ58S5goQyjmwRw", "review_count": 3, "categories": [{"alias": "restaurants", "title": "Restaurants"}], "rating": 4.5, "coordinates": {"latitude": 53.6486, "longitude": 9.89857}, "transactions": [], "price": "\u20ac\u20ac", "location": {"address1": "Tilsiter Str. 1", "address2": null, "address3": null, "city": "Ellerbek", "zip_code": "25474", "country": "DE", "state": "SH", "display_address": ["Tilsiter Str. 1", "25474 Ellerbek", "Germany"]}, "phone": "+49410132629", "display_phone": "+49 4101 32629", "distance": 4301.117852146499}, {"id": "2juVai0viKhrfhx8uL6UZA", "alias": "eidelstedter-treff-hamburg", "name": "Eidelstedter Treff", "image_url": "https://s3-media3.fl.yelpcdn.com/bphoto/f2Iaqz4q7c79-84-Os59UA/o.jpg", "is_closed": false, "url": "https://www.yelp.com/biz/eidelstedter-treff-hamburg?adjust_creative=hBJOknVQJ58S5goQyjmwRw&utm_campaign=yelp_api_v3&utm_medium=api_v3_business_search&utm_source=hBJOknVQJ58S5goQyjmwRw", "review_count": 1, "categories": [{"alias": "german", "title": "German"}, {"alias": "divebars", "title": "Dive Bars"}], "rating": 3.0, "coordinates": {"latitude": 53.6088, "longitude": 9.90519}, "transactions": [], "location": {"address1": "Holsteiner Chaussee  2", "address2": null, "address3": null, "city": "Hamburg", "zip_code": "22523", "country": "DE", "state": "HH", "display_address": ["Holsteiner Chaussee  2", "22523 Hamburg", "Germany"]}, "phone": "+494055449315", "display_phone": "+49 40 55449315", "distance": 314.71980564078837}, {"id": "srDNoRwedgyO-lKCy_f0Hw", "alias": "fanrestaurant-die-raute-hamburg", "name": "Fanrestaurant \"Die Raute\"", "image_url": "https://s3-media2.fl.yelpcdn.com/bphoto/YNhK984AVpY4-ZI_BKT2XA/o.jpg", "is_closed": false, "url": "https://www.yelp.com/biz/fanrestaurant-die-raute-hamburg?adjust_creative=hBJOknVQJ58S5goQyjmwRw&utm_campaign=yelp_api_v3&utm_medium=api_v3_business_search&utm_source=hBJOknVQJ58S5goQyjmwRw", "review_count": 26, "categories": [{"alias": "german", "title": "German"}], "rating": 3.0, "coordinates": {"latitude": 53.5877906072684, "longitude": 9.89975140370484}, "transactions": [], "price": "\u20ac\u20ac\u20ac", "location": {"address1": "Sylvesterallee 7", "address2": "Eingang Nord/Ost", "address3": "", "city": "Hamburg", "zip_code": "22525", "country": "DE", "state": "HH", "display_address": ["Sylvesterallee 7", "Eingang Nord/Ost", "22525 Hamburg", "Germany"]}, "phone": "+49404155x3350", "display_phone": "+49 40 4155 ext. 3350", "distance": 2591.344243378989}, {"id": "Kstf0jpypvRgDTtwb2-i4Q", "alias": "gastst\u00e4tte-marathon-hamburg-2", "name": "Gastst\u00e4tte Marathon", "image_url": "https://s3-media3.fl.yelpcdn.com/bphoto/nKvIePm1Ek2iU7u_fJt-BA/o.jpg", "is_closed": false, "url": "https://www.yelp.com/biz/gastst%C3%A4tte-marathon-hamburg-2?adjust_creative=hBJOknVQJ58S5goQyjmwRw&utm_campaign=yelp_api_v3&utm_medium=api_v3_business_search&utm_source=hBJOknVQJ58S5goQyjmwRw", "review_count": 7, "categories": [{"alias": "greek", "title": "Greek"}], "rating": 3.0, "coordinates": {"latitude": 53.6473, "longitude": 9.90971}, "transactions": [], "price": "\u20ac\u20ac", "location": {"address1": "Roman-Zeller-Platz 2", "address2": null, "address3": null, "city": "Hamburg", "zip_code": "22457", "country": "DE", "state": "HH", "display_address": ["Roman-Zeller-Platz 2", "22457 Hamburg", "Germany"]}, "phone": "+49405583003", "display_phone": "+49 40 5583003", "distance": 4100.405907212242}, {"id": "563I0YNmkeOoaH2WXqJymQ", "alias": "grill-stop-hamburg-hamburg", "name": "Grill Stop Hamburg", "image_url": "https://s3-media3.fl.yelpcdn.com/bphoto/VlBYayXXEelJyPQbvMThJQ/o.jpg", "is_closed": false, "url": "https://www.yelp.com/biz/grill-stop-hamburg-hamburg?adjust_creative=hBJOknVQJ58S5goQyjmwRw&utm_campaign=yelp_api_v3&utm_medium=api_v3_business_search&utm_source=hBJOknVQJ58S5goQyjmwRw", "review_count": 2, "categories": [{"alias": "foodstands", "title": "Food Stands"}], "rating": 3.5, "coordinates": {"latitude": 53.632113, "longitude": 9.922267}, "transactions": [], "price": "\u20ac", "location": {"address1": "Frohmestr. 53", "address2": null, "address3": null, "city": "Hamburg", "zip_code": "22457", "country": "DE", "state": "HH", "display_address": ["Frohmestr. 53", "22457 Hamburg", "Germany"]}, "phone": "+49405507225", "display_phone": "+49 40 5507225", "distance": 2557.55485646823}, {"id": "U9QJwMx3RNOPy7Ce0xn4fA", "alias": "brimborium-hamburg-2", "name": "Brimborium", "image_url": "https://s3-media2.fl.yelpcdn.com/bphoto/ccorPrrGnaj__ntjefe2Ww/o.jpg", "is_closed": false, "url": "https://www.yelp.com/biz/brimborium-hamburg-2?adjust_creative=hBJOknVQJ58S5goQyjmwRw&utm_campaign=yelp_api_v3&utm_medium=api_v3_business_search&utm_source=hBJOknVQJ58S5goQyjmwRw", "review_count": 6, "categories": [{"alias": "international", "title": "International"}], "rating": 3.5, "coordinates": {"latitude": 53.6289, "longitude": 9.93144}, "transactions": [], "location": {"address1": "Frohmestr. 110", "address2": null, "address3": null, "city": "Hamburg", "zip_code": "22459", "country": "DE", "state": "HH", "display_address": ["Frohmestr. 110", "22459 Hamburg", "Germany"]}, "phone": "+49405590621535", "display_phone": "+49 40 5590621535", "distance": 2528.196895924719}, {"id": "5f6DmacuQB9Jh-gPT5fuww", "alias": "champ-hamburg", "name": "Champ", "image_url": "https://s3-media2.fl.yelpcdn.com/bphoto/0wOa7UKK0BqN1-ckTzdxMw/o.jpg", "is_closed": false, "url": "https://www.yelp.com/biz/champ-hamburg?adjust_creative=hBJOknVQJ58S5goQyjmwRw&utm_campaign=yelp_api_v3&utm_medium=api_v3_business_search&utm_source=hBJOknVQJ58S5goQyjmwRw", "review_count": 2, "categories": [{"alias": "burgers", "title": "Burgers"}, {"alias": "hotdogs", "title": "Fast Food"}, {"alias": "pizza", "title": "Pizza"}], "rating": 4.0, "coordinates": {"latitude": 53.60565, "longitude": 9.908563}, "transactions": [], "price": "\u20ac\u20ac", "location": {"address1": "Kieler Str. 685", "address2": null, "address3": "", "city": "Hamburg", "zip_code": "22527", "country": "DE", "state": "HH", "display_address": ["Kieler Str. 685", "22527 Hamburg", "Germany"]}, "phone": "+49405596266", "display_phone": "+49 40 5596266", "distance": 532.7070644150538}, {"id": "hDUuMiXyyr2ekpKuzTKCVA", "alias": "sen-dai-sushi-hamburg", "name": "Sen Dai Sushi", "image_url": "https://s3-media1.fl.yelpcdn.com/bphoto/5EUd3rW2q-PXYdv-q4RgEg/o.jpg", "is_closed": false, "url": "https://www.yelp.com/biz/sen-dai-sushi-hamburg?adjust_creative=hBJOknVQJ58S5goQyjmwRw&utm_campaign=yelp_api_v3&utm_medium=api_v3_business_search&utm_source=hBJOknVQJ58S5goQyjmwRw", "review_count": 1, "categories": [{"alias": "sushi", "title": "Sushi Bars"}], "rating": 4.0, "coordinates": {"latitude": 53.58207, "longitude": 9.93367}, "transactions": [], "location": {"address1": "Kieler Str. 269 a", "address2": "", "address3": null, "city": "Hamburg", "zip_code": "22525", "country": "DE", "state": "HH", "display_address": ["Kieler Str. 269 a", "22525 Hamburg", "Germany"]}, "phone": "+494033310694", "display_phone": "+49 40 33310694", "distance": 3546.4084561746417}, {"id": "oocSI5BFw0pBrR_OCqGj4w", "alias": "bistro-saalbach-hamburg", "name": "Bistro Saalbach", "image_url": "https://s3-media4.fl.yelpcdn.com/bphoto/-gljjE1OXbHhH3jcCUny8w/o.jpg", "is_closed": false, "url": "https://www.yelp.com/biz/bistro-saalbach-hamburg?adjust_creative=hBJOknVQJ58S5goQyjmwRw&utm_campaign=yelp_api_v3&utm_medium=api_v3_business_search&utm_source=hBJOknVQJ58S5goQyjmwRw", "review_count": 2, "categories": [{"alias": "bistros", "title": "Bistros"}], "rating": 3.0, "coordinates": {"latitude": 53.576128, "longitude": 9.886432}, "transactions": [], "location": {"address1": "Bertrand-Russel-Str. 4", "address2": "", "address3": "", "city": "Hamburg", "zip_code": "22761", "country": "DE", "state": "HH", "display_address": ["Bertrand-Russel-Str. 4", "22761 Hamburg", "Germany"]}, "phone": "+494030852943", "display_phone": "+49 40 30852943", "distance": 4149.732405639329}, {"id": "fwdDE_9CO6RJ9uFQKa6nUQ", "alias": "schnelsener-kebap-house-hamburg", "name": "Schnelsener Kebap House", "image_url": "", "is_closed": false, "url": "https://www.yelp.com/biz/schnelsener-kebap-house-hamburg?adjust_creative=hBJOknVQJ58S5goQyjmwRw&utm_campaign=yelp_api_v3&utm_medium=api_v3_business_search&utm_source=hBJOknVQJ58S5goQyjmwRw", "review_count": 9, "categories": [{"alias": "kebab", "title": "Kebab"}], "rating": 4.5, "coordinates": {"latitude": 53.6362, "longitude": 9.91752}, "transactions": [], "price": "\u20ac", "location": {"address1": "Oldesloer Str. 41", "address2": null, "address3": null, "city": "Hamburg", "zip_code": "22457", "country": "DE", "state": "HH", "display_address": ["Oldesloer Str. 41", "22457 Hamburg", "Germany"]}, "phone": "+494055009130", "display_phone": "+49 40 55009130", "distance": 2919.3057229820583}, {"id": "10fRSTflbNh88ABddIesbA", "alias": "imbissbude-hamburg", "name": "Imbissbude", "image_url": "", "is_closed": false, "url": "https://www.yelp.com/biz/imbissbude-hamburg?adjust_creative=hBJOknVQJ58S5goQyjmwRw&utm_campaign=yelp_api_v3&utm_medium=api_v3_business_search&utm_source=hBJOknVQJ58S5goQyjmwRw", "review_count": 4, "categories": [{"alias": "hotdogs", "title": "Fast Food"}], "rating": 4.0, "coordinates": {"latitude": 53.5957, "longitude": 9.90559}, "transactions": [], "price": "\u20ac\u20ac", "location": {"address1": "Schnackenburgsallee 202", "address2": "", "address3": null, "city": "Hamburg", "zip_code": "22525", "country": "DE", "state": "HH", "display_address": ["Schnackenburgsallee 202", "22525 Hamburg", "Germany"]}, "phone": "", "display_phone": "", "distance": 1653.6959816331052}, {"id": "f8Iq441eBFQ2H6l44iUYNA", "alias": "call-a-pizza-hamburg-5", "name": "Call a Pizza", "image_url": "https://s3-media4.fl.yelpcdn.com/bphoto/VKKfI_x3McuKKuUSy6MW1Q/o.jpg", "is_closed": false, "url": "https://www.yelp.com/biz/call-a-pizza-hamburg-5?adjust_creative=hBJOknVQJ58S5goQyjmwRw&utm_campaign=yelp_api_v3&utm_medium=api_v3_business_search&utm_source=hBJOknVQJ58S5goQyjmwRw", "review_count": 15, "categories": [{"alias": "pizza", "title": "Pizza"}], "rating": 3.5, "coordinates": {"latitude": 53.63051, "longitude": 9.92599}, "transactions": [], "price": "\u20ac\u20ac", "location": {"address1": "Frohmestr. 78D", "address2": "", "address3": null, "city": "Hamburg", "zip_code": "22459", "country": "DE", "state": "HH", "display_address": ["Frohmestr. 78D", "22459 Hamburg", "Germany"]}, "phone": "+49405592047", "display_phone": "+49 40 5592047", "distance": 2494.3599674376337}, {"id": "7lu2vKgQn-ow3QMxg1FfZQ", "alias": "back-factory-hamburg-4", "name": "Back-Factory", "image_url": "https://s3-media4.fl.yelpcdn.com/bphoto/ytBTfkiu88IXlzcYFRxy_A/o.jpg", "is_closed": false, "url": "https://www.yelp.com/biz/back-factory-hamburg-4?adjust_creative=hBJOknVQJ58S5goQyjmwRw&utm_campaign=yelp_api_v3&utm_medium=api_v3_business_search&utm_source=hBJOknVQJ58S5goQyjmwRw", "review_count": 3, "categories": [{"alias": "bakeries", "title": "Bakeries"}, {"alias": "hotdogs", "title": "Fast Food"}], "rating": 4.5, "coordinates": {"latitude": 53.60338, "longitude": 9.89356}, "transactions": [], "price": "\u20ac", "location": {"address1": "Elbgaustr. 103", "address2": null, "address3": null, "city": "Hamburg", "zip_code": "22523", "country": "DE", "state": "HH", "display_address": ["Elbgaustr. 103", "22523 Hamburg", "Germany"]}, "phone": "+494038647150", "display_phone": "+49 40 38647150", "distance": 1290.2495792448624}, {"id": "aeUdh5cEwbXG9_HIi16qcg", "alias": "mr-fresh-hamburg", "name": "Mr. Fresh", "image_url": "https://s3-media2.fl.yelpcdn.com/bphoto/lLnY1KY0usrvrFYqL-PQPg/o.jpg", "is_closed": false, "url": "https://www.yelp.com/biz/mr-fresh-hamburg?adjust_creative=hBJOknVQJ58S5goQyjmwRw&utm_campaign=yelp_api_v3&utm_medium=api_v3_business_search&utm_source=hBJOknVQJ58S5goQyjmwRw", "review_count": 13, "categories": [{"alias": "salad", "title": "Salad"}, {"alias": "creperies", "title": "Creperies"}], "rating": 4.0, "coordinates": {"latitude": 53.6316, "longitude": 9.92009}, "transactions": [], "price": "\u20ac\u20ac", "location": {"address1": "W\u00e4hlingsallee 11", "address2": null, "address3": null, "city": "Hamburg", "zip_code": "22459", "country": "DE", "state": "HH", "display_address": ["W\u00e4hlingsallee 11", "22459 Hamburg", "Germany"]}, "phone": "+49405583400", "display_phone": "+49 40 5583400", "distance": 2463.587476890044}, {"id": "DsTRHxCt-xYMRBYR2_JkHQ", "alias": "hsv-rundgrill-hamburg", "name": "HSV Rundgrill", "image_url": "https://s3-media3.fl.yelpcdn.com/bphoto/t0r64w5qLLG-9ac2-5VMSA/o.jpg", "is_closed": false, "url": "https://www.yelp.com/biz/hsv-rundgrill-hamburg?adjust_creative=hBJOknVQJ58S5goQyjmwRw&utm_campaign=yelp_api_v3&utm_medium=api_v3_business_search&utm_source=hBJOknVQJ58S5goQyjmwRw", "review_count": 2, "categories": [{"alias": "foodstands", "title": "Food Stands"}], "rating": 5.0, "coordinates": {"latitude": 53.5909, "longitude": 9.90427}, "transactions": [], "price": "\u20ac", "location": {"address1": "Schnackenburgallee 151", "address2": null, "address3": null, "city": "Hamburg", "zip_code": "22525", "country": "DE", "state": "HH", "display_address": ["Schnackenburgallee 151", "22525 Hamburg", "Germany"]}, "phone": "", "display_phone": "", "distance": 2194.399147010892}, {"id": "ozxgOBASq5cTOk2a9FuXyQ", "alias": "picknick-imbi\u00df-hamburg-2", "name": "Picknick Imbi\u00df", "image_url": "https://s3-media2.fl.yelpcdn.com/bphoto/VDt3Pqg84SKhaOcpm1YRHg/o.jpg", "is_closed": false, "url": "https://www.yelp.com/biz/picknick-imbi%C3%9F-hamburg-2?adjust_creative=hBJOknVQJ58S5goQyjmwRw&utm_campaign=yelp_api_v3&utm_medium=api_v3_business_search&utm_source=hBJOknVQJ58S5goQyjmwRw", "review_count": 11, "categories": [{"alias": "food", "title": "Food"}, {"alias": "hotdogs", "title": "Fast Food"}], "rating": 3.0, "coordinates": {"latitude": 53.5842, "longitude": 9.89507}, "transactions": [], "price": "\u20ac", "location": {"address1": "Hellgrundweg 2", "address2": null, "address3": null, "city": "Hamburg", "zip_code": "22525", "country": "DE", "state": "HH", "display_address": ["Hellgrundweg 2", "22525 Hamburg", "Germany"]}, "phone": "+4940845650", "display_phone": "+49 40 845650", "distance": 3059.523744654951}, {"id": "bLto2fbxF4Mn0J2e6NrElQ", "alias": "quick-imbiss-hamburg", "name": "Quick Imbiss", "image_url": "https://s3-media2.fl.yelpcdn.com/bphoto/7TxqeoxsfUqukMAh0iLiQg/o.jpg", "is_closed": false, "url": "https://www.yelp.com/biz/quick-imbiss-hamburg?adjust_creative=hBJOknVQJ58S5goQyjmwRw&utm_campaign=yelp_api_v3&utm_medium=api_v3_business_search&utm_source=hBJOknVQJ58S5goQyjmwRw", "review_count": 6, "categories": [{"alias": "foodstands", "title": "Food Stands"}], "rating": 3.0, "coordinates": {"latitude": 53.608484, "longitude": 9.903575}, "transactions": [], "price": "\u20ac\u20ac", "location": {"address1": "Eidelstedter Platz 9", "address2": "", "address3": "", "city": "Hamburg", "zip_code": "22523", "country": "DE", "state": "HH", "display_address": ["Eidelstedter Platz 9", "22523 Hamburg", "Germany"]}, "phone": "+49405705455", "display_phone": "+49 40 5705455", "distance": 423.3587813856591}, {"id": "QgsTZSyOW-hSZIcFXzL8Fw", "alias": "sushi-for-friends-hamburg-6", "name": "Sushi for friends", "image_url": "https://s3-media2.fl.yelpcdn.com/bphoto/eFtbROm54x0q8DSwuA2B9A/o.jpg", "is_closed": false, "url": "https://www.yelp.com/biz/sushi-for-friends-hamburg-6?adjust_creative=hBJOknVQJ58S5goQyjmwRw&utm_campaign=yelp_api_v3&utm_medium=api_v3_business_search&utm_source=hBJOknVQJ58S5goQyjmwRw", "review_count": 51, "categories": [{"alias": "sushi", "title": "Sushi Bars"}], "rating": 3.0, "coordinates": {"latitude": 53.58138, "longitude": 9.93395}, "transactions": [], "price": "\u20ac\u20ac", "location": {"address1": "Kieler Str. 261", "address2": null, "address3": null, "city": "Hamburg", "zip_code": "22525", "country": "DE", "state": "HH", "display_address": ["Kieler Str. 261", "22525 Hamburg", "Germany"]}, "phone": "+494020971002", "display_phone": "+49 40 20971002", "distance": 3621.5791850533246}, {"id": "h6XSC8n7UsQ5pEeI6N871w", "alias": "hallo-pizza-hamburg-14", "name": "Hallo Pizza!", "image_url": "https://s3-media3.fl.yelpcdn.com/bphoto/rPETS0HqHtwEcK_oVYi7dA/o.jpg", "is_closed": false, "url": "https://www.yelp.com/biz/hallo-pizza-hamburg-14?adjust_creative=hBJOknVQJ58S5goQyjmwRw&utm_campaign=yelp_api_v3&utm_medium=api_v3_business_search&utm_source=hBJOknVQJ58S5goQyjmwRw", "review_count": 2, "categories": [{"alias": "pizza", "title": "Pizza"}], "rating": 5.0, "coordinates": {"latitude": 53.6303085, "longitude": 9.9266974}, "transactions": [], "price": "\u20ac", "location": {"address1": "Frohmestr. 86", "address2": null, "address3": null, "city": "Hamburg", "zip_code": "22459", "country": "DE", "state": "HH", "display_address": ["Frohmestr. 86", "22459 Hamburg", "Germany"]}, "phone": "+494059354300", "display_phone": "+49 40 59354300", "distance": 2497.116846419378}, {"id": "DlkRrDcT8pA0xFFc9vIdjw", "alias": "hollywood-canteen-hamburg-5", "name": "Hollywood Canteen", "image_url": "https://s3-media4.fl.yelpcdn.com/bphoto/2Dzqr3i0sDO3ajTLMKpWdA/o.jpg", "is_closed": false, "url": "https://www.yelp.com/biz/hollywood-canteen-hamburg-5?adjust_creative=hBJOknVQJ58S5goQyjmwRw&utm_campaign=yelp_api_v3&utm_medium=api_v3_business_search&utm_source=hBJOknVQJ58S5goQyjmwRw", "review_count": 32, "categories": [{"alias": "tradamerican", "title": "American (Traditional)"}, {"alias": "diners", "title": "Diners"}, {"alias": "burgers", "title": "Burgers"}], "rating": 2.5, "coordinates": {"latitude": 53.5821, "longitude": 9.9335}, "transactions": [], "price": "\u20ac\u20ac", "location": {"address1": "Kieler Str. 269", "address2": null, "address3": null, "city": "Hamburg", "zip_code": "22525", "country": "DE", "state": "HH", "display_address": ["Kieler Str. 269", "22525 Hamburg", "Germany"]}, "phone": "+494039806300", "display_phone": "+49 40 39806300", "distance": 3537.561133868987}, {"id": "pdCpaunO_IsJx9egvbp4vg", "alias": "asia-pfanne-hamburg", "name": "Asia Pfanne", "image_url": "https://s3-media2.fl.yelpcdn.com/bphoto/4Dr3ceAn6V1xIJvsGkT15w/o.jpg", "is_closed": false, "url": "https://www.yelp.com/biz/asia-pfanne-hamburg?adjust_creative=hBJOknVQJ58S5goQyjmwRw&utm_campaign=yelp_api_v3&utm_medium=api_v3_business_search&utm_source=hBJOknVQJ58S5goQyjmwRw", "review_count": 1, "categories": [{"alias": "panasian", "title": "Pan Asian"}], "rating": 3.0, "coordinates": {"latitude": 53.632113, "longitude": 9.922267}, "transactions": [], "location": {"address1": "Frohmestr. 53", "address2": "", "address3": "", "city": "Hamburg", "zip_code": "22457", "country": "DE", "state": "HH", "display_address": ["Frohmestr. 53", "22457 Hamburg", "Germany"]}, "phone": "+49405507225", "display_phone": "+49 40 5507225", "distance": 2557.55485646823}, {"id": "1N0RoHYpRany3cen0il2VA", "alias": "restaurant-omyros-hamburg", "name": "Restaurant Omyros", "image_url": "https://s3-media1.fl.yelpcdn.com/bphoto/2uhIyQIgkOb82pZmUEMzwg/o.jpg", "is_closed": false, "url": "https://www.yelp.com/biz/restaurant-omyros-hamburg?adjust_creative=hBJOknVQJ58S5goQyjmwRw&utm_campaign=yelp_api_v3&utm_medium=api_v3_business_search&utm_source=hBJOknVQJ58S5goQyjmwRw", "review_count": 11, "categories": [{"alias": "greek", "title": "Greek"}, {"alias": "international", "title": "International"}], "rating": 3.0, "coordinates": {"latitude": 53.6318, "longitude": 9.92008}, "transactions": [], "price": "\u20ac\u20ac", "location": {"address1": "W\u00e4hlingsallee 8", "address2": null, "address3": null, "city": "Hamburg", "zip_code": "22459", "country": "DE", "state": "HH", "display_address": ["W\u00e4hlingsallee 8", "22459 Hamburg", "Germany"]}, "phone": "+494067044630", "display_phone": "+49 40 67044630", "distance": 2484.6569527417087}, {"id": "GIQaAyM7xLRK7mAcm9u5hw", "alias": "poseidonstuben-hamburg", "name": "Poseidonstuben", "image_url": "https://s3-media3.fl.yelpcdn.com/bphoto/XWtK8mFPiuMTIWjt4ugO-A/o.jpg", "is_closed": false, "url": "https://www.yelp.com/biz/poseidonstuben-hamburg?adjust_creative=hBJOknVQJ58S5goQyjmwRw&utm_campaign=yelp_api_v3&utm_medium=api_v3_business_search&utm_source=hBJOknVQJ58S5goQyjmwRw", "review_count": 2, "categories": [{"alias": "german", "title": "German"}], "rating": 3.0, "coordinates": {"latitude": 53.6022, "longitude": 9.91722}, "transactions": [], "location": {"address1": "Olloweg 51", "address2": null, "address3": null, "city": "Hamburg", "zip_code": "22527", "country": "DE", "state": "HH", "display_address": ["Olloweg 51", "22527 Hamburg", "Germany"]}, "phone": "+49405704551", "display_phone": "+49 40 5704551", "distance": 1060.1858037838363}, {"id": "0bx1_ob51GPbGzPvBv8oTQ", "alias": "yak-asia-imbiss-hamburg-2", "name": "Yak Asia Imbiss", "image_url": "https://s3-media3.fl.yelpcdn.com/bphoto/kGHf_jVgeEF_MnvruU3yyA/o.jpg", "is_closed": false, "url": "https://www.yelp.com/biz/yak-asia-imbiss-hamburg-2?adjust_creative=hBJOknVQJ58S5goQyjmwRw&utm_campaign=yelp_api_v3&utm_medium=api_v3_business_search&utm_source=hBJOknVQJ58S5goQyjmwRw", "review_count": 18, "categories": [{"alias": "foodstands", "title": "Food Stands"}, {"alias": "panasian", "title": "Pan Asian"}], "rating": 2.5, "coordinates": {"latitude": 53.6067, "longitude": 9.90184}, "transactions": [], "price": "\u20ac\u20ac", "location": {"address1": "Elbgaustr. 28", "address2": null, "address3": null, "city": "Hamburg", "zip_code": "22523", "country": "DE", "state": "HH", "display_address": ["Elbgaustr. 28", "22523 Hamburg", "Germany"]}, "phone": "+494053206206", "display_phone": "+49 40 53206206", "distance": 633.0278882702752}, {"id": "R-1kD4TaLDD7H357b43uQg", "alias": "il-cono-hamburg", "name": "Il Cono", "image_url": "https://s3-media1.fl.yelpcdn.com/bphoto/k8s5SDkNwCeQ8BJPmVRJCA/o.jpg", "is_closed": false, "url": "https://www.yelp.com/biz/il-cono-hamburg?adjust_creative=hBJOknVQJ58S5goQyjmwRw&utm_campaign=yelp_api_v3&utm_medium=api_v3_business_search&utm_source=hBJOknVQJ58S5goQyjmwRw", "review_count": 8, "categories": [{"alias": "italian", "title": "Italian"}], "rating": 3.0, "coordinates": {"latitude": 53.5798033, "longitude": 9.9300209}, "transactions": [], "price": "\u20ac\u20ac", "location": {"address1": "Nieland 10", "address2": "", "address3": "", "city": "Hamburg", "zip_code": "22525", "country": "DE", "state": "HH", "display_address": ["Nieland 10", "22525 Hamburg", "Germany"]}, "phone": "+494054768692", "display_phone": "+49 40 54768692", "distance": 3674.453158268955}, {"id": "gVjVhpxnMK3Yla0w7WbprQ", "alias": "mcdonalds-hamburg-21", "name": "McDonald's", "image_url": "https://s3-media2.fl.yelpcdn.com/bphoto/lylUl8342dsGRGrWUlDi0Q/o.jpg", "is_closed": false, "url": "https://www.yelp.com/biz/mcdonalds-hamburg-21?adjust_creative=hBJOknVQJ58S5goQyjmwRw&utm_campaign=yelp_api_v3&utm_medium=api_v3_business_search&utm_source=hBJOknVQJ58S5goQyjmwRw", "review_count": 10, "categories": [{"alias": "hotdogs", "title": "Fast Food"}, {"alias": "burgers", "title": "Burgers"}], "rating": 2.0, "coordinates": {"latitude": 53.6181, "longitude": 9.90529}, "transactions": [], "price": "\u20ac\u20ac\u20ac", "location": {"address1": "H\u00f6rgensweg 10", "address2": null, "address3": null, "city": "Hamburg", "zip_code": "22523", "country": "DE", "state": "HH", "display_address": ["H\u00f6rgensweg 10", "22523 Hamburg", "Germany"]}, "phone": "+4940579204", "display_phone": "+49 40 579204", "distance": 889.4619874202812}, {"id": "WqzFrz31DdIPcPmpvZiIBA", "alias": "himalaya-asia-hamburg", "name": "Himalaya Asia", "image_url": "https://s3-media3.fl.yelpcdn.com/bphoto/XonJKCD1BJqwUZdAo1SPGQ/o.jpg", "is_closed": false, "url": "https://www.yelp.com/biz/himalaya-asia-hamburg?adjust_creative=hBJOknVQJ58S5goQyjmwRw&utm_campaign=yelp_api_v3&utm_medium=api_v3_business_search&utm_source=hBJOknVQJ58S5goQyjmwRw", "review_count": 12, "categories": [{"alias": "panasian", "title": "Pan Asian"}], "rating": 2.5, "coordinates": {"latitude": 53.5999922, "longitude": 9.9160509}, "transactions": [], "price": "\u20ac", "location": {"address1": "Kieler Str. 565", "address2": null, "address3": null, "city": "Hamburg", "zip_code": "22525", "country": "DE", "state": "HH", "display_address": ["Kieler Str. 565", "22525 Hamburg", "Germany"]}, "phone": "+494057129484", "display_phone": "+49 40 57129484", "distance": 1247.649601216631}, {"id": "FiywUzEXp4VQYD_1znDdlw", "alias": "raj-mahal-hamburg-7", "name": "Raj Mahal", "image_url": "https://s3-media4.fl.yelpcdn.com/bphoto/wF8Hk8BMd0zqKFB7s-lLmw/o.jpg", "is_closed": false, "url": "https://www.yelp.com/biz/raj-mahal-hamburg-7?adjust_creative=hBJOknVQJ58S5goQyjmwRw&utm_campaign=yelp_api_v3&utm_medium=api_v3_business_search&utm_source=hBJOknVQJ58S5goQyjmwRw", "review_count": 2, "categories": [{"alias": "indpak", "title": "Indian"}], "rating": 5.0, "coordinates": {"latitude": 53.57121, "longitude": 9.9345}, "transactions": [], "price": "\u20ac", "location": {"address1": "Gro\u00dfe Bahnstr. 96", "address2": "", "address3": null, "city": "Hamburg", "zip_code": "22769", "country": "DE", "state": "HH", "display_address": ["Gro\u00dfe Bahnstr. 96", "22769 Hamburg", "Germany"]}, "phone": "+49404014505", "display_phone": "+49 40 4014505", "distance": 4669.552378747723}, {"id": "ASfFYjn9SicRSavc1zrZPg", "alias": "hornbach-grill-hamburg", "name": "Hornbach Grill", "image_url": "https://s3-media4.fl.yelpcdn.com/bphoto/PkkwVnRH-lIuZSDEbDfuBQ/o.jpg", "is_closed": false, "url": "https://www.yelp.com/biz/hornbach-grill-hamburg?adjust_creative=hBJOknVQJ58S5goQyjmwRw&utm_campaign=yelp_api_v3&utm_medium=api_v3_business_search&utm_source=hBJOknVQJ58S5goQyjmwRw", "review_count": 1, "categories": [{"alias": "german", "title": "German"}], "rating": 4.0, "coordinates": {"latitude": 53.6145788717666, "longitude": 9.90395821630955}, "transactions": [], "location": {"address1": "Hornbach Baumarkt", "address2": "Hosteiner Chausee 49", "address3": "", "city": "Hamburg", "zip_code": "22523", "country": "DE", "state": "HH", "display_address": ["Hornbach Baumarkt", "Hosteiner Chausee 49", "22523 Hamburg", "Germany"]}, "phone": "+494025330180", "display_phone": "+49 40 25330180", "distance": 572.7674802847257}, {"id": "fTQyh9kb6XbWJEygoWC5LQ", "alias": "bennys-hamburg-2", "name": "Bennys", "image_url": "", "is_closed": false, "url": "https://www.yelp.com/biz/bennys-hamburg-2?adjust_creative=hBJOknVQJ58S5goQyjmwRw&utm_campaign=yelp_api_v3&utm_medium=api_v3_business_search&utm_source=hBJOknVQJ58S5goQyjmwRw", "review_count": 3, "categories": [{"alias": "restaurants", "title": "Restaurants"}], "rating": 1.0, "coordinates": {"latitude": 53.6528179, "longitude": 9.9200587}, "transactions": [], "location": {"address1": "K\u00f6nigskinderweg 200", "address2": "", "address3": null, "city": "Hamburg", "zip_code": "22457", "country": "DE", "state": "HH", "display_address": ["K\u00f6nigskinderweg 200", "22457 Hamburg", "Germany"]}, "phone": "+49405598790", "display_phone": "+49 40 5598790", "distance": 4768.877328233414}, {"id": "gLx6Vz_0Tht17upmrAVfbQ", "alias": "xxl-croque-hamburg", "name": "XXL Croque", "image_url": "https://s3-media1.fl.yelpcdn.com/bphoto/WI-0DoqAWwvayUaAfxUu6Q/o.jpg", "is_closed": false, "url": "https://www.yelp.com/biz/xxl-croque-hamburg?adjust_creative=hBJOknVQJ58S5goQyjmwRw&utm_campaign=yelp_api_v3&utm_medium=api_v3_business_search&utm_source=hBJOknVQJ58S5goQyjmwRw", "review_count": 2, "categories": [{"alias": "sandwiches", "title": "Sandwiches"}], "rating": 2.0, "coordinates": {"latitude": 53.63412, "longitude": 9.91615}, "transactions": [], "price": "\u20ac\u20ac", "location": {"address1": "Riekbornweg 2", "address2": "", "address3": "", "city": "Hamburg", "zip_code": "22457", "country": "DE", "state": "HH", "display_address": ["Riekbornweg 2", "22457 Hamburg", "Germany"]}, "phone": "+494055505880", "display_phone": "+49 40 55505880", "distance": 2678.8583890371983}, {"id": "EmGEQs9eV50eFfmhr0BAcQ", "alias": "kings-croque-hamburg", "name": "Kings Croque", "image_url": "https://s3-media4.fl.yelpcdn.com/bphoto/qcZJa7EJf8CytaRpLFu-kw/o.jpg", "is_closed": false, "url": "https://www.yelp.com/biz/kings-croque-hamburg?adjust_creative=hBJOknVQJ58S5goQyjmwRw&utm_campaign=yelp_api_v3&utm_medium=api_v3_business_search&utm_source=hBJOknVQJ58S5goQyjmwRw", "review_count": 6, "categories": [{"alias": "hotdogs", "title": "Fast Food"}, {"alias": "sandwiches", "title": "Sandwiches"}], "rating": 2.5, "coordinates": {"latitude": 53.5733, "longitude": 9.89329}, "transactions": [], "location": {"address1": "Luruper Chaussee 129a", "address2": null, "address3": null, "city": "Hamburg", "zip_code": "22761", "country": "DE", "state": "HH", "display_address": ["Luruper Chaussee 129a", "22761 Hamburg", "Germany"]}, "phone": "+494087601721", "display_phone": "+49 40 87601721", "distance": 4257.9520490266095}, {"id": "PRNi969cArwqNCpob8xw1w", "alias": "eisc\u00e1fe-kind-ellerbek-2", "name": "Eisc\u00e1fe Kind", "image_url": "", "is_closed": false, "url": "https://www.yelp.com/biz/eisc%C3%A1fe-kind-ellerbek-2?adjust_creative=hBJOknVQJ58S5goQyjmwRw&utm_campaign=yelp_api_v3&utm_medium=api_v3_business_search&utm_source=hBJOknVQJ58S5goQyjmwRw", "review_count": 4, "categories": [{"alias": "icecream", "title": "Ice Cream & Frozen Yogurt"}, {"alias": "restaurants", "title": "Restaurants"}], "rating": 4.0, "coordinates": {"latitude": 53.63892, "longitude": 9.89387}, "transactions": [], "price": "\u20ac", "location": {"address1": "Pinneberger Str. 157", "address2": null, "address3": null, "city": "Ellerbek", "zip_code": "25474", "country": "DE", "state": "SH", "display_address": ["Pinneberger Str. 157", "25474 Ellerbek", "Germany"]}, "phone": "+49410136239", "display_phone": "+49 4101 36239", "distance": 3326.1131872713563}, {"id": "JID6EE8t-BxYpzBxCzxuIw", "alias": "mensa-stellingen-informatikum-hamburg-2", "name": "Mensa Stellingen - Informatikum", "image_url": "https://s3-media2.fl.yelpcdn.com/bphoto/bw38lwJPDxOe0db-MQSVmQ/o.jpg", "is_closed": false, "url": "https://www.yelp.com/biz/mensa-stellingen-informatikum-hamburg-2?adjust_creative=hBJOknVQJ58S5goQyjmwRw&utm_campaign=yelp_api_v3&utm_medium=api_v3_business_search&utm_source=hBJOknVQJ58S5goQyjmwRw", "review_count": 6, "categories": [{"alias": "cafeteria", "title": "Cafeteria"}, {"alias": "food", "title": "Food"}], "rating": 1.5, "coordinates": {"latitude": 53.59935, "longitude": 9.93191}, "transactions": [], "price": "\u20ac", "location": {"address1": "Vogt-K\u00f6lln-Str. 30", "address2": "", "address3": "", "city": "Hamburg", "zip_code": "22527", "country": "DE", "state": "HH", "display_address": ["Vogt-K\u00f6lln-Str. 30", "22527 Hamburg", "Germany"]}, "phone": "", "display_phone": "", "distance": 1944.9096541244373}, {"id": "fNU2DnLXg9_k6bqsu0YoHQ", "alias": "nur-hier-hamburg-24", "name": "Nur Hier", "image_url": "https://s3-media1.fl.yelpcdn.com/bphoto/Q4m3Cxa12ZrcBvKBmoRR7w/o.jpg", "is_closed": false, "url": "https://www.yelp.com/biz/nur-hier-hamburg-24?adjust_creative=hBJOknVQJ58S5goQyjmwRw&utm_campaign=yelp_api_v3&utm_medium=api_v3_business_search&utm_source=hBJOknVQJ58S5goQyjmwRw", "review_count": 2, "categories": [{"alias": "bakeries", "title": "Bakeries"}, {"alias": "cafes", "title": "Cafes"}], "rating": 2.5, "coordinates": {"latitude": 53.608535, "longitude": 9.903662}, "transactions": [], "price": "\u20ac\u20ac\u20ac", "location": {"address1": "Eidelstedter Platz 9", "address2": "", "address3": null, "city": "Hamburg", "zip_code": "22523", "country": "DE", "state": "HH", "display_address": ["Eidelstedter Platz 9", "22523 Hamburg", "Germany"]}, "phone": "+49405707754", "display_phone": "+49 40 5707754", "distance": 415.53399201157663}, {"id": "wtbypjRP06EwKojZkx5sIg", "alias": "db-servicestore-hamburg", "name": "DB ServiceStore", "image_url": "https://s3-media1.fl.yelpcdn.com/bphoto/uXDF4g6rdmekfiSHtI7yDQ/o.jpg", "is_closed": false, "url": "https://www.yelp.com/biz/db-servicestore-hamburg?adjust_creative=hBJOknVQJ58S5goQyjmwRw&utm_campaign=yelp_api_v3&utm_medium=api_v3_business_search&utm_source=hBJOknVQJ58S5goQyjmwRw", "review_count": 2, "categories": [{"alias": "foodstands", "title": "Food Stands"}, {"alias": "mags", "title": "Newspapers & Magazines"}, {"alias": "tobaccoshops", "title": "Tobacco Shops"}], "rating": 2.5, "coordinates": {"latitude": 53.5899929971211, "longitude": 9.9184100961593}, "transactions": [], "price": "\u20ac", "location": {"address1": "Volksparkstr. 79", "address2": "", "address3": "", "city": "Hamburg", "zip_code": "22525", "country": "DE", "state": "HH", "display_address": ["Volksparkstr. 79", "22525 Hamburg", "Germany"]}, "phone": "", "display_phone": "", "distance": 2353.7103129086804}]