[{"id": "kpnqEWbGIGYLc1I4QpxOgA", "alias": "tibet-restaurant-hamburg", "name": "Tibet Restaurant", "image_url": "https://s3-media1.fl.yelpcdn.com/bphoto/3tSVIW1V03gPxxtL72xRvQ/o.jpg", "is_closed": false, "url": "https://www.yelp.com/biz/tibet-restaurant-hamburg?adjust_creative=hBJOknVQJ58S5goQyjmwRw&utm_campaign=yelp_api_v3&utm_medium=api_v3_business_search&utm_source=hBJOknVQJ58S5goQyjmwRw", "review_count": 38, "categories": [{"alias": "himalayan", "title": "Himalayan/Nepalese"}, {"alias": "panasian", "title": "Pan Asian"}], "rating": 4.5, "coordinates": {"latitude": 53.58075, "longitude": 9.79201}, "transactions": [], "price": "\u20ac\u20ac", "location": {"address1": "S\u00fclldorfer Landstr. 230", "address2": null, "address3": null, "city": "Hamburg", "zip_code": "22589", "country": "DE", "state": "HH", "display_address": ["S\u00fclldorfer Landstr. 230", "22589 Hamburg", "Germany"]}, "phone": "+494086693761", "display_phone": "+49 40 86693761", "distance": 3402.5849452512207}, {"id": "GfG8sQNKdaNkqs2nJBF_0g", "alias": "gastst\u00e4tte-pony-waldsch\u00e4nke-hamburg", "name": "Gastst\u00e4tte Pony-Waldsch\u00e4nke", "image_url": "https://s3-media1.fl.yelpcdn.com/bphoto/o73WXVCYlQLq985rmNk-EQ/o.jpg", "is_closed": false, "url": "https://www.yelp.com/biz/gastst%C3%A4tte-pony-waldsch%C3%A4nke-hamburg?adjust_creative=hBJOknVQJ58S5goQyjmwRw&utm_campaign=yelp_api_v3&utm_medium=api_v3_business_search&utm_source=hBJOknVQJ58S5goQyjmwRw", "review_count": 42, "categories": [{"alias": "german", "title": "German"}], "rating": 4.0, "coordinates": {"latitude": 53.60464, "longitude": 9.7698}, "transactions": [], "price": "\u20ac\u20ac", "location": {"address1": "Babenwischenweg 28", "address2": null, "address3": null, "city": "Hamburg", "zip_code": "22559", "country": "DE", "state": "HH", "display_address": ["Babenwischenweg 28", "22559 Hamburg", "Germany"]}, "phone": "+4940812353", "display_phone": "+49 40 812353", "distance": 1421.4580804967668}, {"id": "9cNYn0POHbQXrmubo-Xpvw", "alias": "grossmutters-laecheln-hamburg", "name": "Grossmutters Laecheln", "image_url": "https://s3-media2.fl.yelpcdn.com/bphoto/1IFr9LiOdGw_vnRHA2vYJQ/o.jpg", "is_closed": false, "url": "https://www.yelp.com/biz/grossmutters-laecheln-hamburg?adjust_creative=hBJOknVQJ58S5goQyjmwRw&utm_campaign=yelp_api_v3&utm_medium=api_v3_business_search&utm_source=hBJOknVQJ58S5goQyjmwRw", "review_count": 5, "categories": [{"alias": "international", "title": "International"}, {"alias": "german", "title": "German"}], "rating": 3.5, "coordinates": {"latitude": 53.58168, "longitude": 9.76465}, "transactions": [], "price": "\u20ac\u20ac", "location": {"address1": "Alte S\u00fclldorfer Landstr. 420 C", "address2": null, "address3": "", "city": "Hamburg", "zip_code": "22559", "country": "DE", "state": "HH", "display_address": ["Alte S\u00fclldorfer Landstr. 420 C", "22559 Hamburg", "Germany"]}, "phone": "+4940180243405", "display_phone": "+49 40 180243405", "distance": 3638.044169392181}, {"id": "z4-gIwlU7VXAm4mQOjjHBg", "alias": "elbdorf-cafe-hamburg-2", "name": "Elbdorf Cafe", "image_url": "https://s3-media1.fl.yelpcdn.com/bphoto/BDqIPOe1oKqxrhecRdDwjw/o.jpg", "is_closed": false, "url": "https://www.yelp.com/biz/elbdorf-cafe-hamburg-2?adjust_creative=hBJOknVQJ58S5goQyjmwRw&utm_campaign=yelp_api_v3&utm_medium=api_v3_business_search&utm_source=hBJOknVQJ58S5goQyjmwRw", "review_count": 3, "categories": [{"alias": "cafes", "title": "Cafes"}, {"alias": "german", "title": "German"}], "rating": 5.0, "coordinates": {"latitude": 53.5766, "longitude": 9.80227}, "transactions": [], "price": "\u20ac\u20ac", "location": {"address1": "Fruchtweg 40", "address2": null, "address3": null, "city": "Hamburg", "zip_code": "22589", "country": "DE", "state": "HH", "display_address": ["Fruchtweg 40", "22589 Hamburg", "Germany"]}, "phone": "+494087082602", "display_phone": "+49 40 87082602", "distance": 3966.9928779068355}, {"id": "tO8v3GHCHj1-MNwL_qoTOg", "alias": "messologi-hamburg", "name": "Messologi", "image_url": "https://s3-media1.fl.yelpcdn.com/bphoto/JMa9ktHIf0rRnhCZBqw92A/o.jpg", "is_closed": false, "url": "https://www.yelp.com/biz/messologi-hamburg?adjust_creative=hBJOknVQJ58S5goQyjmwRw&utm_campaign=yelp_api_v3&utm_medium=api_v3_business_search&utm_source=hBJOknVQJ58S5goQyjmwRw", "review_count": 4, "categories": [{"alias": "greek", "title": "Greek"}], "rating": 5.0, "coordinates": {"latitude": 53.58144, "longitude": 9.76352}, "transactions": [], "price": "\u20ac\u20ac", "location": {"address1": "Alte S\u00fclldorfer Landstr. 422", "address2": "", "address3": null, "city": "Hamburg", "zip_code": "22559", "country": "DE", "state": "HH", "display_address": ["Alte S\u00fclldorfer Landstr. 422", "22559 Hamburg", "Germany"]}, "phone": "+494046649347", "display_phone": "+49 40 46649347", "distance": 3686.9067558935517}, {"id": "mJfZ-9-mCHEno8w65Lgl_Q", "alias": "san-marco-hamburg-5", "name": "San Marco", "image_url": "https://s3-media4.fl.yelpcdn.com/bphoto/nxjN3Ve4hKtCKq9Iyc54fg/o.jpg", "is_closed": false, "url": "https://www.yelp.com/biz/san-marco-hamburg-5?adjust_creative=hBJOknVQJ58S5goQyjmwRw&utm_campaign=yelp_api_v3&utm_medium=api_v3_business_search&utm_source=hBJOknVQJ58S5goQyjmwRw", "review_count": 3, "categories": [{"alias": "icecream", "title": "Ice Cream & Frozen Yogurt"}, {"alias": "pizza", "title": "Pizza"}], "rating": 3.5, "coordinates": {"latitude": 53.5801, "longitude": 9.79636}, "transactions": [], "price": "\u20ac\u20ac", "location": {"address1": "S\u00fclldorfer Kirchenweg 199", "address2": null, "address3": null, "city": "Hamburg", "zip_code": "22589", "country": "DE", "state": "HH", "display_address": ["S\u00fclldorfer Kirchenweg 199", "22589 Hamburg", "Germany"]}, "phone": "+494046651550", "display_phone": "+49 40 46651550", "distance": 3501.894708262774}, {"id": "E73qYJmztAibJOEQ26C6yw", "alias": "quanto-basta-pinneberg", "name": "Quanto Basta", "image_url": "https://s3-media2.fl.yelpcdn.com/bphoto/pga5AFzbxJRUxsTI0Tqt5Q/o.jpg", "is_closed": false, "url": "https://www.yelp.com/biz/quanto-basta-pinneberg?adjust_creative=hBJOknVQJ58S5goQyjmwRw&utm_campaign=yelp_api_v3&utm_medium=api_v3_business_search&utm_source=hBJOknVQJ58S5goQyjmwRw", "review_count": 26, "categories": [{"alias": "italian", "title": "Italian"}, {"alias": "pizza", "title": "Pizza"}], "rating": 4.5, "coordinates": {"latitude": 53.6525091359192, "longitude": 9.8083545640111}, "transactions": [], "price": "\u20ac\u20ac", "location": {"address1": "Fahltsweide 10", "address2": "", "address3": "", "city": "Pinneberg", "zip_code": "25421", "country": "DE", "state": "SH", "display_address": ["Fahltsweide 10", "25421 Pinneberg", "Germany"]}, "phone": "+4941018451823", "display_phone": "+49 4101 8451823", "distance": 4773.053437223053}, {"id": "JJ9kQRcoNoCptdbo1-TZGg", "alias": "restaurant-memory-hamburg", "name": "Restaurant Memory", "image_url": "https://s3-media2.fl.yelpcdn.com/bphoto/lnQbUTt7YkZ3ZcQwudabZg/o.jpg", "is_closed": false, "url": "https://www.yelp.com/biz/restaurant-memory-hamburg?adjust_creative=hBJOknVQJ58S5goQyjmwRw&utm_campaign=yelp_api_v3&utm_medium=api_v3_business_search&utm_source=hBJOknVQJ58S5goQyjmwRw", "review_count": 14, "categories": [{"alias": "international", "title": "International"}], "rating": 4.5, "coordinates": {"latitude": 53.5808, "longitude": 9.793}, "transactions": [], "price": "\u20ac\u20ac\u20ac", "location": {"address1": "S\u00fclldorfer Landstr. 222", "address2": null, "address3": null, "city": "Hamburg", "zip_code": "22589", "country": "DE", "state": "HH", "display_address": ["S\u00fclldorfer Landstr. 222", "22589 Hamburg", "Germany"]}, "phone": "+494086626938", "display_phone": "+49 40 86626938", "distance": 3404.424953690095}, {"id": "li2GIYTWIVO6OQsA6WmHGw", "alias": "reitstall-kl\u00f6vensteen-schenefeld", "name": "Reitstall Kl\u00f6vensteen", "image_url": "https://s3-media3.fl.yelpcdn.com/bphoto/OhJd34pnglhaC436A2ioAQ/o.jpg", "is_closed": false, "url": "https://www.yelp.com/biz/reitstall-kl%C3%B6vensteen-schenefeld?adjust_creative=hBJOknVQJ58S5goQyjmwRw&utm_campaign=yelp_api_v3&utm_medium=api_v3_business_search&utm_source=hBJOknVQJ58S5goQyjmwRw", "review_count": 24, "categories": [{"alias": "german", "title": "German"}], "rating": 3.5, "coordinates": {"latitude": 53.6056310252484, "longitude": 9.80153379364015}, "transactions": [], "price": "\u20ac\u20ac", "location": {"address1": "Uetersener Weg 100", "address2": null, "address3": null, "city": "Schenefeld", "zip_code": "22869", "country": "DE", "state": "SH", "display_address": ["Uetersener Weg 100", "22869 Schenefeld", "Germany"]}, "phone": "+49408306992", "display_phone": "+49 40 8306992", "distance": 1081.7570605814574}, {"id": "xoYtmD10hAEbWQELxbM07A", "alias": "taverna-kronos-pinneberg", "name": "Taverna Kronos", "image_url": "https://s3-media2.fl.yelpcdn.com/bphoto/xJhlVCch-MO-Kx0QQStnTA/o.jpg", "is_closed": false, "url": "https://www.yelp.com/biz/taverna-kronos-pinneberg?adjust_creative=hBJOknVQJ58S5goQyjmwRw&utm_campaign=yelp_api_v3&utm_medium=api_v3_business_search&utm_source=hBJOknVQJ58S5goQyjmwRw", "review_count": 39, "categories": [{"alias": "greek", "title": "Greek"}], "rating": 4.0, "coordinates": {"latitude": 53.651193, "longitude": 9.791275}, "transactions": [], "price": "\u20ac\u20ac", "location": {"address1": "Oeltingsallee 37", "address2": null, "address3": null, "city": "Pinneberg", "zip_code": "25421", "country": "DE", "state": "SH", "display_address": ["Oeltingsallee 37", "25421 Pinneberg", "Germany"]}, "phone": "+494101691955", "display_phone": "+49 4101 691955", "distance": 4442.418277800193}, {"id": "AYlMFGMmNAzgiUYPjwZeLw", "alias": "kochlounge-pinneberg", "name": "Kochlounge", "image_url": "https://s3-media4.fl.yelpcdn.com/bphoto/qYWSkH2Y6C02kzXCU17hXQ/o.jpg", "is_closed": false, "url": "https://www.yelp.com/biz/kochlounge-pinneberg?adjust_creative=hBJOknVQJ58S5goQyjmwRw&utm_campaign=yelp_api_v3&utm_medium=api_v3_business_search&utm_source=hBJOknVQJ58S5goQyjmwRw", "review_count": 39, "categories": [{"alias": "international", "title": "International"}], "rating": 4.5, "coordinates": {"latitude": 53.6444199, "longitude": 9.81111}, "transactions": [], "price": "\u20ac\u20ac", "location": {"address1": "Diesterwegstr. 33 b", "address2": "", "address3": "", "city": "Pinneberg", "zip_code": "25421", "country": "DE", "state": "SH", "display_address": ["Diesterwegstr. 33 b", "25421 Pinneberg", "Germany"]}, "phone": "+4941018590070", "display_phone": "+49 4101 8590070", "distance": 3957.40758616787}, {"id": "Jt8deUD57YvyPNC2hXZRYA", "alias": "lust-auf-sizilien-pinneberg", "name": "Lust auf Sizilien", "image_url": "https://s3-media1.fl.yelpcdn.com/bphoto/AlEtE0aTwQJRB0kvM4E17A/o.jpg", "is_closed": false, "url": "https://www.yelp.com/biz/lust-auf-sizilien-pinneberg?adjust_creative=hBJOknVQJ58S5goQyjmwRw&utm_campaign=yelp_api_v3&utm_medium=api_v3_business_search&utm_source=hBJOknVQJ58S5goQyjmwRw", "review_count": 1, "categories": [{"alias": "italian", "title": "Italian"}], "rating": 4.0, "coordinates": {"latitude": 53.63796, "longitude": 9.78689}, "transactions": [], "location": {"address1": "Vo\u00dfbarg 12", "address2": "", "address3": "", "city": "Pinneberg", "zip_code": "25421", "country": "DE", "state": "SH", "display_address": ["Vo\u00dfbarg 12", "25421 Pinneberg", "Germany"]}, "phone": "+49410165251", "display_phone": "+49 4101 65251", "distance": 2973.018239958941}, {"id": "1f5mNMVLMrdMCRBW6MHJ7Q", "alias": "asia-pham-hamburg", "name": "Asia Pham", "image_url": "https://s3-media2.fl.yelpcdn.com/bphoto/HwjH0ADWI2kdi9ijxlauaQ/o.jpg", "is_closed": false, "url": "https://www.yelp.com/biz/asia-pham-hamburg?adjust_creative=hBJOknVQJ58S5goQyjmwRw&utm_campaign=yelp_api_v3&utm_medium=api_v3_business_search&utm_source=hBJOknVQJ58S5goQyjmwRw", "review_count": 2, "categories": [{"alias": "fooddeliveryservices", "title": "Food Delivery Services"}, {"alias": "panasian", "title": "Pan Asian"}], "rating": 2.5, "coordinates": {"latitude": 53.5808, "longitude": 9.79512}, "transactions": [], "location": {"address1": "S\u00fclldorfer Landstr. 202", "address2": null, "address3": null, "city": "Hamburg", "zip_code": "22589", "country": "DE", "state": "HH", "display_address": ["S\u00fclldorfer Landstr. 202", "22589 Hamburg", "Germany"]}, "phone": "+494033420675", "display_phone": "+49 40 33420675", "distance": 3420.3117650944564}, {"id": "hGr6fQxD3Nl48irHMMzFtw", "alias": "jugendcaf\u00e9-basement-hamburg", "name": "Jugendcaf\u00e9 Basement", "image_url": "https://s3-media4.fl.yelpcdn.com/bphoto/P9BVMlPcAPr_InZy30V6nA/o.jpg", "is_closed": false, "url": "https://www.yelp.com/biz/jugendcaf%C3%A9-basement-hamburg?adjust_creative=hBJOknVQJ58S5goQyjmwRw&utm_campaign=yelp_api_v3&utm_medium=api_v3_business_search&utm_source=hBJOknVQJ58S5goQyjmwRw", "review_count": 3, "categories": [{"alias": "cafes", "title": "Cafes"}, {"alias": "youth_club", "title": "Youth Club"}], "rating": 5.0, "coordinates": {"latitude": 53.57899, "longitude": 9.79768}, "transactions": [], "location": {"address1": "S\u00fclldorfer Kirchenweg 187", "address2": null, "address3": null, "city": "Hamburg", "zip_code": "22589", "country": "DE", "state": "HH", "display_address": ["S\u00fclldorfer Kirchenweg 187", "22589 Hamburg", "Germany"]}, "phone": "+494088941866", "display_phone": "+49 40 88941866", "distance": 3645.0719250590237}, {"id": "qDAChxTosQmPkLOv7PrxzA", "alias": "spiros-und-spiros-hamburg", "name": "Spiros & Spiros", "image_url": "https://s3-media2.fl.yelpcdn.com/bphoto/qu3PusRaGi3yb2NeWkwR2Q/o.jpg", "is_closed": false, "url": "https://www.yelp.com/biz/spiros-und-spiros-hamburg?adjust_creative=hBJOknVQJ58S5goQyjmwRw&utm_campaign=yelp_api_v3&utm_medium=api_v3_business_search&utm_source=hBJOknVQJ58S5goQyjmwRw", "review_count": 40, "categories": [{"alias": "greek", "title": "Greek"}], "rating": 3.5, "coordinates": {"latitude": 53.57982, "longitude": 9.80156}, "transactions": [], "price": "\u20ac\u20ac", "location": {"address1": "S\u00fclldorfer Landstr. 164", "address2": null, "address3": null, "city": "Hamburg", "zip_code": "22589", "country": "DE", "state": "HH", "display_address": ["S\u00fclldorfer Landstr. 164", "22589 Hamburg", "Germany"]}, "phone": "+49408701076", "display_phone": "+49 40 8701076", "distance": 3603.0312691392996}, {"id": "06FvQ2VjmhgOYNYm36KGwQ", "alias": "fischbistro-pinneberg", "name": "FischBistro", "image_url": "https://s3-media2.fl.yelpcdn.com/bphoto/OxGLI35HPU1cYrb9fER83Q/o.jpg", "is_closed": false, "url": "https://www.yelp.com/biz/fischbistro-pinneberg?adjust_creative=hBJOknVQJ58S5goQyjmwRw&utm_campaign=yelp_api_v3&utm_medium=api_v3_business_search&utm_source=hBJOknVQJ58S5goQyjmwRw", "review_count": 2, "categories": [{"alias": "fishnchips", "title": "Fish & Chips"}], "rating": 5.0, "coordinates": {"latitude": 53.6459, "longitude": 9.77089}, "transactions": [], "price": "\u20ac", "location": {"address1": "Westring 6", "address2": null, "address3": null, "city": "Pinneberg", "zip_code": "25421", "country": "DE", "state": "SH", "display_address": ["Westring 6", "25421 Pinneberg", "Germany"]}, "phone": "", "display_phone": "", "distance": 4014.6468448199907}, {"id": "5-ykuAlII1rAM_EAlnyMRw", "alias": "restaurant-dubrovnik-pinneberg", "name": "Restaurant Dubrovnik,", "image_url": "https://s3-media2.fl.yelpcdn.com/bphoto/FIp-R26Rb2I9lYi6rhQ9hg/o.jpg", "is_closed": false, "url": "https://www.yelp.com/biz/restaurant-dubrovnik-pinneberg?adjust_creative=hBJOknVQJ58S5goQyjmwRw&utm_campaign=yelp_api_v3&utm_medium=api_v3_business_search&utm_source=hBJOknVQJ58S5goQyjmwRw", "review_count": 13, "categories": [{"alias": "international", "title": "International"}, {"alias": "serbocroatian", "title": "Serbo Croatian"}], "rating": 3.5, "coordinates": {"latitude": 53.6413, "longitude": 9.79151}, "transactions": [], "price": "\u20ac", "location": {"address1": "An der Raa 7", "address2": null, "address3": null, "city": "Pinneberg", "zip_code": "25421", "country": "DE", "state": "SH", "display_address": ["An der Raa 7", "25421 Pinneberg", "Germany"]}, "phone": "+494101804590", "display_phone": "+49 4101 804590", "distance": 3344.8838591350664}, {"id": "kKdTjgFwLxDJ534fx7IhwA", "alias": "thessaloniki-pinneberg", "name": "Thessaloniki", "image_url": "https://s3-media1.fl.yelpcdn.com/bphoto/jyi-PILen60wkXYj_ri_YQ/o.jpg", "is_closed": false, "url": "https://www.yelp.com/biz/thessaloniki-pinneberg?adjust_creative=hBJOknVQJ58S5goQyjmwRw&utm_campaign=yelp_api_v3&utm_medium=api_v3_business_search&utm_source=hBJOknVQJ58S5goQyjmwRw", "review_count": 27, "categories": [{"alias": "greek", "title": "Greek"}], "rating": 4.0, "coordinates": {"latitude": 53.65222, "longitude": 9.77595}, "transactions": [], "price": "\u20ac\u20ac", "location": {"address1": "Wedeler Weg 79", "address2": null, "address3": null, "city": "Pinneberg", "zip_code": "25421", "country": "DE", "state": "SH", "display_address": ["Wedeler Weg 79", "25421 Pinneberg", "Germany"]}, "phone": "+49410122550", "display_phone": "+49 4101 22550", "distance": 4622.917750819512}, {"id": "OvQQASmSCJ8kDgP8_Z1hbQ", "alias": "mister-bratwurst-pinneberg", "name": "Mister Bratwurst", "image_url": "", "is_closed": false, "url": "https://www.yelp.com/biz/mister-bratwurst-pinneberg?adjust_creative=hBJOknVQJ58S5goQyjmwRw&utm_campaign=yelp_api_v3&utm_medium=api_v3_business_search&utm_source=hBJOknVQJ58S5goQyjmwRw", "review_count": 1, "categories": [{"alias": "hotdogs", "title": "Fast Food"}], "rating": 5.0, "coordinates": {"latitude": 53.6455, "longitude": 9.77062}, "transactions": [], "location": {"address1": "Westring", "address2": "", "address3": null, "city": "Pinneberg", "zip_code": "25421", "country": "DE", "state": "SH", "display_address": ["Westring", "25421 Pinneberg", "Germany"]}, "phone": "", "display_phone": "", "distance": 3977.1728969647274}, {"id": "3VmiUMHCKYy2i2wVekMBzA", "alias": "onkel-klauss-imbiss-pinneberg", "name": "Onkel Klaus's Imbiss", "image_url": "https://s3-media2.fl.yelpcdn.com/bphoto/TWynOkwLK84BmaFZLgi5xA/o.jpg", "is_closed": false, "url": "https://www.yelp.com/biz/onkel-klauss-imbiss-pinneberg?adjust_creative=hBJOknVQJ58S5goQyjmwRw&utm_campaign=yelp_api_v3&utm_medium=api_v3_business_search&utm_source=hBJOknVQJ58S5goQyjmwRw", "review_count": 1, "categories": [{"alias": "currysausage", "title": "Curry Sausage"}], "rating": 4.0, "coordinates": {"latitude": 53.6459, "longitude": 9.77067}, "transactions": [], "price": "\u20ac", "location": {"address1": "Westring 6", "address2": null, "address3": null, "city": "Pinneberg", "zip_code": "25421", "country": "DE", "state": "SH", "display_address": ["Westring 6", "25421 Pinneberg", "Germany"]}, "phone": "", "display_phone": "", "distance": 4018.792605322059}, {"id": "uaO1YLgD11G0c5J0ZiteSQ", "alias": "taverne-zorbas-hamburg", "name": "Taverne Zorbas", "image_url": "https://s3-media2.fl.yelpcdn.com/bphoto/mTdFzzFnZqtp9e1Aovn5yQ/o.jpg", "is_closed": false, "url": "https://www.yelp.com/biz/taverne-zorbas-hamburg?adjust_creative=hBJOknVQJ58S5goQyjmwRw&utm_campaign=yelp_api_v3&utm_medium=api_v3_business_search&utm_source=hBJOknVQJ58S5goQyjmwRw", "review_count": 1, "categories": [{"alias": "greek", "title": "Greek"}], "rating": 1.0, "coordinates": {"latitude": 53.5763, "longitude": 9.81339}, "transactions": [], "location": {"address1": "Heidrehmen 23", "address2": null, "address3": null, "city": "Hamburg", "zip_code": "22589", "country": "DE", "state": "HH", "display_address": ["Heidrehmen 23", "22589 Hamburg", "Germany"]}, "phone": "+49408705734", "display_phone": "+49 40 8705734", "distance": 4230.604553447228}, {"id": "0Qx6Nf-xHiSLZ-7M9Mm7cw", "alias": "enjoy-pizza-und-wok-hamburg", "name": "Enjoy Pizza & Wok", "image_url": "https://s3-media3.fl.yelpcdn.com/bphoto/d1tc4Ul1eiJsL4oKH9fw2w/o.jpg", "is_closed": false, "url": "https://www.yelp.com/biz/enjoy-pizza-und-wok-hamburg?adjust_creative=hBJOknVQJ58S5goQyjmwRw&utm_campaign=yelp_api_v3&utm_medium=api_v3_business_search&utm_source=hBJOknVQJ58S5goQyjmwRw", "review_count": 2, "categories": [{"alias": "chinese", "title": "Chinese"}], "rating": 2.0, "coordinates": {"latitude": 53.5782814, "longitude": 9.8097296}, "transactions": [], "price": "\u20ac\u20ac", "location": {"address1": "S\u00fclldorfer Landstr. 94", "address2": "", "address3": "", "city": "Hamburg", "zip_code": "22589", "country": "DE", "state": "HH", "display_address": ["S\u00fclldorfer Landstr. 94", "22589 Hamburg", "Germany"]}, "phone": "+494018072333", "display_phone": "+49 40 18072333", "distance": 3933.631032111034}, {"id": "Ot2_EQ4AiHMrncYallz52w", "alias": "grillimbiss-athena-pinneberg", "name": "Grillimbiss Athena", "image_url": "https://s3-media2.fl.yelpcdn.com/bphoto/4Hem3oppXcUcjsh7R-D8mw/o.jpg", "is_closed": false, "url": "https://www.yelp.com/biz/grillimbiss-athena-pinneberg?adjust_creative=hBJOknVQJ58S5goQyjmwRw&utm_campaign=yelp_api_v3&utm_medium=api_v3_business_search&utm_source=hBJOknVQJ58S5goQyjmwRw", "review_count": 3, "categories": [{"alias": "food", "title": "Food"}, {"alias": "hotdogs", "title": "Fast Food"}], "rating": 2.5, "coordinates": {"latitude": 53.6442, "longitude": 9.81008}, "transactions": [], "location": {"address1": "Diesterwegstr. 33", "address2": null, "address3": null, "city": "Pinneberg", "zip_code": "25421", "country": "DE", "state": "SH", "display_address": ["Diesterwegstr. 33", "25421 Pinneberg", "Germany"]}, "phone": "+494101374937", "display_phone": "+49 4101 374937", "distance": 3934.563815048578}]