[{"id": "l6KyxElYzEQ5Z4sUBV2jHQ", "alias": "lindos-grill-schenefeld", "name": "Lindos Grill", "image_url": "https://s3-media1.fl.yelpcdn.com/bphoto/YW_fD41dnVX348IzVgCjKw/o.jpg", "is_closed": false, "url": "https://www.yelp.com/biz/lindos-grill-schenefeld?adjust_creative=hBJOknVQJ58S5goQyjmwRw&utm_campaign=yelp_api_v3&utm_medium=api_v3_business_search&utm_source=hBJOknVQJ58S5goQyjmwRw", "review_count": 20, "categories": [{"alias": "greek", "title": "Greek"}], "rating": 4.5, "coordinates": {"latitude": 53.6010826662309, "longitude": 9.8220850614548}, "transactions": [], "price": "\u20ac\u20ac", "location": {"address1": "Hauptstr. 53", "address2": null, "address3": null, "city": "Schenefeld", "zip_code": "22869", "country": "DE", "state": "SH", "display_address": ["Hauptstr. 53", "22869 Schenefeld", "Germany"]}, "phone": "+49408301277", "display_phone": "+49 40 8301277", "distance": 1137.7546211110591}, {"id": "yxaa2M8ksV3oE3e77J_cWg", "alias": "marathon-grill-rellingen", "name": "Marathon Grill", "image_url": "https://s3-media1.fl.yelpcdn.com/bphoto/MeQPAIYOymxpCLDbQWj7aw/o.jpg", "is_closed": false, "url": "https://www.yelp.com/biz/marathon-grill-rellingen?adjust_creative=hBJOknVQJ58S5goQyjmwRw&utm_campaign=yelp_api_v3&utm_medium=api_v3_business_search&utm_source=hBJOknVQJ58S5goQyjmwRw", "review_count": 13, "categories": [{"alias": "greek", "title": "Greek"}], "rating": 4.5, "coordinates": {"latitude": 53.6436, "longitude": 9.84214}, "transactions": [], "price": "\u20ac", "location": {"address1": "Hallstr. 55", "address2": null, "address3": null, "city": "Rellingen", "zip_code": "25462", "country": "DE", "state": "SH", "display_address": ["Hallstr. 55", "25462 Rellingen", "Germany"]}, "phone": "+49410125161", "display_phone": "+49 4101 25161", "distance": 3939.933234290706}, {"id": "nvmgtLOXRu4Zfywx9SGyzQ", "alias": "china-restaurant-mr-hoh-schenefeld", "name": "China-Restaurant Mr. Hoh", "image_url": "https://s3-media4.fl.yelpcdn.com/bphoto/m0LVWBB8M4JP42aSBhQBKQ/o.jpg", "is_closed": false, "url": "https://www.yelp.com/biz/china-restaurant-mr-hoh-schenefeld?adjust_creative=hBJOknVQJ58S5goQyjmwRw&utm_campaign=yelp_api_v3&utm_medium=api_v3_business_search&utm_source=hBJOknVQJ58S5goQyjmwRw", "review_count": 31, "categories": [{"alias": "chinese", "title": "Chinese"}], "rating": 4.0, "coordinates": {"latitude": 53.60809, "longitude": 9.84038}, "transactions": [], "price": "\u20ac\u20ac", "location": {"address1": "Lornsenstr. 122", "address2": null, "address3": null, "city": "Schenefeld", "zip_code": "22869", "country": "DE", "state": "SH", "display_address": ["Lornsenstr. 122", "22869 Schenefeld", "Germany"]}, "phone": "+49408304990", "display_phone": "+49 40 8304990", "distance": 1489.5154624479096}, {"id": "z4-gIwlU7VXAm4mQOjjHBg", "alias": "elbdorf-cafe-hamburg-2", "name": "Elbdorf Cafe", "image_url": "https://s3-media1.fl.yelpcdn.com/bphoto/BDqIPOe1oKqxrhecRdDwjw/o.jpg", "is_closed": false, "url": "https://www.yelp.com/biz/elbdorf-cafe-hamburg-2?adjust_creative=hBJOknVQJ58S5goQyjmwRw&utm_campaign=yelp_api_v3&utm_medium=api_v3_business_search&utm_source=hBJOknVQJ58S5goQyjmwRw", "review_count": 3, "categories": [{"alias": "cafes", "title": "Cafes"}, {"alias": "german", "title": "German"}], "rating": 5.0, "coordinates": {"latitude": 53.5766, "longitude": 9.80227}, "transactions": [], "price": "\u20ac\u20ac", "location": {"address1": "Fruchtweg 40", "address2": null, "address3": null, "city": "Hamburg", "zip_code": "22589", "country": "DE", "state": "HH", "display_address": ["Fruchtweg 40", "22589 Hamburg", "Germany"]}, "phone": "+494087082602", "display_phone": "+49 40 87082602", "distance": 3979.3432920034325}, {"id": "vhDnzqKJXzaWjjWtSoKVvg", "alias": "reggies-hamburg-5", "name": "Reggie's", "image_url": "https://s3-media2.fl.yelpcdn.com/bphoto/mIPramJ63ITSM0mXSOwnGw/o.jpg", "is_closed": false, "url": "https://www.yelp.com/biz/reggies-hamburg-5?adjust_creative=hBJOknVQJ58S5goQyjmwRw&utm_campaign=yelp_api_v3&utm_medium=api_v3_business_search&utm_source=hBJOknVQJ58S5goQyjmwRw", "review_count": 3, "categories": [{"alias": "salad", "title": "Salad"}, {"alias": "burgers", "title": "Burgers"}, {"alias": "sandwiches", "title": "Sandwiches"}], "rating": 4.5, "coordinates": {"latitude": 53.5780479740913, "longitude": 9.81364522129297}, "transactions": [], "location": {"address1": "S\u00fclldorfer Landstr. 60", "address2": "", "address3": null, "city": "Hamburg", "zip_code": "22589", "country": "DE", "state": "HH", "display_address": ["S\u00fclldorfer Landstr. 60", "22589 Hamburg", "Germany"]}, "phone": "+494086649494", "display_phone": "+49 40 86649494", "distance": 3686.4987391676023}, {"id": "2O87KG8xApQAqTJ-x7PpvQ", "alias": "trattoria-rocco-halstenbek", "name": "Trattoria Rocco", "image_url": "https://s3-media2.fl.yelpcdn.com/bphoto/4NKMDZUKn_Zi3B8V4eTRCQ/o.jpg", "is_closed": false, "url": "https://www.yelp.com/biz/trattoria-rocco-halstenbek?adjust_creative=hBJOknVQJ58S5goQyjmwRw&utm_campaign=yelp_api_v3&utm_medium=api_v3_business_search&utm_source=hBJOknVQJ58S5goQyjmwRw", "review_count": 20, "categories": [{"alias": "italian", "title": "Italian"}], "rating": 3.5, "coordinates": {"latitude": 53.629337, "longitude": 9.835356}, "transactions": [], "price": "\u20ac\u20ac", "location": {"address1": "Dockenhudener Chaussee 20", "address2": null, "address3": null, "city": "Halstenbek", "zip_code": "25469", "country": "DE", "state": "SH", "display_address": ["Dockenhudener Chaussee 20", "25469 Halstenbek", "Germany"]}, "phone": "+4941017877107", "display_phone": "+49 4101 7877107", "distance": 2317.1993033021367}, {"id": "iDX7o2U5ykcPhFrJe6R3DQ", "alias": "annies-schenefeld", "name": "Annie's", "image_url": "https://s3-media2.fl.yelpcdn.com/bphoto/r6S8EIRk2QKM6jQ0oj3UTQ/o.jpg", "is_closed": false, "url": "https://www.yelp.com/biz/annies-schenefeld?adjust_creative=hBJOknVQJ58S5goQyjmwRw&utm_campaign=yelp_api_v3&utm_medium=api_v3_business_search&utm_source=hBJOknVQJ58S5goQyjmwRw", "review_count": 2, "categories": [{"alias": "lounges", "title": "Lounges"}, {"alias": "cafes", "title": "Cafes"}], "rating": 5.0, "coordinates": {"latitude": 53.60147, "longitude": 9.83773}, "transactions": [], "price": "\u20ac\u20ac", "location": {"address1": "Industriestr. 1A", "address2": null, "address3": null, "city": "Schenefeld", "zip_code": "22869", "country": "DE", "state": "SH", "display_address": ["Industriestr. 1A", "22869 Schenefeld", "Germany"]}, "phone": "+494084057837", "display_phone": "+49 40 84057837", "distance": 1662.171229515174}, {"id": "E73qYJmztAibJOEQ26C6yw", "alias": "quanto-basta-pinneberg", "name": "Quanto Basta", "image_url": "https://s3-media2.fl.yelpcdn.com/bphoto/pga5AFzbxJRUxsTI0Tqt5Q/o.jpg", "is_closed": false, "url": "https://www.yelp.com/biz/quanto-basta-pinneberg?adjust_creative=hBJOknVQJ58S5goQyjmwRw&utm_campaign=yelp_api_v3&utm_medium=api_v3_business_search&utm_source=hBJOknVQJ58S5goQyjmwRw", "review_count": 26, "categories": [{"alias": "italian", "title": "Italian"}, {"alias": "pizza", "title": "Pizza"}], "rating": 4.5, "coordinates": {"latitude": 53.6525091359192, "longitude": 9.8083545640111}, "transactions": [], "price": "\u20ac\u20ac", "location": {"address1": "Fahltsweide 10", "address2": "", "address3": "", "city": "Pinneberg", "zip_code": "25421", "country": "DE", "state": "SH", "display_address": ["Fahltsweide 10", "25421 Pinneberg", "Germany"]}, "phone": "+4941018451823", "display_phone": "+49 4101 8451823", "distance": 4654.1776461942145}, {"id": "6OnopdC_M0sCtcbW9eDZ0w", "alias": "le-curry-schenefeld", "name": "Le Curry", "image_url": "https://s3-media3.fl.yelpcdn.com/bphoto/j10llrIUBj3fmEPsvnO8xw/o.jpg", "is_closed": false, "url": "https://www.yelp.com/biz/le-curry-schenefeld?adjust_creative=hBJOknVQJ58S5goQyjmwRw&utm_campaign=yelp_api_v3&utm_medium=api_v3_business_search&utm_source=hBJOknVQJ58S5goQyjmwRw", "review_count": 1, "categories": [{"alias": "currysausage", "title": "Curry Sausage"}], "rating": 4.0, "coordinates": {"latitude": 53.6018, "longitude": 9.83668}, "transactions": [], "location": {"address1": "Kiebitzweg 2", "address2": "im Stadtzentrum Schenefeld", "address3": null, "city": "Schenefeld", "zip_code": "22869", "country": "DE", "state": "SH", "display_address": ["Kiebitzweg 2", "im Stadtzentrum Schenefeld", "22869 Schenefeld", "Germany"]}, "phone": "", "display_phone": "", "distance": 1586.4859229303981}, {"id": "li2GIYTWIVO6OQsA6WmHGw", "alias": "reitstall-kl\u00f6vensteen-schenefeld", "name": "Reitstall Kl\u00f6vensteen", "image_url": "https://s3-media3.fl.yelpcdn.com/bphoto/OhJd34pnglhaC436A2ioAQ/o.jpg", "is_closed": false, "url": "https://www.yelp.com/biz/reitstall-kl%C3%B6vensteen-schenefeld?adjust_creative=hBJOknVQJ58S5goQyjmwRw&utm_campaign=yelp_api_v3&utm_medium=api_v3_business_search&utm_source=hBJOknVQJ58S5goQyjmwRw", "review_count": 24, "categories": [{"alias": "german", "title": "German"}], "rating": 3.5, "coordinates": {"latitude": 53.6056310252484, "longitude": 9.80153379364015}, "transactions": [], "price": "\u20ac\u20ac", "location": {"address1": "Uetersener Weg 100", "address2": null, "address3": null, "city": "Schenefeld", "zip_code": "22869", "country": "DE", "state": "SH", "display_address": ["Uetersener Weg 100", "22869 Schenefeld", "Germany"]}, "phone": "+49408306992", "display_phone": "+49 40 8306992", "distance": 1267.877822638671}, {"id": "SKr0iOJ8BcElC4uD2JqbUA", "alias": "wasabi-de-luxe-hamburg", "name": "Wasabi De Luxe", "image_url": "https://s3-media2.fl.yelpcdn.com/bphoto/pvwna-L2L8gRGHXzsIJAQw/o.jpg", "is_closed": false, "url": "https://www.yelp.com/biz/wasabi-de-luxe-hamburg?adjust_creative=hBJOknVQJ58S5goQyjmwRw&utm_campaign=yelp_api_v3&utm_medium=api_v3_business_search&utm_source=hBJOknVQJ58S5goQyjmwRw", "review_count": 15, "categories": [{"alias": "sushi", "title": "Sushi Bars"}], "rating": 4.5, "coordinates": {"latitude": 53.5759944, "longitude": 9.8214584}, "transactions": [], "price": "\u20ac\u20ac", "location": {"address1": "Simrockstr. 186", "address2": null, "address3": null, "city": "Hamburg", "zip_code": "22589", "country": "DE", "state": "HH", "display_address": ["Simrockstr. 186", "22589 Hamburg", "Germany"]}, "phone": "+494033425503", "display_phone": "+49 40 33425503", "distance": 3906.545897987622}, {"id": "eu0dPfxU2SX-4ZZX6GQPzw", "alias": "taverna-pegasus-schenefeld", "name": "Taverna Pegasus", "image_url": "https://s3-media2.fl.yelpcdn.com/bphoto/aHZEhsqs1fhiec1WMgNgFg/o.jpg", "is_closed": false, "url": "https://www.yelp.com/biz/taverna-pegasus-schenefeld?adjust_creative=hBJOknVQJ58S5goQyjmwRw&utm_campaign=yelp_api_v3&utm_medium=api_v3_business_search&utm_source=hBJOknVQJ58S5goQyjmwRw", "review_count": 18, "categories": [{"alias": "greek", "title": "Greek"}], "rating": 3.5, "coordinates": {"latitude": 53.608651, "longitude": 9.841422}, "transactions": [], "price": "\u20ac\u20ac", "location": {"address1": "Friedrich-Ebert-Allee 3 - 11", "address2": null, "address3": null, "city": "Schenefeld", "zip_code": "22869", "country": "DE", "state": "SH", "display_address": ["Friedrich-Ebert-Allee 3 - 11", "22869 Schenefeld", "Germany"]}, "phone": "+494084053737", "display_phone": "+49 40 84053737", "distance": 1541.5954257497617}, {"id": "AYlMFGMmNAzgiUYPjwZeLw", "alias": "kochlounge-pinneberg", "name": "Kochlounge", "image_url": "https://s3-media4.fl.yelpcdn.com/bphoto/qYWSkH2Y6C02kzXCU17hXQ/o.jpg", "is_closed": false, "url": "https://www.yelp.com/biz/kochlounge-pinneberg?adjust_creative=hBJOknVQJ58S5goQyjmwRw&utm_campaign=yelp_api_v3&utm_medium=api_v3_business_search&utm_source=hBJOknVQJ58S5goQyjmwRw", "review_count": 39, "categories": [{"alias": "international", "title": "International"}], "rating": 4.5, "coordinates": {"latitude": 53.6444199, "longitude": 9.81111}, "transactions": [], "price": "\u20ac\u20ac", "location": {"address1": "Diesterwegstr. 33 b", "address2": "", "address3": "", "city": "Pinneberg", "zip_code": "25421", "country": "DE", "state": "SH", "display_address": ["Diesterwegstr. 33 b", "25421 Pinneberg", "Germany"]}, "phone": "+4941018590070", "display_phone": "+49 4101 8590070", "distance": 3710.129770690705}, {"id": "zNEBg7ppsntnn5-gC3ZW4Q", "alias": "la-vita-schenefeld", "name": "La Vita", "image_url": "https://s3-media2.fl.yelpcdn.com/bphoto/UtUYgKOuTnN2pL6yakAPcQ/o.jpg", "is_closed": false, "url": "https://www.yelp.com/biz/la-vita-schenefeld?adjust_creative=hBJOknVQJ58S5goQyjmwRw&utm_campaign=yelp_api_v3&utm_medium=api_v3_business_search&utm_source=hBJOknVQJ58S5goQyjmwRw", "review_count": 10, "categories": [{"alias": "italian", "title": "Italian"}], "rating": 3.5, "coordinates": {"latitude": 53.602, "longitude": 9.83718}, "transactions": [], "price": "\u20ac\u20ac", "location": {"address1": "Industriestr. 1", "address2": null, "address3": null, "city": "Schenefeld", "zip_code": "22869", "country": "DE", "state": "SH", "display_address": ["Industriestr. 1", "22869 Schenefeld", "Germany"]}, "phone": "+49408302634", "display_phone": "+49 40 8302634", "distance": 1597.5342296718136}, {"id": "X14N6ogl5lNNLuFsvBzlzw", "alias": "restaurant-dubrovnik-schenefeld", "name": "Restaurant Dubrovnik", "image_url": "", "is_closed": false, "url": "https://www.yelp.com/biz/restaurant-dubrovnik-schenefeld?adjust_creative=hBJOknVQJ58S5goQyjmwRw&utm_campaign=yelp_api_v3&utm_medium=api_v3_business_search&utm_source=hBJOknVQJ58S5goQyjmwRw", "review_count": 9, "categories": [{"alias": "international", "title": "International"}, {"alias": "german", "title": "German"}, {"alias": "serbocroatian", "title": "Serbo Croatian"}], "rating": 4.5, "coordinates": {"latitude": 53.6081, "longitude": 9.83994}, "transactions": [], "price": "\u20ac\u20ac", "location": {"address1": "Lornsenstr. 111", "address2": null, "address3": null, "city": "Schenefeld", "zip_code": "22869", "country": "DE", "state": "SH", "display_address": ["Lornsenstr. 111", "22869 Schenefeld", "Germany"]}, "phone": "+49408391568", "display_phone": "+49 40 8391568", "distance": 1458.144727919738}, {"id": "EYfGbrnLnD4vqZfpwGDCow", "alias": "nandoo-indian-cuisine-schenefeld", "name": "Nandoo Indian Cuisine", "image_url": "https://s3-media1.fl.yelpcdn.com/bphoto/0swmfB8j5GdLTn1zVrhpaA/o.jpg", "is_closed": false, "url": "https://www.yelp.com/biz/nandoo-indian-cuisine-schenefeld?adjust_creative=hBJOknVQJ58S5goQyjmwRw&utm_campaign=yelp_api_v3&utm_medium=api_v3_business_search&utm_source=hBJOknVQJ58S5goQyjmwRw", "review_count": 1, "categories": [{"alias": "indpak", "title": "Indian"}], "rating": 4.0, "coordinates": {"latitude": 53.601831248117, "longitude": 9.83684901148081}, "transactions": [], "location": {"address1": "Industriestr. 1", "address2": "", "address3": "", "city": "Schenefeld", "zip_code": "22869", "country": "DE", "state": "SH", "display_address": ["Industriestr. 1", "22869 Schenefeld", "Germany"]}, "phone": "+494041422998", "display_phone": "+49 40 41422998", "distance": 1592.7255908378793}, {"id": "Stlzi6bLMLVpkOc7hmXAug", "alias": "servus-das-wirtshaus-hamburg", "name": "Servus das Wirtshaus", "image_url": "https://s3-media2.fl.yelpcdn.com/bphoto/E95QRBdXHFF8Yyo_MiTdKQ/o.jpg", "is_closed": false, "url": "https://www.yelp.com/biz/servus-das-wirtshaus-hamburg?adjust_creative=hBJOknVQJ58S5goQyjmwRw&utm_campaign=yelp_api_v3&utm_medium=api_v3_business_search&utm_source=hBJOknVQJ58S5goQyjmwRw", "review_count": 1, "categories": [{"alias": "austrian", "title": "Austrian"}], "rating": 4.0, "coordinates": {"latitude": 53.5726695586902, "longitude": 9.84318841248751}, "transactions": [], "location": {"address1": "Osdorfer Landstr. 239", "address2": "", "address3": null, "city": "Hamburg", "zip_code": "22549", "country": "DE", "state": "HH", "display_address": ["Osdorfer Landstr. 239", "22549 Hamburg", "Germany"]}, "phone": "+494087878980", "display_phone": "+49 40 87878980", "distance": 4573.324031186663}, {"id": "qoN_HOmMAfrTXTFqErlc8Q", "alias": "dorfcafe-schenefeld-schenefeld", "name": "Dorfcafe Schenefeld", "image_url": "https://s3-media1.fl.yelpcdn.com/bphoto/egq7IIZQJFVRxifnp6ASiQ/o.jpg", "is_closed": false, "url": "https://www.yelp.com/biz/dorfcafe-schenefeld-schenefeld?adjust_creative=hBJOknVQJ58S5goQyjmwRw&utm_campaign=yelp_api_v3&utm_medium=api_v3_business_search&utm_source=hBJOknVQJ58S5goQyjmwRw", "review_count": 6, "categories": [{"alias": "cafes", "title": "Cafes"}], "rating": 3.0, "coordinates": {"latitude": 53.60348, "longitude": 9.81657}, "transactions": [], "price": "\u20ac\u20ac", "location": {"address1": "Uetersener Weg 4", "address2": null, "address3": null, "city": "Schenefeld", "zip_code": "22869", "country": "DE", "state": "SH", "display_address": ["Uetersener Weg 4", "22869 Schenefeld", "Germany"]}, "phone": "+494084053377", "display_phone": "+49 40 84053377", "distance": 845.9468735546634}, {"id": "hGr6fQxD3Nl48irHMMzFtw", "alias": "jugendcaf\u00e9-basement-hamburg", "name": "Jugendcaf\u00e9 Basement", "image_url": "https://s3-media4.fl.yelpcdn.com/bphoto/P9BVMlPcAPr_InZy30V6nA/o.jpg", "is_closed": false, "url": "https://www.yelp.com/biz/jugendcaf%C3%A9-basement-hamburg?adjust_creative=hBJOknVQJ58S5goQyjmwRw&utm_campaign=yelp_api_v3&utm_medium=api_v3_business_search&utm_source=hBJOknVQJ58S5goQyjmwRw", "review_count": 3, "categories": [{"alias": "cafes", "title": "Cafes"}, {"alias": "youth_club", "title": "Youth Club"}], "rating": 5.0, "coordinates": {"latitude": 53.57899, "longitude": 9.79768}, "transactions": [], "location": {"address1": "S\u00fclldorfer Kirchenweg 187", "address2": null, "address3": null, "city": "Hamburg", "zip_code": "22589", "country": "DE", "state": "HH", "display_address": ["S\u00fclldorfer Kirchenweg 187", "22589 Hamburg", "Germany"]}, "phone": "+494088941866", "display_phone": "+49 40 88941866", "distance": 3821.6662535525375}, {"id": "qDAChxTosQmPkLOv7PrxzA", "alias": "spiros-und-spiros-hamburg", "name": "Spiros & Spiros", "image_url": "https://s3-media2.fl.yelpcdn.com/bphoto/qu3PusRaGi3yb2NeWkwR2Q/o.jpg", "is_closed": false, "url": "https://www.yelp.com/biz/spiros-und-spiros-hamburg?adjust_creative=hBJOknVQJ58S5goQyjmwRw&utm_campaign=yelp_api_v3&utm_medium=api_v3_business_search&utm_source=hBJOknVQJ58S5goQyjmwRw", "review_count": 40, "categories": [{"alias": "greek", "title": "Greek"}], "rating": 3.5, "coordinates": {"latitude": 53.57982, "longitude": 9.80156}, "transactions": [], "price": "\u20ac\u20ac", "location": {"address1": "S\u00fclldorfer Landstr. 164", "address2": null, "address3": null, "city": "Hamburg", "zip_code": "22589", "country": "DE", "state": "HH", "display_address": ["S\u00fclldorfer Landstr. 164", "22589 Hamburg", "Germany"]}, "phone": "+49408701076", "display_phone": "+49 40 8701076", "distance": 3644.111032223013}, {"id": "YuitEDxky_bXzMCL1CFDFw", "alias": "peters-bistro-schenefeld-2", "name": "Peter's Bistro", "image_url": "https://s3-media2.fl.yelpcdn.com/bphoto/fMEj5YxZ95ss9lu2UwoObw/o.jpg", "is_closed": false, "url": "https://www.yelp.com/biz/peters-bistro-schenefeld-2?adjust_creative=hBJOknVQJ58S5goQyjmwRw&utm_campaign=yelp_api_v3&utm_medium=api_v3_business_search&utm_source=hBJOknVQJ58S5goQyjmwRw", "review_count": 18, "categories": [{"alias": "bistros", "title": "Bistros"}, {"alias": "german", "title": "German"}], "rating": 3.0, "coordinates": {"latitude": 53.6032, "longitude": 9.81743}, "transactions": [], "price": "\u20ac\u20ac", "location": {"address1": "Hauptstr. 83", "address2": null, "address3": null, "city": "Schenefeld", "zip_code": "22869", "country": "DE", "state": "SH", "display_address": ["Hauptstr. 83", "22869 Schenefeld", "Germany"]}, "phone": "+49408393630", "display_phone": "+49 40 8393630", "distance": 878.6670211491379}, {"id": "EHHznLv3tusE0hnrKNtySw", "alias": "restaurant-blankenese-hamburg", "name": "Restaurant Blankenese", "image_url": "https://s3-media2.fl.yelpcdn.com/bphoto/rPeezMAasZ7SMpVjolYGaA/o.jpg", "is_closed": false, "url": "https://www.yelp.com/biz/restaurant-blankenese-hamburg?adjust_creative=hBJOknVQJ58S5goQyjmwRw&utm_campaign=yelp_api_v3&utm_medium=api_v3_business_search&utm_source=hBJOknVQJ58S5goQyjmwRw", "review_count": 1, "categories": [{"alias": "german", "title": "German"}], "rating": 4.0, "coordinates": {"latitude": 53.574533, "longitude": 9.8241854}, "transactions": [], "location": {"address1": "Schenefelder Landstr. 169", "address2": "", "address3": null, "city": "Hamburg", "zip_code": "22589", "country": "DE", "state": "HH", "display_address": ["Schenefelder Landstr. 169", "22589 Hamburg", "Germany"]}, "phone": "+494087000744", "display_phone": "+49 40 87000744", "distance": 4081.6829588940486}, {"id": "tS5rfu-toQDYXhnNU5JBIg", "alias": "tennistreff-halstenbek", "name": "Tennistreff", "image_url": "", "is_closed": false, "url": "https://www.yelp.com/biz/tennistreff-halstenbek?adjust_creative=hBJOknVQJ58S5goQyjmwRw&utm_campaign=yelp_api_v3&utm_medium=api_v3_business_search&utm_source=hBJOknVQJ58S5goQyjmwRw", "review_count": 3, "categories": [{"alias": "tennis", "title": "Tennis"}, {"alias": "german", "title": "German"}], "rating": 4.5, "coordinates": {"latitude": 53.6398343, "longitude": 9.8347151}, "transactions": [], "location": {"address1": "Thesdorfer Weg 20", "address2": null, "address3": null, "city": "Halstenbek", "zip_code": "25469", "country": "DE", "state": "SH", "display_address": ["Thesdorfer Weg 20", "25469 Halstenbek", "Germany"]}, "phone": "+494101859424", "display_phone": "+49 4101 859424", "distance": 3373.1329080737337}, {"id": "aUUXPa-XnbLb2Ou0hlyesw", "alias": "lilla-loungen-cafe-ida-hamburg", "name": "Lilla Loungen - Cafe Ida", "image_url": "https://s3-media4.fl.yelpcdn.com/bphoto/1QCoSbmHoGrSe2YcEApAoQ/o.jpg", "is_closed": false, "url": "https://www.yelp.com/biz/lilla-loungen-cafe-ida-hamburg?adjust_creative=hBJOknVQJ58S5goQyjmwRw&utm_campaign=yelp_api_v3&utm_medium=api_v3_business_search&utm_source=hBJOknVQJ58S5goQyjmwRw", "review_count": 1, "categories": [{"alias": "cafes", "title": "Cafes"}], "rating": 5.0, "coordinates": {"latitude": 53.5755, "longitude": 9.82279}, "transactions": [], "price": "\u20ac\u20ac", "location": {"address1": "Schenefelder Landstr. 185", "address2": null, "address3": null, "city": "Hamburg", "zip_code": "22589", "country": "DE", "state": "HH", "display_address": ["Schenefelder Landstr. 185", "22589 Hamburg", "Germany"]}, "phone": "+494074126871", "display_phone": "+49 40 74126871", "distance": 3966.875155989724}, {"id": "JJ9kQRcoNoCptdbo1-TZGg", "alias": "restaurant-memory-hamburg", "name": "Restaurant Memory", "image_url": "https://s3-media2.fl.yelpcdn.com/bphoto/lnQbUTt7YkZ3ZcQwudabZg/o.jpg", "is_closed": false, "url": "https://www.yelp.com/biz/restaurant-memory-hamburg?adjust_creative=hBJOknVQJ58S5goQyjmwRw&utm_campaign=yelp_api_v3&utm_medium=api_v3_business_search&utm_source=hBJOknVQJ58S5goQyjmwRw", "review_count": 14, "categories": [{"alias": "international", "title": "International"}], "rating": 4.5, "coordinates": {"latitude": 53.5808, "longitude": 9.793}, "transactions": [], "price": "\u20ac\u20ac\u20ac", "location": {"address1": "S\u00fclldorfer Landstr. 222", "address2": null, "address3": null, "city": "Hamburg", "zip_code": "22589", "country": "DE", "state": "HH", "display_address": ["S\u00fclldorfer Landstr. 222", "22589 Hamburg", "Germany"]}, "phone": "+494086626938", "display_phone": "+49 40 86626938", "distance": 3761.6248545076755}, {"id": "22HCDMkVa8NXpWyMxyFuZQ", "alias": "rhodos-rellingen", "name": "Rhodos", "image_url": "https://s3-media2.fl.yelpcdn.com/bphoto/MnfZdj9yyseT-3KD1yygeA/o.jpg", "is_closed": false, "url": "https://www.yelp.com/biz/rhodos-rellingen?adjust_creative=hBJOknVQJ58S5goQyjmwRw&utm_campaign=yelp_api_v3&utm_medium=api_v3_business_search&utm_source=hBJOknVQJ58S5goQyjmwRw", "review_count": 12, "categories": [{"alias": "greek", "title": "Greek"}], "rating": 4.5, "coordinates": {"latitude": 53.6517, "longitude": 9.82941}, "transactions": [], "price": "\u20ac\u20ac", "location": {"address1": "Hauptstr. 22", "address2": null, "address3": null, "city": "Rellingen", "zip_code": "25462", "country": "DE", "state": "SH", "display_address": ["Hauptstr. 22", "25462 Rellingen", "Germany"]}, "phone": "+494101200993", "display_phone": "+49 4101 200993", "distance": 4574.497119601174}, {"id": "zE311HJ18xCM1JuAPmiGJA", "alias": "restaurant-muckefuck-rellingen-2", "name": "Restaurant Muckefuck", "image_url": "https://s3-media2.fl.yelpcdn.com/bphoto/-orUgjKqSDR9_oUT0fHnAA/o.jpg", "is_closed": false, "url": "https://www.yelp.com/biz/restaurant-muckefuck-rellingen-2?adjust_creative=hBJOknVQJ58S5goQyjmwRw&utm_campaign=yelp_api_v3&utm_medium=api_v3_business_search&utm_source=hBJOknVQJ58S5goQyjmwRw", "review_count": 3, "categories": [{"alias": "hotdogs", "title": "Fast Food"}], "rating": 3.0, "coordinates": {"latitude": 53.650658, "longitude": 9.8296056}, "transactions": [], "price": "\u20ac", "location": {"address1": "Hauptstr. 39A", "address2": null, "address3": null, "city": "Rellingen", "zip_code": "25462", "country": "DE", "state": "SH", "display_address": ["Hauptstr. 39A", "25462 Rellingen", "Germany"]}, "phone": "+494101512610", "display_phone": "+49 4101 512610", "distance": 4462.250055275992}, {"id": "yYGvyXSdjnBnY1OBjgYbRw", "alias": "taverna-nico-rellingen", "name": "Taverna Nico", "image_url": "https://s3-media1.fl.yelpcdn.com/bphoto/vnk9X84eX3HemCHw3yweAQ/o.jpg", "is_closed": false, "url": "https://www.yelp.com/biz/taverna-nico-rellingen?adjust_creative=hBJOknVQJ58S5goQyjmwRw&utm_campaign=yelp_api_v3&utm_medium=api_v3_business_search&utm_source=hBJOknVQJ58S5goQyjmwRw", "review_count": 11, "categories": [{"alias": "greek", "title": "Greek"}], "rating": 4.5, "coordinates": {"latitude": 53.6498891758998, "longitude": 9.8296494748688}, "transactions": [], "price": "\u20ac\u20ac", "location": {"address1": "Hauptstr. 37", "address2": null, "address3": null, "city": "Rellingen", "zip_code": "25462", "country": "DE", "state": "SH", "display_address": ["Hauptstr. 37", "25462 Rellingen", "Germany"]}, "phone": "+494101379384", "display_phone": "+49 4101 379384", "distance": 4378.450100036858}, {"id": "mLLCOcBXKw8HJRXXQO61Fw", "alias": "kebab-box-rellingen", "name": "Kebab Box", "image_url": "", "is_closed": false, "url": "https://www.yelp.com/biz/kebab-box-rellingen?adjust_creative=hBJOknVQJ58S5goQyjmwRw&utm_campaign=yelp_api_v3&utm_medium=api_v3_business_search&utm_source=hBJOknVQJ58S5goQyjmwRw", "review_count": 2, "categories": [{"alias": "hotdogs", "title": "Fast Food"}], "rating": 3.5, "coordinates": {"latitude": 53.6529, "longitude": 9.82928}, "transactions": [], "location": {"address1": "Hauptstr. 61", "address2": null, "address3": null, "city": "Rellingen", "zip_code": "25462", "country": "DE", "state": "SH", "display_address": ["Hauptstr. 61", "25462 Rellingen", "Germany"]}, "phone": "+494101511243", "display_phone": "+49 4101 511243", "distance": 4704.977889243718}, {"id": "uaO1YLgD11G0c5J0ZiteSQ", "alias": "taverne-zorbas-hamburg", "name": "Taverne Zorbas", "image_url": "https://s3-media2.fl.yelpcdn.com/bphoto/mTdFzzFnZqtp9e1Aovn5yQ/o.jpg", "is_closed": false, "url": "https://www.yelp.com/biz/taverne-zorbas-hamburg?adjust_creative=hBJOknVQJ58S5goQyjmwRw&utm_campaign=yelp_api_v3&utm_medium=api_v3_business_search&utm_source=hBJOknVQJ58S5goQyjmwRw", "review_count": 1, "categories": [{"alias": "greek", "title": "Greek"}], "rating": 1.0, "coordinates": {"latitude": 53.5763, "longitude": 9.81339}, "transactions": [], "location": {"address1": "Heidrehmen 23", "address2": null, "address3": null, "city": "Hamburg", "zip_code": "22589", "country": "DE", "state": "HH", "display_address": ["Heidrehmen 23", "22589 Hamburg", "Germany"]}, "phone": "+49408705734", "display_phone": "+49 40 8705734", "distance": 3881.593285694739}, {"id": "1scOX0fMV4UdmrlHxMlR0g", "alias": "baris-grill-haus-schenefeld", "name": "Baris Grill-Haus", "image_url": "", "is_closed": false, "url": "https://www.yelp.com/biz/baris-grill-haus-schenefeld?adjust_creative=hBJOknVQJ58S5goQyjmwRw&utm_campaign=yelp_api_v3&utm_medium=api_v3_business_search&utm_source=hBJOknVQJ58S5goQyjmwRw", "review_count": 2, "categories": [{"alias": "food", "title": "Food"}, {"alias": "mideastern", "title": "Middle Eastern"}, {"alias": "kebab", "title": "Kebab"}], "rating": 4.5, "coordinates": {"latitude": 53.6086, "longitude": 9.83903}, "transactions": [], "price": "\u20ac", "location": {"address1": "Lindenallee 8", "address2": null, "address3": null, "city": "Schenefeld", "zip_code": "22869", "country": "DE", "state": "SH", "display_address": ["Lindenallee 8", "22869 Schenefeld", "Germany"]}, "phone": "+494083929389", "display_phone": "+49 40 83929389", "distance": 1387.6301195658045}, {"id": "1f5mNMVLMrdMCRBW6MHJ7Q", "alias": "asia-pham-hamburg", "name": "Asia Pham", "image_url": "https://s3-media2.fl.yelpcdn.com/bphoto/HwjH0ADWI2kdi9ijxlauaQ/o.jpg", "is_closed": false, "url": "https://www.yelp.com/biz/asia-pham-hamburg?adjust_creative=hBJOknVQJ58S5goQyjmwRw&utm_campaign=yelp_api_v3&utm_medium=api_v3_business_search&utm_source=hBJOknVQJ58S5goQyjmwRw", "review_count": 2, "categories": [{"alias": "fooddeliveryservices", "title": "Food Delivery Services"}, {"alias": "panasian", "title": "Pan Asian"}], "rating": 2.5, "coordinates": {"latitude": 53.5808, "longitude": 9.79512}, "transactions": [], "location": {"address1": "S\u00fclldorfer Landstr. 202", "address2": null, "address3": null, "city": "Hamburg", "zip_code": "22589", "country": "DE", "state": "HH", "display_address": ["S\u00fclldorfer Landstr. 202", "22589 Hamburg", "Germany"]}, "phone": "+494033420675", "display_phone": "+49 40 33420675", "distance": 3701.3658297194957}, {"id": "mJfZ-9-mCHEno8w65Lgl_Q", "alias": "san-marco-hamburg-5", "name": "San Marco", "image_url": "https://s3-media4.fl.yelpcdn.com/bphoto/nxjN3Ve4hKtCKq9Iyc54fg/o.jpg", "is_closed": false, "url": "https://www.yelp.com/biz/san-marco-hamburg-5?adjust_creative=hBJOknVQJ58S5goQyjmwRw&utm_campaign=yelp_api_v3&utm_medium=api_v3_business_search&utm_source=hBJOknVQJ58S5goQyjmwRw", "review_count": 3, "categories": [{"alias": "icecream", "title": "Ice Cream & Frozen Yogurt"}, {"alias": "pizza", "title": "Pizza"}], "rating": 3.5, "coordinates": {"latitude": 53.5801, "longitude": 9.79636}, "transactions": [], "price": "\u20ac\u20ac", "location": {"address1": "S\u00fclldorfer Kirchenweg 199", "address2": null, "address3": null, "city": "Hamburg", "zip_code": "22589", "country": "DE", "state": "HH", "display_address": ["S\u00fclldorfer Kirchenweg 199", "22589 Hamburg", "Germany"]}, "phone": "+494046651550", "display_phone": "+49 40 46651550", "distance": 3740.440691230388}, {"id": "f4gHB43M98wZRy8taNLe7w", "alias": "gastst\u00e4tte-attika-halstenbek", "name": "Gastst\u00e4tte Attika", "image_url": "https://s3-media2.fl.yelpcdn.com/bphoto/99ktmmYxdCq_4weDu9ar7A/o.jpg", "is_closed": false, "url": "https://www.yelp.com/biz/gastst%C3%A4tte-attika-halstenbek?adjust_creative=hBJOknVQJ58S5goQyjmwRw&utm_campaign=yelp_api_v3&utm_medium=api_v3_business_search&utm_source=hBJOknVQJ58S5goQyjmwRw", "review_count": 18, "categories": [{"alias": "greek", "title": "Greek"}], "rating": 3.5, "coordinates": {"latitude": 53.63794, "longitude": 9.8424}, "transactions": [], "price": "\u20ac\u20ac", "location": {"address1": "B\u00e4ckerstr. 3", "address2": null, "address3": null, "city": "Halstenbek", "zip_code": "25469", "country": "DE", "state": "SH", "display_address": ["B\u00e4ckerstr. 3", "25469 Halstenbek", "Germany"]}, "phone": "+49410141331", "display_phone": "+49 4101 41331", "distance": 3392.376772340299}, {"id": "pZE45kWciSphJGf70AaXVQ", "alias": "der-schwarze-tresen-schenefeld", "name": "Der schwarze Tresen", "image_url": "https://s3-media1.fl.yelpcdn.com/bphoto/6AxFeOALUTefH4N5WNFZDg/o.jpg", "is_closed": false, "url": "https://www.yelp.com/biz/der-schwarze-tresen-schenefeld?adjust_creative=hBJOknVQJ58S5goQyjmwRw&utm_campaign=yelp_api_v3&utm_medium=api_v3_business_search&utm_source=hBJOknVQJ58S5goQyjmwRw", "review_count": 1, "categories": [{"alias": "divebars", "title": "Dive Bars"}, {"alias": "breakfast_brunch", "title": "Breakfast & Brunch"}], "rating": 4.0, "coordinates": {"latitude": 53.602254, "longitude": 9.836563}, "transactions": [], "price": "\u20ac", "location": {"address1": "Stadtzentrum Schenefeld", "address2": "Industriestr. 1", "address3": null, "city": "Schenefeld", "zip_code": "22869", "country": "DE", "state": "SH", "display_address": ["Stadtzentrum Schenefeld", "Industriestr. 1", "22869 Schenefeld", "Germany"]}, "phone": "+4917680289417", "display_phone": "+49 176 80289417", "distance": 1548.140238334901}, {"id": "rWwyt3dC3zZH-Nn0Ya3RNg", "alias": "dolce-vita-halstenbek-2", "name": "Dolce Vita", "image_url": "https://s3-media4.fl.yelpcdn.com/bphoto/A8H7s-BGOt6jWpDOAGNVhw/o.jpg", "is_closed": false, "url": "https://www.yelp.com/biz/dolce-vita-halstenbek-2?adjust_creative=hBJOknVQJ58S5goQyjmwRw&utm_campaign=yelp_api_v3&utm_medium=api_v3_business_search&utm_source=hBJOknVQJ58S5goQyjmwRw", "review_count": 30, "categories": [{"alias": "italian", "title": "Italian"}], "rating": 3.5, "coordinates": {"latitude": 53.6364, "longitude": 9.8408008}, "transactions": [], "price": "\u20ac\u20ac", "location": {"address1": "Poststr. 3", "address2": null, "address3": null, "city": "Halstenbek", "zip_code": "25469", "country": "DE", "state": "SH", "display_address": ["Poststr. 3", "25469 Halstenbek", "Germany"]}, "phone": "+494101585885", "display_phone": "+49 4101 585885", "distance": 3178.980699642499}, {"id": "6n4S_GhhB_LRrYcwKxBZpg", "alias": "gastst\u00e4tte-zur-m\u00fchle-schenefeld", "name": "Gastst\u00e4tte Zur M\u00fchle", "image_url": "", "is_closed": false, "url": "https://www.yelp.com/biz/gastst%C3%A4tte-zur-m%C3%BChle-schenefeld?adjust_creative=hBJOknVQJ58S5goQyjmwRw&utm_campaign=yelp_api_v3&utm_medium=api_v3_business_search&utm_source=hBJOknVQJ58S5goQyjmwRw", "review_count": 1, "categories": [{"alias": "restaurants", "title": "Restaurants"}], "rating": 2.0, "coordinates": {"latitude": 53.6017, "longitude": 9.82012}, "transactions": [], "location": {"address1": "Hauptstr. 65", "address2": null, "address3": null, "city": "Schenefeld", "zip_code": "22869", "country": "DE", "state": "SH", "display_address": ["Hauptstr. 65", "22869 Schenefeld", "Germany"]}, "phone": "", "display_phone": "", "distance": 1049.096981283551}, {"id": "px1s7sLcSCiYRSNvfNsx3w", "alias": "arnoldis-schenefeld", "name": "Arnoldis", "image_url": "https://s3-media3.fl.yelpcdn.com/bphoto/eF8tzsDXhVgqJjkYLy0mKQ/o.jpg", "is_closed": false, "url": "https://www.yelp.com/biz/arnoldis-schenefeld?adjust_creative=hBJOknVQJ58S5goQyjmwRw&utm_campaign=yelp_api_v3&utm_medium=api_v3_business_search&utm_source=hBJOknVQJ58S5goQyjmwRw", "review_count": 18, "categories": [{"alias": "sandwiches", "title": "Sandwiches"}, {"alias": "salad", "title": "Salad"}, {"alias": "pizza", "title": "Pizza"}], "rating": 4.0, "coordinates": {"latitude": 53.6081246, "longitude": 9.8400738}, "transactions": [], "price": "\u20ac\u20ac", "location": {"address1": "Lornsenstr. 111 d", "address2": null, "address3": null, "city": "Schenefeld", "zip_code": "22869", "country": "DE", "state": "SH", "display_address": ["Lornsenstr. 111 d", "22869 Schenefeld", "Germany"]}, "phone": "+494084058550", "display_phone": "+49 40 84058550", "distance": 1466.125867489093}, {"id": "oTPsEoBEdylcwgavD78DLw", "alias": "baltaci-d\u00f6ner-schenefeld", "name": "Baltaci D\u00f6ner", "image_url": "https://s3-media2.fl.yelpcdn.com/bphoto/Ka4K0Xd_Kr4RkWvW2S9-CQ/o.jpg", "is_closed": false, "url": "https://www.yelp.com/biz/baltaci-d%C3%B6ner-schenefeld?adjust_creative=hBJOknVQJ58S5goQyjmwRw&utm_campaign=yelp_api_v3&utm_medium=api_v3_business_search&utm_source=hBJOknVQJ58S5goQyjmwRw", "review_count": 4, "categories": [{"alias": "kebab", "title": "Kebab"}], "rating": 4.0, "coordinates": {"latitude": 53.6023, "longitude": 9.837}, "transactions": [], "price": "\u20ac\u20ac", "location": {"address1": "Industriestr. 1", "address2": "", "address3": null, "city": "Schenefeld", "zip_code": "22869", "country": "DE", "state": "SH", "display_address": ["Industriestr. 1", "22869 Schenefeld", "Germany"]}, "phone": "+494083018949", "display_phone": "+49 40 83018949", "distance": 1567.3517746008536}, {"id": "MQuYGwEojN7fFPMXRePLhw", "alias": "friedrichs-am-reiterhof-schenefeld", "name": "Friedrichs - Am Reiterhof", "image_url": "", "is_closed": false, "url": "https://www.yelp.com/biz/friedrichs-am-reiterhof-schenefeld?adjust_creative=hBJOknVQJ58S5goQyjmwRw&utm_campaign=yelp_api_v3&utm_medium=api_v3_business_search&utm_source=hBJOknVQJ58S5goQyjmwRw", "review_count": 6, "categories": [{"alias": "german", "title": "German"}], "rating": 2.5, "coordinates": {"latitude": 53.6084, "longitude": 9.82596}, "transactions": [], "location": {"address1": "Lindenallee 98", "address2": null, "address3": null, "city": "Schenefeld", "zip_code": "22869", "country": "DE", "state": "SH", "display_address": ["Lindenallee 98", "22869 Schenefeld", "Germany"]}, "phone": "+494018981959", "display_phone": "+49 40 18981959", "distance": 580.1358309136862}, {"id": "Czh58o7sIWYTRJEZCxGKIw", "alias": "chinaboy-schenefeld", "name": "ChinaBoy", "image_url": "https://s3-media3.fl.yelpcdn.com/bphoto/v4O8_96rP63EG4BmB3XbDg/o.jpg", "is_closed": false, "url": "https://www.yelp.com/biz/chinaboy-schenefeld?adjust_creative=hBJOknVQJ58S5goQyjmwRw&utm_campaign=yelp_api_v3&utm_medium=api_v3_business_search&utm_source=hBJOknVQJ58S5goQyjmwRw", "review_count": 6, "categories": [{"alias": "chinese", "title": "Chinese"}], "rating": 4.0, "coordinates": {"latitude": 53.602, "longitude": 9.8363}, "transactions": [], "price": "\u20ac\u20ac", "location": {"address1": "Kiebitzweg 2", "address2": null, "address3": null, "city": "Schenefeld", "zip_code": "22869", "country": "DE", "state": "SH", "display_address": ["Kiebitzweg 2", "22869 Schenefeld", "Germany"]}, "phone": "", "display_phone": "", "distance": 1552.9762922404668}, {"id": "dC83gjyunrb-I_uULUkUCg", "alias": "g\u00f6rner-grillstation-halstenbek", "name": "G\u00f6rner Grillstation", "image_url": "https://s3-media2.fl.yelpcdn.com/bphoto/EJAlMYY4qje24I42XnruFQ/o.jpg", "is_closed": false, "url": "https://www.yelp.com/biz/g%C3%B6rner-grillstation-halstenbek?adjust_creative=hBJOknVQJ58S5goQyjmwRw&utm_campaign=yelp_api_v3&utm_medium=api_v3_business_search&utm_source=hBJOknVQJ58S5goQyjmwRw", "review_count": 10, "categories": [{"alias": "bbq", "title": "Barbeque"}, {"alias": "german", "title": "German"}], "rating": 3.0, "coordinates": {"latitude": 53.6364, "longitude": 9.8401}, "transactions": [], "price": "\u20ac\u20ac", "location": {"address1": "Hauptstr. 49", "address2": null, "address3": null, "city": "Halstenbek", "zip_code": "25469", "country": "DE", "state": "SH", "display_address": ["Hauptstr. 49", "25469 Halstenbek", "Germany"]}, "phone": "+49410141229", "display_phone": "+49 4101 41229", "distance": 3157.783707350497}, {"id": "n_Yio-a9VzssOtDbgezpRA", "alias": "subu-sushi-burrito-hamburg-3", "name": "Subu Sushi Burrito", "image_url": "https://s3-media3.fl.yelpcdn.com/bphoto/x2oh5mzvkzvrXjswE_MjXQ/o.jpg", "is_closed": false, "url": "https://www.yelp.com/biz/subu-sushi-burrito-hamburg-3?adjust_creative=hBJOknVQJ58S5goQyjmwRw&utm_campaign=yelp_api_v3&utm_medium=api_v3_business_search&utm_source=hBJOknVQJ58S5goQyjmwRw", "review_count": 3, "categories": [{"alias": "foodtrucks", "title": "Food Trucks"}, {"alias": "sushi", "title": "Sushi Bars"}], "rating": 5.0, "coordinates": {"latitude": 53.5526819869811, "longitude": 10.0010880455375}, "transactions": [], "price": "\u20ac", "location": {"address1": "", "address2": "", "address3": "", "city": "Hamburg", "zip_code": "", "country": "DE", "state": "HH", "display_address": ["Hamburg", "Germany"]}, "phone": "+4917670834316", "display_phone": "+49 176 70834316", "distance": 13696.074122963078}, {"id": "u3ub5f0MS4qY67Q8XF9ZoA", "alias": "sodemanns-fisch-kutter-nr-1-hamburg", "name": "Sodemann's Fisch-Kutter Nr. 1", "image_url": "https://s3-media3.fl.yelpcdn.com/bphoto/BlysP6fVPaL0eEjKvEbByw/o.jpg", "is_closed": false, "url": "https://www.yelp.com/biz/sodemanns-fisch-kutter-nr-1-hamburg?adjust_creative=hBJOknVQJ58S5goQyjmwRw&utm_campaign=yelp_api_v3&utm_medium=api_v3_business_search&utm_source=hBJOknVQJ58S5goQyjmwRw", "review_count": 3, "categories": [{"alias": "foodtrucks", "title": "Food Trucks"}, {"alias": "fischbroetchen", "title": "Fischbroetchen"}], "rating": 5.0, "coordinates": {"latitude": 53.5537490844727, "longitude": 9.99182987213135}, "transactions": [], "price": "\u20ac\u20ac", "location": {"address1": "", "address2": null, "address3": "", "city": "Hamburg", "zip_code": "", "country": "DE", "state": "HH", "display_address": ["Hamburg", "Germany"]}, "phone": "+491773606663", "display_phone": "+49 177 3606663", "distance": 13355.659540265982}, {"id": "Qh8YXrTyRM8zojh7t5c1uw", "alias": "rio-grande-rellingen-3", "name": "Rio Grande", "image_url": "https://s3-media1.fl.yelpcdn.com/bphoto/C1xnkQ_fAHt8IXR6WjzcAg/o.jpg", "is_closed": false, "url": "https://www.yelp.com/biz/rio-grande-rellingen-3?adjust_creative=hBJOknVQJ58S5goQyjmwRw&utm_campaign=yelp_api_v3&utm_medium=api_v3_business_search&utm_source=hBJOknVQJ58S5goQyjmwRw", "review_count": 38, "categories": [{"alias": "steak", "title": "Steakhouses"}, {"alias": "argentine", "title": "Argentine"}], "rating": 3.5, "coordinates": {"latitude": 53.6500371, "longitude": 9.8307958}, "transactions": [], "price": "\u20ac\u20ac", "location": {"address1": "Schmiedestr. 2", "address2": null, "address3": null, "city": "Rellingen", "zip_code": "25462", "country": "DE", "state": "SH", "display_address": ["Schmiedestr. 2", "25462 Rellingen", "Germany"]}, "phone": "+494101599855", "display_phone": "+49 4101 599855", "distance": 4408.032188672416}, {"id": "Je39ss_26Nzi5FlwY9-i-A", "alias": "eiscaf\u00e9-arleccino-rellingen", "name": "Eiscaf\u00e9 Arleccino", "image_url": "", "is_closed": false, "url": "https://www.yelp.com/biz/eiscaf%C3%A9-arleccino-rellingen?adjust_creative=hBJOknVQJ58S5goQyjmwRw&utm_campaign=yelp_api_v3&utm_medium=api_v3_business_search&utm_source=hBJOknVQJ58S5goQyjmwRw", "review_count": 3, "categories": [{"alias": "restaurants", "title": "Restaurants"}], "rating": 2.5, "coordinates": {"latitude": 53.6535, "longitude": 9.82924}, "transactions": [], "price": "\u20ac\u20ac", "location": {"address1": "Hauptstr. 80", "address2": null, "address3": null, "city": "Rellingen", "zip_code": "25462", "country": "DE", "state": "SH", "display_address": ["Hauptstr. 80", "25462 Rellingen", "Germany"]}, "phone": "+494101200595", "display_phone": "+49 4101 200595", "distance": 4770.531676952463}, {"id": "V1GEbdrOLwCb5wgg4wPorg", "alias": "trattoria-da-matteo-rellingen", "name": "Trattoria da Matteo", "image_url": "", "is_closed": false, "url": "https://www.yelp.com/biz/trattoria-da-matteo-rellingen?adjust_creative=hBJOknVQJ58S5goQyjmwRw&utm_campaign=yelp_api_v3&utm_medium=api_v3_business_search&utm_source=hBJOknVQJ58S5goQyjmwRw", "review_count": 1, "categories": [{"alias": "italian", "title": "Italian"}], "rating": 3.0, "coordinates": {"latitude": 53.6517941, "longitude": 9.8302747}, "transactions": [], "location": {"address1": "Hauptstr. 62", "address2": "", "address3": null, "city": "Rellingen", "zip_code": "25462", "country": "DE", "state": "SH", "display_address": ["Hauptstr. 62", "25462 Rellingen", "Germany"]}, "phone": "+4941018536259", "display_phone": "+49 4101 8536259", "distance": 4594.188521085583}, {"id": "WYBXd9zggh3jHXshwOeMIQ", "alias": "rellinger-hof-rellingen-2", "name": "Rellinger Hof", "image_url": "https://s3-media4.fl.yelpcdn.com/bphoto/OIi6QFl9S4aIPEVO64s24Q/o.jpg", "is_closed": false, "url": "https://www.yelp.com/biz/rellinger-hof-rellingen-2?adjust_creative=hBJOknVQJ58S5goQyjmwRw&utm_campaign=yelp_api_v3&utm_medium=api_v3_business_search&utm_source=hBJOknVQJ58S5goQyjmwRw", "review_count": 1, "categories": [{"alias": "german", "title": "German"}], "rating": 2.0, "coordinates": {"latitude": 53.6492, "longitude": 9.82989}, "transactions": [], "location": {"address1": "Hauptstr. 31", "address2": null, "address3": null, "city": "Rellingen", "zip_code": "25462", "country": "DE", "state": "SH", "display_address": ["Hauptstr. 31", "25462 Rellingen", "Germany"]}, "phone": "+4941012130", "display_phone": "+49 4101 2130", "distance": 4305.7011763731025}, {"id": "R5wNK0pZ2e7NB48ooxSPlg", "alias": "reo-schenefeld", "name": "Reo", "image_url": "https://s3-media2.fl.yelpcdn.com/bphoto/UP73qMWpSWUIhPRe9OinzA/o.jpg", "is_closed": false, "url": "https://www.yelp.com/biz/reo-schenefeld?adjust_creative=hBJOknVQJ58S5goQyjmwRw&utm_campaign=yelp_api_v3&utm_medium=api_v3_business_search&utm_source=hBJOknVQJ58S5goQyjmwRw", "review_count": 7, "categories": [{"alias": "steak", "title": "Steakhouses"}], "rating": 2.5, "coordinates": {"latitude": 53.602, "longitude": 9.8363}, "transactions": [], "price": "\u20ac\u20ac", "location": {"address1": "Kiebitzweg 2", "address2": null, "address3": null, "city": "Schenefeld", "zip_code": "22869", "country": "DE", "state": "SH", "display_address": ["Kiebitzweg 2", "22869 Schenefeld", "Germany"]}, "phone": "+494063943175", "display_phone": "+49 40 63943175", "distance": 1552.9762922404668}, {"id": "DR-iXn7Oc0-HX9Tnix6kkA", "alias": "lieferservice-continental-hamburg", "name": "Lieferservice Continental", "image_url": "https://s3-media1.fl.yelpcdn.com/bphoto/86txTLe6hxKTuwq7_5hlMQ/o.jpg", "is_closed": false, "url": "https://www.yelp.com/biz/lieferservice-continental-hamburg?adjust_creative=hBJOknVQJ58S5goQyjmwRw&utm_campaign=yelp_api_v3&utm_medium=api_v3_business_search&utm_source=hBJOknVQJ58S5goQyjmwRw", "review_count": 1, "categories": [{"alias": "fooddeliveryservices", "title": "Food Delivery Services"}, {"alias": "restaurants", "title": "Restaurants"}], "rating": 2.0, "coordinates": {"latitude": 53.5786, "longitude": 9.81645}, "transactions": [], "price": "\u20ac\u20ac", "location": {"address1": "Iserbrook 15", "address2": null, "address3": null, "city": "Hamburg", "zip_code": "22589", "country": "DE", "state": "HH", "display_address": ["Iserbrook 15", "22589 Hamburg", "Germany"]}, "phone": "+494086625410", "display_phone": "+49 40 86625410", "distance": 3613.979273056711}, {"id": "APvIA_7ssxgC0atmQEFMcg", "alias": "burgerkultour-food-truck-hamburg-2", "name": "BurgerKultour Food Truck", "image_url": "https://s3-media4.fl.yelpcdn.com/bphoto/KoAuwalMnlAO8139MmdYBQ/o.jpg", "is_closed": false, "url": "https://www.yelp.com/biz/burgerkultour-food-truck-hamburg-2?adjust_creative=hBJOknVQJ58S5goQyjmwRw&utm_campaign=yelp_api_v3&utm_medium=api_v3_business_search&utm_source=hBJOknVQJ58S5goQyjmwRw", "review_count": 3, "categories": [{"alias": "foodtrucks", "title": "Food Trucks"}, {"alias": "burgers", "title": "Burgers"}], "rating": 4.5, "coordinates": {"latitude": 53.57154, "longitude": 9.95575}, "transactions": [], "price": "\u20ac\u20ac", "location": {"address1": "", "address2": "", "address3": "", "city": "Hamburg", "zip_code": "20259", "country": "DE", "state": "HH", "display_address": ["20259 Hamburg", "Germany"]}, "phone": "+4917626055122", "display_phone": "+49 176 26055122", "distance": 10138.712041521732}, {"id": "7qbcYyI8R5Y7fmvYdfwhdg", "alias": "lee-und-lee-schenefeld", "name": "Lee & Lee", "image_url": "https://s3-media2.fl.yelpcdn.com/bphoto/LKrWwdqZfg0PT7vaXW8EPQ/o.jpg", "is_closed": false, "url": "https://www.yelp.com/biz/lee-und-lee-schenefeld?adjust_creative=hBJOknVQJ58S5goQyjmwRw&utm_campaign=yelp_api_v3&utm_medium=api_v3_business_search&utm_source=hBJOknVQJ58S5goQyjmwRw", "review_count": 5, "categories": [{"alias": "panasian", "title": "Pan Asian"}], "rating": 3.0, "coordinates": {"latitude": 53.6018, "longitude": 9.83667}, "transactions": [], "location": {"address1": "Kiebitzweg 2", "address2": null, "address3": null, "city": "Schenefeld", "zip_code": "22869", "country": "DE", "state": "SH", "display_address": ["Kiebitzweg 2", "22869 Schenefeld", "Germany"]}, "phone": "+494087974279", "display_phone": "+49 40 87974279", "distance": 1585.9848689371797}, {"id": "2jzIbZsfzca5drJYk7JwbQ", "alias": "the-bao-bros-hamburg-2", "name": "The Bao Bros", "image_url": "https://s3-media1.fl.yelpcdn.com/bphoto/vUMA4Y35x3UwZk6fMJfZRw/o.jpg", "is_closed": false, "url": "https://www.yelp.com/biz/the-bao-bros-hamburg-2?adjust_creative=hBJOknVQJ58S5goQyjmwRw&utm_campaign=yelp_api_v3&utm_medium=api_v3_business_search&utm_source=hBJOknVQJ58S5goQyjmwRw", "review_count": 2, "categories": [{"alias": "foodtrucks", "title": "Food Trucks"}, {"alias": "burgers", "title": "Burgers"}], "rating": 4.0, "coordinates": {"latitude": 53.5533409118652, "longitude": 9.99246978759766}, "transactions": [], "price": "\u20ac", "location": {"address1": "", "address2": "", "address3": "", "city": "Hamburg", "zip_code": "", "country": "DE", "state": "HH", "display_address": ["Hamburg", "Germany"]}, "phone": "+4915140700076", "display_phone": "+49 1514 0700076", "distance": 13355.653821351743}, {"id": "cGIKCcR0wZszz8VldC2-7g", "alias": "currywerk-hamburg", "name": "curryWERK", "image_url": "https://s3-media4.fl.yelpcdn.com/bphoto/j_ZPQAB6JrAru84VDuLiRA/o.jpg", "is_closed": false, "url": "https://www.yelp.com/biz/currywerk-hamburg?adjust_creative=hBJOknVQJ58S5goQyjmwRw&utm_campaign=yelp_api_v3&utm_medium=api_v3_business_search&utm_source=hBJOknVQJ58S5goQyjmwRw", "review_count": 1, "categories": [{"alias": "foodtrucks", "title": "Food Trucks"}, {"alias": "currysausage", "title": "Curry Sausage"}], "rating": 4.0, "coordinates": {"latitude": 53.5498886108398, "longitude": 9.94732189178467}, "transactions": [], "price": "\u20ac\u20ac", "location": {"address1": "", "address2": "", "address3": "", "city": "Hamburg", "zip_code": "22767", "country": "DE", "state": "HH", "display_address": ["22767 Hamburg", "Germany"]}, "phone": "+4917632443433", "display_phone": "+49 176 32443433", "distance": 10725.745636627598}, {"id": "UR-xg7ZyvHTROcIeROKa2w", "alias": "china-imbi\u00df-sun-fu-hamburg-2", "name": "China-Imbi\u00df Sun Fu", "image_url": "", "is_closed": false, "url": "https://www.yelp.com/biz/china-imbi%C3%9F-sun-fu-hamburg-2?adjust_creative=hBJOknVQJ58S5goQyjmwRw&utm_campaign=yelp_api_v3&utm_medium=api_v3_business_search&utm_source=hBJOknVQJ58S5goQyjmwRw", "review_count": 8, "categories": [{"alias": "food", "title": "Food"}, {"alias": "chinese", "title": "Chinese"}], "rating": 3.5, "coordinates": {"latitude": 53.5764, "longitude": 9.82141}, "transactions": [], "price": "\u20ac\u20ac", "location": {"address1": "Simrockstr. 186", "address2": null, "address3": null, "city": "Hamburg", "zip_code": "22589", "country": "DE", "state": "HH", "display_address": ["Simrockstr. 186", "22589 Hamburg", "Germany"]}, "phone": "+4940875584", "display_phone": "+49 40 875584", "distance": 3861.3407647638633}, {"id": "Ot2_EQ4AiHMrncYallz52w", "alias": "grillimbiss-athena-pinneberg", "name": "Grillimbiss Athena", "image_url": "https://s3-media2.fl.yelpcdn.com/bphoto/4Hem3oppXcUcjsh7R-D8mw/o.jpg", "is_closed": false, "url": "https://www.yelp.com/biz/grillimbiss-athena-pinneberg?adjust_creative=hBJOknVQJ58S5goQyjmwRw&utm_campaign=yelp_api_v3&utm_medium=api_v3_business_search&utm_source=hBJOknVQJ58S5goQyjmwRw", "review_count": 3, "categories": [{"alias": "food", "title": "Food"}, {"alias": "hotdogs", "title": "Fast Food"}], "rating": 2.5, "coordinates": {"latitude": 53.6442, "longitude": 9.81008}, "transactions": [], "location": {"address1": "Diesterwegstr. 33", "address2": null, "address3": null, "city": "Pinneberg", "zip_code": "25421", "country": "DE", "state": "SH", "display_address": ["Diesterwegstr. 33", "25421 Pinneberg", "Germany"]}, "phone": "+494101374937", "display_phone": "+49 4101 374937", "distance": 3723.519455039528}, {"id": "aJ4xM7L5Sg8oJ1ygPC9-og", "alias": "himalaya-hamburg-4", "name": "Himalaya", "image_url": "", "is_closed": false, "url": "https://www.yelp.com/biz/himalaya-hamburg-4?adjust_creative=hBJOknVQJ58S5goQyjmwRw&utm_campaign=yelp_api_v3&utm_medium=api_v3_business_search&utm_source=hBJOknVQJ58S5goQyjmwRw", "review_count": 4, "categories": [{"alias": "indpak", "title": "Indian"}], "rating": 3.0, "coordinates": {"latitude": 53.5756874, "longitude": 9.816833}, "transactions": [], "location": {"address1": "Espenreihe 15", "address2": "", "address3": "", "city": "Hamburg", "zip_code": "22589", "country": "DE", "state": "HH", "display_address": ["Espenreihe 15", "22589 Hamburg", "Germany"]}, "phone": "+494086625410", "display_phone": "+49 40 86625410", "distance": 3936.902406629483}, {"id": "-xrcJK-pbh18zQk-nG4oDQ", "alias": "eiscafe-fiore-schenefeld", "name": "Eiscafe Fiore", "image_url": "https://s3-media4.fl.yelpcdn.com/bphoto/MsEW5iYvVDwiH9UYBHAMWw/o.jpg", "is_closed": false, "url": "https://www.yelp.com/biz/eiscafe-fiore-schenefeld?adjust_creative=hBJOknVQJ58S5goQyjmwRw&utm_campaign=yelp_api_v3&utm_medium=api_v3_business_search&utm_source=hBJOknVQJ58S5goQyjmwRw", "review_count": 7, "categories": [{"alias": "cafes", "title": "Cafes"}, {"alias": "icecream", "title": "Ice Cream & Frozen Yogurt"}], "rating": 2.5, "coordinates": {"latitude": 53.6009, "longitude": 9.83725}, "transactions": [], "price": "\u20ac\u20ac", "location": {"address1": "Kiebitzweg 2", "address2": null, "address3": null, "city": "Schenefeld", "zip_code": "22869", "country": "DE", "state": "SH", "display_address": ["Kiebitzweg 2", "22869 Schenefeld", "Germany"]}, "phone": "+49408300537", "display_phone": "+49 40 8300537", "distance": 1680.9438968510576}, {"id": "SeodQIjOcsrznD7rwIB-Jw", "alias": "the-big-balmy-hamburg-2", "name": "The Big Balmy", "image_url": "https://s3-media2.fl.yelpcdn.com/bphoto/KWUCQvGDONs_iDxlKXzgvQ/o.jpg", "is_closed": false, "url": "https://www.yelp.com/biz/the-big-balmy-hamburg-2?adjust_creative=hBJOknVQJ58S5goQyjmwRw&utm_campaign=yelp_api_v3&utm_medium=api_v3_business_search&utm_source=hBJOknVQJ58S5goQyjmwRw", "review_count": 27, "categories": [{"alias": "burgers", "title": "Burgers"}, {"alias": "foodtrucks", "title": "Food Trucks"}], "rating": 3.5, "coordinates": {"latitude": 53.537786, "longitude": 10.028218}, "transactions": [], "price": "\u20ac\u20ac", "location": {"address1": "", "address2": null, "address3": null, "city": "Hamburg", "zip_code": "", "country": "DE", "state": "HH", "display_address": ["Hamburg", "Germany"]}, "phone": "+494069278630", "display_phone": "+49 40 69278630", "distance": 16071.890430477883}, {"id": "0Qx6Nf-xHiSLZ-7M9Mm7cw", "alias": "enjoy-pizza-und-wok-hamburg", "name": "Enjoy Pizza & Wok", "image_url": "https://s3-media3.fl.yelpcdn.com/bphoto/d1tc4Ul1eiJsL4oKH9fw2w/o.jpg", "is_closed": false, "url": "https://www.yelp.com/biz/enjoy-pizza-und-wok-hamburg?adjust_creative=hBJOknVQJ58S5goQyjmwRw&utm_campaign=yelp_api_v3&utm_medium=api_v3_business_search&utm_source=hBJOknVQJ58S5goQyjmwRw", "review_count": 2, "categories": [{"alias": "chinese", "title": "Chinese"}], "rating": 2.0, "coordinates": {"latitude": 53.5782814, "longitude": 9.8097296}, "transactions": [], "price": "\u20ac\u20ac", "location": {"address1": "S\u00fclldorfer Landstr. 94", "address2": "", "address3": "", "city": "Hamburg", "zip_code": "22589", "country": "DE", "state": "HH", "display_address": ["S\u00fclldorfer Landstr. 94", "22589 Hamburg", "Germany"]}, "phone": "+494018072333", "display_phone": "+49 40 18072333", "distance": 3687.4439655316055}]