[{"id": "s8YuoOunBZCW-fYkFv2i2A", "alias": "hoh-und-hoh-hamburg", "name": "Hoh & Hoh", "image_url": "https://s3-media4.fl.yelpcdn.com/bphoto/L6pCHJkPD1Oeio-J24aR8Q/o.jpg", "is_closed": false, "url": "https://www.yelp.com/biz/hoh-und-hoh-hamburg?adjust_creative=hBJOknVQJ58S5goQyjmwRw&utm_campaign=yelp_api_v3&utm_medium=api_v3_business_search&utm_source=hBJOknVQJ58S5goQyjmwRw", "review_count": 25, "categories": [{"alias": "chinese", "title": "Chinese"}], "rating": 4.5, "coordinates": {"latitude": 53.599, "longitude": 9.86185}, "transactions": [], "price": "\u20ac\u20ac", "location": {"address1": "Fahrenort 125", "address2": null, "address3": null, "city": "Hamburg", "zip_code": "22547", "country": "DE", "state": "HH", "display_address": ["Fahrenort 125", "22547 Hamburg", "Germany"]}, "phone": "+494086643878", "display_phone": "+49 40 86643878", "distance": 1714.4726572973204}, {"id": "ZgxHe3hwSkaPXgI69Pd-Cg", "alias": "redox-house-hamburg", "name": "REDOX HOUSE", "image_url": "https://s3-media1.fl.yelpcdn.com/bphoto/5e-8fP6SpSrRVS_CHDc4zQ/o.jpg", "is_closed": false, "url": "https://www.yelp.com/biz/redox-house-hamburg?adjust_creative=hBJOknVQJ58S5goQyjmwRw&utm_campaign=yelp_api_v3&utm_medium=api_v3_business_search&utm_source=hBJOknVQJ58S5goQyjmwRw", "review_count": 58, "categories": [{"alias": "steak", "title": "Steakhouses"}], "rating": 4.0, "coordinates": {"latitude": 53.59671, "longitude": 9.86669}, "transactions": [], "price": "\u20ac\u20ac", "location": {"address1": "Luruper Hauptstr. 216", "address2": null, "address3": null, "city": "Hamburg", "zip_code": "22547", "country": "DE", "state": "HH", "display_address": ["Luruper Hauptstr. 216", "22547 Hamburg", "Germany"]}, "phone": "+4940835937", "display_phone": "+49 40 835937", "distance": 1741.8004563047148}, {"id": "oozu61zVmfuI5Vsf6SFdWA", "alias": "bistro-samarkand-hamburg", "name": "Bistro Samarkand", "image_url": "https://s3-media2.fl.yelpcdn.com/bphoto/eYhobGvGzbJDQHyT7x6jrg/o.jpg", "is_closed": false, "url": "https://www.yelp.com/biz/bistro-samarkand-hamburg?adjust_creative=hBJOknVQJ58S5goQyjmwRw&utm_campaign=yelp_api_v3&utm_medium=api_v3_business_search&utm_source=hBJOknVQJ58S5goQyjmwRw", "review_count": 19, "categories": [{"alias": "international", "title": "International"}], "rating": 4.5, "coordinates": {"latitude": 53.5734, "longitude": 9.89109}, "transactions": [], "price": "\u20ac", "location": {"address1": "Notke Str. 2", "address2": null, "address3": null, "city": "Hamburg", "zip_code": "22607", "country": "DE", "state": "HH", "display_address": ["Notke Str. 2", "22607 Hamburg", "Germany"]}, "phone": "+49408903228", "display_phone": "+49 40 8903228", "distance": 4219.994430135082}, {"id": "GUrTjGeZPsfnFj9vYxZEAg", "alias": "taverna-naxos-hamburg", "name": "Taverna Naxos", "image_url": "https://s3-media4.fl.yelpcdn.com/bphoto/PdNpB6WagloBKcXoPFGL9w/o.jpg", "is_closed": false, "url": "https://www.yelp.com/biz/taverna-naxos-hamburg?adjust_creative=hBJOknVQJ58S5goQyjmwRw&utm_campaign=yelp_api_v3&utm_medium=api_v3_business_search&utm_source=hBJOknVQJ58S5goQyjmwRw", "review_count": 11, "categories": [{"alias": "greek", "title": "Greek"}], "rating": 4.0, "coordinates": {"latitude": 53.6064, "longitude": 9.8741}, "transactions": [], "price": "\u20ac\u20ac", "location": {"address1": "Franzosenkoppel 104", "address2": null, "address3": null, "city": "Hamburg", "zip_code": "22547", "country": "DE", "state": "HH", "display_address": ["Franzosenkoppel 104", "22547 Hamburg", "Germany"]}, "phone": "+494042903695", "display_phone": "+49 40 42903695", "distance": 567.8793263016934}, {"id": "fNPN3vd-I41VlGBPLo7y7A", "alias": "taverna-zorbas-hamburg", "name": "Taverna Zorbas", "image_url": "https://s3-media2.fl.yelpcdn.com/bphoto/ICCOmDYTqtwePUZig7S54g/o.jpg", "is_closed": false, "url": "https://www.yelp.com/biz/taverna-zorbas-hamburg?adjust_creative=hBJOknVQJ58S5goQyjmwRw&utm_campaign=yelp_api_v3&utm_medium=api_v3_business_search&utm_source=hBJOknVQJ58S5goQyjmwRw", "review_count": 15, "categories": [{"alias": "greek", "title": "Greek"}, {"alias": "mediterranean", "title": "Mediterranean"}], "rating": 4.0, "coordinates": {"latitude": 53.5901900192397, "longitude": 9.87436699845165}, "transactions": [], "price": "\u20ac\u20ac", "location": {"address1": "Luruper Hauptstr. 124", "address2": "", "address3": null, "city": "Hamburg", "zip_code": "22547", "country": "DE", "state": "HH", "display_address": ["Luruper Hauptstr. 124", "22547 Hamburg", "Germany"]}, "phone": "+494084052635", "display_phone": "+49 40 84052635", "distance": 2294.5433138638696}, {"id": "2NeIDaFhcZHjYAwt9IUhYA", "alias": "quan-asia-hamburg", "name": "Quan Asia", "image_url": "https://s3-media2.fl.yelpcdn.com/bphoto/UBjwfmGqLpMySsingTl21A/o.jpg", "is_closed": false, "url": "https://www.yelp.com/biz/quan-asia-hamburg?adjust_creative=hBJOknVQJ58S5goQyjmwRw&utm_campaign=yelp_api_v3&utm_medium=api_v3_business_search&utm_source=hBJOknVQJ58S5goQyjmwRw", "review_count": 10, "categories": [{"alias": "panasian", "title": "Pan Asian"}], "rating": 4.5, "coordinates": {"latitude": 53.582819, "longitude": 9.855181}, "transactions": [], "price": "\u20ac", "location": {"address1": "Bornheide  11", "address2": "", "address3": "", "city": "Hamburg", "zip_code": "22549", "country": "DE", "state": "HH", "display_address": ["Bornheide  11", "22549 Hamburg", "Germany"]}, "phone": "+494086628505", "display_phone": "+49 40 86628505", "distance": 3464.706867258807}, {"id": "_LUuKmNFXN6A4i20goDGUg", "alias": "ph\u00f6nix-halstenbek", "name": "Ph\u00f6nix", "image_url": "https://s3-media3.fl.yelpcdn.com/bphoto/SoEnGeDnEFAM1hsMO929BA/o.jpg", "is_closed": false, "url": "https://www.yelp.com/biz/ph%C3%B6nix-halstenbek?adjust_creative=hBJOknVQJ58S5goQyjmwRw&utm_campaign=yelp_api_v3&utm_medium=api_v3_business_search&utm_source=hBJOknVQJ58S5goQyjmwRw", "review_count": 28, "categories": [{"alias": "mongolian", "title": "Mongolian"}, {"alias": "chinese", "title": "Chinese"}], "rating": 4.0, "coordinates": {"latitude": 53.62784, "longitude": 9.86763}, "transactions": [], "price": "\u20ac\u20ac", "location": {"address1": "Seemoorweg 3", "address2": "", "address3": "", "city": "Halstenbek", "zip_code": "25469", "country": "DE", "state": "SH", "display_address": ["Seemoorweg 3", "25469 Halstenbek", "Germany"]}, "phone": "+4941017877168", "display_phone": "+49 4101 7877168", "distance": 2028.8295735764468}, {"id": "c18eWYG1pgPaK-vncL9Xlw", "alias": "soul-kebab-hamburg-2", "name": "Soul Kebab", "image_url": "https://s3-media3.fl.yelpcdn.com/bphoto/Ie94h-kVtGyuEkhEnHzt8w/o.jpg", "is_closed": false, "url": "https://www.yelp.com/biz/soul-kebab-hamburg-2?adjust_creative=hBJOknVQJ58S5goQyjmwRw&utm_campaign=yelp_api_v3&utm_medium=api_v3_business_search&utm_source=hBJOknVQJ58S5goQyjmwRw", "review_count": 4, "categories": [{"alias": "kebab", "title": "Kebab"}, {"alias": "turkish", "title": "Turkish"}], "rating": 4.5, "coordinates": {"latitude": 53.5917619021825, "longitude": 9.87240115390106}, "transactions": [], "price": "\u20ac\u20ac", "location": {"address1": "Luruper Hauptstr. 138", "address2": "", "address3": "", "city": "Hamburg", "zip_code": "22547", "country": "DE", "state": "HH", "display_address": ["Luruper Hauptstr. 138", "22547 Hamburg", "Germany"]}, "phone": "+494033474645", "display_phone": "+49 40 33474645", "distance": 2143.3634254982285}, {"id": "iJLghYawgo2EVAF9ZTUKcQ", "alias": "namaste-ji-halstenbek", "name": "Namaste Ji", "image_url": "https://s3-media2.fl.yelpcdn.com/bphoto/ARJwFj3mBrHNAAGpiMufvA/o.jpg", "is_closed": false, "url": "https://www.yelp.com/biz/namaste-ji-halstenbek?adjust_creative=hBJOknVQJ58S5goQyjmwRw&utm_campaign=yelp_api_v3&utm_medium=api_v3_business_search&utm_source=hBJOknVQJ58S5goQyjmwRw", "review_count": 21, "categories": [{"alias": "indpak", "title": "Indian"}], "rating": 4.0, "coordinates": {"latitude": 53.6114863, "longitude": 9.8675694}, "transactions": [], "price": "\u20ac\u20ac", "location": {"address1": "Heideweg 164", "address2": "", "address3": "", "city": "Halstenbek", "zip_code": "25469", "country": "DE", "state": "SH", "display_address": ["Heideweg 164", "25469 Halstenbek", "Germany"]}, "phone": "+4941018303486", "display_phone": "+49 4101 8303486", "distance": 736.3471851745259}, {"id": "JA7DF73aS91yyyLL8vJrCg", "alias": "thai-foo-hamburg-3", "name": "Thai Foo", "image_url": "https://s3-media1.fl.yelpcdn.com/bphoto/vA7nApVih4P6WDiHAxl1nA/o.jpg", "is_closed": false, "url": "https://www.yelp.com/biz/thai-foo-hamburg-3?adjust_creative=hBJOknVQJ58S5goQyjmwRw&utm_campaign=yelp_api_v3&utm_medium=api_v3_business_search&utm_source=hBJOknVQJ58S5goQyjmwRw", "review_count": 1, "categories": [{"alias": "panasian", "title": "Pan Asian"}], "rating": 5.0, "coordinates": {"latitude": 53.584605, "longitude": 9.871361}, "transactions": [], "price": "\u20ac", "location": {"address1": "Grandkuhlenweg 11", "address2": "", "address3": "", "city": "Hamburg", "zip_code": "22549", "country": "DE", "state": "HH", "display_address": ["Grandkuhlenweg 11", "22549 Hamburg", "Germany"]}, "phone": "+494083018615", "display_phone": "+49 40 83018615", "distance": 3002.7342683848906}, {"id": "KMR_rm7jfAIowh9B9bj6Kw", "alias": "il-cortile-hamburg-2", "name": "Il Cortile", "image_url": "https://s3-media4.fl.yelpcdn.com/bphoto/2Zzcm6kmMhhwnJPXwVOSlw/o.jpg", "is_closed": false, "url": "https://www.yelp.com/biz/il-cortile-hamburg-2?adjust_creative=hBJOknVQJ58S5goQyjmwRw&utm_campaign=yelp_api_v3&utm_medium=api_v3_business_search&utm_source=hBJOknVQJ58S5goQyjmwRw", "review_count": 7, "categories": [{"alias": "bistros", "title": "Bistros"}, {"alias": "italian", "title": "Italian"}, {"alias": "wine_bars", "title": "Wine Bars"}], "rating": 4.5, "coordinates": {"latitude": 53.5700549275886, "longitude": 9.89661578427286}, "transactions": [], "price": "\u20ac\u20ac", "location": {"address1": "Theodorstr. 41z", "address2": "", "address3": "", "city": "Hamburg", "zip_code": "22761", "country": "DE", "state": "HH", "display_address": ["Theodorstr. 41z", "22761 Hamburg", "Germany"]}, "phone": "+494088167216", "display_phone": "+49 40 88167216", "distance": 4663.638226026654}, {"id": "japGaLeOGiAP2h7uyOE3rw", "alias": "panetteria-italiana-hamburg", "name": "Panetteria Italiana", "image_url": "https://s3-media1.fl.yelpcdn.com/bphoto/omzu2F7Mllp7iHfyYHgEpA/o.jpg", "is_closed": false, "url": "https://www.yelp.com/biz/panetteria-italiana-hamburg?adjust_creative=hBJOknVQJ58S5goQyjmwRw&utm_campaign=yelp_api_v3&utm_medium=api_v3_business_search&utm_source=hBJOknVQJ58S5goQyjmwRw", "review_count": 9, "categories": [{"alias": "italian", "title": "Italian"}], "rating": 3.0, "coordinates": {"latitude": 53.5692866, "longitude": 9.8792913}, "transactions": [], "price": "\u20ac\u20ac\u20ac", "location": {"address1": "Osdorfer Landstr. 4", "address2": null, "address3": null, "city": "Hamburg", "zip_code": "22607", "country": "DE", "state": "HH", "display_address": ["Osdorfer Landstr. 4", "22607 Hamburg", "Germany"]}, "phone": "+494089064802", "display_phone": "+49 40 89064802", "distance": 4599.670485222861}, {"id": "ELSgUz9uk7GUAYf3oVKVEA", "alias": "mediterran-rellingen", "name": "Mediterran", "image_url": "https://s3-media1.fl.yelpcdn.com/bphoto/RYt9YEiUqHKGRyWdOsvbKg/o.jpg", "is_closed": false, "url": "https://www.yelp.com/biz/mediterran-rellingen?adjust_creative=hBJOknVQJ58S5goQyjmwRw&utm_campaign=yelp_api_v3&utm_medium=api_v3_business_search&utm_source=hBJOknVQJ58S5goQyjmwRw", "review_count": 10, "categories": [{"alias": "mediterranean", "title": "Mediterranean"}, {"alias": "greek", "title": "Greek"}], "rating": 4.5, "coordinates": {"latitude": 53.6413, "longitude": 9.8707}, "transactions": [], "location": {"address1": "Kellerstr. 136", "address2": null, "address3": null, "city": "Rellingen", "zip_code": "25462", "country": "DE", "state": "SH", "display_address": ["Kellerstr. 136", "25462 Rellingen", "Germany"]}, "phone": "+4941017739088", "display_phone": "+49 4101 7739088", "distance": 3450.2419733851825}, {"id": "0EyKrwJO8JP_WDWCP005MQ", "alias": "fr\u00fchst\u00fccksladen-hamburg", "name": "Fr\u00fchst\u00fccksladen", "image_url": "https://s3-media1.fl.yelpcdn.com/bphoto/ChSkmGWkSxtfPe-yRMMBWQ/o.jpg", "is_closed": false, "url": "https://www.yelp.com/biz/fr%C3%BChst%C3%BCcksladen-hamburg?adjust_creative=hBJOknVQJ58S5goQyjmwRw&utm_campaign=yelp_api_v3&utm_medium=api_v3_business_search&utm_source=hBJOknVQJ58S5goQyjmwRw", "review_count": 4, "categories": [{"alias": "breakfast_brunch", "title": "Breakfast & Brunch"}], "rating": 5.0, "coordinates": {"latitude": 53.595812, "longitude": 9.903667}, "transactions": [], "price": "\u20ac", "location": {"address1": "Fangdieckstr. 20", "address2": "", "address3": "", "city": "Hamburg", "zip_code": "22547", "country": "DE", "state": "HH", "display_address": ["Fangdieckstr. 20", "22547 Hamburg", "Germany"]}, "phone": "+4940545624", "display_phone": "+49 40 545624", "distance": 2323.776202300316}, {"id": "5b9LYo195qsUCPPLFapjkQ", "alias": "platinum-restaurant-hamburg", "name": "Platinum Restaurant", "image_url": "https://s3-media3.fl.yelpcdn.com/bphoto/amRCSZkKqQVCLf_zPpisJQ/o.jpg", "is_closed": false, "url": "https://www.yelp.com/biz/platinum-restaurant-hamburg?adjust_creative=hBJOknVQJ58S5goQyjmwRw&utm_campaign=yelp_api_v3&utm_medium=api_v3_business_search&utm_source=hBJOknVQJ58S5goQyjmwRw", "review_count": 1, "categories": [{"alias": "restaurants", "title": "Restaurants"}], "rating": 5.0, "coordinates": {"latitude": 53.5891, "longitude": 9.89967}, "transactions": [], "location": {"address1": "Barclaycard Arena", "address2": "Sylvesterallee 10", "address3": null, "city": "Hamburg", "zip_code": "22525", "country": "DE", "state": "HH", "display_address": ["Barclaycard Arena", "Sylvesterallee 10", "22525 Hamburg", "Germany"]}, "phone": "+494088163400", "display_phone": "+49 40 88163400", "distance": 2761.6802908434943}, {"id": "YRasnJiv7h-b4tRn0KNpYg", "alias": "osteria-da-vino-due-ellerbek-2", "name": "Osteria da vino due", "image_url": "https://s3-media1.fl.yelpcdn.com/bphoto/BiR08U4iMiR6srOZCVnVbw/o.jpg", "is_closed": false, "url": "https://www.yelp.com/biz/osteria-da-vino-due-ellerbek-2?adjust_creative=hBJOknVQJ58S5goQyjmwRw&utm_campaign=yelp_api_v3&utm_medium=api_v3_business_search&utm_source=hBJOknVQJ58S5goQyjmwRw", "review_count": 9, "categories": [{"alias": "italian", "title": "Italian"}], "rating": 4.5, "coordinates": {"latitude": 53.6383, "longitude": 9.89487}, "transactions": [], "price": "\u20ac\u20ac", "location": {"address1": "Pinneberger Str. 167", "address2": null, "address3": null, "city": "Ellerbek", "zip_code": "25474", "country": "DE", "state": "SH", "display_address": ["Pinneberger Str. 167", "25474 Ellerbek", "Germany"]}, "phone": "+4941015389474", "display_phone": "+49 4101 5389474", "distance": 3250.4014163861198}, {"id": "9ie_J-ExumhDRpSA_XMdJA", "alias": "tunicis-restaurant-dubrovnik-hamburg-7", "name": "Tunici's Restaurant Dubrovnik", "image_url": "https://s3-media1.fl.yelpcdn.com/bphoto/VZy1pwItmkX7S00N0p7RqQ/o.jpg", "is_closed": false, "url": "https://www.yelp.com/biz/tunicis-restaurant-dubrovnik-hamburg-7?adjust_creative=hBJOknVQJ58S5goQyjmwRw&utm_campaign=yelp_api_v3&utm_medium=api_v3_business_search&utm_source=hBJOknVQJ58S5goQyjmwRw", "review_count": 11, "categories": [{"alias": "serbocroatian", "title": "Serbo Croatian"}], "rating": 4.5, "coordinates": {"latitude": 53.5708602092456, "longitude": 9.89808987826109}, "transactions": [], "price": "\u20ac\u20ac", "location": {"address1": "Luruper Chaussee 2", "address2": "", "address3": "", "city": "Hamburg", "zip_code": "22761", "country": "DE", "state": "HH", "display_address": ["Luruper Chaussee 2", "22761 Hamburg", "Germany"]}, "phone": "+494089066444", "display_phone": "+49 40 89066444", "distance": 4602.8757355317875}, {"id": "em-6ASd-UNRevR-OXCE_4A", "alias": "wappenhof-und-dubrovnik-hamburg-2", "name": "Wappenhof & Dubrovnik", "image_url": "https://s3-media3.fl.yelpcdn.com/bphoto/yJFbFav-pCQ0kEhW499Nbw/o.jpg", "is_closed": false, "url": "https://www.yelp.com/biz/wappenhof-und-dubrovnik-hamburg-2?adjust_creative=hBJOknVQJ58S5goQyjmwRw&utm_campaign=yelp_api_v3&utm_medium=api_v3_business_search&utm_source=hBJOknVQJ58S5goQyjmwRw", "review_count": 2, "categories": [{"alias": "serbocroatian", "title": "Serbo Croatian"}], "rating": 4.5, "coordinates": {"latitude": 53.588588, "longitude": 9.875454}, "transactions": [], "price": "\u20ac\u20ac", "location": {"address1": "Luruper Hauptstr. 103", "address2": "", "address3": null, "city": "Hamburg", "zip_code": "22547", "country": "DE", "state": "HH", "display_address": ["Luruper Hauptstr. 103", "22547 Hamburg", "Germany"]}, "phone": "+494052595500", "display_phone": "+49 40 52595500", "distance": 2470.9003174981126}, {"id": "cwCtFenHJchTmZJoGXUq1g", "alias": "al-amir-hamburg-2", "name": "Al Amir", "image_url": "https://s3-media4.fl.yelpcdn.com/bphoto/wS6Zm0JlJnXAVBXtF--e0g/o.jpg", "is_closed": false, "url": "https://www.yelp.com/biz/al-amir-hamburg-2?adjust_creative=hBJOknVQJ58S5goQyjmwRw&utm_campaign=yelp_api_v3&utm_medium=api_v3_business_search&utm_source=hBJOknVQJ58S5goQyjmwRw", "review_count": 1, "categories": [{"alias": "falafel", "title": "Falafel"}, {"alias": "arabian", "title": "Arabian"}], "rating": 4.0, "coordinates": {"latitude": 53.6064816604014, "longitude": 9.90122202783823}, "transactions": [], "location": {"address1": "Elbgaustr. 34", "address2": "", "address3": null, "city": "Hamburg", "zip_code": "22523", "country": "DE", "state": "HH", "display_address": ["Elbgaustr. 34", "22523 Hamburg", "Germany"]}, "phone": "+494030722934", "display_phone": "+49 40 30722934", "distance": 1545.8629694854346}, {"id": "t2bfjk3lmkS4tJJnwkIdJg", "alias": "achillion-hamburg", "name": "Achillion", "image_url": "https://s3-media1.fl.yelpcdn.com/bphoto/3n7FSMvN_Ng2k3IULfhJzQ/o.jpg", "is_closed": false, "url": "https://www.yelp.com/biz/achillion-hamburg?adjust_creative=hBJOknVQJ58S5goQyjmwRw&utm_campaign=yelp_api_v3&utm_medium=api_v3_business_search&utm_source=hBJOknVQJ58S5goQyjmwRw", "review_count": 6, "categories": [{"alias": "greek", "title": "Greek"}], "rating": 4.5, "coordinates": {"latitude": 53.609, "longitude": 9.90392}, "transactions": [], "location": {"address1": "Pinneberger Chaussee  4", "address2": null, "address3": null, "city": "Hamburg", "zip_code": "22523", "country": "DE", "state": "HH", "display_address": ["Pinneberger Chaussee  4", "22523 Hamburg", "Germany"]}, "phone": "+494057260833", "display_phone": "+49 40 57260833", "distance": 1662.7962089828545}, {"id": "7-IKoXs-UJw0hoGlVu7tRQ", "alias": "mahlzeit-live-hamburg", "name": "Mahlzeit Live", "image_url": "https://s3-media1.fl.yelpcdn.com/bphoto/9-61pLmaQKtLBN5DAIp87w/o.jpg", "is_closed": false, "url": "https://www.yelp.com/biz/mahlzeit-live-hamburg?adjust_creative=hBJOknVQJ58S5goQyjmwRw&utm_campaign=yelp_api_v3&utm_medium=api_v3_business_search&utm_source=hBJOknVQJ58S5goQyjmwRw", "review_count": 105, "categories": [{"alias": "mongolian", "title": "Mongolian"}, {"alias": "chinese", "title": "Chinese"}, {"alias": "panasian", "title": "Pan Asian"}], "rating": 3.5, "coordinates": {"latitude": 53.575429, "longitude": 9.888661}, "transactions": [], "price": "\u20ac\u20ac", "location": {"address1": "Albert-Einstein-Ring 8", "address2": "", "address3": "", "city": "Hamburg", "zip_code": "22761", "country": "DE", "state": "HH", "display_address": ["Albert-Einstein-Ring 8", "22761 Hamburg", "Germany"]}, "phone": "+494080030308", "display_phone": "+49 40 80030308", "distance": 3965.5713134656357}, {"id": "QtVFQJkzY8laiJ_BKZbVhA", "alias": "l-incontro-hamburg-2", "name": "L'Incontro", "image_url": "https://s3-media2.fl.yelpcdn.com/bphoto/3WH_NqkyvxVdTD_A9EafNw/o.jpg", "is_closed": false, "url": "https://www.yelp.com/biz/l-incontro-hamburg-2?adjust_creative=hBJOknVQJ58S5goQyjmwRw&utm_campaign=yelp_api_v3&utm_medium=api_v3_business_search&utm_source=hBJOknVQJ58S5goQyjmwRw", "review_count": 9, "categories": [{"alias": "italian", "title": "Italian"}], "rating": 4.0, "coordinates": {"latitude": 53.57328, "longitude": 9.89216}, "transactions": [], "price": "\u20ac\u20ac", "location": {"address1": "Ebertallee 232", "address2": "", "address3": "", "city": "Hamburg", "zip_code": "22607", "country": "DE", "state": "HH", "display_address": ["Ebertallee 232", "22607 Hamburg", "Germany"]}, "phone": "+494031992211", "display_phone": "+49 40 31992211", "distance": 4247.114021907077}, {"id": "f0eos4cNjh2LehmVgG1JgQ", "alias": "taverna-bei-thomas-schenefeld", "name": "Taverna bei Thomas", "image_url": "", "is_closed": false, "url": "https://www.yelp.com/biz/taverna-bei-thomas-schenefeld?adjust_creative=hBJOknVQJ58S5goQyjmwRw&utm_campaign=yelp_api_v3&utm_medium=api_v3_business_search&utm_source=hBJOknVQJ58S5goQyjmwRw", "review_count": 7, "categories": [{"alias": "greek", "title": "Greek"}], "rating": 4.0, "coordinates": {"latitude": 53.5981, "longitude": 9.85387}, "transactions": [], "price": "\u20ac\u20ac", "location": {"address1": "Altonaer Chaussee 1", "address2": null, "address3": null, "city": "Schenefeld", "zip_code": "22869", "country": "DE", "state": "SH", "display_address": ["Altonaer Chaussee 1", "22869 Schenefeld", "Germany"]}, "phone": "", "display_phone": "", "distance": 2160.643801194095}, {"id": "OsNFTVOq1FNvKoX0qP4VYw", "alias": "asia-corner-rellingen", "name": "Asia Corner", "image_url": "https://s3-media2.fl.yelpcdn.com/bphoto/7M2nrMQMp_02G2extUal9w/o.jpg", "is_closed": false, "url": "https://www.yelp.com/biz/asia-corner-rellingen?adjust_creative=hBJOknVQJ58S5goQyjmwRw&utm_campaign=yelp_api_v3&utm_medium=api_v3_business_search&utm_source=hBJOknVQJ58S5goQyjmwRw", "review_count": 11, "categories": [{"alias": "panasian", "title": "Pan Asian"}], "rating": 4.5, "coordinates": {"latitude": 53.6313, "longitude": 9.87175}, "transactions": [], "price": "\u20ac", "location": {"address1": "Heidestr. 94-96", "address2": null, "address3": null, "city": "Rellingen", "zip_code": "25463", "country": "DE", "state": "SH", "display_address": ["Heidestr. 94-96", "25463 Rellingen", "Germany"]}, "phone": "+49410135615", "display_phone": "+49 4101 35615", "distance": 2343.493898358858}, {"id": "XUcJ8_4fM5UYeIvddit8Cw", "alias": "salat-paradies-hamburg", "name": "Salat Paradies", "image_url": "https://s3-media2.fl.yelpcdn.com/bphoto/20oszzjcj1Do5jfzrffP-g/o.jpg", "is_closed": false, "url": "https://www.yelp.com/biz/salat-paradies-hamburg?adjust_creative=hBJOknVQJ58S5goQyjmwRw&utm_campaign=yelp_api_v3&utm_medium=api_v3_business_search&utm_source=hBJOknVQJ58S5goQyjmwRw", "review_count": 6, "categories": [{"alias": "salad", "title": "Salad"}], "rating": 5.0, "coordinates": {"latitude": 53.60903, "longitude": 9.90259}, "transactions": [], "price": "\u20ac", "location": {"address1": "Pinneberger Chaussee 9", "address2": "", "address3": "", "city": "Hamburg", "zip_code": "22523", "country": "DE", "state": "HH", "display_address": ["Pinneberger Chaussee 9", "22523 Hamburg", "Germany"]}, "phone": "", "display_phone": "", "distance": 1575.2371984196825}, {"id": "f5-sCZNozpI0EApmUdRD2A", "alias": "elbe-kebab-house-hamburg", "name": "Elbe Kebab House", "image_url": "https://s3-media2.fl.yelpcdn.com/bphoto/C5LFso1PcWuOZIhpZQ32RQ/o.jpg", "is_closed": false, "url": "https://www.yelp.com/biz/elbe-kebab-house-hamburg?adjust_creative=hBJOknVQJ58S5goQyjmwRw&utm_campaign=yelp_api_v3&utm_medium=api_v3_business_search&utm_source=hBJOknVQJ58S5goQyjmwRw", "review_count": 10, "categories": [{"alias": "kebab", "title": "Kebab"}], "rating": 4.5, "coordinates": {"latitude": 53.5719195989659, "longitude": 9.86358246893423}, "transactions": [], "price": "\u20ac", "location": {"address1": "Osdorfer Landstr. 112", "address2": "", "address3": "", "city": "Hamburg", "zip_code": "22549", "country": "DE", "state": "HH", "display_address": ["Osdorfer Landstr. 112", "22549 Hamburg", "Germany"]}, "phone": "+494018050317", "display_phone": "+49 40 18050317", "distance": 4423.397686622483}, {"id": "AaA1y0VedvjGj2yVtOhcDQ", "alias": "jet-pizza-hamburg-2", "name": "Jet Pizza", "image_url": "https://s3-media3.fl.yelpcdn.com/bphoto/WroyHI2Xck2cwupeC77x8A/o.jpg", "is_closed": false, "url": "https://www.yelp.com/biz/jet-pizza-hamburg-2?adjust_creative=hBJOknVQJ58S5goQyjmwRw&utm_campaign=yelp_api_v3&utm_medium=api_v3_business_search&utm_source=hBJOknVQJ58S5goQyjmwRw", "review_count": 1, "categories": [{"alias": "italian", "title": "Italian"}, {"alias": "pizza", "title": "Pizza"}], "rating": 4.0, "coordinates": {"latitude": 53.6006, "longitude": 9.87347}, "transactions": [], "price": "\u20ac\u20ac", "location": {"address1": "Fahrenort 54", "address2": null, "address3": null, "city": "Hamburg", "zip_code": "22547", "country": "DE", "state": "HH", "display_address": ["Fahrenort 54", "22547 Hamburg", "Germany"]}, "phone": "+49405702554", "display_phone": "+49 40 5702554", "distance": 1173.0827148542917}, {"id": "L1dXoEQuJKUY-T8aWGmp3Q", "alias": "ess-bahn-hamburg", "name": "ESS-Bahn", "image_url": "https://s3-media1.fl.yelpcdn.com/bphoto/jGlgMnmbJsq9hAd_qHWLRQ/o.jpg", "is_closed": false, "url": "https://www.yelp.com/biz/ess-bahn-hamburg?adjust_creative=hBJOknVQJ58S5goQyjmwRw&utm_campaign=yelp_api_v3&utm_medium=api_v3_business_search&utm_source=hBJOknVQJ58S5goQyjmwRw", "review_count": 6, "categories": [{"alias": "kebab", "title": "Kebab"}, {"alias": "hotdogs", "title": "Fast Food"}], "rating": 3.5, "coordinates": {"latitude": 53.6035625910885, "longitude": 9.89310401951185}, "transactions": [], "price": "\u20ac", "location": {"address1": "Elbgaustr", "address2": null, "address3": null, "city": "Hamburg", "zip_code": "22523", "country": "DE", "state": "HH", "display_address": ["Elbgaustr", "22523 Hamburg", "Germany"]}, "phone": "", "display_phone": "", "distance": 1226.1271182086978}, {"id": "nJSqt2G4D4bPQlL8GekZNg", "alias": "grill-kate-hamburg", "name": "Grill-Kate", "image_url": "https://s3-media3.fl.yelpcdn.com/bphoto/Zvplb2-Phs6Gl7BKxdGkkA/o.jpg", "is_closed": false, "url": "https://www.yelp.com/biz/grill-kate-hamburg?adjust_creative=hBJOknVQJ58S5goQyjmwRw&utm_campaign=yelp_api_v3&utm_medium=api_v3_business_search&utm_source=hBJOknVQJ58S5goQyjmwRw", "review_count": 23, "categories": [{"alias": "german", "title": "German"}], "rating": 4.0, "coordinates": {"latitude": 53.5957824, "longitude": 9.8679767}, "transactions": [], "price": "\u20ac", "location": {"address1": "Luruper Hauptstr. 202", "address2": null, "address3": null, "city": "Hamburg", "zip_code": "22547", "country": "DE", "state": "HH", "display_address": ["Luruper Hauptstr. 202", "22547 Hamburg", "Germany"]}, "phone": "+49408315441", "display_phone": "+49 40 8315441", "distance": 1802.8239423673103}, {"id": "y99Dx16-iQnGbYewdY2avQ", "alias": "cafesito-hamburg", "name": "Cafesito", "image_url": "https://s3-media2.fl.yelpcdn.com/bphoto/Vhj9HucNteaHZLfXDDpQZQ/o.jpg", "is_closed": false, "url": "https://www.yelp.com/biz/cafesito-hamburg?adjust_creative=hBJOknVQJ58S5goQyjmwRw&utm_campaign=yelp_api_v3&utm_medium=api_v3_business_search&utm_source=hBJOknVQJ58S5goQyjmwRw", "review_count": 7, "categories": [{"alias": "cafes", "title": "Cafes"}], "rating": 4.5, "coordinates": {"latitude": 53.6076505056097, "longitude": 9.90251942255149}, "transactions": [], "price": "\u20ac", "location": {"address1": "Ekenknick 7", "address2": "", "address3": "", "city": "Hamburg", "zip_code": "22523", "country": "DE", "state": "HH", "display_address": ["Ekenknick 7", "22523 Hamburg", "Germany"]}, "phone": "+494020226583", "display_phone": "+49 40 20226583", "distance": 1595.5413191997545}, {"id": "_-yghXnoHuCDkoJ1PITbRQ", "alias": "restaurant-krupunder-park-rellingen", "name": "Restaurant  Krupunder Park", "image_url": "https://s3-media2.fl.yelpcdn.com/bphoto/e_hYIcXMuOZ6wd2SLeOsPw/o.jpg", "is_closed": false, "url": "https://www.yelp.com/biz/restaurant-krupunder-park-rellingen?adjust_creative=hBJOknVQJ58S5goQyjmwRw&utm_campaign=yelp_api_v3&utm_medium=api_v3_business_search&utm_source=hBJOknVQJ58S5goQyjmwRw", "review_count": 2, "categories": [{"alias": "german", "title": "German"}], "rating": 2.5, "coordinates": {"latitude": 53.6256, "longitude": 9.87642}, "transactions": [], "location": {"address1": "Altonaer Str. 325", "address2": null, "address3": null, "city": "Rellingen", "zip_code": "25462", "country": "DE", "state": "SH", "display_address": ["Altonaer Str. 325", "25462 Rellingen", "Germany"]}, "phone": "+49410139190", "display_phone": "+49 4101 39190", "distance": 1670.0002713296042}, {"id": "SIOD8jvuFrt0PFZ3AJ6_NA", "alias": "schweinske-hamburg-13", "name": "Schweinske", "image_url": "https://s3-media2.fl.yelpcdn.com/bphoto/ljr2OsrAnzLwrhVC0AmU5A/o.jpg", "is_closed": false, "url": "https://www.yelp.com/biz/schweinske-hamburg-13?adjust_creative=hBJOknVQJ58S5goQyjmwRw&utm_campaign=yelp_api_v3&utm_medium=api_v3_business_search&utm_source=hBJOknVQJ58S5goQyjmwRw", "review_count": 27, "categories": [{"alias": "german", "title": "German"}], "rating": 3.0, "coordinates": {"latitude": 53.59279, "longitude": 9.8713}, "transactions": [], "price": "\u20ac\u20ac", "location": {"address1": "Luruper Hauptstr. 164", "address2": null, "address3": null, "city": "Hamburg", "zip_code": "22547", "country": "DE", "state": "HH", "display_address": ["Luruper Hauptstr. 164", "22547 Hamburg", "Germany"]}, "phone": "+4940837377", "display_phone": "+49 40 837377", "distance": 2044.404491683882}, {"id": "z8o46mNLRqgkqKbuXQQ-Jg", "alias": "smileys-hamburg-3", "name": "Smiley's", "image_url": "https://s3-media4.fl.yelpcdn.com/bphoto/j5tSs1sC0Fdgv9AAe_Ko1A/o.jpg", "is_closed": false, "url": "https://www.yelp.com/biz/smileys-hamburg-3?adjust_creative=hBJOknVQJ58S5goQyjmwRw&utm_campaign=yelp_api_v3&utm_medium=api_v3_business_search&utm_source=hBJOknVQJ58S5goQyjmwRw", "review_count": 11, "categories": [{"alias": "pizza", "title": "Pizza"}], "rating": 2.5, "coordinates": {"latitude": 53.6054, "longitude": 9.87443}, "transactions": [], "price": "\u20ac\u20ac\u20ac\u20ac", "location": {"address1": "Franzosenkoppel 111", "address2": null, "address3": null, "city": "Hamburg", "zip_code": "22547", "country": "DE", "state": "HH", "display_address": ["Franzosenkoppel 111", "22547 Hamburg", "Germany"]}, "phone": "+49408400200", "display_phone": "+49 40 8400200", "distance": 653.2746004831829}, {"id": "F8G8WNeh7tWkHGsHMKzWcA", "alias": "stadion-eck-hamburg", "name": "Stadion Eck", "image_url": "https://s3-media1.fl.yelpcdn.com/bphoto/HtkwzYkXoOzY7mudJ-S2Aw/o.jpg", "is_closed": false, "url": "https://www.yelp.com/biz/stadion-eck-hamburg?adjust_creative=hBJOknVQJ58S5goQyjmwRw&utm_campaign=yelp_api_v3&utm_medium=api_v3_business_search&utm_source=hBJOknVQJ58S5goQyjmwRw", "review_count": 5, "categories": [{"alias": "german", "title": "German"}, {"alias": "beergarden", "title": "Beer Garden"}, {"alias": "cafes", "title": "Cafes"}], "rating": 4.5, "coordinates": {"latitude": 53.5814, "longitude": 9.88443}, "transactions": [], "price": "\u20ac", "location": {"address1": "Stadionstr. 1", "address2": null, "address3": null, "city": "Hamburg", "zip_code": "22525", "country": "DE", "state": "HH", "display_address": ["Stadionstr. 1", "22525 Hamburg", "Germany"]}, "phone": "+4940836011", "display_phone": "+49 40 836011", "distance": 3273.2769609161933}, {"id": "WOqDzqq1Tc8HOuFbNJlbeg", "alias": "das-caf\u00e9-hamburg-5", "name": "Das Caf\u00e9", "image_url": "https://s3-media2.fl.yelpcdn.com/bphoto/N0gPtpYLl4DS5ESvdER3MQ/o.jpg", "is_closed": false, "url": "https://www.yelp.com/biz/das-caf%C3%A9-hamburg-5?adjust_creative=hBJOknVQJ58S5goQyjmwRw&utm_campaign=yelp_api_v3&utm_medium=api_v3_business_search&utm_source=hBJOknVQJ58S5goQyjmwRw", "review_count": 1, "categories": [{"alias": "cafes", "title": "Cafes"}], "rating": 5.0, "coordinates": {"latitude": 53.57038, "longitude": 9.88707}, "transactions": [], "location": {"address1": "Steenkamp 16", "address2": "", "address3": "", "city": "Hamburg", "zip_code": "22607", "country": "DE", "state": "HH", "display_address": ["Steenkamp 16", "22607 Hamburg", "Germany"]}, "phone": "", "display_phone": "", "distance": 4510.227677728604}, {"id": "zDTCnV42IWDiLU634mtuvw", "alias": "fisch-keyser-hamburg", "name": "Fisch Keyser", "image_url": "https://s3-media3.fl.yelpcdn.com/bphoto/FqasgwpXGPaetxfOzM2KLQ/o.jpg", "is_closed": false, "url": "https://www.yelp.com/biz/fisch-keyser-hamburg?adjust_creative=hBJOknVQJ58S5goQyjmwRw&utm_campaign=yelp_api_v3&utm_medium=api_v3_business_search&utm_source=hBJOknVQJ58S5goQyjmwRw", "review_count": 1, "categories": [{"alias": "seafood", "title": "Seafood"}, {"alias": "fishmonger", "title": "Fishmonger"}], "rating": 5.0, "coordinates": {"latitude": 53.6076, "longitude": 9.90247}, "transactions": [], "price": "\u20ac\u20ac\u20ac", "location": {"address1": "Ekenknick 7", "address2": null, "address3": null, "city": "Hamburg", "zip_code": "22523", "country": "DE", "state": "HH", "display_address": ["Ekenknick 7", "22523 Hamburg", "Germany"]}, "phone": "+49405709230", "display_phone": "+49 40 5709230", "distance": 1593.540476173889}, {"id": "mM9CAEVdzxHj14AehBpq3A", "alias": "liva-my-coffee-hamburg", "name": "Liva my coffee", "image_url": "https://s3-media1.fl.yelpcdn.com/bphoto/YZ1vC1Ju_4Apbic50rbExg/o.jpg", "is_closed": false, "url": "https://www.yelp.com/biz/liva-my-coffee-hamburg?adjust_creative=hBJOknVQJ58S5goQyjmwRw&utm_campaign=yelp_api_v3&utm_medium=api_v3_business_search&utm_source=hBJOknVQJ58S5goQyjmwRw", "review_count": 2, "categories": [{"alias": "cafes", "title": "Cafes"}], "rating": 4.5, "coordinates": {"latitude": 53.5914015692045, "longitude": 9.87373039126396}, "transactions": [], "price": "\u20ac", "location": {"address1": "Luruper Hauptstra\u00dfe", "address2": "", "address3": null, "city": "Hamburg", "zip_code": "22547", "country": "DE", "state": "HH", "display_address": ["Luruper Hauptstra\u00dfe", "22547 Hamburg", "Germany"]}, "phone": "+494033474500", "display_phone": "+49 40 33474500", "distance": 2167.202018162855}, {"id": "KV32pPQAkkBvrqot6oryAw", "alias": "hellas-grill-hamburg", "name": "Hellas Grill", "image_url": "https://s3-media3.fl.yelpcdn.com/bphoto/TyYuynYid-9NKpo19BwaZA/o.jpg", "is_closed": false, "url": "https://www.yelp.com/biz/hellas-grill-hamburg?adjust_creative=hBJOknVQJ58S5goQyjmwRw&utm_campaign=yelp_api_v3&utm_medium=api_v3_business_search&utm_source=hBJOknVQJ58S5goQyjmwRw", "review_count": 2, "categories": [{"alias": "greek", "title": "Greek"}, {"alias": "hotdogs", "title": "Fast Food"}], "rating": 4.0, "coordinates": {"latitude": 53.60057, "longitude": 9.87347}, "transactions": [], "price": "\u20ac\u20ac", "location": {"address1": "Fahrenort 54", "address2": null, "address3": null, "city": "Hamburg", "zip_code": "22547", "country": "DE", "state": "HH", "display_address": ["Fahrenort 54", "22547 Hamburg", "Germany"]}, "phone": "+494087974775", "display_phone": "+49 40 87974775", "distance": 1176.2615399691351}, {"id": "q751u517rYS5qAihIRfxSQ", "alias": "arena-imbiss-hamburg-2", "name": "Arena Imbiss", "image_url": "https://s3-media4.fl.yelpcdn.com/bphoto/cN7Tl_Xftf6MFvBuMZbY2w/o.jpg", "is_closed": false, "url": "https://www.yelp.com/biz/arena-imbiss-hamburg-2?adjust_creative=hBJOknVQJ58S5goQyjmwRw&utm_campaign=yelp_api_v3&utm_medium=api_v3_business_search&utm_source=hBJOknVQJ58S5goQyjmwRw", "review_count": 6, "categories": [{"alias": "kebab", "title": "Kebab"}], "rating": 2.5, "coordinates": {"latitude": 53.5735706, "longitude": 9.8925726}, "transactions": [], "location": {"address1": "Luruper Chaussee 141", "address2": null, "address3": null, "city": "Hamburg", "zip_code": "22761", "country": "DE", "state": "HH", "display_address": ["Luruper Chaussee 141", "22761 Hamburg", "Germany"]}, "phone": "+494080601671", "display_phone": "+49 40 80601671", "distance": 4221.252493259618}, {"id": "wCu4eQoOsWynAadvGCkfWA", "alias": "block-house-hamburg-16", "name": "Block House", "image_url": "https://s3-media2.fl.yelpcdn.com/bphoto/fFeTmLZ458Kle4uUO_iizg/o.jpg", "is_closed": false, "url": "https://www.yelp.com/biz/block-house-hamburg-16?adjust_creative=hBJOknVQJ58S5goQyjmwRw&utm_campaign=yelp_api_v3&utm_medium=api_v3_business_search&utm_source=hBJOknVQJ58S5goQyjmwRw", "review_count": 45, "categories": [{"alias": "steak", "title": "Steakhouses"}], "rating": 4.0, "coordinates": {"latitude": 53.6067964922858, "longitude": 9.90292561421343}, "transactions": [], "price": "\u20ac\u20ac\u20ac", "location": {"address1": "Alte Elbgaustr. 9", "address2": null, "address3": null, "city": "Hamburg", "zip_code": "22523", "country": "DE", "state": "HH", "display_address": ["Alte Elbgaustr. 9", "22523 Hamburg", "Germany"]}, "phone": "+49405703434", "display_phone": "+49 40 5703434", "distance": 1643.9402194350475}, {"id": "1w_lWa-fLXN-3ghsDp09rw", "alias": "odysseus-hamburg-2", "name": "Odysseus", "image_url": "https://s3-media1.fl.yelpcdn.com/bphoto/387UO3-M0mSvzV3FSE8grQ/o.jpg", "is_closed": false, "url": "https://www.yelp.com/biz/odysseus-hamburg-2?adjust_creative=hBJOknVQJ58S5goQyjmwRw&utm_campaign=yelp_api_v3&utm_medium=api_v3_business_search&utm_source=hBJOknVQJ58S5goQyjmwRw", "review_count": 25, "categories": [{"alias": "greek", "title": "Greek"}], "rating": 4.0, "coordinates": {"latitude": 53.6069, "longitude": 9.903345}, "transactions": [], "price": "\u20ac\u20ac", "location": {"address1": "Alte Elbgaustr. 7", "address2": null, "address3": null, "city": "Hamburg", "zip_code": "22523", "country": "DE", "state": "HH", "display_address": ["Alte Elbgaustr. 7", "22523 Hamburg", "Germany"]}, "phone": "+494057260224", "display_phone": "+49 40 57260224", "distance": 1667.7479919980326}, {"id": "kIa0M8MDb9HJZ6SCIfLDMQ", "alias": "croque-cafe-hamburg", "name": "Croque-Cafe", "image_url": "https://s3-media2.fl.yelpcdn.com/bphoto/2AhwyNGoChzZUxXhLizfgw/o.jpg", "is_closed": false, "url": "https://www.yelp.com/biz/croque-cafe-hamburg?adjust_creative=hBJOknVQJ58S5goQyjmwRw&utm_campaign=yelp_api_v3&utm_medium=api_v3_business_search&utm_source=hBJOknVQJ58S5goQyjmwRw", "review_count": 6, "categories": [{"alias": "hotdogs", "title": "Fast Food"}, {"alias": "sandwiches", "title": "Sandwiches"}, {"alias": "pizza", "title": "Pizza"}], "rating": 4.0, "coordinates": {"latitude": 53.61059, "longitude": 9.89978}, "transactions": [], "location": {"address1": "Pinneberger Chaussee 21 b", "address2": "", "address3": "", "city": "Hamburg", "zip_code": "22523", "country": "DE", "state": "HH", "display_address": ["Pinneberger Chaussee 21 b", "22523 Hamburg", "Germany"]}, "phone": "+494057144915", "display_phone": "+49 40 57144915", "distance": 1377.5812071583023}, {"id": "YakI5g9afEFa3blR_bmDkw", "alias": "akropolis-grillimbi\u00df-halstenbek", "name": "Akropolis Grillimbi\u00df", "image_url": "https://s3-media3.fl.yelpcdn.com/bphoto/MWSRdjtPM1kiIFMvwhUFkw/o.jpg", "is_closed": false, "url": "https://www.yelp.com/biz/akropolis-grillimbi%C3%9F-halstenbek?adjust_creative=hBJOknVQJ58S5goQyjmwRw&utm_campaign=yelp_api_v3&utm_medium=api_v3_business_search&utm_source=hBJOknVQJ58S5goQyjmwRw", "review_count": 11, "categories": [{"alias": "greek", "title": "Greek"}], "rating": 4.5, "coordinates": {"latitude": 53.6152941320271, "longitude": 9.86543951083672}, "transactions": [], "price": "\u20ac", "location": {"address1": "Siebentunnelweg 2", "address2": "", "address3": "", "city": "Halstenbek", "zip_code": "25469", "country": "DE", "state": "SH", "display_address": ["Siebentunnelweg 2", "25469 Halstenbek", "Germany"]}, "phone": "+49410143135", "display_phone": "+49 4101 43135", "distance": 1025.291906148161}, {"id": "RhjvmKthSzftkhOc2gtnyw", "alias": "grillpavillon-hamburg", "name": "Grillpavillon", "image_url": "https://s3-media2.fl.yelpcdn.com/bphoto/fIqQGlaCuHGp0kEKcPSydw/o.jpg", "is_closed": false, "url": "https://www.yelp.com/biz/grillpavillon-hamburg?adjust_creative=hBJOknVQJ58S5goQyjmwRw&utm_campaign=yelp_api_v3&utm_medium=api_v3_business_search&utm_source=hBJOknVQJ58S5goQyjmwRw", "review_count": 1, "categories": [{"alias": "currysausage", "title": "Curry Sausage"}], "rating": 5.0, "coordinates": {"latitude": 53.589098, "longitude": 9.904048}, "transactions": [], "location": {"address1": "Schnackenburgallee 119", "address2": null, "address3": null, "city": "Hamburg", "zip_code": "22525", "country": "DE", "state": "HH", "display_address": ["Schnackenburgallee 119", "22525 Hamburg", "Germany"]}, "phone": "+494054767826", "display_phone": "+49 40 54767826", "distance": 2916.2348882406327}, {"id": "nOqJnf5EuFAmVdqZw_MBAA", "alias": "caf\u00e9-marie-hamburg", "name": "Caf\u00e9 Marie", "image_url": "https://s3-media3.fl.yelpcdn.com/bphoto/XGYugX1Us4dFW_sBsTHe-g/o.jpg", "is_closed": false, "url": "https://www.yelp.com/biz/caf%C3%A9-marie-hamburg?adjust_creative=hBJOknVQJ58S5goQyjmwRw&utm_campaign=yelp_api_v3&utm_medium=api_v3_business_search&utm_source=hBJOknVQJ58S5goQyjmwRw", "review_count": 12, "categories": [{"alias": "cafes", "title": "Cafes"}, {"alias": "breakfast_brunch", "title": "Breakfast & Brunch"}], "rating": 4.5, "coordinates": {"latitude": 53.5935, "longitude": 9.86989}, "transactions": [], "price": "\u20ac", "location": {"address1": "Luruper Hauptstr.177", "address2": "", "address3": null, "city": "Hamburg", "zip_code": "22547", "country": "DE", "state": "HH", "display_address": ["Luruper Hauptstr.177", "22547 Hamburg", "Germany"]}, "phone": "+491777374591", "display_phone": "+49 177 7374591", "distance": 1997.0788326799563}, {"id": "5x3ApuSiNu3QGD2MgwmHOw", "alias": "mai-mai-hamburg-6", "name": "Mai Mai", "image_url": "https://s3-media3.fl.yelpcdn.com/bphoto/EZWgzcsC4PxKvQTiXkhPEg/o.jpg", "is_closed": false, "url": "https://www.yelp.com/biz/mai-mai-hamburg-6?adjust_creative=hBJOknVQJ58S5goQyjmwRw&utm_campaign=yelp_api_v3&utm_medium=api_v3_business_search&utm_source=hBJOknVQJ58S5goQyjmwRw", "review_count": 4, "categories": [{"alias": "hotdogs", "title": "Fast Food"}, {"alias": "chinese", "title": "Chinese"}], "rating": 2.5, "coordinates": {"latitude": 53.5917971200509, "longitude": 9.87330763648938}, "transactions": [], "price": "\u20ac\u20ac", "location": {"address1": "Eckhoffplatz 1", "address2": "", "address3": "", "city": "Hamburg", "zip_code": "22547", "country": "DE", "state": "HH", "display_address": ["Eckhoffplatz 1", "22547 Hamburg", "Germany"]}, "phone": "", "display_phone": "", "distance": 2128.4026691975496}, {"id": "tBsYRJpCRMSbcCxggRqa2A", "alias": "don-quichotte-hamburg", "name": "Don Quichotte", "image_url": "https://s3-media3.fl.yelpcdn.com/bphoto/beSTNjvZWTlFQrlNQA-ZFA/o.jpg", "is_closed": false, "url": "https://www.yelp.com/biz/don-quichotte-hamburg?adjust_creative=hBJOknVQJ58S5goQyjmwRw&utm_campaign=yelp_api_v3&utm_medium=api_v3_business_search&utm_source=hBJOknVQJ58S5goQyjmwRw", "review_count": 55, "categories": [{"alias": "italian", "title": "Italian"}, {"alias": "international", "title": "International"}], "rating": 3.0, "coordinates": {"latitude": 53.572607, "longitude": 9.855326}, "transactions": [], "price": "\u20ac\u20ac", "location": {"address1": "Osdorfer Landstr. 162 a", "address2": null, "address3": null, "city": "Hamburg", "zip_code": "22549", "country": "DE", "state": "HH", "display_address": ["Osdorfer Landstr. 162 a", "22549 Hamburg", "Germany"]}, "phone": "+4940801304", "display_phone": "+49 40 801304", "distance": 4506.695615774845}, {"id": "Rk3dfkWX4RhPgxR9XaL6Rw", "alias": "\u00f6nka-grill-hamburg-2", "name": "\u00d6nka Grill", "image_url": "https://s3-media2.fl.yelpcdn.com/bphoto/iTfXEEDQn3bUD8PEtxyHAw/o.jpg", "is_closed": false, "url": "https://www.yelp.com/biz/%C3%B6nka-grill-hamburg-2?adjust_creative=hBJOknVQJ58S5goQyjmwRw&utm_campaign=yelp_api_v3&utm_medium=api_v3_business_search&utm_source=hBJOknVQJ58S5goQyjmwRw", "review_count": 11, "categories": [{"alias": "kebab", "title": "Kebab"}], "rating": 3.5, "coordinates": {"latitude": 53.57241, "longitude": 9.86353}, "transactions": [], "price": "\u20ac\u20ac", "location": {"address1": "Flurkamp 11", "address2": "", "address3": "", "city": "Hamburg", "zip_code": "22549", "country": "DE", "state": "HH", "display_address": ["Flurkamp 11", "22549 Hamburg", "Germany"]}, "phone": "+4940803806", "display_phone": "+49 40 803806", "distance": 4370.465319825523}, {"id": "oocSI5BFw0pBrR_OCqGj4w", "alias": "bistro-saalbach-hamburg", "name": "Bistro Saalbach", "image_url": "https://s3-media4.fl.yelpcdn.com/bphoto/-gljjE1OXbHhH3jcCUny8w/o.jpg", "is_closed": false, "url": "https://www.yelp.com/biz/bistro-saalbach-hamburg?adjust_creative=hBJOknVQJ58S5goQyjmwRw&utm_campaign=yelp_api_v3&utm_medium=api_v3_business_search&utm_source=hBJOknVQJ58S5goQyjmwRw", "review_count": 2, "categories": [{"alias": "bistros", "title": "Bistros"}], "rating": 3.0, "coordinates": {"latitude": 53.576128, "longitude": 9.886432}, "transactions": [], "location": {"address1": "Bertrand-Russel-Str. 4", "address2": "", "address3": "", "city": "Hamburg", "zip_code": "22761", "country": "DE", "state": "HH", "display_address": ["Bertrand-Russel-Str. 4", "22761 Hamburg", "Germany"]}, "phone": "+494030852943", "display_phone": "+49 40 30852943", "distance": 3919.1462418661954}, {"id": "_rUcjaXxVbhxG0H_wRYmCg", "alias": "tre-posi-hamburg", "name": "Tre Posi", "image_url": "https://s3-media3.fl.yelpcdn.com/bphoto/iT3Ud4odpPI7wdBvKMYz9Q/o.jpg", "is_closed": false, "url": "https://www.yelp.com/biz/tre-posi-hamburg?adjust_creative=hBJOknVQJ58S5goQyjmwRw&utm_campaign=yelp_api_v3&utm_medium=api_v3_business_search&utm_source=hBJOknVQJ58S5goQyjmwRw", "review_count": 20, "categories": [{"alias": "italian", "title": "Italian"}], "rating": 3.5, "coordinates": {"latitude": 53.5711, "longitude": 9.8987}, "transactions": [], "price": "\u20ac\u20ac\u20ac", "location": {"address1": "Bahrenfelder Chaussee 178", "address2": null, "address3": null, "city": "Hamburg", "zip_code": "22761", "country": "DE", "state": "HH", "display_address": ["Bahrenfelder Chaussee 178", "22761 Hamburg", "Germany"]}, "phone": "+49408993978", "display_phone": "+49 40 8993978", "distance": 4588.573057148169}, {"id": "_SeEoymbbIQPXSjviHH8ug", "alias": "barthmann-hamburg-2", "name": "Barthmann", "image_url": "https://s3-media4.fl.yelpcdn.com/bphoto/Igpa83CmHWZV3l8f8_aZeg/o.jpg", "is_closed": false, "url": "https://www.yelp.com/biz/barthmann-hamburg-2?adjust_creative=hBJOknVQJ58S5goQyjmwRw&utm_campaign=yelp_api_v3&utm_medium=api_v3_business_search&utm_source=hBJOknVQJ58S5goQyjmwRw", "review_count": 1, "categories": [{"alias": "german", "title": "German"}], "rating": 5.0, "coordinates": {"latitude": 53.608907, "longitude": 9.903056}, "transactions": [], "price": "\u20ac\u20ac", "location": {"address1": "Pinneberger Chaussee 5 - 7", "address2": null, "address3": null, "city": "Hamburg", "zip_code": "22523", "country": "DE", "state": "HH", "display_address": ["Pinneberger Chaussee 5 - 7", "22523 Hamburg", "Germany"]}, "phone": "+494024181792", "display_phone": "+49 40 24181792", "distance": 1607.3765105107132}, {"id": "ZzolreLfcNzAuSmM6NLR_g", "alias": "hellas-hamburg", "name": "Hellas", "image_url": "https://s3-media2.fl.yelpcdn.com/bphoto/GfdI4z3VCglaXIWZrG-gfA/o.jpg", "is_closed": false, "url": "https://www.yelp.com/biz/hellas-hamburg?adjust_creative=hBJOknVQJ58S5goQyjmwRw&utm_campaign=yelp_api_v3&utm_medium=api_v3_business_search&utm_source=hBJOknVQJ58S5goQyjmwRw", "review_count": 11, "categories": [{"alias": "greek", "title": "Greek"}], "rating": 3.5, "coordinates": {"latitude": 53.5981, "longitude": 9.85866}, "transactions": [], "price": "\u20ac\u20ac", "location": {"address1": "Luruper Hauptstr. 274", "address2": null, "address3": null, "city": "Hamburg", "zip_code": "22547", "country": "DE", "state": "HH", "display_address": ["Luruper Hauptstr. 274", "22547 Hamburg", "Germany"]}, "phone": "+494083200171", "display_phone": "+49 40 83200171", "distance": 1930.2165588401429}, {"id": "vbkRPXgy1U68vQxxRxHNjA", "alias": "burger-me-hamburg-2", "name": "Burger Me", "image_url": "https://s3-media4.fl.yelpcdn.com/bphoto/ZcxOgogItRjk7GJceb-wJA/o.jpg", "is_closed": false, "url": "https://www.yelp.com/biz/burger-me-hamburg-2?adjust_creative=hBJOknVQJ58S5goQyjmwRw&utm_campaign=yelp_api_v3&utm_medium=api_v3_business_search&utm_source=hBJOknVQJ58S5goQyjmwRw", "review_count": 2, "categories": [{"alias": "burgers", "title": "Burgers"}], "rating": 4.5, "coordinates": {"latitude": 53.5976270839418, "longitude": 9.86267987490799}, "transactions": [], "location": {"address1": "Luruper Hauptstr. 250", "address2": "", "address3": null, "city": "Hamburg", "zip_code": "22547", "country": "DE", "state": "BW", "display_address": ["Luruper Hauptstr. 250", "22547 Hamburg", "Germany"]}, "phone": "+4940787000", "display_phone": "+49 40 787000", "distance": 1799.5487172112055}, {"id": "KrElkJZG4z9o-Zq_6dld1w", "alias": "dritte-etage-halstenbek", "name": "dritte Etage", "image_url": "", "is_closed": false, "url": "https://www.yelp.com/biz/dritte-etage-halstenbek?adjust_creative=hBJOknVQJ58S5goQyjmwRw&utm_campaign=yelp_api_v3&utm_medium=api_v3_business_search&utm_source=hBJOknVQJ58S5goQyjmwRw", "review_count": 2, "categories": [{"alias": "restaurants", "title": "Restaurants"}], "rating": 4.5, "coordinates": {"latitude": 53.6311, "longitude": 9.86055}, "transactions": [], "price": "\u20ac\u20ac", "location": {"address1": "G\u00e4rtnerstr.  133-137", "address2": "Event GmbH", "address3": null, "city": "Halstenbek", "zip_code": "25469", "country": "DE", "state": "SH", "display_address": ["G\u00e4rtnerstr.  133-137", "Event GmbH", "25469 Halstenbek", "Germany"]}, "phone": "", "display_phone": "", "distance": 2574.7971990362084}, {"id": "7lu2vKgQn-ow3QMxg1FfZQ", "alias": "back-factory-hamburg-4", "name": "Back-Factory", "image_url": "https://s3-media4.fl.yelpcdn.com/bphoto/ytBTfkiu88IXlzcYFRxy_A/o.jpg", "is_closed": false, "url": "https://www.yelp.com/biz/back-factory-hamburg-4?adjust_creative=hBJOknVQJ58S5goQyjmwRw&utm_campaign=yelp_api_v3&utm_medium=api_v3_business_search&utm_source=hBJOknVQJ58S5goQyjmwRw", "review_count": 3, "categories": [{"alias": "bakeries", "title": "Bakeries"}, {"alias": "hotdogs", "title": "Fast Food"}], "rating": 4.5, "coordinates": {"latitude": 53.60338, "longitude": 9.89356}, "transactions": [], "price": "\u20ac", "location": {"address1": "Elbgaustr. 103", "address2": null, "address3": null, "city": "Hamburg", "zip_code": "22523", "country": "DE", "state": "HH", "display_address": ["Elbgaustr. 103", "22523 Hamburg", "Germany"]}, "phone": "+494038647150", "display_phone": "+49 40 38647150", "distance": 1266.3411498583434}, {"id": "XFxWQHvOryVof0btQgmYvw", "alias": "metaxa-grill-hamburg", "name": "Metaxa Grill", "image_url": "https://s3-media1.fl.yelpcdn.com/bphoto/byTSbl9HgDlzLbs2QnUPYQ/o.jpg", "is_closed": false, "url": "https://www.yelp.com/biz/metaxa-grill-hamburg?adjust_creative=hBJOknVQJ58S5goQyjmwRw&utm_campaign=yelp_api_v3&utm_medium=api_v3_business_search&utm_source=hBJOknVQJ58S5goQyjmwRw", "review_count": 16, "categories": [{"alias": "greek", "title": "Greek"}], "rating": 3.5, "coordinates": {"latitude": 53.6122532485485, "longitude": 9.89839999595038}, "transactions": [], "price": "\u20ac\u20ac", "location": {"address1": "Pinneberger Chaussee 46", "address2": "", "address3": "", "city": "Hamburg", "zip_code": "22523", "country": "DE", "state": "HH", "display_address": ["Pinneberger Chaussee 46", "22523 Hamburg", "Germany"]}, "phone": "+4940579747", "display_phone": "+49 40 579747", "distance": 1300.667889549669}, {"id": "veek4OBOkG19MI_y4-kfcA", "alias": "r\u00fcya-restaurant-hamburg", "name": "R\u00fcya Restaurant", "image_url": "https://s3-media2.fl.yelpcdn.com/bphoto/-aQqEQcApNp2mRDDbL6l4Q/o.jpg", "is_closed": false, "url": "https://www.yelp.com/biz/r%C3%BCya-restaurant-hamburg?adjust_creative=hBJOknVQJ58S5goQyjmwRw&utm_campaign=yelp_api_v3&utm_medium=api_v3_business_search&utm_source=hBJOknVQJ58S5goQyjmwRw", "review_count": 3, "categories": [{"alias": "kebab", "title": "Kebab"}], "rating": 3.5, "coordinates": {"latitude": 53.6076, "longitude": 9.9025}, "transactions": [], "price": "\u20ac", "location": {"address1": "Ekenknick 5", "address2": null, "address3": null, "city": "Hamburg", "zip_code": "22523", "country": "DE", "state": "HH", "display_address": ["Ekenknick 5", "22523 Hamburg", "Germany"]}, "phone": "+4917657445616", "display_phone": "+49 176 57445616", "distance": 1595.4742645790645}, {"id": "Ci897JLvU6ZQkLMXslVpOw", "alias": "welcome-india-hamburg-4", "name": "Welcome India", "image_url": "https://s3-media4.fl.yelpcdn.com/bphoto/2TPQa28fX1M6iq7T_d6oBA/o.jpg", "is_closed": false, "url": "https://www.yelp.com/biz/welcome-india-hamburg-4?adjust_creative=hBJOknVQJ58S5goQyjmwRw&utm_campaign=yelp_api_v3&utm_medium=api_v3_business_search&utm_source=hBJOknVQJ58S5goQyjmwRw", "review_count": 1, "categories": [{"alias": "indpak", "title": "Indian"}], "rating": 3.0, "coordinates": {"latitude": 53.61041, "longitude": 9.90013}, "transactions": [], "location": {"address1": "Pinneberger Chaussee 21", "address2": null, "address3": "", "city": "Hamburg", "zip_code": "22523", "country": "DE", "state": "HH", "display_address": ["Pinneberger Chaussee 21", "22523 Hamburg", "Germany"]}, "phone": "+494057002297", "display_phone": "+49 40 57002297", "distance": 1406.2790677623636}, {"id": "kDoYfY1trpUnfERmLQJQag", "alias": "hallo-pizza-hamburg-4", "name": "Hallo Pizza!", "image_url": "https://s3-media1.fl.yelpcdn.com/bphoto/sbL3JhVerPzXQLtg63Tm5g/o.jpg", "is_closed": false, "url": "https://www.yelp.com/biz/hallo-pizza-hamburg-4?adjust_creative=hBJOknVQJ58S5goQyjmwRw&utm_campaign=yelp_api_v3&utm_medium=api_v3_business_search&utm_source=hBJOknVQJ58S5goQyjmwRw", "review_count": 9, "categories": [{"alias": "pizza", "title": "Pizza"}], "rating": 4.0, "coordinates": {"latitude": 53.5983, "longitude": 9.85854}, "transactions": [], "price": "\u20ac\u20ac", "location": {"address1": "Luruper Hauptstr. 274", "address2": null, "address3": null, "city": "Hamburg", "zip_code": "22547", "country": "DE", "state": "HH", "display_address": ["Luruper Hauptstr. 274", "22547 Hamburg", "Germany"]}, "phone": "+494083210111", "display_phone": "+49 40 83210111", "distance": 1919.718903761702}, {"id": "LUsXC7_d90dqijdKoFZHrg", "alias": "china-restaurant-enten-haus-hamburg", "name": "China-Restaurant Enten-Haus", "image_url": "", "is_closed": false, "url": "https://www.yelp.com/biz/china-restaurant-enten-haus-hamburg?adjust_creative=hBJOknVQJ58S5goQyjmwRw&utm_campaign=yelp_api_v3&utm_medium=api_v3_business_search&utm_source=hBJOknVQJ58S5goQyjmwRw", "review_count": 1, "categories": [{"alias": "chinese", "title": "Chinese"}], "rating": 4.0, "coordinates": {"latitude": 53.59889, "longitude": 9.86187}, "transactions": [], "location": {"address1": "Fahrenort 125", "address2": null, "address3": null, "city": "Hamburg", "zip_code": "22547", "country": "DE", "state": "HH", "display_address": ["Fahrenort 125", "22547 Hamburg", "Germany"]}, "phone": "+49408316090", "display_phone": "+49 40 8316090", "distance": 1726.3302865857036}, {"id": "srDNoRwedgyO-lKCy_f0Hw", "alias": "fanrestaurant-die-raute-hamburg", "name": "Fanrestaurant \"Die Raute\"", "image_url": "https://s3-media2.fl.yelpcdn.com/bphoto/YNhK984AVpY4-ZI_BKT2XA/o.jpg", "is_closed": false, "url": "https://www.yelp.com/biz/fanrestaurant-die-raute-hamburg?adjust_creative=hBJOknVQJ58S5goQyjmwRw&utm_campaign=yelp_api_v3&utm_medium=api_v3_business_search&utm_source=hBJOknVQJ58S5goQyjmwRw", "review_count": 26, "categories": [{"alias": "german", "title": "German"}], "rating": 3.0, "coordinates": {"latitude": 53.5877906072684, "longitude": 9.89975140370484}, "transactions": [], "price": "\u20ac\u20ac\u20ac", "location": {"address1": "Sylvesterallee 7", "address2": "Eingang Nord/Ost", "address3": "", "city": "Hamburg", "zip_code": "22525", "country": "DE", "state": "HH", "display_address": ["Sylvesterallee 7", "Eingang Nord/Ost", "22525 Hamburg", "Germany"]}, "phone": "+49404155x3350", "display_phone": "+49 40 4155 ext. 3350", "distance": 2891.494703956415}, {"id": "F09QZ5eyYNif_4yxJ1R6xw", "alias": "restaurant-naxos-ellerbek", "name": "Restaurant Naxos", "image_url": "", "is_closed": false, "url": "https://www.yelp.com/biz/restaurant-naxos-ellerbek?adjust_creative=hBJOknVQJ58S5goQyjmwRw&utm_campaign=yelp_api_v3&utm_medium=api_v3_business_search&utm_source=hBJOknVQJ58S5goQyjmwRw", "review_count": 3, "categories": [{"alias": "restaurants", "title": "Restaurants"}], "rating": 4.5, "coordinates": {"latitude": 53.6486, "longitude": 9.89857}, "transactions": [], "price": "\u20ac\u20ac", "location": {"address1": "Tilsiter Str. 1", "address2": null, "address3": null, "city": "Ellerbek", "zip_code": "25474", "country": "DE", "state": "SH", "display_address": ["Tilsiter Str. 1", "25474 Ellerbek", "Germany"]}, "phone": "+49410132629", "display_phone": "+49 4101 32629", "distance": 4415.0941574677445}, {"id": "Vi6Cq54lDLlKrJ6a-o__kQ", "alias": "skylight-caf\u00e9-hamburg", "name": "Skylight Caf\u00e9", "image_url": "https://s3-media2.fl.yelpcdn.com/bphoto/IYka2zqb_aX4nW2G5CoEZg/o.jpg", "is_closed": false, "url": "https://www.yelp.com/biz/skylight-caf%C3%A9-hamburg?adjust_creative=hBJOknVQJ58S5goQyjmwRw&utm_campaign=yelp_api_v3&utm_medium=api_v3_business_search&utm_source=hBJOknVQJ58S5goQyjmwRw", "review_count": 2, "categories": [{"alias": "restaurants", "title": "Restaurants"}], "rating": 3.5, "coordinates": {"latitude": 53.5898, "longitude": 9.89875}, "transactions": [], "location": {"address1": "Barclaycard Arena", "address2": "Sylvesterallee 10", "address3": null, "city": "Hamburg", "zip_code": "22525", "country": "DE", "state": "HH", "display_address": ["Barclaycard Arena", "Sylvesterallee 10", "22525 Hamburg", "Germany"]}, "phone": "+494088163400", "display_phone": "+49 40 88163400", "distance": 2663.997920626303}, {"id": "iYKmO6fEm_pL7LNwhKUTWw", "alias": "mcdonalds-hamburg-8", "name": "McDonald's", "image_url": "https://s3-media1.fl.yelpcdn.com/bphoto/Na0ZyD0Skh8m8SUSDV5aFw/o.jpg", "is_closed": false, "url": "https://www.yelp.com/biz/mcdonalds-hamburg-8?adjust_creative=hBJOknVQJ58S5goQyjmwRw&utm_campaign=yelp_api_v3&utm_medium=api_v3_business_search&utm_source=hBJOknVQJ58S5goQyjmwRw", "review_count": 10, "categories": [{"alias": "hotdogs", "title": "Fast Food"}, {"alias": "burgers", "title": "Burgers"}], "rating": 2.5, "coordinates": {"latitude": 53.58786, "longitude": 9.87584}, "transactions": [], "price": "\u20ac\u20ac", "location": {"address1": "Luruper Hauptstr. 97", "address2": null, "address3": null, "city": "Hamburg", "zip_code": "22547", "country": "DE", "state": "HH", "display_address": ["Luruper Hauptstr. 97", "22547 Hamburg", "Germany"]}, "phone": "+49408323122", "display_phone": "+49 40 8323122", "distance": 2548.2214363675857}, {"id": "bLto2fbxF4Mn0J2e6NrElQ", "alias": "quick-imbiss-hamburg", "name": "Quick Imbiss", "image_url": "https://s3-media2.fl.yelpcdn.com/bphoto/7TxqeoxsfUqukMAh0iLiQg/o.jpg", "is_closed": false, "url": "https://www.yelp.com/biz/quick-imbiss-hamburg?adjust_creative=hBJOknVQJ58S5goQyjmwRw&utm_campaign=yelp_api_v3&utm_medium=api_v3_business_search&utm_source=hBJOknVQJ58S5goQyjmwRw", "review_count": 6, "categories": [{"alias": "foodstands", "title": "Food Stands"}], "rating": 3.0, "coordinates": {"latitude": 53.608484, "longitude": 9.903575}, "transactions": [], "price": "\u20ac\u20ac", "location": {"address1": "Eidelstedter Platz 9", "address2": "", "address3": "", "city": "Hamburg", "zip_code": "22523", "country": "DE", "state": "HH", "display_address": ["Eidelstedter Platz 9", "22523 Hamburg", "Germany"]}, "phone": "+49405705455", "display_phone": "+49 40 5705455", "distance": 1647.599359903152}, {"id": "plX5GeRy2oZwGICcURrxzQ", "alias": "lese-kultur-caf\u00e9-hamburg", "name": "Lese-Kultur-Caf\u00e9", "image_url": "", "is_closed": false, "url": "https://www.yelp.com/biz/lese-kultur-caf%C3%A9-hamburg?adjust_creative=hBJOknVQJ58S5goQyjmwRw&utm_campaign=yelp_api_v3&utm_medium=api_v3_business_search&utm_source=hBJOknVQJ58S5goQyjmwRw", "review_count": 1, "categories": [{"alias": "cafes", "title": "Cafes"}], "rating": 5.0, "coordinates": {"latitude": 53.595922, "longitude": 9.872672}, "transactions": [], "location": {"address1": "Stadtteilhaus Lurup", "address2": "B\u00f6verstland 38", "address3": null, "city": "Hamburg", "zip_code": "22547", "country": "DE", "state": "HH", "display_address": ["Stadtteilhaus Lurup", "B\u00f6verstland 38", "22547 Hamburg", "Germany"]}, "phone": "+494087974116", "display_phone": "+49 40 87974116", "distance": 1688.129424251758}, {"id": "5M9UAgzkeIS4M1gcysM4OA", "alias": "klempaus-biergarten-an-der-milchhalle-hamburg", "name": "Klempau's Biergarten An Der Milchhalle", "image_url": "https://s3-media2.fl.yelpcdn.com/bphoto/n19eNGZCEZVk8kmsXAYWbw/o.jpg", "is_closed": false, "url": "https://www.yelp.com/biz/klempaus-biergarten-an-der-milchhalle-hamburg?adjust_creative=hBJOknVQJ58S5goQyjmwRw&utm_campaign=yelp_api_v3&utm_medium=api_v3_business_search&utm_source=hBJOknVQJ58S5goQyjmwRw", "review_count": 11, "categories": [{"alias": "german", "title": "German"}, {"alias": "beergarden", "title": "Beer Garden"}], "rating": 3.5, "coordinates": {"latitude": 53.577844, "longitude": 9.898028}, "transactions": [], "price": "\u20ac\u20ac", "location": {"address1": "August-Kirch-Str. 55", "address2": "", "address3": "", "city": "Hamburg", "zip_code": "22525", "country": "DE", "state": "HH", "display_address": ["August-Kirch-Str. 55", "22525 Hamburg", "Germany"]}, "phone": "+491737949921", "display_phone": "+49 173 7949921", "distance": 3860.951174059123}, {"id": "ASfFYjn9SicRSavc1zrZPg", "alias": "hornbach-grill-hamburg", "name": "Hornbach Grill", "image_url": "https://s3-media4.fl.yelpcdn.com/bphoto/PkkwVnRH-lIuZSDEbDfuBQ/o.jpg", "is_closed": false, "url": "https://www.yelp.com/biz/hornbach-grill-hamburg?adjust_creative=hBJOknVQJ58S5goQyjmwRw&utm_campaign=yelp_api_v3&utm_medium=api_v3_business_search&utm_source=hBJOknVQJ58S5goQyjmwRw", "review_count": 1, "categories": [{"alias": "german", "title": "German"}], "rating": 4.0, "coordinates": {"latitude": 53.6145788717666, "longitude": 9.90395821630955}, "transactions": [], "location": {"address1": "Hornbach Baumarkt", "address2": "Hosteiner Chausee 49", "address3": "", "city": "Hamburg", "zip_code": "22523", "country": "DE", "state": "HH", "display_address": ["Hornbach Baumarkt", "Hosteiner Chausee 49", "22523 Hamburg", "Germany"]}, "phone": "+494025330180", "display_phone": "+49 40 25330180", "distance": 1711.6733213508712}, {"id": "zR-dbwR5pqF3-A9z48W-FA", "alias": "kings-d\u00f6ner-hamburg", "name": "King's D\u00f6ner", "image_url": "", "is_closed": false, "url": "https://www.yelp.com/biz/kings-d%C3%B6ner-hamburg?adjust_creative=hBJOknVQJ58S5goQyjmwRw&utm_campaign=yelp_api_v3&utm_medium=api_v3_business_search&utm_source=hBJOknVQJ58S5goQyjmwRw", "review_count": 2, "categories": [{"alias": "kebab", "title": "Kebab"}], "rating": 4.0, "coordinates": {"latitude": 53.6088, "longitude": 9.9017}, "transactions": [], "location": {"address1": "Lohkampstr. 11", "address2": null, "address3": null, "city": "Hamburg", "zip_code": "22523", "country": "DE", "state": "HH", "display_address": ["Lohkampstr. 11", "22523 Hamburg", "Germany"]}, "phone": "+49405709577", "display_phone": "+49 40 5709577", "distance": 1520.1814187647333}, {"id": "DsTRHxCt-xYMRBYR2_JkHQ", "alias": "hsv-rundgrill-hamburg", "name": "HSV Rundgrill", "image_url": "https://s3-media3.fl.yelpcdn.com/bphoto/t0r64w5qLLG-9ac2-5VMSA/o.jpg", "is_closed": false, "url": "https://www.yelp.com/biz/hsv-rundgrill-hamburg?adjust_creative=hBJOknVQJ58S5goQyjmwRw&utm_campaign=yelp_api_v3&utm_medium=api_v3_business_search&utm_source=hBJOknVQJ58S5goQyjmwRw", "review_count": 2, "categories": [{"alias": "foodstands", "title": "Food Stands"}], "rating": 5.0, "coordinates": {"latitude": 53.5909, "longitude": 9.90427}, "transactions": [], "price": "\u20ac", "location": {"address1": "Schnackenburgallee 151", "address2": null, "address3": null, "city": "Hamburg", "zip_code": "22525", "country": "DE", "state": "HH", "display_address": ["Schnackenburgallee 151", "22525 Hamburg", "Germany"]}, "phone": "", "display_phone": "", "distance": 2762.769259462972}, {"id": "ozxgOBASq5cTOk2a9FuXyQ", "alias": "picknick-imbi\u00df-hamburg-2", "name": "Picknick Imbi\u00df", "image_url": "https://s3-media2.fl.yelpcdn.com/bphoto/VDt3Pqg84SKhaOcpm1YRHg/o.jpg", "is_closed": false, "url": "https://www.yelp.com/biz/picknick-imbi%C3%9F-hamburg-2?adjust_creative=hBJOknVQJ58S5goQyjmwRw&utm_campaign=yelp_api_v3&utm_medium=api_v3_business_search&utm_source=hBJOknVQJ58S5goQyjmwRw", "review_count": 11, "categories": [{"alias": "food", "title": "Food"}, {"alias": "hotdogs", "title": "Fast Food"}], "rating": 3.0, "coordinates": {"latitude": 53.5842, "longitude": 9.89507}, "transactions": [], "price": "\u20ac", "location": {"address1": "Hellgrundweg 2", "address2": null, "address3": null, "city": "Hamburg", "zip_code": "22525", "country": "DE", "state": "HH", "display_address": ["Hellgrundweg 2", "22525 Hamburg", "Germany"]}, "phone": "+4940845650", "display_phone": "+49 40 845650", "distance": 3129.566901276313}, {"id": "zmrzvZgw72pIRKgvldZIdQ", "alias": "nordsee-hamburg-17", "name": "Nordsee", "image_url": "https://s3-media3.fl.yelpcdn.com/bphoto/HmIUhr8CQeH1hSVijfJdEg/o.jpg", "is_closed": false, "url": "https://www.yelp.com/biz/nordsee-hamburg-17?adjust_creative=hBJOknVQJ58S5goQyjmwRw&utm_campaign=yelp_api_v3&utm_medium=api_v3_business_search&utm_source=hBJOknVQJ58S5goQyjmwRw", "review_count": 4, "categories": [{"alias": "fishmonger", "title": "Fishmonger"}, {"alias": "fischbroetchen", "title": "Fischbroetchen"}], "rating": 2.5, "coordinates": {"latitude": 53.571, "longitude": 9.86221}, "transactions": [], "price": "\u20ac\u20ac\u20ac", "location": {"address1": "Elbe Einkaufszentrum", "address2": "Osdorfer Landstr. 131 - 135", "address3": null, "city": "Hamburg", "zip_code": "22609", "country": "DE", "state": "HH", "display_address": ["Elbe Einkaufszentrum", "Osdorfer Landstr. 131 - 135", "22609 Hamburg", "Germany"]}, "phone": "+494080783700", "display_phone": "+49 40 80783700", "distance": 4544.082682879387}, {"id": "MdXVTDBp0qb2fzp-AR6U3A", "alias": "oh-its-fresh-hamburg-15", "name": "Oh It's Fresh", "image_url": "https://s3-media4.fl.yelpcdn.com/bphoto/e7-YVjyWd562Ts1IRPAp0A/o.jpg", "is_closed": false, "url": "https://www.yelp.com/biz/oh-its-fresh-hamburg-15?adjust_creative=hBJOknVQJ58S5goQyjmwRw&utm_campaign=yelp_api_v3&utm_medium=api_v3_business_search&utm_source=hBJOknVQJ58S5goQyjmwRw", "review_count": 1, "categories": [{"alias": "cafes", "title": "Cafes"}], "rating": 4.0, "coordinates": {"latitude": 53.5694696030728, "longitude": 9.8995341346945}, "transactions": [], "location": {"address1": "Theodorstr. 48", "address2": "", "address3": "", "city": "Hamburg", "zip_code": "22761", "country": "DE", "state": "HH", "display_address": ["Theodorstr. 48", "22761 Hamburg", "Germany"]}, "phone": "+494027867390", "display_phone": "+49 40 27867390", "distance": 4778.043916690554}, {"id": "0bx1_ob51GPbGzPvBv8oTQ", "alias": "yak-asia-imbiss-hamburg-2", "name": "Yak Asia Imbiss", "image_url": "https://s3-media3.fl.yelpcdn.com/bphoto/kGHf_jVgeEF_MnvruU3yyA/o.jpg", "is_closed": false, "url": "https://www.yelp.com/biz/yak-asia-imbiss-hamburg-2?adjust_creative=hBJOknVQJ58S5goQyjmwRw&utm_campaign=yelp_api_v3&utm_medium=api_v3_business_search&utm_source=hBJOknVQJ58S5goQyjmwRw", "review_count": 18, "categories": [{"alias": "foodstands", "title": "Food Stands"}, {"alias": "panasian", "title": "Pan Asian"}], "rating": 2.5, "coordinates": {"latitude": 53.6067, "longitude": 9.90184}, "transactions": [], "price": "\u20ac\u20ac", "location": {"address1": "Elbgaustr. 28", "address2": null, "address3": null, "city": "Hamburg", "zip_code": "22523", "country": "DE", "state": "HH", "display_address": ["Elbgaustr. 28", "22523 Hamburg", "Germany"]}, "phone": "+494053206206", "display_phone": "+49 40 53206206", "distance": 1577.86518047493}, {"id": "guS8lV3LTO-qRcW9XUNthQ", "alias": "sushi-factory-hamburg-3", "name": "Sushi Factory", "image_url": "https://s3-media3.fl.yelpcdn.com/bphoto/msX7dvWKK0oHQdLyjIorQA/o.jpg", "is_closed": false, "url": "https://www.yelp.com/biz/sushi-factory-hamburg-3?adjust_creative=hBJOknVQJ58S5goQyjmwRw&utm_campaign=yelp_api_v3&utm_medium=api_v3_business_search&utm_source=hBJOknVQJ58S5goQyjmwRw", "review_count": 7, "categories": [{"alias": "sushi", "title": "Sushi Bars"}], "rating": 3.5, "coordinates": {"latitude": 53.56998, "longitude": 9.86136}, "transactions": [], "location": {"address1": "Julius-Brecht-Stra\u00dfe", "address2": "", "address3": "", "city": "Hamburg", "zip_code": "22609", "country": "DE", "state": "HH", "display_address": ["Julius-Brecht-Stra\u00dfe", "22609 Hamburg", "Germany"]}, "phone": "+494076993345", "display_phone": "+49 40 76993345", "distance": 4652.755881086014}, {"id": "SVlDjez3scj2-_ndAMrp_A", "alias": "eis-baron-hamburg", "name": "Eis-Baron", "image_url": "", "is_closed": false, "url": "https://www.yelp.com/biz/eis-baron-hamburg?adjust_creative=hBJOknVQJ58S5goQyjmwRw&utm_campaign=yelp_api_v3&utm_medium=api_v3_business_search&utm_source=hBJOknVQJ58S5goQyjmwRw", "review_count": 4, "categories": [{"alias": "icecream", "title": "Ice Cream & Frozen Yogurt"}, {"alias": "waffles", "title": "Waffles"}, {"alias": "hotdogs", "title": "Fast Food"}], "rating": 2.0, "coordinates": {"latitude": 53.591814, "longitude": 9.873827}, "transactions": [], "price": "\u20ac", "location": {"address1": "Eckhoffplatz", "address2": "", "address3": "", "city": "Hamburg", "zip_code": "22547", "country": "DE", "state": "HH", "display_address": ["Eckhoffplatz", "22547 Hamburg", "Germany"]}, "phone": "", "display_phone": "", "distance": 2120.909204675845}, {"id": "J2kq2Y68b5-PIvSzN_ek6g", "alias": "russano-hamburg", "name": "Russano", "image_url": "https://s3-media4.fl.yelpcdn.com/bphoto/VjxtNIpe1LhWgeKmIY-9og/o.jpg", "is_closed": false, "url": "https://www.yelp.com/biz/russano-hamburg?adjust_creative=hBJOknVQJ58S5goQyjmwRw&utm_campaign=yelp_api_v3&utm_medium=api_v3_business_search&utm_source=hBJOknVQJ58S5goQyjmwRw", "review_count": 11, "categories": [{"alias": "italian", "title": "Italian"}, {"alias": "bars", "title": "Bars"}, {"alias": "pizza", "title": "Pizza"}], "rating": 2.0, "coordinates": {"latitude": 53.57, "longitude": 9.86168}, "transactions": [], "price": "\u20ac\u20ac", "location": {"address1": "Julius-Brecht-Str. 6", "address2": "", "address3": null, "city": "Hamburg", "zip_code": "22609", "country": "DE", "state": "HH", "display_address": ["Julius-Brecht-Str. 6", "22609 Hamburg", "Germany"]}, "phone": "+494020908436", "display_phone": "+49 40 20908436", "distance": 4660.445706644565}, {"id": "Z8J3OywtEHYtZhorPrkqgw", "alias": "stockhausen-imbiss-rellingen", "name": "Stockhausen Imbiss", "image_url": "https://s3-media1.fl.yelpcdn.com/bphoto/JCxpY7CA011oVtXuuwkI8w/o.jpg", "is_closed": false, "url": "https://www.yelp.com/biz/stockhausen-imbiss-rellingen?adjust_creative=hBJOknVQJ58S5goQyjmwRw&utm_campaign=yelp_api_v3&utm_medium=api_v3_business_search&utm_source=hBJOknVQJ58S5goQyjmwRw", "review_count": 10, "categories": [{"alias": "hotdogs", "title": "Fast Food"}], "rating": 4.0, "coordinates": {"latitude": 53.6302548, "longitude": 9.8798666}, "transactions": [], "price": "\u20ac", "location": {"address1": "Siemensstr. 43", "address2": "", "address3": null, "city": "Rellingen", "zip_code": "25462", "country": "DE", "state": "SH", "display_address": ["Siemensstr. 43", "25462 Rellingen", "Germany"]}, "phone": "+49410130200", "display_phone": "+49 4101 30200", "distance": 2180.754236437267}, {"id": "EmGEQs9eV50eFfmhr0BAcQ", "alias": "kings-croque-hamburg", "name": "Kings Croque", "image_url": "https://s3-media4.fl.yelpcdn.com/bphoto/qcZJa7EJf8CytaRpLFu-kw/o.jpg", "is_closed": false, "url": "https://www.yelp.com/biz/kings-croque-hamburg?adjust_creative=hBJOknVQJ58S5goQyjmwRw&utm_campaign=yelp_api_v3&utm_medium=api_v3_business_search&utm_source=hBJOknVQJ58S5goQyjmwRw", "review_count": 6, "categories": [{"alias": "hotdogs", "title": "Fast Food"}, {"alias": "sandwiches", "title": "Sandwiches"}], "rating": 2.5, "coordinates": {"latitude": 53.5733, "longitude": 9.89329}, "transactions": [], "location": {"address1": "Luruper Chaussee 129a", "address2": null, "address3": null, "city": "Hamburg", "zip_code": "22761", "country": "DE", "state": "HH", "display_address": ["Luruper Chaussee 129a", "22761 Hamburg", "Germany"]}, "phone": "+494087601721", "display_phone": "+49 40 87601721", "distance": 4260.973782994729}, {"id": "TCAyvClotOIrJIN1Tr2tQA", "alias": "schlemmermeyer-hamburg-6", "name": "Schlemmermeyer", "image_url": "https://s3-media3.fl.yelpcdn.com/bphoto/JyUiMjJCosgU_dC1dOvFlQ/o.jpg", "is_closed": false, "url": "https://www.yelp.com/biz/schlemmermeyer-hamburg-6?adjust_creative=hBJOknVQJ58S5goQyjmwRw&utm_campaign=yelp_api_v3&utm_medium=api_v3_business_search&utm_source=hBJOknVQJ58S5goQyjmwRw", "review_count": 3, "categories": [{"alias": "delicatessen", "title": "Delicatessen"}, {"alias": "foodstands", "title": "Food Stands"}, {"alias": "meats", "title": "Meat Shops"}], "rating": 3.5, "coordinates": {"latitude": 53.5702389609834, "longitude": 9.86248648717196}, "transactions": [], "location": {"address1": "Osdorfer Landstr. 131 - 135", "address2": "", "address3": null, "city": "Hamburg", "zip_code": "22609", "country": "DE", "state": "HH", "display_address": ["Osdorfer Landstr. 131 - 135", "22609 Hamburg", "Germany"]}, "phone": "+4940801689", "display_phone": "+49 40 801689", "distance": 4621.936615900894}, {"id": "-NZPbquHmoL-yxAOTRGEwA", "alias": "cafe-engelchen-hamburg-5", "name": "Cafe Engelchen", "image_url": "https://s3-media1.fl.yelpcdn.com/bphoto/ACkpYGK3h-4G6FF3AxyjXQ/o.jpg", "is_closed": false, "url": "https://www.yelp.com/biz/cafe-engelchen-hamburg-5?adjust_creative=hBJOknVQJ58S5goQyjmwRw&utm_campaign=yelp_api_v3&utm_medium=api_v3_business_search&utm_source=hBJOknVQJ58S5goQyjmwRw", "review_count": 6, "categories": [{"alias": "cafes", "title": "Cafes"}], "rating": 2.5, "coordinates": {"latitude": 53.5708614, "longitude": 9.8620963}, "transactions": [], "price": "\u20ac\u20ac\u20ac\u20ac", "location": {"address1": "Osdorfer Landstr.  131", "address2": null, "address3": null, "city": "Hamburg", "zip_code": "22609", "country": "DE", "state": "HH", "display_address": ["Osdorfer Landstr.  131", "22609 Hamburg", "Germany"]}, "phone": "+49408007367", "display_phone": "+49 40 8007367", "distance": 4560.853856974791}, {"id": "WMBRQsQiAdpBzM3RezcJcA", "alias": "burger-king-hamburg-5", "name": "Burger King", "image_url": "https://s3-media2.fl.yelpcdn.com/bphoto/lmiCashdsUkEuXxEQf2xCQ/o.jpg", "is_closed": false, "url": "https://www.yelp.com/biz/burger-king-hamburg-5?adjust_creative=hBJOknVQJ58S5goQyjmwRw&utm_campaign=yelp_api_v3&utm_medium=api_v3_business_search&utm_source=hBJOknVQJ58S5goQyjmwRw", "review_count": 15, "categories": [{"alias": "hotdogs", "title": "Fast Food"}, {"alias": "burgers", "title": "Burgers"}], "rating": 2.0, "coordinates": {"latitude": 53.5707, "longitude": 9.87208}, "transactions": [], "price": "\u20ac\u20ac", "location": {"address1": "osdorfer landstr. 25", "address2": null, "address3": null, "city": "Hamburg", "zip_code": "22607", "country": "DE", "state": "HH", "display_address": ["osdorfer landstr. 25", "22607 Hamburg", "Germany"]}, "phone": "+494081992222", "display_phone": "+49 40 81992222", "distance": 4464.961345184262}, {"id": "fsPYc9Qk2oRyfdXbT4xxvA", "alias": "long-food-hamburg-3", "name": "Long Food", "image_url": "https://s3-media2.fl.yelpcdn.com/bphoto/FCJS_qCf5eQriqfSOTACGQ/o.jpg", "is_closed": false, "url": "https://www.yelp.com/biz/long-food-hamburg-3?adjust_creative=hBJOknVQJ58S5goQyjmwRw&utm_campaign=yelp_api_v3&utm_medium=api_v3_business_search&utm_source=hBJOknVQJ58S5goQyjmwRw", "review_count": 6, "categories": [{"alias": "indpak", "title": "Indian"}], "rating": 3.0, "coordinates": {"latitude": 53.571097, "longitude": 9.862118}, "transactions": [], "price": "\u20ac", "location": {"address1": "Osdorfer Landstr. 131 - 135", "address2": "", "address3": "EG", "city": "Hamburg", "zip_code": "22609", "country": "DE", "state": "HH", "display_address": ["Osdorfer Landstr. 131 - 135", "EG", "22609 Hamburg", "Germany"]}, "phone": "+494080020291", "display_phone": "+49 40 80020291", "distance": 4535.0940731331275}, {"id": "PRNi969cArwqNCpob8xw1w", "alias": "eisc\u00e1fe-kind-ellerbek-2", "name": "Eisc\u00e1fe Kind", "image_url": "", "is_closed": false, "url": "https://www.yelp.com/biz/eisc%C3%A1fe-kind-ellerbek-2?adjust_creative=hBJOknVQJ58S5goQyjmwRw&utm_campaign=yelp_api_v3&utm_medium=api_v3_business_search&utm_source=hBJOknVQJ58S5goQyjmwRw", "review_count": 4, "categories": [{"alias": "icecream", "title": "Ice Cream & Frozen Yogurt"}, {"alias": "restaurants", "title": "Restaurants"}], "rating": 4.0, "coordinates": {"latitude": 53.63892, "longitude": 9.89387}, "transactions": [], "price": "\u20ac", "location": {"address1": "Pinneberger Str. 157", "address2": null, "address3": null, "city": "Ellerbek", "zip_code": "25474", "country": "DE", "state": "SH", "display_address": ["Pinneberger Str. 157", "25474 Ellerbek", "Germany"]}, "phone": "+49410136239", "display_phone": "+49 4101 36239", "distance": 3299.9248051928284}, {"id": "5puKQGuSgJrGgsvIZWx7vw", "alias": "dailys-hamburg", "name": "Daily's", "image_url": "https://s3-media4.fl.yelpcdn.com/bphoto/K-kwdREVjIJOZFSNSjz8qg/o.jpg", "is_closed": false, "url": "https://www.yelp.com/biz/dailys-hamburg?adjust_creative=hBJOknVQJ58S5goQyjmwRw&utm_campaign=yelp_api_v3&utm_medium=api_v3_business_search&utm_source=hBJOknVQJ58S5goQyjmwRw", "review_count": 3, "categories": [{"alias": "salad", "title": "Salad"}, {"alias": "juicebars", "title": "Juice Bars & Smoothies"}], "rating": 3.0, "coordinates": {"latitude": 53.57138, "longitude": 9.86229}, "transactions": [], "price": "\u20ac\u20ac", "location": {"address1": "Osdorfer Landstr. 131", "address2": "", "address3": "", "city": "Hamburg", "zip_code": "22609", "country": "DE", "state": "HH", "display_address": ["Osdorfer Landstr. 131", "22609 Hamburg", "Germany"]}, "phone": "+494086693377", "display_phone": "+49 40 86693377", "distance": 4638.446302211133}, {"id": "BSa9d3B7WA_5rBFzcQ_oow", "alias": "burger-king-hamburg-11", "name": "Burger King", "image_url": "https://s3-media2.fl.yelpcdn.com/bphoto/HIvNepwJvfUK7UjLuWZ_Og/o.jpg", "is_closed": false, "url": "https://www.yelp.com/biz/burger-king-hamburg-11?adjust_creative=hBJOknVQJ58S5goQyjmwRw&utm_campaign=yelp_api_v3&utm_medium=api_v3_business_search&utm_source=hBJOknVQJ58S5goQyjmwRw", "review_count": 5, "categories": [{"alias": "hotdogs", "title": "Fast Food"}, {"alias": "burgers", "title": "Burgers"}], "rating": 2.0, "coordinates": {"latitude": 53.57, "longitude": 9.8618}, "transactions": [], "price": "\u20ac", "location": {"address1": "Julius-Brecht-Str. 6", "address2": null, "address3": null, "city": "Hamburg", "zip_code": "22609", "country": "DE", "state": "HH", "display_address": ["Julius-Brecht-Str. 6", "22609 Hamburg", "Germany"]}, "phone": "+494086627756", "display_phone": "+49 40 86627756", "distance": 4658.524117700534}, {"id": "fNU2DnLXg9_k6bqsu0YoHQ", "alias": "nur-hier-hamburg-24", "name": "Nur Hier", "image_url": "https://s3-media1.fl.yelpcdn.com/bphoto/Q4m3Cxa12ZrcBvKBmoRR7w/o.jpg", "is_closed": false, "url": "https://www.yelp.com/biz/nur-hier-hamburg-24?adjust_creative=hBJOknVQJ58S5goQyjmwRw&utm_campaign=yelp_api_v3&utm_medium=api_v3_business_search&utm_source=hBJOknVQJ58S5goQyjmwRw", "review_count": 2, "categories": [{"alias": "bakeries", "title": "Bakeries"}, {"alias": "cafes", "title": "Cafes"}], "rating": 2.5, "coordinates": {"latitude": 53.608535, "longitude": 9.903662}, "transactions": [], "price": "\u20ac\u20ac\u20ac", "location": {"address1": "Eidelstedter Platz 9", "address2": "", "address3": null, "city": "Hamburg", "zip_code": "22523", "country": "DE", "state": "HH", "display_address": ["Eidelstedter Platz 9", "22523 Hamburg", "Germany"]}, "phone": "+49405707754", "display_phone": "+49 40 5707754", "distance": 1652.4589793228215}, {"id": "5mEC8n__Id_qsF9Vuf_JUA", "alias": "segafredo-hamburg-2", "name": "Segafredo", "image_url": "https://s3-media1.fl.yelpcdn.com/bphoto/7gDVZPKVoqyAkEF9p8W4lg/o.jpg", "is_closed": false, "url": "https://www.yelp.com/biz/segafredo-hamburg-2?adjust_creative=hBJOknVQJ58S5goQyjmwRw&utm_campaign=yelp_api_v3&utm_medium=api_v3_business_search&utm_source=hBJOknVQJ58S5goQyjmwRw", "review_count": 1, "categories": [{"alias": "cafes", "title": "Cafes"}], "rating": 2.0, "coordinates": {"latitude": 53.5717948, "longitude": 9.8586956}, "transactions": [], "location": {"address1": "Osdorfer Landstr. 113", "address2": "", "address3": null, "city": "Hamburg", "zip_code": "22609", "country": "DE", "state": "HH", "display_address": ["Osdorfer Landstr. 113", "22609 Hamburg", "Germany"]}, "phone": "", "display_phone": "", "distance": 4521.170209639786}, {"id": "e4Yjy9ELavadkQm5m5W5rA", "alias": "backeria-bistro-hamburg", "name": "Backeria Bistro", "image_url": "https://s3-media2.fl.yelpcdn.com/bphoto/kY1g_YIaMA0aqaZQJ-hBBQ/o.jpg", "is_closed": false, "url": "https://www.yelp.com/biz/backeria-bistro-hamburg?adjust_creative=hBJOknVQJ58S5goQyjmwRw&utm_campaign=yelp_api_v3&utm_medium=api_v3_business_search&utm_source=hBJOknVQJ58S5goQyjmwRw", "review_count": 3, "categories": [{"alias": "bistros", "title": "Bistros"}], "rating": 2.5, "coordinates": {"latitude": 53.57138, "longitude": 9.86229}, "transactions": [], "price": "\u20ac", "location": {"address1": "Osdorfer Landstr. 131", "address2": "", "address3": "", "city": "Hamburg", "zip_code": "22609", "country": "DE", "state": "HH", "display_address": ["Osdorfer Landstr. 131", "22609 Hamburg", "Germany"]}, "phone": "+494020908436", "display_phone": "+49 40 20908436", "distance": 4638.446302211133}]