[{"id": "DPHWqly-0ZTcQ_ZKXgnoJA", "alias": "christos-stapelfelder-hof-stapelfeld", "name": "Christos Stapelfelder Hof", "image_url": "https://s3-media2.fl.yelpcdn.com/bphoto/7AqDlyB7Vz__T7qEoF9oZg/o.jpg", "is_closed": false, "url": "https://www.yelp.com/biz/christos-stapelfelder-hof-stapelfeld?adjust_creative=hBJOknVQJ58S5goQyjmwRw&utm_campaign=yelp_api_v3&utm_medium=api_v3_business_search&utm_source=hBJOknVQJ58S5goQyjmwRw", "review_count": 7, "categories": [{"alias": "greek", "title": "Greek"}], "rating": 4.5, "coordinates": {"latitude": 53.60503, "longitude": 10.22139}, "transactions": [], "price": "\u20ac\u20ac", "location": {"address1": "Reinbeker Str. 1", "address2": "", "address3": null, "city": "Stapelfeld", "zip_code": "22145", "country": "DE", "state": "SH", "display_address": ["Reinbeker Str. 1", "22145 Stapelfeld", "Germany"]}, "phone": "+49407355350", "display_phone": "+49 40 7355350", "distance": 2383.4442121428456}, {"id": "QX604mZjK4BAUJhAXs5DYQ", "alias": "rio-grande-ahrensburg", "name": "Rio Grande", "image_url": "https://s3-media4.fl.yelpcdn.com/bphoto/MvZCsqphOAfbxVRfodhgFQ/o.jpg", "is_closed": false, "url": "https://www.yelp.com/biz/rio-grande-ahrensburg?adjust_creative=hBJOknVQJ58S5goQyjmwRw&utm_campaign=yelp_api_v3&utm_medium=api_v3_business_search&utm_source=hBJOknVQJ58S5goQyjmwRw", "review_count": 34, "categories": [{"alias": "steak", "title": "Steakhouses"}, {"alias": "international", "title": "International"}], "rating": 4.0, "coordinates": {"latitude": 53.65755, "longitude": 10.2114999}, "transactions": [], "price": "\u20ac\u20ac", "location": {"address1": "Hamburger Str. 190", "address2": "", "address3": "", "city": "Ahrensburg", "zip_code": "22926", "country": "DE", "state": "SH", "display_address": ["Hamburger Str. 190", "22926 Ahrensburg", "Germany"]}, "phone": "+494102465328", "display_phone": "+49 4102 465328", "distance": 3550.4132395456772}, {"id": "PJxZY6nLTG2hjTUhOFhT4g", "alias": "hotel-zur-windm\u00fchle-stapelfeld", "name": "Hotel zur Windm\u00fchle", "image_url": "https://s3-media3.fl.yelpcdn.com/bphoto/Cp80W94PL_uPIIdnSFVWzw/o.jpg", "is_closed": false, "url": "https://www.yelp.com/biz/hotel-zur-windm%C3%BChle-stapelfeld?adjust_creative=hBJOknVQJ58S5goQyjmwRw&utm_campaign=yelp_api_v3&utm_medium=api_v3_business_search&utm_source=hBJOknVQJ58S5goQyjmwRw", "review_count": 9, "categories": [{"alias": "hotels", "title": "Hotels"}, {"alias": "german", "title": "German"}], "rating": 2.5, "coordinates": {"latitude": 53.6086, "longitude": 10.2359}, "transactions": [], "price": "\u20ac\u20ac", "location": {"address1": "Hauptstr. 99", "address2": null, "address3": null, "city": "Stapelfeld", "zip_code": "22145", "country": "DE", "state": "SH", "display_address": ["Hauptstr. 99", "22145 Stapelfeld", "Germany"]}, "phone": "+4940675070", "display_phone": "+49 40 675070", "distance": 2478.2396606821712}, {"id": "ePi8qRlsS0yIj-vusvLwyw", "alias": "zum-griechen-ahrensburg", "name": "Zum Griechen", "image_url": "https://s3-media2.fl.yelpcdn.com/bphoto/0iWuNO5GwTcWCmPWnTvOSA/o.jpg", "is_closed": false, "url": "https://www.yelp.com/biz/zum-griechen-ahrensburg?adjust_creative=hBJOknVQJ58S5goQyjmwRw&utm_campaign=yelp_api_v3&utm_medium=api_v3_business_search&utm_source=hBJOknVQJ58S5goQyjmwRw", "review_count": 35, "categories": [{"alias": "greek", "title": "Greek"}], "rating": 4.0, "coordinates": {"latitude": 53.665075, "longitude": 10.220437}, "transactions": [], "price": "\u20ac\u20ac", "location": {"address1": "Ohlendamm 1", "address2": "", "address3": "", "city": "Ahrensburg", "zip_code": "22926", "country": "DE", "state": "SH", "display_address": ["Ohlendamm 1", "22926 Ahrensburg", "Germany"]}, "phone": "+4941021404", "display_phone": "+49 4102 1404", "distance": 4410.624911438843}, {"id": "xLilx-iD9unLXTOgGRa5_w", "alias": "bierstein-ahrensburg", "name": "Bierstein", "image_url": "https://s3-media1.fl.yelpcdn.com/bphoto/-05QMTtkK7DmqfDGdwFlhg/o.jpg", "is_closed": false, "url": "https://www.yelp.com/biz/bierstein-ahrensburg?adjust_creative=hBJOknVQJ58S5goQyjmwRw&utm_campaign=yelp_api_v3&utm_medium=api_v3_business_search&utm_source=hBJOknVQJ58S5goQyjmwRw", "review_count": 1, "categories": [{"alias": "restaurants", "title": "Restaurants"}, {"alias": "musicvenues", "title": "Music Venues"}], "rating": 4.0, "coordinates": {"latitude": 53.6408144411685, "longitude": 10.2171700833979}, "transactions": [], "location": {"address1": "D\u00e4nenweg 10", "address2": "", "address3": null, "city": "Ahrensburg", "zip_code": "22926", "country": "DE", "state": "SH", "display_address": ["D\u00e4nenweg 10", "22926 Ahrensburg", "Germany"]}, "phone": "+491712447081", "display_phone": "+49 171 2447081", "distance": 1714.6078376619264}, {"id": "xSZO3bg3cyXdB3cEAblykQ", "alias": "la-casetta-ahrensburg", "name": "La Casetta", "image_url": "https://s3-media4.fl.yelpcdn.com/bphoto/LljVDlDhmpcwSsRQeyK1XA/o.jpg", "is_closed": false, "url": "https://www.yelp.com/biz/la-casetta-ahrensburg?adjust_creative=hBJOknVQJ58S5goQyjmwRw&utm_campaign=yelp_api_v3&utm_medium=api_v3_business_search&utm_source=hBJOknVQJ58S5goQyjmwRw", "review_count": 4, "categories": [{"alias": "italian", "title": "Italian"}, {"alias": "venues", "title": "Venues & Event Spaces"}], "rating": 4.0, "coordinates": {"latitude": 53.6670299, "longitude": 10.22166}, "transactions": [], "location": {"address1": "Rantzaustr. 136", "address2": null, "address3": "", "city": "Ahrensburg", "zip_code": "22926", "country": "DE", "state": "SH", "display_address": ["Rantzaustr. 136", "22926 Ahrensburg", "Germany"]}, "phone": "+494102205573", "display_phone": "+49 4102 205573", "distance": 4637.6592859799575}, {"id": "9eBv6GtbwqA4gGBq85AqAA", "alias": "mcdonalds-hamburg-55", "name": "McDonald's", "image_url": "https://s3-media3.fl.yelpcdn.com/bphoto/JeDYo2mONIAZAIE6XTp7yw/o.jpg", "is_closed": false, "url": "https://www.yelp.com/biz/mcdonalds-hamburg-55?adjust_creative=hBJOknVQJ58S5goQyjmwRw&utm_campaign=yelp_api_v3&utm_medium=api_v3_business_search&utm_source=hBJOknVQJ58S5goQyjmwRw", "review_count": 18, "categories": [{"alias": "hotdogs", "title": "Fast Food"}, {"alias": "burgers", "title": "Burgers"}], "rating": 3.0, "coordinates": {"latitude": 53.60832, "longitude": 10.19007}, "transactions": [], "price": "\u20ac\u20ac", "location": {"address1": "Sieker Landstr. 126", "address2": null, "address3": null, "city": "Hamburg", "zip_code": "22143", "country": "DE", "state": "HH", "display_address": ["Sieker Landstr. 126", "22143 Hamburg", "Germany"]}, "phone": "+49406779502", "display_phone": "+49 40 6779502", "distance": 2412.779007978891}, {"id": "3dssdPg3sB9-IpZOh8s-1w", "alias": "hofladen-gut-wulfsdorf-ahrensburg", "name": "Hofladen Gut Wulfsdorf", "image_url": "https://s3-media1.fl.yelpcdn.com/bphoto/M0qSCGfCGzuo-VdDwiOtQg/o.jpg", "is_closed": false, "url": "https://www.yelp.com/biz/hofladen-gut-wulfsdorf-ahrensburg?adjust_creative=hBJOknVQJ58S5goQyjmwRw&utm_campaign=yelp_api_v3&utm_medium=api_v3_business_search&utm_source=hBJOknVQJ58S5goQyjmwRw", "review_count": 6, "categories": [{"alias": "organic_stores", "title": "Organic Stores"}, {"alias": "convenience", "title": "Convenience Stores"}, {"alias": "cafes", "title": "Cafes"}], "rating": 4.5, "coordinates": {"latitude": 53.6592, "longitude": 10.1925}, "transactions": [], "price": "\u20ac\u20ac", "location": {"address1": "Bornkampsweg 39", "address2": null, "address3": null, "city": "Ahrensburg", "zip_code": "22926", "country": "DE", "state": "SH", "display_address": ["Bornkampsweg 39", "22926 Ahrensburg", "Germany"]}, "phone": "+49410232587", "display_phone": "+49 4102 32587", "distance": 3935.030909067337}, {"id": "iSws6BKVmcB6RTBkKY-XVw", "alias": "restaurant-pomodoro-ahrensburg", "name": "Restaurant pomodoro", "image_url": "", "is_closed": false, "url": "https://www.yelp.com/biz/restaurant-pomodoro-ahrensburg?adjust_creative=hBJOknVQJ58S5goQyjmwRw&utm_campaign=yelp_api_v3&utm_medium=api_v3_business_search&utm_source=hBJOknVQJ58S5goQyjmwRw", "review_count": 1, "categories": [{"alias": "italian", "title": "Italian"}], "rating": 5.0, "coordinates": {"latitude": 53.64002, "longitude": 10.21673}, "transactions": [], "location": {"address1": "D\u00e4nenweg 2", "address2": "", "address3": null, "city": "Ahrensburg", "zip_code": "22926", "country": "DE", "state": "SH", "display_address": ["D\u00e4nenweg 2", "22926 Ahrensburg", "Germany"]}, "phone": "+4941029830677", "display_phone": "+49 4102 9830677", "distance": 1603.0653266098102}, {"id": "u3ub5f0MS4qY67Q8XF9ZoA", "alias": "sodemanns-fisch-kutter-nr-1-hamburg", "name": "Sodemann's Fisch-Kutter Nr. 1", "image_url": "https://s3-media3.fl.yelpcdn.com/bphoto/BlysP6fVPaL0eEjKvEbByw/o.jpg", "is_closed": false, "url": "https://www.yelp.com/biz/sodemanns-fisch-kutter-nr-1-hamburg?adjust_creative=hBJOknVQJ58S5goQyjmwRw&utm_campaign=yelp_api_v3&utm_medium=api_v3_business_search&utm_source=hBJOknVQJ58S5goQyjmwRw", "review_count": 3, "categories": [{"alias": "foodtrucks", "title": "Food Trucks"}, {"alias": "fischbroetchen", "title": "Fischbroetchen"}], "rating": 5.0, "coordinates": {"latitude": 53.5537490844727, "longitude": 9.99182987213135}, "transactions": [], "price": "\u20ac\u20ac", "location": {"address1": "", "address2": null, "address3": "", "city": "Hamburg", "zip_code": "", "country": "DE", "state": "HH", "display_address": ["Hamburg", "Germany"]}, "phone": "+491773606663", "display_phone": "+49 177 3606663", "distance": 16619.938669259463}, {"id": "2d5gxj1HG4Ze-tUDiYwwRQ", "alias": "holsteiner-backdiele-ahrensburg", "name": "Holsteiner Backdiele", "image_url": "https://s3-media2.fl.yelpcdn.com/bphoto/-wE8Dh0qNAUN_6BbPtSPXQ/o.jpg", "is_closed": false, "url": "https://www.yelp.com/biz/holsteiner-backdiele-ahrensburg?adjust_creative=hBJOknVQJ58S5goQyjmwRw&utm_campaign=yelp_api_v3&utm_medium=api_v3_business_search&utm_source=hBJOknVQJ58S5goQyjmwRw", "review_count": 1, "categories": [{"alias": "cafes", "title": "Cafes"}, {"alias": "coffee", "title": "Coffee & Tea"}], "rating": 4.0, "coordinates": {"latitude": 53.657, "longitude": 10.2112}, "transactions": [], "location": {"address1": "Hamburger Stra\u00dfe", "address2": null, "address3": null, "city": "Ahrensburg", "zip_code": "22926", "country": "DE", "state": "SH", "display_address": ["Hamburger Stra\u00dfe", "22926 Ahrensburg", "Germany"]}, "phone": "", "display_phone": "", "distance": 3478.295470509874}, {"id": "QuEmoW_Y7Vqhh1qWPreNog", "alias": "fr\u00fchst\u00fccks-stube-ahrensburg", "name": "Fr\u00fchst\u00fccks-Stube", "image_url": "", "is_closed": false, "url": "https://www.yelp.com/biz/fr%C3%BChst%C3%BCcks-stube-ahrensburg?adjust_creative=hBJOknVQJ58S5goQyjmwRw&utm_campaign=yelp_api_v3&utm_medium=api_v3_business_search&utm_source=hBJOknVQJ58S5goQyjmwRw", "review_count": 4, "categories": [{"alias": "cafes", "title": "Cafes"}, {"alias": "coffee", "title": "Coffee & Tea"}], "rating": 5.0, "coordinates": {"latitude": 53.66487, "longitude": 10.22024}, "transactions": [], "location": {"address1": "Waldemar-Bonselsweg 168", "address2": null, "address3": null, "city": "Ahrensburg", "zip_code": "22926", "country": "DE", "state": "SH", "display_address": ["Waldemar-Bonselsweg 168", "22926 Ahrensburg", "Germany"]}, "phone": "+49410230295", "display_phone": "+49 4102 30295", "distance": 4388.161270576185}, {"id": "_8hddWhYIY_DPFMc5yOolg", "alias": "restaurant-rhodos-ahrensburg", "name": "Restaurant Rhodos", "image_url": "https://s3-media2.fl.yelpcdn.com/bphoto/18xUk0FqqKs_o4qeeMDyXg/o.jpg", "is_closed": false, "url": "https://www.yelp.com/biz/restaurant-rhodos-ahrensburg?adjust_creative=hBJOknVQJ58S5goQyjmwRw&utm_campaign=yelp_api_v3&utm_medium=api_v3_business_search&utm_source=hBJOknVQJ58S5goQyjmwRw", "review_count": 26, "categories": [{"alias": "greek", "title": "Greek"}], "rating": 3.0, "coordinates": {"latitude": 53.660141, "longitude": 10.213659}, "transactions": [], "price": "\u20ac\u20ac", "location": {"address1": "Hamburger Str. 170", "address2": "", "address3": "", "city": "Ahrensburg", "zip_code": "22926", "country": "DE", "state": "SH", "display_address": ["Hamburger Str. 170", "22926 Ahrensburg", "Germany"]}, "phone": "+49410258979", "display_phone": "+49 4102 58979", "distance": 3832.8836656017984}, {"id": "d2mtc7YgETaFKEbli95msg", "alias": "bambusgarten-hamburg-3", "name": "Bambusgarten", "image_url": "https://s3-media4.fl.yelpcdn.com/bphoto/QBICO3wxOhAUOB0f56We9g/o.jpg", "is_closed": false, "url": "https://www.yelp.com/biz/bambusgarten-hamburg-3?adjust_creative=hBJOknVQJ58S5goQyjmwRw&utm_campaign=yelp_api_v3&utm_medium=api_v3_business_search&utm_source=hBJOknVQJ58S5goQyjmwRw", "review_count": 29, "categories": [{"alias": "cafes", "title": "Cafes"}], "rating": 2.5, "coordinates": {"latitude": 53.6444, "longitude": 10.19}, "transactions": [], "price": "\u20ac\u20ac", "location": {"address1": "Eulenkrugstr. 190", "address2": null, "address3": null, "city": "Hamburg", "zip_code": "22359", "country": "DE", "state": "HH", "display_address": ["Eulenkrugstr. 190", "22359 Hamburg", "Germany"]}, "phone": "+49405330449190", "display_phone": "+49 40 5330449190", "distance": 2527.5066679868905}, {"id": "APvIA_7ssxgC0atmQEFMcg", "alias": "burgerkultour-food-truck-hamburg-2", "name": "BurgerKultour Food Truck", "image_url": "https://s3-media4.fl.yelpcdn.com/bphoto/KoAuwalMnlAO8139MmdYBQ/o.jpg", "is_closed": false, "url": "https://www.yelp.com/biz/burgerkultour-food-truck-hamburg-2?adjust_creative=hBJOknVQJ58S5goQyjmwRw&utm_campaign=yelp_api_v3&utm_medium=api_v3_business_search&utm_source=hBJOknVQJ58S5goQyjmwRw", "review_count": 3, "categories": [{"alias": "foodtrucks", "title": "Food Trucks"}, {"alias": "burgers", "title": "Burgers"}], "rating": 4.5, "coordinates": {"latitude": 53.57154, "longitude": 9.95575}, "transactions": [], "price": "\u20ac\u20ac", "location": {"address1": "", "address2": "", "address3": "", "city": "Hamburg", "zip_code": "20259", "country": "DE", "state": "HH", "display_address": ["20259 Hamburg", "Germany"]}, "phone": "+4917626055122", "display_phone": "+49 176 26055122", "distance": 17924.51457878921}, {"id": "tKyHGeLv00xm-NtJGra3Kg", "alias": "eis-cafe-chocolat-ahrensburg", "name": "Eis Cafe Chocolat", "image_url": "https://s3-media1.fl.yelpcdn.com/bphoto/wqmYbDRV1BIpTlJFWnLSmg/o.jpg", "is_closed": false, "url": "https://www.yelp.com/biz/eis-cafe-chocolat-ahrensburg?adjust_creative=hBJOknVQJ58S5goQyjmwRw&utm_campaign=yelp_api_v3&utm_medium=api_v3_business_search&utm_source=hBJOknVQJ58S5goQyjmwRw", "review_count": 3, "categories": [{"alias": "cafes", "title": "Cafes"}, {"alias": "coffee", "title": "Coffee & Tea"}], "rating": 4.5, "coordinates": {"latitude": 53.664, "longitude": 10.2206}, "transactions": [], "location": {"address1": "Waldemar-Bonsels-Weg", "address2": null, "address3": null, "city": "Ahrensburg", "zip_code": "22926", "country": "DE", "state": "SH", "display_address": ["Waldemar-Bonsels-Weg", "22926 Ahrensburg", "Germany"]}, "phone": "", "display_phone": "", "distance": 4295.3353940481475}, {"id": "otXAU9fFRpqLYMZYoEgrXQ", "alias": "mcdonalds-ahrensburg", "name": "McDonald's", "image_url": "https://s3-media3.fl.yelpcdn.com/bphoto/oN01eTrfJbmbPw2ErphhjQ/o.jpg", "is_closed": false, "url": "https://www.yelp.com/biz/mcdonalds-ahrensburg?adjust_creative=hBJOknVQJ58S5goQyjmwRw&utm_campaign=yelp_api_v3&utm_medium=api_v3_business_search&utm_source=hBJOknVQJ58S5goQyjmwRw", "review_count": 12, "categories": [{"alias": "hotdogs", "title": "Fast Food"}, {"alias": "burgers", "title": "Burgers"}], "rating": 3.0, "coordinates": {"latitude": 53.6635599, "longitude": 10.2212099}, "transactions": [], "price": "\u20ac\u20ac", "location": {"address1": "Hamburger Str. 159", "address2": null, "address3": null, "city": "Ahrensburg", "zip_code": "22926", "country": "DE", "state": "SH", "display_address": ["Hamburger Str. 159", "22926 Ahrensburg", "Germany"]}, "phone": "+494102821707", "display_phone": "+49 4102 821707", "distance": 4251.873018745965}, {"id": "cGIKCcR0wZszz8VldC2-7g", "alias": "currywerk-hamburg", "name": "curryWERK", "image_url": "https://s3-media4.fl.yelpcdn.com/bphoto/j_ZPQAB6JrAru84VDuLiRA/o.jpg", "is_closed": false, "url": "https://www.yelp.com/biz/currywerk-hamburg?adjust_creative=hBJOknVQJ58S5goQyjmwRw&utm_campaign=yelp_api_v3&utm_medium=api_v3_business_search&utm_source=hBJOknVQJ58S5goQyjmwRw", "review_count": 1, "categories": [{"alias": "foodtrucks", "title": "Food Trucks"}, {"alias": "currysausage", "title": "Curry Sausage"}], "rating": 4.0, "coordinates": {"latitude": 53.5498886108398, "longitude": 9.94732189178467}, "transactions": [], "price": "\u20ac\u20ac", "location": {"address1": "", "address2": "", "address3": "", "city": "Hamburg", "zip_code": "22767", "country": "DE", "state": "HH", "display_address": ["22767 Hamburg", "Germany"]}, "phone": "+4917632443433", "display_phone": "+49 176 32443433", "distance": 19718.001101304275}]