[{"id": "iwXSKpZOGyaWXg1anpHhGg", "alias": "olive-hamburg-2", "name": "Olive", "image_url": "https://s3-media3.fl.yelpcdn.com/bphoto/eQlaod-mJn-8tNsAOdv_Fw/o.jpg", "is_closed": false, "url": "https://www.yelp.com/biz/olive-hamburg-2?adjust_creative=hBJOknVQJ58S5goQyjmwRw&utm_campaign=yelp_api_v3&utm_medium=api_v3_business_search&utm_source=hBJOknVQJ58S5goQyjmwRw", "review_count": 52, "categories": [{"alias": "greek", "title": "Greek"}, {"alias": "mediterranean", "title": "Mediterranean"}], "rating": 4.5, "coordinates": {"latitude": 53.64738, "longitude": 10.16931}, "transactions": [], "price": "\u20ac\u20ac", "location": {"address1": "Eulenkrugstr. 66", "address2": "", "address3": "", "city": "Hamburg", "zip_code": "22359", "country": "DE", "state": "HH", "display_address": ["Eulenkrugstr. 66", "22359 Hamburg", "Germany"]}, "phone": "+494064532649", "display_phone": "+49 40 64532649", "distance": 2618.901470968812}, {"id": "gnp5pdA_TxC3aFsnA-LlgA", "alias": "adria-grill-hamburg", "name": "Adria Grill", "image_url": "https://s3-media3.fl.yelpcdn.com/bphoto/jFEMqyesLufR1vwtNQe2nQ/o.jpg", "is_closed": false, "url": "https://www.yelp.com/biz/adria-grill-hamburg?adjust_creative=hBJOknVQJ58S5goQyjmwRw&utm_campaign=yelp_api_v3&utm_medium=api_v3_business_search&utm_source=hBJOknVQJ58S5goQyjmwRw", "review_count": 16, "categories": [{"alias": "serbocroatian", "title": "Serbo Croatian"}], "rating": 4.0, "coordinates": {"latitude": 53.622511493136, "longitude": 10.1650228334827}, "transactions": [], "price": "\u20ac\u20ac", "location": {"address1": "Saseler Str. 1", "address2": null, "address3": null, "city": "Hamburg", "zip_code": "22145", "country": "DE", "state": "HH", "display_address": ["Saseler Str. 1", "22145 Hamburg", "Germany"]}, "phone": "+49406787053", "display_phone": "+49 40 6787053", "distance": 994.4941770526624}, {"id": "89DUlDc6Tdus-vGGNx_NZQ", "alias": "asia-lam-hamburg", "name": "Asia Lam", "image_url": "https://s3-media1.fl.yelpcdn.com/bphoto/ZHoPNF40FBAasBdWAyMunQ/o.jpg", "is_closed": false, "url": "https://www.yelp.com/biz/asia-lam-hamburg?adjust_creative=hBJOknVQJ58S5goQyjmwRw&utm_campaign=yelp_api_v3&utm_medium=api_v3_business_search&utm_source=hBJOknVQJ58S5goQyjmwRw", "review_count": 36, "categories": [{"alias": "vietnamese", "title": "Vietnamese"}, {"alias": "thai", "title": "Thai"}], "rating": 4.5, "coordinates": {"latitude": 53.60269, "longitude": 10.15467}, "transactions": [], "price": "\u20ac\u20ac", "location": {"address1": "Rahlstedter Bahnhofstr. 41", "address2": "", "address3": "", "city": "Hamburg", "zip_code": "22143", "country": "DE", "state": "HH", "display_address": ["Rahlstedter Bahnhofstr. 41", "22143 Hamburg", "Germany"]}, "phone": "+49406721160", "display_phone": "+49 40 6721160", "distance": 2634.1702172167625}, {"id": "n7W1ITUtp9K6w9kvV1Bcmw", "alias": "luna-hamburg-3", "name": "Luna", "image_url": "https://s3-media3.fl.yelpcdn.com/bphoto/JqUdwuBoeQGJ2_hEQelUDw/o.jpg", "is_closed": false, "url": "https://www.yelp.com/biz/luna-hamburg-3?adjust_creative=hBJOknVQJ58S5goQyjmwRw&utm_campaign=yelp_api_v3&utm_medium=api_v3_business_search&utm_source=hBJOknVQJ58S5goQyjmwRw", "review_count": 27, "categories": [{"alias": "italian", "title": "Italian"}], "rating": 4.5, "coordinates": {"latitude": 53.5873798815073, "longitude": 10.1283631958008}, "transactions": [], "price": "\u20ac\u20ac", "location": {"address1": "Tonndorfer Hauptstr. 96 a", "address2": null, "address3": null, "city": "Hamburg", "zip_code": "22045", "country": "DE", "state": "HH", "display_address": ["Tonndorfer Hauptstr. 96 a", "22045 Hamburg", "Germany"]}, "phone": "+49406535749", "display_phone": "+49 40 6535749", "distance": 4588.23598630058}, {"id": "wEV2Tj7LeuEyfpcC8Amjhg", "alias": "d\u00f6ner-haus-hamburg", "name": "D\u00f6ner Haus", "image_url": "https://s3-media2.fl.yelpcdn.com/bphoto/looQoC83702ERaKzMnGumQ/o.jpg", "is_closed": false, "url": "https://www.yelp.com/biz/d%C3%B6ner-haus-hamburg?adjust_creative=hBJOknVQJ58S5goQyjmwRw&utm_campaign=yelp_api_v3&utm_medium=api_v3_business_search&utm_source=hBJOknVQJ58S5goQyjmwRw", "review_count": 3, "categories": [{"alias": "kebab", "title": "Kebab"}], "rating": 4.5, "coordinates": {"latitude": 53.6052899, "longitude": 10.15619}, "transactions": [], "price": "\u20ac\u20ac", "location": {"address1": "Schweriner Str. 1a", "address2": "", "address3": "", "city": "Hamburg", "zip_code": "22143", "country": "DE", "state": "HH", "display_address": ["Schweriner Str. 1a", "22143 Hamburg", "Germany"]}, "phone": "+491724981854", "display_phone": "+49 172 4981854", "distance": 2349.397657505092}, {"id": "YORyYpWGC59Sojp4lW8dBQ", "alias": "ristorante-villaggio-hamburg", "name": "Ristorante Villaggio", "image_url": "https://s3-media4.fl.yelpcdn.com/bphoto/UzpkW0HSJWPx3-mPVsy_kg/o.jpg", "is_closed": false, "url": "https://www.yelp.com/biz/ristorante-villaggio-hamburg?adjust_creative=hBJOknVQJ58S5goQyjmwRw&utm_campaign=yelp_api_v3&utm_medium=api_v3_business_search&utm_source=hBJOknVQJ58S5goQyjmwRw", "review_count": 3, "categories": [{"alias": "italian", "title": "Italian"}], "rating": 4.0, "coordinates": {"latitude": 53.649162, "longitude": 10.16791}, "transactions": [], "price": "\u20ac\u20ac", "location": {"address1": "Hotel du Nord", "address2": "Im Alten Dorfe 40", "address3": "", "city": "Hamburg", "zip_code": "22359", "country": "DE", "state": "HH", "display_address": ["Hotel du Nord", "Im Alten Dorfe 40", "22359 Hamburg", "Germany"]}, "phone": "+49406034042", "display_phone": "+49 40 6034042", "distance": 2774.355513515433}, {"id": "X5XoKvZuLvLXLnpodFFrNA", "alias": "bei-dino-hamburg", "name": "Bei Dino", "image_url": "https://s3-media2.fl.yelpcdn.com/bphoto/06_Gyg3earR7qRtpM_0lgQ/o.jpg", "is_closed": false, "url": "https://www.yelp.com/biz/bei-dino-hamburg?adjust_creative=hBJOknVQJ58S5goQyjmwRw&utm_campaign=yelp_api_v3&utm_medium=api_v3_business_search&utm_source=hBJOknVQJ58S5goQyjmwRw", "review_count": 1, "categories": [{"alias": "italian", "title": "Italian"}, {"alias": "pizza", "title": "Pizza"}], "rating": 5.0, "coordinates": {"latitude": 53.602, "longitude": 10.1574}, "transactions": [], "price": "\u20ac\u20ac\u20ac\u20ac", "location": {"address1": "Rahlstedter Str. 159", "address2": "", "address3": null, "city": "Hamburg", "zip_code": "22143", "country": "DE", "state": "HH", "display_address": ["Rahlstedter Str. 159", "22143 Hamburg", "Germany"]}, "phone": "+494024439963", "display_phone": "+49 40 24439963", "distance": 2733.0914503399104}, {"id": "BR1UH5Y4E3qiLmlDjffDbw", "alias": "burger-lounge-rahlstedt-hamburg", "name": "Burger Lounge Rahlstedt", "image_url": "https://s3-media3.fl.yelpcdn.com/bphoto/84bAe9vaamfztth3GEpPmg/o.jpg", "is_closed": false, "url": "https://www.yelp.com/biz/burger-lounge-rahlstedt-hamburg?adjust_creative=hBJOknVQJ58S5goQyjmwRw&utm_campaign=yelp_api_v3&utm_medium=api_v3_business_search&utm_source=hBJOknVQJ58S5goQyjmwRw", "review_count": 1, "categories": [{"alias": "tradamerican", "title": "American (Traditional)"}], "rating": 5.0, "coordinates": {"latitude": 53.6136, "longitude": 10.155576}, "transactions": [], "location": {"address1": "Bargteheiderstr. 174", "address2": "", "address3": null, "city": "Hamburg", "zip_code": "22143", "country": "DE", "state": "HH", "display_address": ["Bargteheiderstr. 174", "22143 Hamburg", "Germany"]}, "phone": "+494078013111", "display_phone": "+49 40 78013111", "distance": 1441.0631471373426}, {"id": "KjsENxvgT0hjC0YGFjZjoQ", "alias": "huus-no-5-hamburg", "name": "huus no. 5", "image_url": "https://s3-media2.fl.yelpcdn.com/bphoto/gKMffzsjbSKFdQNTrac3yw/o.jpg", "is_closed": false, "url": "https://www.yelp.com/biz/huus-no-5-hamburg?adjust_creative=hBJOknVQJ58S5goQyjmwRw&utm_campaign=yelp_api_v3&utm_medium=api_v3_business_search&utm_source=hBJOknVQJ58S5goQyjmwRw", "review_count": 2, "categories": [{"alias": "international", "title": "International"}, {"alias": "bistros", "title": "Bistros"}], "rating": 4.5, "coordinates": {"latitude": 53.64934, "longitude": 10.16612}, "transactions": [], "price": "\u20ac\u20ac", "location": {"address1": "Dorfwinkel 5", "address2": null, "address3": "", "city": "Hamburg", "zip_code": "22359", "country": "DE", "state": "HH", "display_address": ["Dorfwinkel 5", "22359 Hamburg", "Germany"]}, "phone": "+494037020027", "display_phone": "+49 40 37020027", "distance": 2741.2310857778834}, {"id": "Dcf5kwdsqjvnsa70xtC1kg", "alias": "gastst\u00e4tte-le-rustique-hamburg", "name": "Gastst\u00e4tte Le Rustique", "image_url": "https://s3-media1.fl.yelpcdn.com/bphoto/GLrrwqVrMl8vAAzjKmYATA/o.jpg", "is_closed": false, "url": "https://www.yelp.com/biz/gastst%C3%A4tte-le-rustique-hamburg?adjust_creative=hBJOknVQJ58S5goQyjmwRw&utm_campaign=yelp_api_v3&utm_medium=api_v3_business_search&utm_source=hBJOknVQJ58S5goQyjmwRw", "review_count": 18, "categories": [{"alias": "international", "title": "International"}], "rating": 4.0, "coordinates": {"latitude": 53.64971, "longitude": 10.16393}, "transactions": [], "price": "\u20ac\u20ac", "location": {"address1": "Claus-Ferck-Str. 14", "address2": null, "address3": null, "city": "Hamburg", "zip_code": "22359", "country": "DE", "state": "HH", "display_address": ["Claus-Ferck-Str. 14", "22359 Hamburg", "Germany"]}, "phone": "+49406036851", "display_phone": "+49 40 6036851", "distance": 2736.167769259776}, {"id": "TUbA9qRRs61V1hidDtvAbg", "alias": "ristorante-mediterraneo-hamburg", "name": "Ristorante Mediterraneo", "image_url": "https://s3-media4.fl.yelpcdn.com/bphoto/m0IZk3ALddt9XXCOEkDNhQ/o.jpg", "is_closed": false, "url": "https://www.yelp.com/biz/ristorante-mediterraneo-hamburg?adjust_creative=hBJOknVQJ58S5goQyjmwRw&utm_campaign=yelp_api_v3&utm_medium=api_v3_business_search&utm_source=hBJOknVQJ58S5goQyjmwRw", "review_count": 9, "categories": [{"alias": "italian", "title": "Italian"}], "rating": 4.5, "coordinates": {"latitude": 53.6655, "longitude": 10.15283}, "transactions": [], "price": "\u20ac\u20ac\u20ac", "location": {"address1": "Waldreiterring 22", "address2": "", "address3": "", "city": "Hamburg", "zip_code": "22359", "country": "DE", "state": "HH", "display_address": ["Waldreiterring 22", "22359 Hamburg", "Germany"]}, "phone": "+494034929540", "display_phone": "+49 40 34929540", "distance": 4364.4214002577}, {"id": "940V-dSxxhkDtFeOEH4wIQ", "alias": "tunicis-restaurant-dubrovnik-hamburg-4", "name": "Tunici's Restaurant Dubrovnik", "image_url": "https://s3-media2.fl.yelpcdn.com/bphoto/K3gBaOXXk1oSNdZb-gVnxw/o.jpg", "is_closed": false, "url": "https://www.yelp.com/biz/tunicis-restaurant-dubrovnik-hamburg-4?adjust_creative=hBJOknVQJ58S5goQyjmwRw&utm_campaign=yelp_api_v3&utm_medium=api_v3_business_search&utm_source=hBJOknVQJ58S5goQyjmwRw", "review_count": 49, "categories": [{"alias": "serbocroatian", "title": "Serbo Croatian"}], "rating": 4.0, "coordinates": {"latitude": 53.60064, "longitude": 10.15234}, "transactions": [], "price": "\u20ac\u20ac", "location": {"address1": "Rahlstedter Bahnhofstr. 48", "address2": null, "address3": null, "city": "Hamburg", "zip_code": "22143", "country": "DE", "state": "HH", "display_address": ["Rahlstedter Bahnhofstr. 48", "22143 Hamburg", "Germany"]}, "phone": "+49406771182", "display_phone": "+49 40 6771182", "distance": 2879.410579371351}, {"id": "nSE3LIJsKM9f6IPKG6nbAw", "alias": "eichenkrug-hamburg", "name": "Eichenkrug", "image_url": "https://s3-media3.fl.yelpcdn.com/bphoto/lO1r45ThqzbrYxNocZH01Q/o.jpg", "is_closed": false, "url": "https://www.yelp.com/biz/eichenkrug-hamburg?adjust_creative=hBJOknVQJ58S5goQyjmwRw&utm_campaign=yelp_api_v3&utm_medium=api_v3_business_search&utm_source=hBJOknVQJ58S5goQyjmwRw", "review_count": 24, "categories": [{"alias": "northerngerman", "title": "Northern German"}], "rating": 4.0, "coordinates": {"latitude": 53.65057, "longitude": 10.1674399}, "transactions": [], "price": "\u20ac\u20ac\u20ac", "location": {"address1": "Im Alten Dorfe 60", "address2": "", "address3": "", "city": "Hamburg", "zip_code": "22359", "country": "DE", "state": "HH", "display_address": ["Im Alten Dorfe 60", "22359 Hamburg", "Germany"]}, "phone": "+49406038781", "display_phone": "+49 40 6038781", "distance": 2896.018091540329}, {"id": "HGRU7GpWZzUNXHFZySx0Pg", "alias": "le-qu\u00e1n-hamburg-6", "name": "Le Qu\u00e1n", "image_url": "https://s3-media2.fl.yelpcdn.com/bphoto/vvREouObluQmMvIQVl-3gw/o.jpg", "is_closed": false, "url": "https://www.yelp.com/biz/le-qu%C3%A1n-hamburg-6?adjust_creative=hBJOknVQJ58S5goQyjmwRw&utm_campaign=yelp_api_v3&utm_medium=api_v3_business_search&utm_source=hBJOknVQJ58S5goQyjmwRw", "review_count": 5, "categories": [{"alias": "vietnamese", "title": "Vietnamese"}], "rating": 3.5, "coordinates": {"latitude": 53.648544, "longitude": 10.165218}, "transactions": [], "price": "\u20ac\u20ac", "location": {"address1": "Im Alten Dorfe 24", "address2": "", "address3": null, "city": "Hamburg", "zip_code": "22359", "country": "DE", "state": "HH", "display_address": ["Im Alten Dorfe 24", "22359 Hamburg", "Germany"]}, "phone": "+494064532657", "display_phone": "+49 40 64532657", "distance": 2634.4717259538975}, {"id": "W7Di0VFheedEkLU5yw2Hqg", "alias": "dorfkrug-volksdorf-hamburg", "name": "Dorfkrug Volksdorf", "image_url": "https://s3-media1.fl.yelpcdn.com/bphoto/OB6qQYoIeK9_pQrFSgkyvw/o.jpg", "is_closed": false, "url": "https://www.yelp.com/biz/dorfkrug-volksdorf-hamburg?adjust_creative=hBJOknVQJ58S5goQyjmwRw&utm_campaign=yelp_api_v3&utm_medium=api_v3_business_search&utm_source=hBJOknVQJ58S5goQyjmwRw", "review_count": 31, "categories": [{"alias": "german", "title": "German"}], "rating": 4.0, "coordinates": {"latitude": 53.6494979, "longitude": 10.1678128}, "transactions": [], "price": "\u20ac\u20ac\u20ac", "location": {"address1": "Im Alten Dorfe 44", "address2": null, "address3": null, "city": "Hamburg", "zip_code": "22359", "country": "DE", "state": "HH", "display_address": ["Im Alten Dorfe 44", "22359 Hamburg", "Germany"]}, "phone": "+49406039294", "display_phone": "+49 40 6039294", "distance": 2795.9615797467313}, {"id": "2xjOX59KWs7KLgcpw86Eiw", "alias": "louisiana-hamburg-6", "name": "Louisiana", "image_url": "https://s3-media2.fl.yelpcdn.com/bphoto/kIPkpQv0hobKQ61bqkBsdg/o.jpg", "is_closed": false, "url": "https://www.yelp.com/biz/louisiana-hamburg-6?adjust_creative=hBJOknVQJ58S5goQyjmwRw&utm_campaign=yelp_api_v3&utm_medium=api_v3_business_search&utm_source=hBJOknVQJ58S5goQyjmwRw", "review_count": 60, "categories": [{"alias": "tradamerican", "title": "American (Traditional)"}, {"alias": "cocktailbars", "title": "Cocktail Bars"}], "rating": 3.0, "coordinates": {"latitude": 53.64881, "longitude": 10.16691}, "transactions": [], "price": "\u20ac\u20ac", "location": {"address1": "Im alten Dorfe 36", "address2": "", "address3": "", "city": "Hamburg", "zip_code": "22359", "country": "DE", "state": "HH", "display_address": ["Im alten Dorfe 36", "22359 Hamburg", "Germany"]}, "phone": "+494045063323", "display_phone": "+49 40 45063323", "distance": 2700.2916493369908}, {"id": "-A_pku1o6DuLFe-3vy88-Q", "alias": "restaurant-estia-hamburg", "name": "Restaurant Estia", "image_url": "https://s3-media1.fl.yelpcdn.com/bphoto/oS_czziV0V8yNLRCLi2wow/o.jpg", "is_closed": false, "url": "https://www.yelp.com/biz/restaurant-estia-hamburg?adjust_creative=hBJOknVQJ58S5goQyjmwRw&utm_campaign=yelp_api_v3&utm_medium=api_v3_business_search&utm_source=hBJOknVQJ58S5goQyjmwRw", "review_count": 9, "categories": [{"alias": "greek", "title": "Greek"}], "rating": 3.5, "coordinates": {"latitude": 53.6244, "longitude": 10.1405}, "transactions": [], "price": "\u20ac\u20ac", "location": {"address1": "Hermann-Balk-Str. 112", "address2": null, "address3": null, "city": "Hamburg", "zip_code": "22147", "country": "DE", "state": "HH", "display_address": ["Hermann-Balk-Str. 112", "22147 Hamburg", "Germany"]}, "phone": "+494064400995", "display_phone": "+49 40 64400995", "distance": 748.317436021912}, {"id": "iiU4A7Sr1OXCibvmS1756Q", "alias": "restaurant-bacchus-hamburg-3", "name": "Restaurant Bacchus", "image_url": "https://s3-media3.fl.yelpcdn.com/bphoto/v2Vk0hpRqSVwoJ16pQ0m3w/o.jpg", "is_closed": false, "url": "https://www.yelp.com/biz/restaurant-bacchus-hamburg-3?adjust_creative=hBJOknVQJ58S5goQyjmwRw&utm_campaign=yelp_api_v3&utm_medium=api_v3_business_search&utm_source=hBJOknVQJ58S5goQyjmwRw", "review_count": 20, "categories": [{"alias": "greek", "title": "Greek"}], "rating": 4.5, "coordinates": {"latitude": 53.5913493, "longitude": 10.1451886}, "transactions": [], "price": "\u20ac\u20ac", "location": {"address1": "Ellerneck 58", "address2": null, "address3": null, "city": "Hamburg", "zip_code": "22149", "country": "DE", "state": "HH", "display_address": ["Ellerneck 58", "22149 Hamburg", "Germany"]}, "phone": "+49406733983", "display_phone": "+49 40 6733983", "distance": 3901.510265325129}, {"id": "GUNxVSa-aaUv5jV8oEqxRw", "alias": "das-leben-isst-sch\u00f6n-hamburg", "name": "Das Leben isst sch\u00f6n!", "image_url": "https://s3-media1.fl.yelpcdn.com/bphoto/n1uOkoVERAGng3b8_5os2g/o.jpg", "is_closed": false, "url": "https://www.yelp.com/biz/das-leben-isst-sch%C3%B6n-hamburg?adjust_creative=hBJOknVQJ58S5goQyjmwRw&utm_campaign=yelp_api_v3&utm_medium=api_v3_business_search&utm_source=hBJOknVQJ58S5goQyjmwRw", "review_count": 24, "categories": [{"alias": "cafes", "title": "Cafes"}, {"alias": "breakfast_brunch", "title": "Breakfast & Brunch"}], "rating": 4.0, "coordinates": {"latitude": 53.648382, "longitude": 10.16816}, "transactions": [], "price": "\u20ac\u20ac", "location": {"address1": "Wiesenh\u00f6fen 7", "address2": "", "address3": "", "city": "Hamburg", "zip_code": "22359", "country": "DE", "state": "HH", "display_address": ["Wiesenh\u00f6fen 7", "22359 Hamburg", "Germany"]}, "phone": "+494080079090", "display_phone": "+49 40 80079090", "distance": 2695.14887640627}, {"id": "dwbv8cRWOzfD4_VBMTzVCA", "alias": "hotel-meiendorfer-park-hamburg", "name": "Hotel Meiendorfer Park", "image_url": "https://s3-media1.fl.yelpcdn.com/bphoto/LmGe4FROxtNpJjZ4qdPDgw/o.jpg", "is_closed": false, "url": "https://www.yelp.com/biz/hotel-meiendorfer-park-hamburg?adjust_creative=hBJOknVQJ58S5goQyjmwRw&utm_campaign=yelp_api_v3&utm_medium=api_v3_business_search&utm_source=hBJOknVQJ58S5goQyjmwRw", "review_count": 1, "categories": [{"alias": "hotels", "title": "Hotels"}, {"alias": "german", "title": "German"}], "rating": 4.0, "coordinates": {"latitude": 53.62308, "longitude": 10.1664}, "transactions": [], "location": {"address1": "Meiendorfer Str. 101", "address2": null, "address3": null, "city": "Hamburg", "zip_code": "22145", "country": "DE", "state": "SH", "display_address": ["Meiendorfer Str. 101", "22145 Hamburg", "Germany"]}, "phone": "+49406781718", "display_phone": "+49 40 6781718", "distance": 1046.4723027604437}, {"id": "i4G260d44HKnXhPBWZBRoQ", "alias": "little-monsters-hamburg", "name": "Little Monsters", "image_url": "https://s3-media3.fl.yelpcdn.com/bphoto/D00F7XBpSb0VWtLZnGYB_A/o.jpg", "is_closed": false, "url": "https://www.yelp.com/biz/little-monsters-hamburg?adjust_creative=hBJOknVQJ58S5goQyjmwRw&utm_campaign=yelp_api_v3&utm_medium=api_v3_business_search&utm_source=hBJOknVQJ58S5goQyjmwRw", "review_count": 5, "categories": [{"alias": "bagels", "title": "Bagels"}, {"alias": "breakfast_brunch", "title": "Breakfast & Brunch"}], "rating": 4.0, "coordinates": {"latitude": 53.6052899, "longitude": 10.15633}, "transactions": [], "price": "\u20ac", "location": {"address1": "Schweriner Str. 3 a", "address2": "", "address3": null, "city": "Hamburg", "zip_code": "22143", "country": "DE", "state": "HH", "display_address": ["Schweriner Str. 3 a", "22143 Hamburg", "Germany"]}, "phone": "", "display_phone": "", "distance": 2364.6186045730615}, {"id": "9-KFAI9eGa6am7T29THPOg", "alias": "la-plaza-hamburg", "name": "La Plaza", "image_url": "https://s3-media2.fl.yelpcdn.com/bphoto/zFpzVFW5yBUSChkwpCsxMw/o.jpg", "is_closed": false, "url": "https://www.yelp.com/biz/la-plaza-hamburg?adjust_creative=hBJOknVQJ58S5goQyjmwRw&utm_campaign=yelp_api_v3&utm_medium=api_v3_business_search&utm_source=hBJOknVQJ58S5goQyjmwRw", "review_count": 8, "categories": [{"alias": "tapas", "title": "Tapas Bars"}, {"alias": "cafes", "title": "Cafes"}], "rating": 4.0, "coordinates": {"latitude": 53.64931, "longitude": 10.16334}, "transactions": [], "price": "\u20ac\u20ac", "location": {"address1": "Claus-Ferck-Str. 9-11", "address2": "", "address3": "", "city": "Hamburg", "zip_code": "22359", "country": "DE", "state": "HH", "display_address": ["Claus-Ferck-Str. 9-11", "22359 Hamburg", "Germany"]}, "phone": "+494069464411", "display_phone": "+49 40 69464411", "distance": 2677.282778369447}, {"id": "2nEhazu2nscUQp8p2rEhgA", "alias": "hallo-pizza-hamburg-13", "name": "Hallo Pizza!", "image_url": "https://s3-media1.fl.yelpcdn.com/bphoto/HZKg-zU9v4ugvI_qHn2d-Q/o.jpg", "is_closed": false, "url": "https://www.yelp.com/biz/hallo-pizza-hamburg-13?adjust_creative=hBJOknVQJ58S5goQyjmwRw&utm_campaign=yelp_api_v3&utm_medium=api_v3_business_search&utm_source=hBJOknVQJ58S5goQyjmwRw", "review_count": 3, "categories": [{"alias": "pizza", "title": "Pizza"}], "rating": 4.0, "coordinates": {"latitude": 53.623527, "longitude": 10.1671349}, "transactions": [], "price": "\u20ac", "location": {"address1": "Meiendorfer Str. 109", "address2": null, "address3": null, "city": "Hamburg", "zip_code": "22145", "country": "DE", "state": "HH", "display_address": ["Meiendorfer Str. 109", "22145 Hamburg", "Germany"]}, "phone": "+494067595050", "display_phone": "+49 40 67595050", "distance": 1084.5446541128872}, {"id": "bg_AEMghxinAeoxAGdC3zw", "alias": "medallion-hamburg", "name": "Medallion", "image_url": "https://s3-media1.fl.yelpcdn.com/bphoto/-KQn8FnNV-ppK4NIYMFYXQ/o.jpg", "is_closed": false, "url": "https://www.yelp.com/biz/medallion-hamburg?adjust_creative=hBJOknVQJ58S5goQyjmwRw&utm_campaign=yelp_api_v3&utm_medium=api_v3_business_search&utm_source=hBJOknVQJ58S5goQyjmwRw", "review_count": 14, "categories": [{"alias": "international", "title": "International"}], "rating": 4.0, "coordinates": {"latitude": 53.5943, "longitude": 10.1458}, "transactions": [], "price": "\u20ac", "location": {"address1": "Rahlstedter Str. 38", "address2": "", "address3": null, "city": "Hamburg", "zip_code": "22149", "country": "DE", "state": "HH", "display_address": ["Rahlstedter Str. 38", "22149 Hamburg", "Germany"]}, "phone": "+494067599669", "display_phone": "+49 40 67599669", "distance": 3579.2165129432146}, {"id": "V8J4Trv5qPEySUdi3AOlWQ", "alias": "auszeit-hamburg-4", "name": "Auszeit", "image_url": "https://s3-media1.fl.yelpcdn.com/bphoto/ZcuOQNpXtCJGJwk4QYqTPQ/o.jpg", "is_closed": false, "url": "https://www.yelp.com/biz/auszeit-hamburg-4?adjust_creative=hBJOknVQJ58S5goQyjmwRw&utm_campaign=yelp_api_v3&utm_medium=api_v3_business_search&utm_source=hBJOknVQJ58S5goQyjmwRw", "review_count": 9, "categories": [{"alias": "bowling", "title": "Bowling"}, {"alias": "german", "title": "German"}, {"alias": "international", "title": "International"}], "rating": 4.5, "coordinates": {"latitude": 53.586142, "longitude": 10.160171}, "transactions": [], "price": "\u20ac\u20ac\u20ac", "location": {"address1": "H\u00fcllenkoppel 56", "address2": null, "address3": null, "city": "Hamburg", "zip_code": "22149", "country": "DE", "state": "HH", "display_address": ["H\u00fcllenkoppel 56", "22149 Hamburg", "Germany"]}, "phone": "+494067391007", "display_phone": "+49 40 67391007", "distance": 4504.9053187130885}, {"id": "od8bKF_bhe-OquHKaGo6eA", "alias": "block-house-hamburg-10", "name": "Block House", "image_url": "https://s3-media2.fl.yelpcdn.com/bphoto/FOB6HXZlBKthwIBWBZ5v_w/o.jpg", "is_closed": false, "url": "https://www.yelp.com/biz/block-house-hamburg-10?adjust_creative=hBJOknVQJ58S5goQyjmwRw&utm_campaign=yelp_api_v3&utm_medium=api_v3_business_search&utm_source=hBJOknVQJ58S5goQyjmwRw", "review_count": 41, "categories": [{"alias": "steak", "title": "Steakhouses"}], "rating": 4.0, "coordinates": {"latitude": 53.6476514, "longitude": 10.1639881}, "transactions": [], "price": "\u20ac\u20ac\u20ac", "location": {"address1": "Groten Hoff 12", "address2": null, "address3": null, "city": "Hamburg", "zip_code": "22359", "country": "DE", "state": "HH", "display_address": ["Groten Hoff 12", "22359 Hamburg", "Germany"]}, "phone": "+49406037025", "display_phone": "+49 40 6037025", "distance": 2513.626969152671}, {"id": "RUsc-zTQmaVMzE4XthLrrw", "alias": "asia-hoang-hamburg-2", "name": "Asia Hoang", "image_url": "https://s3-media2.fl.yelpcdn.com/bphoto/Z6KMUKJZi2ZizhCAxpM2NA/o.jpg", "is_closed": false, "url": "https://www.yelp.com/biz/asia-hoang-hamburg-2?adjust_creative=hBJOknVQJ58S5goQyjmwRw&utm_campaign=yelp_api_v3&utm_medium=api_v3_business_search&utm_source=hBJOknVQJ58S5goQyjmwRw", "review_count": 11, "categories": [{"alias": "chinese", "title": "Chinese"}, {"alias": "hotdogs", "title": "Fast Food"}, {"alias": "thai", "title": "Thai"}], "rating": 4.0, "coordinates": {"latitude": 53.60314, "longitude": 10.15414}, "transactions": [], "price": "\u20ac", "location": {"address1": "Rahlstedter Bahnhofstr. 16", "address2": null, "address3": null, "city": "Hamburg", "zip_code": "22143", "country": "DE", "state": "HH", "display_address": ["Rahlstedter Bahnhofstr. 16", "22143 Hamburg", "Germany"]}, "phone": "+49406775077", "display_phone": "+49 40 6775077", "distance": 2586.1055822434673}, {"id": "LA5p9GlUaSHvqWi1VDtTVg", "alias": "croque-insel-hamburg", "name": "Croque-Insel", "image_url": "https://s3-media3.fl.yelpcdn.com/bphoto/pNpDWMSFo2Ex7lbiUS8CSw/o.jpg", "is_closed": false, "url": "https://www.yelp.com/biz/croque-insel-hamburg?adjust_creative=hBJOknVQJ58S5goQyjmwRw&utm_campaign=yelp_api_v3&utm_medium=api_v3_business_search&utm_source=hBJOknVQJ58S5goQyjmwRw", "review_count": 2, "categories": [{"alias": "sandwiches", "title": "Sandwiches"}], "rating": 5.0, "coordinates": {"latitude": 53.6223993598285, "longitude": 10.1652405883885}, "transactions": [], "location": {"address1": "Saseler Str. 1", "address2": null, "address3": null, "city": "Hamburg", "zip_code": "22145", "country": "DE", "state": "HH", "display_address": ["Saseler Str. 1", "22145 Hamburg", "Germany"]}, "phone": "+49406792179", "display_phone": "+49 40 6792179", "distance": 1012.8100770020725}, {"id": "WsUam5VAAQ7yWpoBggzFSQ", "alias": "asia-k\u00fcche-hamburg", "name": "Asia K\u00fcche", "image_url": "https://s3-media2.fl.yelpcdn.com/bphoto/91FbganovwNRnmQaB3b1iw/o.jpg", "is_closed": false, "url": "https://www.yelp.com/biz/asia-k%C3%BCche-hamburg?adjust_creative=hBJOknVQJ58S5goQyjmwRw&utm_campaign=yelp_api_v3&utm_medium=api_v3_business_search&utm_source=hBJOknVQJ58S5goQyjmwRw", "review_count": 8, "categories": [{"alias": "panasian", "title": "Pan Asian"}], "rating": 2.5, "coordinates": {"latitude": 53.6251717, "longitude": 10.1404104}, "transactions": [], "price": "\u20ac\u20ac", "location": {"address1": "Hermann-Balk-Str. 120", "address2": "", "address3": "", "city": "Hamburg", "zip_code": "22147", "country": "DE", "state": "HH", "display_address": ["Hermann-Balk-Str. 120", "22147 Hamburg", "Germany"]}, "phone": "+49406446988", "display_phone": "+49 40 6446988", "distance": 729.8108881755328}, {"id": "bI0qJy2AIyI4aa3FoDZ1ZQ", "alias": "mister-wu-hamburg", "name": "Mister-wu", "image_url": "https://s3-media4.fl.yelpcdn.com/bphoto/OoHPXXxwY5e3fSHod529gg/o.jpg", "is_closed": false, "url": "https://www.yelp.com/biz/mister-wu-hamburg?adjust_creative=hBJOknVQJ58S5goQyjmwRw&utm_campaign=yelp_api_v3&utm_medium=api_v3_business_search&utm_source=hBJOknVQJ58S5goQyjmwRw", "review_count": 67, "categories": [{"alias": "german", "title": "German"}, {"alias": "panasian", "title": "Pan Asian"}], "rating": 3.5, "coordinates": {"latitude": 53.59565, "longitude": 10.14978}, "transactions": [], "price": "\u20ac\u20ac", "location": {"address1": "Rahlstedter Str. 61", "address2": "", "address3": null, "city": "Hamburg", "zip_code": "22149", "country": "DE", "state": "HH", "display_address": ["Rahlstedter Str. 61", "22149 Hamburg", "Germany"]}, "phone": "+494067998618", "display_phone": "+49 40 67998618", "distance": 3403.9170731837203}, {"id": "1qV1Wz2aohC6Rp-CZPGRVg", "alias": "berne-kebap-haus-hamburg", "name": "Berne Kebap Haus", "image_url": "https://s3-media4.fl.yelpcdn.com/bphoto/bpsRMMVl8g8lAmfmV5YO9g/o.jpg", "is_closed": false, "url": "https://www.yelp.com/biz/berne-kebap-haus-hamburg?adjust_creative=hBJOknVQJ58S5goQyjmwRw&utm_campaign=yelp_api_v3&utm_medium=api_v3_business_search&utm_source=hBJOknVQJ58S5goQyjmwRw", "review_count": 1, "categories": [{"alias": "kebab", "title": "Kebab"}], "rating": 5.0, "coordinates": {"latitude": 53.6252153896313, "longitude": 10.1390706002712}, "transactions": [], "price": "\u20ac", "location": {"address1": "Hermann-Balk-Str. 117", "address2": "", "address3": null, "city": "Hamburg", "zip_code": "22147", "country": "DE", "state": "HH", "display_address": ["Hermann-Balk-Str. 117", "22147 Hamburg", "Germany"]}, "phone": "+494032843723", "display_phone": "+49 40 32843723", "distance": 820.742791676185}, {"id": "zYxi8TgYgSkaL-SIVAYZRg", "alias": "restaurante-hacienda-hamburg", "name": "Restaurante Hacienda", "image_url": "https://s3-media3.fl.yelpcdn.com/bphoto/1RBAKjM3rQpzYw8Svd4n4w/o.jpg", "is_closed": false, "url": "https://www.yelp.com/biz/restaurante-hacienda-hamburg?adjust_creative=hBJOknVQJ58S5goQyjmwRw&utm_campaign=yelp_api_v3&utm_medium=api_v3_business_search&utm_source=hBJOknVQJ58S5goQyjmwRw", "review_count": 39, "categories": [{"alias": "brazilian", "title": "Brazilian"}], "rating": 3.0, "coordinates": {"latitude": 53.64905, "longitude": 10.1678599}, "transactions": [], "price": "\u20ac\u20ac\u20ac", "location": {"address1": "Alten Dorfe 38", "address2": null, "address3": null, "city": "Hamburg", "zip_code": "22359", "country": "DE", "state": "HH", "display_address": ["Alten Dorfe 38", "22359 Hamburg", "Germany"]}, "phone": "+49406095858", "display_phone": "+49 40 6095858", "distance": 2750.9963376568116}, {"id": "zcyPh_LDb0i7LU4UEzuy4g", "alias": "restaurant-karyatis-hamburg", "name": "Restaurant Karyatis", "image_url": "https://s3-media3.fl.yelpcdn.com/bphoto/67pfw1jfKNRCqfWb_oYpSA/o.jpg", "is_closed": false, "url": "https://www.yelp.com/biz/restaurant-karyatis-hamburg?adjust_creative=hBJOknVQJ58S5goQyjmwRw&utm_campaign=yelp_api_v3&utm_medium=api_v3_business_search&utm_source=hBJOknVQJ58S5goQyjmwRw", "review_count": 8, "categories": [{"alias": "greek", "title": "Greek"}], "rating": 4.0, "coordinates": {"latitude": 53.5960856, "longitude": 10.1519664}, "transactions": [], "price": "\u20ac\u20ac", "location": {"address1": "Rahlstedter Str. 71", "address2": "", "address3": null, "city": "Hamburg", "zip_code": "22149", "country": "DE", "state": "HH", "display_address": ["Rahlstedter Str. 71", "22149 Hamburg", "Germany"]}, "phone": "+49406724411", "display_phone": "+49 40 6724411", "distance": 3361.934498117171}, {"id": "RNowDcasaDPG3L8yTyDB9Q", "alias": "rielmanns-waldrestaurant-hamburg", "name": "Rielmann's Waldrestaurant", "image_url": "https://s3-media4.fl.yelpcdn.com/bphoto/gHZ7uvq1ORt2Uuzi0tiS6Q/o.jpg", "is_closed": false, "url": "https://www.yelp.com/biz/rielmanns-waldrestaurant-hamburg?adjust_creative=hBJOknVQJ58S5goQyjmwRw&utm_campaign=yelp_api_v3&utm_medium=api_v3_business_search&utm_source=hBJOknVQJ58S5goQyjmwRw", "review_count": 2, "categories": [{"alias": "german", "title": "German"}], "rating": 3.0, "coordinates": {"latitude": 53.6657821856223, "longitude": 10.1572838053107}, "transactions": [], "location": {"address1": "Im Regestall 53", "address2": "", "address3": null, "city": "Hamburg", "zip_code": "22359", "country": "DE", "state": "HH", "display_address": ["Im Regestall 53", "22359 Hamburg", "Germany"]}, "phone": "+494046963707", "display_phone": "+49 40 46963707", "distance": 4405.427620206176}, {"id": "gHkp_3gVMlfUi3ioBkPyig", "alias": "atelier-gourmand-hamburg", "name": "Atelier Gourmand", "image_url": "https://s3-media4.fl.yelpcdn.com/bphoto/WOcLkUV0kCv53cWf1SlKug/o.jpg", "is_closed": false, "url": "https://www.yelp.com/biz/atelier-gourmand-hamburg?adjust_creative=hBJOknVQJ58S5goQyjmwRw&utm_campaign=yelp_api_v3&utm_medium=api_v3_business_search&utm_source=hBJOknVQJ58S5goQyjmwRw", "review_count": 3, "categories": [{"alias": "creperies", "title": "Creperies"}, {"alias": "cafes", "title": "Cafes"}, {"alias": "icecream", "title": "Ice Cream & Frozen Yogurt"}], "rating": 4.5, "coordinates": {"latitude": 53.6494770873162, "longitude": 10.1634323693115}, "transactions": [], "price": "\u20ac", "location": {"address1": "Claus-Ferck-Str. 10", "address2": "", "address3": "", "city": "Hamburg", "zip_code": "22359", "country": "DE", "state": "HH", "display_address": ["Claus-Ferck-Str. 10", "22359 Hamburg", "Germany"]}, "phone": "+494060442988", "display_phone": "+49 40 60442988", "distance": 2695.003780700677}, {"id": "FuG99GxibvKDoUVSf1vTPQ", "alias": "zorbas-hamburg", "name": "Zorbas", "image_url": "https://s3-media4.fl.yelpcdn.com/bphoto/VLeenxj7hlHsUCRnHx6sfQ/o.jpg", "is_closed": false, "url": "https://www.yelp.com/biz/zorbas-hamburg?adjust_creative=hBJOknVQJ58S5goQyjmwRw&utm_campaign=yelp_api_v3&utm_medium=api_v3_business_search&utm_source=hBJOknVQJ58S5goQyjmwRw", "review_count": 16, "categories": [{"alias": "greek", "title": "Greek"}], "rating": 4.0, "coordinates": {"latitude": 53.6532899257829, "longitude": 10.1684149981781}, "transactions": [], "price": "\u20ac\u20ac", "location": {"address1": "Ahrensburger Weg 1", "address2": "", "address3": "", "city": "Hamburg", "zip_code": "22359", "country": "DE", "state": "HH", "display_address": ["Ahrensburger Weg 1", "22359 Hamburg", "Germany"]}, "phone": "+494064533369", "display_phone": "+49 40 64533369", "distance": 3202.5430426561265}, {"id": "FAHAE9hqEqYelG_fjDrxFg", "alias": "caf\u00e9-ol\u00e9-hamburg-3", "name": "Caf\u00e9 Ol\u00e9", "image_url": "https://s3-media4.fl.yelpcdn.com/bphoto/VWnPzcmoFpqNR4UOVBxqMw/o.jpg", "is_closed": false, "url": "https://www.yelp.com/biz/caf%C3%A9-ol%C3%A9-hamburg-3?adjust_creative=hBJOknVQJ58S5goQyjmwRw&utm_campaign=yelp_api_v3&utm_medium=api_v3_business_search&utm_source=hBJOknVQJ58S5goQyjmwRw", "review_count": 56, "categories": [{"alias": "bars", "title": "Bars"}, {"alias": "international", "title": "International"}], "rating": 4.0, "coordinates": {"latitude": 53.60526, "longitude": 10.1606}, "transactions": [], "price": "\u20ac\u20ac", "location": {"address1": "Schweriner Str. 23", "address2": null, "address3": null, "city": "Hamburg", "zip_code": "22143", "country": "DE", "state": "HH", "display_address": ["Schweriner Str. 23", "22143 Hamburg", "Germany"]}, "phone": "+494067586133", "display_phone": "+49 40 67586133", "distance": 2432.741344832943}, {"id": "ypHVhf7L_rr3Nhu5HwMb1A", "alias": "ciao-bella-hamburg", "name": "Ciao Bella", "image_url": "https://s3-media3.fl.yelpcdn.com/bphoto/yIY12ET3EWu3aLu1raurOw/o.jpg", "is_closed": false, "url": "https://www.yelp.com/biz/ciao-bella-hamburg?adjust_creative=hBJOknVQJ58S5goQyjmwRw&utm_campaign=yelp_api_v3&utm_medium=api_v3_business_search&utm_source=hBJOknVQJ58S5goQyjmwRw", "review_count": 16, "categories": [{"alias": "italian", "title": "Italian"}], "rating": 3.5, "coordinates": {"latitude": 53.6045614, "longitude": 10.1555168}, "transactions": [], "price": "\u20ac\u20ac", "location": {"address1": "Boizenburger Weg 1", "address2": "", "address3": "", "city": "Hamburg", "zip_code": "22143", "country": "DE", "state": "HH", "display_address": ["Boizenburger Weg 1", "22143 Hamburg", "Germany"]}, "phone": "+49406771827", "display_phone": "+49 40 6771827", "distance": 2428.528671695314}, {"id": "_qZTgjOKo5EyR8wl4VtzOw", "alias": "saigon-cuisine-hamburg-2", "name": "Saigon Cuisine", "image_url": "https://s3-media1.fl.yelpcdn.com/bphoto/-4oR_6QaJyFqUpOOVLMf7g/o.jpg", "is_closed": false, "url": "https://www.yelp.com/biz/saigon-cuisine-hamburg-2?adjust_creative=hBJOknVQJ58S5goQyjmwRw&utm_campaign=yelp_api_v3&utm_medium=api_v3_business_search&utm_source=hBJOknVQJ58S5goQyjmwRw", "review_count": 2, "categories": [{"alias": "vietnamese", "title": "Vietnamese"}], "rating": 2.0, "coordinates": {"latitude": 53.5846424024781, "longitude": 10.1334889233112}, "transactions": [], "location": {"address1": "Sch\u00f6neberger Str. 1", "address2": "", "address3": null, "city": "Hamburg", "zip_code": "22045", "country": "DE", "state": "HH", "display_address": ["Sch\u00f6neberger Str. 1", "22045 Hamburg", "Germany"]}, "phone": "+494066997688", "display_phone": "+49 40 66997688", "distance": 4782.051672205415}, {"id": "WfoA3dcI1IFBi5CIlp4AOA", "alias": "haralds-imbiss-hamburg-2", "name": "Haralds Imbiss", "image_url": "https://s3-media4.fl.yelpcdn.com/bphoto/b8Qk_6KhK-Dod1iTQOVrCQ/o.jpg", "is_closed": false, "url": "https://www.yelp.com/biz/haralds-imbiss-hamburg-2?adjust_creative=hBJOknVQJ58S5goQyjmwRw&utm_campaign=yelp_api_v3&utm_medium=api_v3_business_search&utm_source=hBJOknVQJ58S5goQyjmwRw", "review_count": 6, "categories": [{"alias": "currysausage", "title": "Curry Sausage"}], "rating": 4.5, "coordinates": {"latitude": 53.6509, "longitude": 10.163}, "transactions": [], "price": "\u20ac\u20ac", "location": {"address1": "Marktplatz Volksdorf", "address2": "", "address3": null, "city": "Hamburg", "zip_code": "22359", "country": "DE", "state": "HH", "display_address": ["Marktplatz Volksdorf", "22359 Hamburg", "Germany"]}, "phone": "+4917620821577", "display_phone": "+49 176 20821577", "distance": 2838.7399780848873}, {"id": "ciJqgCeUUG0U0DJMSJFfUA", "alias": "ristorante-italia-hamburg-2", "name": "Ristorante Italia", "image_url": "https://s3-media3.fl.yelpcdn.com/bphoto/ATtLebNmvMdhDCYYO_Bxgw/o.jpg", "is_closed": false, "url": "https://www.yelp.com/biz/ristorante-italia-hamburg-2?adjust_creative=hBJOknVQJ58S5goQyjmwRw&utm_campaign=yelp_api_v3&utm_medium=api_v3_business_search&utm_source=hBJOknVQJ58S5goQyjmwRw", "review_count": 21, "categories": [{"alias": "italian", "title": "Italian"}], "rating": 3.5, "coordinates": {"latitude": 53.64922, "longitude": 10.1678}, "transactions": [], "price": "\u20ac\u20ac", "location": {"address1": "Im Alten Dorfe 40", "address2": null, "address3": null, "city": "Hamburg", "zip_code": "22359", "country": "DE", "state": "HH", "display_address": ["Im Alten Dorfe 40", "22359 Hamburg", "Germany"]}, "phone": "+49406034042", "display_phone": "+49 40 6034042", "distance": 2774.355513515433}, {"id": "cvXBP5-dd8k91V0139Lvxw", "alias": "koralle-bar-und-bistro-hamburg-2", "name": "Koralle Bar & Bistro", "image_url": "https://s3-media2.fl.yelpcdn.com/bphoto/7mB18YhDqJ-IpJSg3ymQ-Q/o.jpg", "is_closed": false, "url": "https://www.yelp.com/biz/koralle-bar-und-bistro-hamburg-2?adjust_creative=hBJOknVQJ58S5goQyjmwRw&utm_campaign=yelp_api_v3&utm_medium=api_v3_business_search&utm_source=hBJOknVQJ58S5goQyjmwRw", "review_count": 1, "categories": [{"alias": "bars", "title": "Bars"}, {"alias": "bistros", "title": "Bistros"}, {"alias": "venues", "title": "Venues & Event Spaces"}], "rating": 4.0, "coordinates": {"latitude": 53.6516153, "longitude": 10.163339}, "transactions": [], "location": {"address1": "Kattjahren 1 A", "address2": "", "address3": null, "city": "Hamburg", "zip_code": "22359", "country": "DE", "state": "HH", "display_address": ["Kattjahren 1 A", "22359 Hamburg", "Germany"]}, "phone": "+494073054695", "display_phone": "+49 40 73054695", "distance": 2921.3559038817907}, {"id": "vSymknDtUzXUuaIthyyr3w", "alias": "mega-d\u00f6ner-hamburg-2", "name": "Mega D\u00f6ner", "image_url": "https://s3-media2.fl.yelpcdn.com/bphoto/Jk3yRhsjWPCjXqus-ua5oA/o.jpg", "is_closed": false, "url": "https://www.yelp.com/biz/mega-d%C3%B6ner-hamburg-2?adjust_creative=hBJOknVQJ58S5goQyjmwRw&utm_campaign=yelp_api_v3&utm_medium=api_v3_business_search&utm_source=hBJOknVQJ58S5goQyjmwRw", "review_count": 14, "categories": [{"alias": "kebab", "title": "Kebab"}], "rating": 3.5, "coordinates": {"latitude": 53.6502, "longitude": 10.16274}, "transactions": [], "price": "\u20ac", "location": {"address1": "Farmsener Landstr. 195", "address2": "", "address3": "", "city": "Hamburg", "zip_code": "22359", "country": "DE", "state": "HH", "display_address": ["Farmsener Landstr. 195", "22359 Hamburg", "Germany"]}, "phone": "", "display_phone": "", "distance": 2790.177509846723}, {"id": "ePKrRNTPT_56S0x2690GAQ", "alias": "das-caf\u00e9haus-hamburg-2", "name": "Das Caf\u00e9haus", "image_url": "https://s3-media1.fl.yelpcdn.com/bphoto/fVGddGQ7I8XTlA33Yai9vA/o.jpg", "is_closed": false, "url": "https://www.yelp.com/biz/das-caf%C3%A9haus-hamburg-2?adjust_creative=hBJOknVQJ58S5goQyjmwRw&utm_campaign=yelp_api_v3&utm_medium=api_v3_business_search&utm_source=hBJOknVQJ58S5goQyjmwRw", "review_count": 35, "categories": [{"alias": "cafes", "title": "Cafes"}, {"alias": "cakeshop", "title": "Patisserie/Cake Shop"}], "rating": 4.0, "coordinates": {"latitude": 53.5955, "longitude": 10.15}, "transactions": [], "price": "\u20ac\u20ac", "location": {"address1": "Rahlstedter Str. 68", "address2": null, "address3": null, "city": "Hamburg", "zip_code": "22149", "country": "DE", "state": "HH", "display_address": ["Rahlstedter Str. 68", "22149 Hamburg", "Germany"]}, "phone": "+49406733234", "display_phone": "+49 40 6733234", "distance": 3428.0285709057853}, {"id": "FNX8Da9zS2soVlmTYnDobQ", "alias": "de-fries-express-hamburg-3", "name": "de Fries Express", "image_url": "https://s3-media3.fl.yelpcdn.com/bphoto/eCMlAK1i79t6mK3wrx9ZSA/o.jpg", "is_closed": false, "url": "https://www.yelp.com/biz/de-fries-express-hamburg-3?adjust_creative=hBJOknVQJ58S5goQyjmwRw&utm_campaign=yelp_api_v3&utm_medium=api_v3_business_search&utm_source=hBJOknVQJ58S5goQyjmwRw", "review_count": 24, "categories": [{"alias": "foodstands", "title": "Food Stands"}, {"alias": "hotdogs", "title": "Fast Food"}], "rating": 4.5, "coordinates": {"latitude": 53.64919, "longitude": 10.16395}, "transactions": [], "price": "\u20ac", "location": {"address1": "Claus-Ferck-Str. 6", "address2": "", "address3": "", "city": "Hamburg", "zip_code": "22359", "country": "DE", "state": "HH", "display_address": ["Claus-Ferck-Str. 6", "22359 Hamburg", "Germany"]}, "phone": "+494060951366", "display_phone": "+49 40 60951366", "distance": 2678.665145615211}, {"id": "LH5ahW4cXmyBSr1D4dSeHA", "alias": "dominos-hamburg-9", "name": "Domino's", "image_url": "https://s3-media1.fl.yelpcdn.com/bphoto/FCXTVrzDPp-nKJjDZzUr0A/o.jpg", "is_closed": false, "url": "https://www.yelp.com/biz/dominos-hamburg-9?adjust_creative=hBJOknVQJ58S5goQyjmwRw&utm_campaign=yelp_api_v3&utm_medium=api_v3_business_search&utm_source=hBJOknVQJ58S5goQyjmwRw", "review_count": 1, "categories": [{"alias": "pizza", "title": "Pizza"}], "rating": 5.0, "coordinates": {"latitude": 53.60255, "longitude": 10.14512}, "transactions": [], "location": {"address1": "Bargteheider Str. 75", "address2": "", "address3": null, "city": "Hamburg", "zip_code": "22143", "country": "DE", "state": "HH", "display_address": ["Bargteheider Str. 75", "22143 Hamburg", "Germany"]}, "phone": "+49406736070", "display_phone": "+49 40 6736070", "distance": 2687.24569387612}, {"id": "IsbYSMWRDpbbZLT3fBHYkg", "alias": "crazy-croque-hamburg-2", "name": "Crazy Croque", "image_url": "https://s3-media3.fl.yelpcdn.com/bphoto/WUzL0UeAwXG_LVlKdaFzSw/o.jpg", "is_closed": false, "url": "https://www.yelp.com/biz/crazy-croque-hamburg-2?adjust_creative=hBJOknVQJ58S5goQyjmwRw&utm_campaign=yelp_api_v3&utm_medium=api_v3_business_search&utm_source=hBJOknVQJ58S5goQyjmwRw", "review_count": 41, "categories": [{"alias": "hotdogs", "title": "Fast Food"}, {"alias": "burgers", "title": "Burgers"}], "rating": 4.0, "coordinates": {"latitude": 53.59841, "longitude": 10.15373}, "transactions": [], "price": "\u20ac\u20ac", "location": {"address1": "Rahlstedter Str. 123", "address2": null, "address3": null, "city": "Hamburg", "zip_code": "22149", "country": "DE", "state": "HH", "display_address": ["Rahlstedter Str. 123", "22149 Hamburg", "Germany"]}, "phone": "+49406777816", "display_phone": "+49 40 6777816", "distance": 3103.638609189627}, {"id": "bGDTPY4glhsdwHxJi8SAEg", "alias": "apos-bistro-hamburg", "name": "Apos Bistro", "image_url": "https://s3-media3.fl.yelpcdn.com/bphoto/fyCZlRLbHPxAve_Kc8LJ2g/o.jpg", "is_closed": false, "url": "https://www.yelp.com/biz/apos-bistro-hamburg?adjust_creative=hBJOknVQJ58S5goQyjmwRw&utm_campaign=yelp_api_v3&utm_medium=api_v3_business_search&utm_source=hBJOknVQJ58S5goQyjmwRw", "review_count": 9, "categories": [{"alias": "bistros", "title": "Bistros"}], "rating": 3.5, "coordinates": {"latitude": 53.6179411, "longitude": 10.1445135}, "transactions": [], "price": "\u20ac\u20ac", "location": {"address1": "Greifenberger Str. 61", "address2": null, "address3": null, "city": "Hamburg", "zip_code": "22147", "country": "DE", "state": "HH", "display_address": ["Greifenberger Str. 61", "22147 Hamburg", "Germany"]}, "phone": "+494064891941", "display_phone": "+49 40 64891941", "distance": 1035.6434948588249}, {"id": "DMrcITnMvwtK9UQQuQ_lVw", "alias": "crazy-kebab-hamburg", "name": "Crazy Kebab", "image_url": "", "is_closed": false, "url": "https://www.yelp.com/biz/crazy-kebab-hamburg?adjust_creative=hBJOknVQJ58S5goQyjmwRw&utm_campaign=yelp_api_v3&utm_medium=api_v3_business_search&utm_source=hBJOknVQJ58S5goQyjmwRw", "review_count": 1, "categories": [{"alias": "kebab", "title": "Kebab"}], "rating": 4.0, "coordinates": {"latitude": 53.627943, "longitude": 10.167453}, "transactions": [], "location": {"address1": "Spitzbergenweg 34 f", "address2": "", "address3": "", "city": "Hamburg", "zip_code": "22145", "country": "DE", "state": "HH", "display_address": ["Spitzbergenweg 34 f", "22145 Hamburg", "Germany"]}, "phone": "+4915205270901", "display_phone": "+49 1520 5270901", "distance": 1061.0438921010525}, {"id": "JgAdQhdsjWBMXxqPTRTjTA", "alias": "chios-grill-hamburg-2", "name": "Chios Grill", "image_url": "https://s3-media3.fl.yelpcdn.com/bphoto/fZaJtT-ZO5Ivv4cdF_mRSA/o.jpg", "is_closed": false, "url": "https://www.yelp.com/biz/chios-grill-hamburg-2?adjust_creative=hBJOknVQJ58S5goQyjmwRw&utm_campaign=yelp_api_v3&utm_medium=api_v3_business_search&utm_source=hBJOknVQJ58S5goQyjmwRw", "review_count": 10, "categories": [{"alias": "greek", "title": "Greek"}], "rating": 4.5, "coordinates": {"latitude": 53.5924887, "longitude": 10.1373915}, "transactions": [], "price": "\u20ac\u20ac", "location": {"address1": "Tonndorfer Hauptstr. 176", "address2": "", "address3": "", "city": "Hamburg", "zip_code": "22045", "country": "DE", "state": "HH", "display_address": ["Tonndorfer Hauptstr. 176", "22045 Hamburg", "Germany"]}, "phone": "+494087093156", "display_phone": "+49 40 87093156", "distance": 3873.1577771451307}, {"id": "DsJCxIY0iM8FWMt5Eel8sQ", "alias": "braaker-m\u00fchle-hamburg-4", "name": "Braaker M\u00fchle", "image_url": "https://s3-media3.fl.yelpcdn.com/bphoto/NcXvstHEjtJ3DGFlP3Z_yA/o.jpg", "is_closed": false, "url": "https://www.yelp.com/biz/braaker-m%C3%BChle-hamburg-4?adjust_creative=hBJOknVQJ58S5goQyjmwRw&utm_campaign=yelp_api_v3&utm_medium=api_v3_business_search&utm_source=hBJOknVQJ58S5goQyjmwRw", "review_count": 4, "categories": [{"alias": "bakeries", "title": "Bakeries"}, {"alias": "cafes", "title": "Cafes"}, {"alias": "sandwiches", "title": "Sandwiches"}], "rating": 5.0, "coordinates": {"latitude": 53.6141431, "longitude": 10.1563974}, "transactions": [], "price": "\u20ac", "location": {"address1": "Oldenfelder Stieg 2", "address2": null, "address3": null, "city": "Hamburg", "zip_code": "22143", "country": "DE", "state": "HH", "display_address": ["Oldenfelder Stieg 2", "22143 Hamburg", "Germany"]}, "phone": "+494066854242", "display_phone": "+49 40 66854242", "distance": 1393.7160481385545}, {"id": "HC4LSmTCh1Xm_N3F8HRalA", "alias": "thai-foo-hamburg-2", "name": "thai foo", "image_url": "https://s3-media2.fl.yelpcdn.com/bphoto/AszGYatnLkzlbEc7BjMzlg/o.jpg", "is_closed": false, "url": "https://www.yelp.com/biz/thai-foo-hamburg-2?adjust_creative=hBJOknVQJ58S5goQyjmwRw&utm_campaign=yelp_api_v3&utm_medium=api_v3_business_search&utm_source=hBJOknVQJ58S5goQyjmwRw", "review_count": 7, "categories": [{"alias": "thai", "title": "Thai"}], "rating": 4.0, "coordinates": {"latitude": 53.6042, "longitude": 10.157}, "transactions": [], "price": "\u20ac\u20ac", "location": {"address1": "Wariner Weg 1", "address2": "", "address3": null, "city": "Hamburg", "zip_code": "22143", "country": "DE", "state": "HH", "display_address": ["Wariner Weg 1", "22143 Hamburg", "Germany"]}, "phone": "+494066977966", "display_phone": "+49 40 66977966", "distance": 2487.242402148769}, {"id": "4hyYnYXQgIEaiilM2OMyqA", "alias": "conditorei-steidl-hamburg", "name": "Conditorei Steidl", "image_url": "https://s3-media1.fl.yelpcdn.com/bphoto/oHpBuJRFYkA7y7UI1XCDNw/o.jpg", "is_closed": false, "url": "https://www.yelp.com/biz/conditorei-steidl-hamburg?adjust_creative=hBJOknVQJ58S5goQyjmwRw&utm_campaign=yelp_api_v3&utm_medium=api_v3_business_search&utm_source=hBJOknVQJ58S5goQyjmwRw", "review_count": 19, "categories": [{"alias": "bakeries", "title": "Bakeries"}, {"alias": "cafes", "title": "Cafes"}, {"alias": "cakeshop", "title": "Patisserie/Cake Shop"}], "rating": 4.5, "coordinates": {"latitude": 53.6035, "longitude": 10.1547}, "transactions": [], "price": "\u20ac\u20ac", "location": {"address1": "Rahlstedter Bahnhofstr. 12", "address2": null, "address3": null, "city": "Hamburg", "zip_code": "22143", "country": "DE", "state": "HH", "display_address": ["Rahlstedter Bahnhofstr. 12", "22143 Hamburg", "Germany"]}, "phone": "+49406772269", "display_phone": "+49 40 6772269", "distance": 2546.7181251111624}, {"id": "hsO_CX7RKshbcl1B-WRiUQ", "alias": "fischhaus-volksdorf-hamburg", "name": "Fischhaus Volksdorf", "image_url": "https://s3-media2.fl.yelpcdn.com/bphoto/W2_U5l3vXS6bQyO6FYqXig/o.jpg", "is_closed": false, "url": "https://www.yelp.com/biz/fischhaus-volksdorf-hamburg?adjust_creative=hBJOknVQJ58S5goQyjmwRw&utm_campaign=yelp_api_v3&utm_medium=api_v3_business_search&utm_source=hBJOknVQJ58S5goQyjmwRw", "review_count": 5, "categories": [{"alias": "seafoodmarkets", "title": "Seafood Markets"}, {"alias": "bistros", "title": "Bistros"}], "rating": 4.0, "coordinates": {"latitude": 53.64923, "longitude": 10.16645}, "transactions": [], "price": "\u20ac", "location": {"address1": "Dorfwinkel 4-6", "address2": null, "address3": null, "city": "Hamburg", "zip_code": "22359", "country": "DE", "state": "HH", "display_address": ["Dorfwinkel 4-6", "22359 Hamburg", "Germany"]}, "phone": "+49406032018", "display_phone": "+49 40 6032018", "distance": 2738.5566095034897}, {"id": "BL-u2e43zzO4lPtZvN-eWg", "alias": "schelles-imbiss-hamburg", "name": "Schelle's Imbiss", "image_url": "https://s3-media2.fl.yelpcdn.com/bphoto/Ux7xJWMsxPKJbRB_i72dHg/o.jpg", "is_closed": false, "url": "https://www.yelp.com/biz/schelles-imbiss-hamburg?adjust_creative=hBJOknVQJ58S5goQyjmwRw&utm_campaign=yelp_api_v3&utm_medium=api_v3_business_search&utm_source=hBJOknVQJ58S5goQyjmwRw", "review_count": 6, "categories": [{"alias": "hotdogs", "title": "Fast Food"}], "rating": 4.0, "coordinates": {"latitude": 53.6219, "longitude": 10.1548}, "transactions": [], "price": "\u20ac", "location": {"address1": "Bargkoppelweg 56", "address2": null, "address3": null, "city": "Hamburg", "zip_code": "22145", "country": "DE", "state": "HH", "display_address": ["Bargkoppelweg 56", "22145 Hamburg", "Germany"]}, "phone": "", "display_phone": "", "distance": 540.6682273940928}, {"id": "bp2Z3UichsPCMfokIAluvA", "alias": "san-marino-hamburg-2", "name": "San Marino", "image_url": "https://s3-media1.fl.yelpcdn.com/bphoto/TP-eYZnMzYNO3_GGkPkLRA/o.jpg", "is_closed": false, "url": "https://www.yelp.com/biz/san-marino-hamburg-2?adjust_creative=hBJOknVQJ58S5goQyjmwRw&utm_campaign=yelp_api_v3&utm_medium=api_v3_business_search&utm_source=hBJOknVQJ58S5goQyjmwRw", "review_count": 6, "categories": [{"alias": "italian", "title": "Italian"}], "rating": 3.0, "coordinates": {"latitude": 53.6186151617801, "longitude": 10.1356185972691}, "transactions": [], "price": "\u20ac\u20ac", "location": {"address1": "Bekassinenau 114", "address2": "", "address3": "", "city": "Hamburg", "zip_code": "22147", "country": "DE", "state": "HH", "display_address": ["Bekassinenau 114", "22147 Hamburg", "Germany"]}, "phone": "+494067103931", "display_phone": "+49 40 67103931", "distance": 1346.7392436510765}, {"id": "_XirIBJrLshZc3lwO8uC0A", "alias": "sultans-kepub-hamburg-2", "name": "Sultan's Kepub", "image_url": "https://s3-media4.fl.yelpcdn.com/bphoto/aaPhwuwSP93ZK8RAmJ45_A/o.jpg", "is_closed": false, "url": "https://www.yelp.com/biz/sultans-kepub-hamburg-2?adjust_creative=hBJOknVQJ58S5goQyjmwRw&utm_campaign=yelp_api_v3&utm_medium=api_v3_business_search&utm_source=hBJOknVQJ58S5goQyjmwRw", "review_count": 15, "categories": [{"alias": "turkish", "title": "Turkish"}, {"alias": "kebab", "title": "Kebab"}], "rating": 3.0, "coordinates": {"latitude": 53.60413, "longitude": 10.15482}, "transactions": [], "price": "\u20ac", "location": {"address1": "Rahlstedter Bahnhofstr. 6", "address2": "", "address3": "", "city": "Hamburg", "zip_code": "22143", "country": "DE", "state": "HH", "display_address": ["Rahlstedter Bahnhofstr. 6", "22143 Hamburg", "Germany"]}, "phone": "+494067563119", "display_phone": "+49 40 67563119", "distance": 2472.1679247073475}, {"id": "XAYxj7jgDCYCHeeeW6EZpA", "alias": "leandros-hamburg", "name": "Leandros", "image_url": "https://s3-media2.fl.yelpcdn.com/bphoto/uvaiNTyOECCTTC-0czXxKg/o.jpg", "is_closed": false, "url": "https://www.yelp.com/biz/leandros-hamburg?adjust_creative=hBJOknVQJ58S5goQyjmwRw&utm_campaign=yelp_api_v3&utm_medium=api_v3_business_search&utm_source=hBJOknVQJ58S5goQyjmwRw", "review_count": 7, "categories": [{"alias": "greek", "title": "Greek"}], "rating": 2.5, "coordinates": {"latitude": 53.6427, "longitude": 10.12886}, "transactions": [], "price": "\u20ac\u20ac\u20ac", "location": {"address1": "Meiendorfer M\u00fchlenweg 35", "address2": "", "address3": null, "city": "Hamburg", "zip_code": "22393", "country": "DE", "state": "HH", "display_address": ["Meiendorfer M\u00fchlenweg 35", "22393 Hamburg", "Germany"]}, "phone": "+494049207616", "display_phone": "+49 40 49207616", "distance": 2218.1309085782054}, {"id": "FcY_keScM6glMY9XkSzYqA", "alias": "die-villa-wiener-kaffeehaus-hamburg", "name": "Die Villa - Wiener Kaffeehaus", "image_url": "https://s3-media2.fl.yelpcdn.com/bphoto/sbmQ_n00mxSp73REyvCzbw/o.jpg", "is_closed": false, "url": "https://www.yelp.com/biz/die-villa-wiener-kaffeehaus-hamburg?adjust_creative=hBJOknVQJ58S5goQyjmwRw&utm_campaign=yelp_api_v3&utm_medium=api_v3_business_search&utm_source=hBJOknVQJ58S5goQyjmwRw", "review_count": 17, "categories": [{"alias": "cafes", "title": "Cafes"}], "rating": 3.5, "coordinates": {"latitude": 53.64847, "longitude": 10.166}, "transactions": [], "price": "\u20ac\u20ac", "location": {"address1": "Ohlendorff'sche Villa", "address2": "Im Alten Dorfe 28", "address3": "", "city": "Hamburg", "zip_code": "22359", "country": "DE", "state": "HH", "display_address": ["Ohlendorff'sche Villa", "Im Alten Dorfe 28", "22359 Hamburg", "Germany"]}, "phone": "+49406032558", "display_phone": "+49 40 6032558", "distance": 2643.602025281526}, {"id": "RbgazphzWysS4xHd-TU1Bg", "alias": "filmkantine-hamburg", "name": "Filmkantine", "image_url": "https://s3-media2.fl.yelpcdn.com/bphoto/0i1NzGhMcO-WIwsKXppxhQ/o.jpg", "is_closed": false, "url": "https://www.yelp.com/biz/filmkantine-hamburg?adjust_creative=hBJOknVQJ58S5goQyjmwRw&utm_campaign=yelp_api_v3&utm_medium=api_v3_business_search&utm_source=hBJOknVQJ58S5goQyjmwRw", "review_count": 6, "categories": [{"alias": "canteen", "title": "Canteen"}], "rating": 3.5, "coordinates": {"latitude": 53.586, "longitude": 10.1269}, "transactions": [], "price": "\u20ac\u20ac\u20ac", "location": {"address1": "Studio Hamburg", "address2": "Jenfelder Allee 80", "address3": null, "city": "Hamburg", "zip_code": "22039", "country": "DE", "state": "HH", "display_address": ["Studio Hamburg", "Jenfelder Allee 80", "22039 Hamburg", "Germany"]}, "phone": "+4966885310", "display_phone": "+49 6688 5310", "distance": 4765.150982459168}, {"id": "ZBdsClM5VLExQkhKt9LXpw", "alias": "budai-hamburg", "name": "Budai", "image_url": "https://s3-media4.fl.yelpcdn.com/bphoto/jfibhyWOvP87ReXvqdf0AA/o.jpg", "is_closed": false, "url": "https://www.yelp.com/biz/budai-hamburg?adjust_creative=hBJOknVQJ58S5goQyjmwRw&utm_campaign=yelp_api_v3&utm_medium=api_v3_business_search&utm_source=hBJOknVQJ58S5goQyjmwRw", "review_count": 10, "categories": [{"alias": "mongolian", "title": "Mongolian"}, {"alias": "panasian", "title": "Pan Asian"}], "rating": 3.0, "coordinates": {"latitude": 53.60516, "longitude": 10.16089}, "transactions": [], "price": "\u20ac\u20ac", "location": {"address1": "Schweriner Str. 25", "address2": "", "address3": "", "city": "Hamburg", "zip_code": "22143", "country": "DE", "state": "HH", "display_address": ["Schweriner Str. 25", "22143 Hamburg", "Germany"]}, "phone": "+494065912760", "display_phone": "+49 40 65912760", "distance": 2432.741344832943}, {"id": "oohAJFC5eClaPZO9dcsrsw", "alias": "taverna-bei-anna-hamburg", "name": "Taverna Bei Anna", "image_url": "https://s3-media2.fl.yelpcdn.com/bphoto/4r4ro1JOdeeszyl0G917-w/o.jpg", "is_closed": false, "url": "https://www.yelp.com/biz/taverna-bei-anna-hamburg?adjust_creative=hBJOknVQJ58S5goQyjmwRw&utm_campaign=yelp_api_v3&utm_medium=api_v3_business_search&utm_source=hBJOknVQJ58S5goQyjmwRw", "review_count": 24, "categories": [{"alias": "greek", "title": "Greek"}], "rating": 3.5, "coordinates": {"latitude": 53.6141, "longitude": 10.1357}, "transactions": [], "price": "\u20ac\u20ac", "location": {"address1": "Bekassinenau 67", "address2": null, "address3": null, "city": "Hamburg", "zip_code": "22147", "country": "DE", "state": "HH", "display_address": ["Bekassinenau 67", "22147 Hamburg", "Germany"]}, "phone": "+49406471357", "display_phone": "+49 40 6471357", "distance": 1707.2875043672113}, {"id": "0soS9xKofIm-drjJJrW74Q", "alias": "asiahub-hamburg-2", "name": "asiahub", "image_url": "https://s3-media2.fl.yelpcdn.com/bphoto/VCaQR_LGNvgAAU8Wugm1Bg/o.jpg", "is_closed": false, "url": "https://www.yelp.com/biz/asiahub-hamburg-2?adjust_creative=hBJOknVQJ58S5goQyjmwRw&utm_campaign=yelp_api_v3&utm_medium=api_v3_business_search&utm_source=hBJOknVQJ58S5goQyjmwRw", "review_count": 11, "categories": [{"alias": "sushi", "title": "Sushi Bars"}, {"alias": "panasian", "title": "Pan Asian"}], "rating": 2.5, "coordinates": {"latitude": 53.6047978946913, "longitude": 10.1549449190497}, "transactions": [], "location": {"address1": "Helmut-Steidl-Platz 3 - 5", "address2": "", "address3": "", "city": "Hamburg", "zip_code": "22143", "country": "DE", "state": "HH", "display_address": ["Helmut-Steidl-Platz 3 - 5", "22143 Hamburg", "Germany"]}, "phone": "+494067105272", "display_phone": "+49 40 67105272", "distance": 2404.4938785890413}, {"id": "bk2qiPr9VurFqhpSBY8uoA", "alias": "hamers-hamburg", "name": "Hamer's", "image_url": "https://s3-media2.fl.yelpcdn.com/bphoto/mKbkUqobN8q_Ke-gSrSVXw/o.jpg", "is_closed": false, "url": "https://www.yelp.com/biz/hamers-hamburg?adjust_creative=hBJOknVQJ58S5goQyjmwRw&utm_campaign=yelp_api_v3&utm_medium=api_v3_business_search&utm_source=hBJOknVQJ58S5goQyjmwRw", "review_count": 2, "categories": [{"alias": "cafes", "title": "Cafes"}], "rating": 2.5, "coordinates": {"latitude": 53.649061, "longitude": 10.164155}, "transactions": [], "price": "\u20ac", "location": {"address1": "Claus-Ferck-Str. 4", "address2": null, "address3": "", "city": "Hamburg", "zip_code": "22359", "country": "DE", "state": "HH", "display_address": ["Claus-Ferck-Str. 4", "22359 Hamburg", "Germany"]}, "phone": "+494030740830", "display_phone": "+49 40 30740830", "distance": 2665.5021045918147}, {"id": "7cmEUHIsFpaiEo8p7EFRag", "alias": "cafe-del-sol-hamburg-2", "name": "Cafe Del Sol", "image_url": "https://s3-media2.fl.yelpcdn.com/bphoto/VOKdSBA9DkdZ4ffBiN3WpQ/o.jpg", "is_closed": false, "url": "https://www.yelp.com/biz/cafe-del-sol-hamburg-2?adjust_creative=hBJOknVQJ58S5goQyjmwRw&utm_campaign=yelp_api_v3&utm_medium=api_v3_business_search&utm_source=hBJOknVQJ58S5goQyjmwRw", "review_count": 145, "categories": [{"alias": "german", "title": "German"}, {"alias": "breakfast_brunch", "title": "Breakfast & Brunch"}], "rating": 3.5, "coordinates": {"latitude": 53.58419, "longitude": 10.126157}, "transactions": [], "price": "\u20ac\u20ac", "location": {"address1": "Jenfelder Allee 80 A", "address2": "", "address3": null, "city": "Hamburg", "zip_code": "22045", "country": "DE", "state": "HH", "display_address": ["Jenfelder Allee 80 A", "22045 Hamburg", "Germany"]}, "phone": "+494066857534", "display_phone": "+49 40 66857534", "distance": 5021.443758581014}, {"id": "T_tQNhEpiurIvuZS3nRbEw", "alias": "le-petit-hamburg", "name": "Le Petit", "image_url": "https://s3-media1.fl.yelpcdn.com/bphoto/NFwrLZWqzWuwQ04gJCm8kA/o.jpg", "is_closed": false, "url": "https://www.yelp.com/biz/le-petit-hamburg?adjust_creative=hBJOknVQJ58S5goQyjmwRw&utm_campaign=yelp_api_v3&utm_medium=api_v3_business_search&utm_source=hBJOknVQJ58S5goQyjmwRw", "review_count": 7, "categories": [{"alias": "cafes", "title": "Cafes"}, {"alias": "bistros", "title": "Bistros"}], "rating": 3.0, "coordinates": {"latitude": 53.6488113, "longitude": 10.1679096}, "transactions": [], "price": "\u20ac", "location": {"address1": "Wiesenh\u00f6fen 3", "address2": "", "address3": "", "city": "Hamburg", "zip_code": "22359", "country": "DE", "state": "HH", "display_address": ["Wiesenh\u00f6fen 3", "22359 Hamburg", "Germany"]}, "phone": "+494054756660", "display_phone": "+49 40 54756660", "distance": 2735.5898406965302}, {"id": "t-8RttB1p7LGZ96k3mLZJg", "alias": "asia-bistro-saigon-hamburg", "name": "Asia Bistro Saigon", "image_url": "https://s3-media1.fl.yelpcdn.com/bphoto/wV6V5DfgSvT2QrkqUvU8gA/o.jpg", "is_closed": false, "url": "https://www.yelp.com/biz/asia-bistro-saigon-hamburg?adjust_creative=hBJOknVQJ58S5goQyjmwRw&utm_campaign=yelp_api_v3&utm_medium=api_v3_business_search&utm_source=hBJOknVQJ58S5goQyjmwRw", "review_count": 9, "categories": [{"alias": "chinese", "title": "Chinese"}, {"alias": "panasian", "title": "Pan Asian"}], "rating": 4.5, "coordinates": {"latitude": 53.6, "longitude": 10.1394}, "transactions": [], "price": "\u20ac\u20ac", "location": {"address1": "Scharbeutzer Str. 85", "address2": null, "address3": null, "city": "Hamburg", "zip_code": "22147", "country": "DE", "state": "HH", "display_address": ["Scharbeutzer Str. 85", "22147 Hamburg", "Germany"]}, "phone": "+49406431206", "display_phone": "+49 40 6431206", "distance": 3031.2159748946747}, {"id": "BnU3fJl_W0xfbLbUxy8JNQ", "alias": "schweinske-hamburg-21", "name": "Schweinske", "image_url": "https://s3-media2.fl.yelpcdn.com/bphoto/ZhfgHKFDPyXMIC0OBZzg7g/o.jpg", "is_closed": false, "url": "https://www.yelp.com/biz/schweinske-hamburg-21?adjust_creative=hBJOknVQJ58S5goQyjmwRw&utm_campaign=yelp_api_v3&utm_medium=api_v3_business_search&utm_source=hBJOknVQJ58S5goQyjmwRw", "review_count": 36, "categories": [{"alias": "german", "title": "German"}, {"alias": "breakfast_brunch", "title": "Breakfast & Brunch"}], "rating": 3.0, "coordinates": {"latitude": 53.6046159, "longitude": 10.1591506}, "transactions": [], "price": "\u20ac\u20ac", "location": {"address1": "Schweriner Str. 8 - 12", "address2": "", "address3": "", "city": "Hamburg", "zip_code": "22143", "country": "DE", "state": "HH", "display_address": ["Schweriner Str. 8 - 12", "22143 Hamburg", "Germany"]}, "phone": "+494067584422", "display_phone": "+49 40 67584422", "distance": 2467.0609411506425}, {"id": "efI_NlXd4vZz03SsjaLRCA", "alias": "d\u00f6-back-hamburg-2", "name": "D\u00d6-Back", "image_url": "https://s3-media3.fl.yelpcdn.com/bphoto/OLOR81E_mA0YOlaFQbz4_w/o.jpg", "is_closed": false, "url": "https://www.yelp.com/biz/d%C3%B6-back-hamburg-2?adjust_creative=hBJOknVQJ58S5goQyjmwRw&utm_campaign=yelp_api_v3&utm_medium=api_v3_business_search&utm_source=hBJOknVQJ58S5goQyjmwRw", "review_count": 5, "categories": [{"alias": "kebab", "title": "Kebab"}], "rating": 3.0, "coordinates": {"latitude": 53.6267, "longitude": 10.13893}, "transactions": [], "price": "\u20ac", "location": {"address1": "Berner Heerweg 372", "address2": null, "address3": "", "city": "Hamburg", "zip_code": "22159", "country": "DE", "state": "HH", "display_address": ["Berner Heerweg 372", "22159 Hamburg", "Germany"]}, "phone": "+494064861088", "display_phone": "+49 40 64861088", "distance": 826.7210722519933}, {"id": "CAsdxz7NDDTmobcMTR9adQ", "alias": "peters-h\u00e4hnchen-grill-hamburg-2", "name": "Peter's H\u00e4hnchen Grill", "image_url": "https://s3-media2.fl.yelpcdn.com/bphoto/bCTklMfBHdjSSHRJaPG7Jg/o.jpg", "is_closed": false, "url": "https://www.yelp.com/biz/peters-h%C3%A4hnchen-grill-hamburg-2?adjust_creative=hBJOknVQJ58S5goQyjmwRw&utm_campaign=yelp_api_v3&utm_medium=api_v3_business_search&utm_source=hBJOknVQJ58S5goQyjmwRw", "review_count": 14, "categories": [{"alias": "hotdogs", "title": "Fast Food"}], "rating": 2.0, "coordinates": {"latitude": 53.58432, "longitude": 10.14268}, "transactions": [], "price": "\u20ac\u20ac", "location": {"address1": "Berliner Platz 19", "address2": "", "address3": null, "city": "Hamburg", "zip_code": "22045", "country": "DE", "state": "HH", "display_address": ["Berliner Platz 19", "22045 Hamburg", "Germany"]}, "phone": "+49406533121", "display_phone": "+49 40 6533121", "distance": 4710.110110647323}, {"id": "Ct8p-l9z7Irdh6DK6ujlkg", "alias": "smileys-hamburg", "name": "Smiley's", "image_url": "https://s3-media4.fl.yelpcdn.com/bphoto/ZeAhxSEvejN5QMK3EBRGjA/o.jpg", "is_closed": false, "url": "https://www.yelp.com/biz/smileys-hamburg?adjust_creative=hBJOknVQJ58S5goQyjmwRw&utm_campaign=yelp_api_v3&utm_medium=api_v3_business_search&utm_source=hBJOknVQJ58S5goQyjmwRw", "review_count": 23, "categories": [{"alias": "pizza", "title": "Pizza"}], "rating": 3.5, "coordinates": {"latitude": 53.60262, "longitude": 10.1291}, "transactions": [], "price": "\u20ac\u20ac", "location": {"address1": "Alter Zollweg 192", "address2": null, "address3": null, "city": "Hamburg", "zip_code": "22147", "country": "DE", "state": "HH", "display_address": ["Alter Zollweg 192", "22147 Hamburg", "Germany"]}, "phone": "+494064539560", "display_phone": "+49 40 64539560", "distance": 2971.8607593919564}, {"id": "oj5pmfBRQjrqELlYgh8VQw", "alias": "zenthai-hamburg-5", "name": "Zenthai", "image_url": "https://s3-media1.fl.yelpcdn.com/bphoto/cuSqnTvLsBJUzL8nLxdukg/o.jpg", "is_closed": false, "url": "https://www.yelp.com/biz/zenthai-hamburg-5?adjust_creative=hBJOknVQJ58S5goQyjmwRw&utm_campaign=yelp_api_v3&utm_medium=api_v3_business_search&utm_source=hBJOknVQJ58S5goQyjmwRw", "review_count": 12, "categories": [{"alias": "panasian", "title": "Pan Asian"}], "rating": 3.5, "coordinates": {"latitude": 53.6048, "longitude": 10.1578}, "transactions": [], "price": "\u20ac", "location": {"address1": "Wariner Weg 1", "address2": "", "address3": "", "city": "Hamburg", "zip_code": "22143", "country": "DE", "state": "HH", "display_address": ["Wariner Weg 1", "22143 Hamburg", "Germany"]}, "phone": "+494067105239", "display_phone": "+49 40 67105239", "distance": 2429.9346412216682}, {"id": "veiIRrnbIIY3Udy0wRlpXw", "alias": "hallo-pizza-hamburg-12", "name": "Hallo Pizza!", "image_url": "https://s3-media3.fl.yelpcdn.com/bphoto/vn2q6AmBLXTUn0mkYIIPWQ/o.jpg", "is_closed": false, "url": "https://www.yelp.com/biz/hallo-pizza-hamburg-12?adjust_creative=hBJOknVQJ58S5goQyjmwRw&utm_campaign=yelp_api_v3&utm_medium=api_v3_business_search&utm_source=hBJOknVQJ58S5goQyjmwRw", "review_count": 6, "categories": [{"alias": "pizza", "title": "Pizza"}], "rating": 5.0, "coordinates": {"latitude": 53.58424, "longitude": 10.13803}, "transactions": [], "price": "\u20ac\u20ac\u20ac\u20ac", "location": {"address1": "Sch\u00f6neberger Str. 20", "address2": null, "address3": null, "city": "Hamburg", "zip_code": "22045", "country": "DE", "state": "HH", "display_address": ["Sch\u00f6neberger Str. 20", "22045 Hamburg", "Germany"]}, "phone": "+494052388700", "display_phone": "+49 40 52388700", "distance": 4761.021484042555}, {"id": "_KEs5iyxsJzhE6dmiur-_Q", "alias": "corfu-grill-hamburg-6", "name": "Corfu Grill", "image_url": "https://s3-media1.fl.yelpcdn.com/bphoto/PjW1pXfqtgldYbIZW1EB3A/o.jpg", "is_closed": false, "url": "https://www.yelp.com/biz/corfu-grill-hamburg-6?adjust_creative=hBJOknVQJ58S5goQyjmwRw&utm_campaign=yelp_api_v3&utm_medium=api_v3_business_search&utm_source=hBJOknVQJ58S5goQyjmwRw", "review_count": 14, "categories": [{"alias": "greek", "title": "Greek"}, {"alias": "hotdogs", "title": "Fast Food"}], "rating": 3.5, "coordinates": {"latitude": 53.6034816, "longitude": 10.1304022}, "transactions": [], "price": "\u20ac\u20ac\u20ac", "location": {"address1": "Alter Zollweg 197", "address2": "", "address3": "", "city": "Hamburg", "zip_code": "22147", "country": "DE", "state": "HH", "display_address": ["Alter Zollweg 197", "22147 Hamburg", "Germany"]}, "phone": "+49406470946", "display_phone": "+49 40 6470946", "distance": 2891.754380284028}, {"id": "Z9ed1JBXupt9ULdZXNRbNg", "alias": "asialong-hamburg", "name": "asialong", "image_url": "", "is_closed": false, "url": "https://www.yelp.com/biz/asialong-hamburg?adjust_creative=hBJOknVQJ58S5goQyjmwRw&utm_campaign=yelp_api_v3&utm_medium=api_v3_business_search&utm_source=hBJOknVQJ58S5goQyjmwRw", "review_count": 4, "categories": [{"alias": "vietnamese", "title": "Vietnamese"}, {"alias": "panasian", "title": "Pan Asian"}], "rating": 3.5, "coordinates": {"latitude": 53.6000801166592, "longitude": 10.1389519202378}, "transactions": [], "location": {"address1": "Scharbeutzer Str. 85", "address2": null, "address3": "", "city": "Hamburg", "zip_code": "22147", "country": "DE", "state": "HH", "display_address": ["Scharbeutzer Str. 85", "22147 Hamburg", "Germany"]}, "phone": "+494088187329", "display_phone": "+49 40 88187329", "distance": 3030.47593377442}, {"id": "57LCrGUEZ8tfhIu1x3iuUA", "alias": "super-fly-pizza-hamburg", "name": "Super Fly Pizza", "image_url": "https://s3-media1.fl.yelpcdn.com/bphoto/AKSSAI-k-ym8RnvK10ZC3g/o.jpg", "is_closed": false, "url": "https://www.yelp.com/biz/super-fly-pizza-hamburg?adjust_creative=hBJOknVQJ58S5goQyjmwRw&utm_campaign=yelp_api_v3&utm_medium=api_v3_business_search&utm_source=hBJOknVQJ58S5goQyjmwRw", "review_count": 2, "categories": [{"alias": "international", "title": "International"}], "rating": 2.5, "coordinates": {"latitude": 53.59565, "longitude": 10.15009}, "transactions": [], "location": {"address1": "Rahlstedter Str. 63", "address2": null, "address3": null, "city": "Hamburg", "zip_code": "22149", "country": "DE", "state": "HH", "display_address": ["Rahlstedter Str. 63", "22149 Hamburg", "Germany"]}, "phone": "+49406724594", "display_phone": "+49 40 6724594", "distance": 3411.2023225053613}, {"id": "GAr3zXBkM2Nevra3ynvanA", "alias": "mcdonalds-hamburg-47", "name": "McDonald's", "image_url": "https://s3-media2.fl.yelpcdn.com/bphoto/L2HglFM6lp7VrexwqSLaYw/o.jpg", "is_closed": false, "url": "https://www.yelp.com/biz/mcdonalds-hamburg-47?adjust_creative=hBJOknVQJ58S5goQyjmwRw&utm_campaign=yelp_api_v3&utm_medium=api_v3_business_search&utm_source=hBJOknVQJ58S5goQyjmwRw", "review_count": 2, "categories": [{"alias": "burgers", "title": "Burgers"}, {"alias": "hotdogs", "title": "Fast Food"}], "rating": 4.0, "coordinates": {"latitude": 53.6044046711992, "longitude": 10.1541911744995}, "transactions": [], "price": "\u20ac", "location": {"address1": "Helmut-Steidl-Platz 5", "address2": "", "address3": "", "city": "Hamburg", "zip_code": "22143", "country": "DE", "state": "HH", "display_address": ["Helmut-Steidl-Platz 5", "22143 Hamburg", "Germany"]}, "phone": "+494066851611", "display_phone": "+49 40 66851611", "distance": 2443.733321066227}]