[{"id": "_LUuKmNFXN6A4i20goDGUg", "alias": "ph\u00f6nix-halstenbek", "name": "Ph\u00f6nix", "image_url": "https://s3-media3.fl.yelpcdn.com/bphoto/SoEnGeDnEFAM1hsMO929BA/o.jpg", "is_closed": false, "url": "https://www.yelp.com/biz/ph%C3%B6nix-halstenbek?adjust_creative=hBJOknVQJ58S5goQyjmwRw&utm_campaign=yelp_api_v3&utm_medium=api_v3_business_search&utm_source=hBJOknVQJ58S5goQyjmwRw", "review_count": 28, "categories": [{"alias": "mongolian", "title": "Mongolian"}, {"alias": "chinese", "title": "Chinese"}], "rating": 4.0, "coordinates": {"latitude": 53.62784, "longitude": 9.86763}, "transactions": [], "price": "\u20ac\u20ac", "location": {"address1": "Seemoorweg 3", "address2": "", "address3": "", "city": "Halstenbek", "zip_code": "25469", "country": "DE", "state": "SH", "display_address": ["Seemoorweg 3", "25469 Halstenbek", "Germany"]}, "phone": "+4941017877168", "display_phone": "+49 4101 7877168", "distance": 1257.4899594669844}, {"id": "ELSgUz9uk7GUAYf3oVKVEA", "alias": "mediterran-rellingen", "name": "Mediterran", "image_url": "https://s3-media1.fl.yelpcdn.com/bphoto/RYt9YEiUqHKGRyWdOsvbKg/o.jpg", "is_closed": false, "url": "https://www.yelp.com/biz/mediterran-rellingen?adjust_creative=hBJOknVQJ58S5goQyjmwRw&utm_campaign=yelp_api_v3&utm_medium=api_v3_business_search&utm_source=hBJOknVQJ58S5goQyjmwRw", "review_count": 10, "categories": [{"alias": "mediterranean", "title": "Mediterranean"}, {"alias": "greek", "title": "Greek"}], "rating": 4.5, "coordinates": {"latitude": 53.6413, "longitude": 9.8707}, "transactions": [], "location": {"address1": "Kellerstr. 136", "address2": null, "address3": null, "city": "Rellingen", "zip_code": "25462", "country": "DE", "state": "SH", "display_address": ["Kellerstr. 136", "25462 Rellingen", "Germany"]}, "phone": "+4941017739088", "display_phone": "+49 4101 7739088", "distance": 1991.0787621841903}, {"id": "s8YuoOunBZCW-fYkFv2i2A", "alias": "hoh-und-hoh-hamburg", "name": "Hoh & Hoh", "image_url": "https://s3-media4.fl.yelpcdn.com/bphoto/L6pCHJkPD1Oeio-J24aR8Q/o.jpg", "is_closed": false, "url": "https://www.yelp.com/biz/hoh-und-hoh-hamburg?adjust_creative=hBJOknVQJ58S5goQyjmwRw&utm_campaign=yelp_api_v3&utm_medium=api_v3_business_search&utm_source=hBJOknVQJ58S5goQyjmwRw", "review_count": 25, "categories": [{"alias": "chinese", "title": "Chinese"}], "rating": 4.5, "coordinates": {"latitude": 53.599, "longitude": 9.86185}, "transactions": [], "price": "\u20ac\u20ac", "location": {"address1": "Fahrenort 125", "address2": null, "address3": null, "city": "Hamburg", "zip_code": "22547", "country": "DE", "state": "HH", "display_address": ["Fahrenort 125", "22547 Hamburg", "Germany"]}, "phone": "+494086643878", "display_phone": "+49 40 86643878", "distance": 3425.0880836151346}, {"id": "L-BkX8ezga-odvGyMFiO4w", "alias": "fellini-schenefeld", "name": "Fellini", "image_url": "https://s3-media4.fl.yelpcdn.com/bphoto/WTikpLKwyxrwQKn2bl5z3g/o.jpg", "is_closed": false, "url": "https://www.yelp.com/biz/fellini-schenefeld?adjust_creative=hBJOknVQJ58S5goQyjmwRw&utm_campaign=yelp_api_v3&utm_medium=api_v3_business_search&utm_source=hBJOknVQJ58S5goQyjmwRw", "review_count": 22, "categories": [{"alias": "italian", "title": "Italian"}, {"alias": "bistros", "title": "Bistros"}], "rating": 4.5, "coordinates": {"latitude": 53.59939, "longitude": 9.84844}, "transactions": [], "price": "\u20ac\u20ac", "location": {"address1": "Lornsenstr. 5 - 7", "address2": null, "address3": null, "city": "Schenefeld", "zip_code": "22869", "country": "DE", "state": "SH", "display_address": ["Lornsenstr. 5 - 7", "22869 Schenefeld", "Germany"]}, "phone": "+494025482513", "display_phone": "+49 40 25482513", "distance": 3263.1117253781786}, {"id": "yxaa2M8ksV3oE3e77J_cWg", "alias": "marathon-grill-rellingen", "name": "Marathon Grill", "image_url": "https://s3-media1.fl.yelpcdn.com/bphoto/MeQPAIYOymxpCLDbQWj7aw/o.jpg", "is_closed": false, "url": "https://www.yelp.com/biz/marathon-grill-rellingen?adjust_creative=hBJOknVQJ58S5goQyjmwRw&utm_campaign=yelp_api_v3&utm_medium=api_v3_business_search&utm_source=hBJOknVQJ58S5goQyjmwRw", "review_count": 13, "categories": [{"alias": "greek", "title": "Greek"}], "rating": 4.5, "coordinates": {"latitude": 53.6436, "longitude": 9.84214}, "transactions": [], "price": "\u20ac", "location": {"address1": "Hallstr. 55", "address2": null, "address3": null, "city": "Rellingen", "zip_code": "25462", "country": "DE", "state": "SH", "display_address": ["Hallstr. 55", "25462 Rellingen", "Germany"]}, "phone": "+49410125161", "display_phone": "+49 4101 25161", "distance": 1701.9378330767665}, {"id": "2O87KG8xApQAqTJ-x7PpvQ", "alias": "trattoria-rocco-halstenbek", "name": "Trattoria Rocco", "image_url": "https://s3-media2.fl.yelpcdn.com/bphoto/4NKMDZUKn_Zi3B8V4eTRCQ/o.jpg", "is_closed": false, "url": "https://www.yelp.com/biz/trattoria-rocco-halstenbek?adjust_creative=hBJOknVQJ58S5goQyjmwRw&utm_campaign=yelp_api_v3&utm_medium=api_v3_business_search&utm_source=hBJOknVQJ58S5goQyjmwRw", "review_count": 20, "categories": [{"alias": "italian", "title": "Italian"}], "rating": 3.5, "coordinates": {"latitude": 53.629337, "longitude": 9.835356}, "transactions": [], "price": "\u20ac\u20ac", "location": {"address1": "Dockenhudener Chaussee 20", "address2": null, "address3": null, "city": "Halstenbek", "zip_code": "25469", "country": "DE", "state": "SH", "display_address": ["Dockenhudener Chaussee 20", "25469 Halstenbek", "Germany"]}, "phone": "+4941017877107", "display_phone": "+49 4101 7877107", "distance": 901.5328838004033}, {"id": "OsNFTVOq1FNvKoX0qP4VYw", "alias": "asia-corner-rellingen", "name": "Asia Corner", "image_url": "https://s3-media2.fl.yelpcdn.com/bphoto/7M2nrMQMp_02G2extUal9w/o.jpg", "is_closed": false, "url": "https://www.yelp.com/biz/asia-corner-rellingen?adjust_creative=hBJOknVQJ58S5goQyjmwRw&utm_campaign=yelp_api_v3&utm_medium=api_v3_business_search&utm_source=hBJOknVQJ58S5goQyjmwRw", "review_count": 11, "categories": [{"alias": "panasian", "title": "Pan Asian"}], "rating": 4.5, "coordinates": {"latitude": 53.6313, "longitude": 9.87175}, "transactions": [], "price": "\u20ac", "location": {"address1": "Heidestr. 94-96", "address2": null, "address3": null, "city": "Rellingen", "zip_code": "25463", "country": "DE", "state": "SH", "display_address": ["Heidestr. 94-96", "25463 Rellingen", "Germany"]}, "phone": "+49410135615", "display_phone": "+49 4101 35615", "distance": 1524.5435611775008}, {"id": "rWwyt3dC3zZH-Nn0Ya3RNg", "alias": "dolce-vita-halstenbek-2", "name": "Dolce Vita", "image_url": "https://s3-media4.fl.yelpcdn.com/bphoto/A8H7s-BGOt6jWpDOAGNVhw/o.jpg", "is_closed": false, "url": "https://www.yelp.com/biz/dolce-vita-halstenbek-2?adjust_creative=hBJOknVQJ58S5goQyjmwRw&utm_campaign=yelp_api_v3&utm_medium=api_v3_business_search&utm_source=hBJOknVQJ58S5goQyjmwRw", "review_count": 30, "categories": [{"alias": "italian", "title": "Italian"}], "rating": 3.5, "coordinates": {"latitude": 53.6364, "longitude": 9.8408008}, "transactions": [], "price": "\u20ac\u20ac", "location": {"address1": "Poststr. 3", "address2": null, "address3": null, "city": "Halstenbek", "zip_code": "25469", "country": "DE", "state": "SH", "display_address": ["Poststr. 3", "25469 Halstenbek", "Germany"]}, "phone": "+494101585885", "display_phone": "+49 4101 585885", "distance": 999.1061382454977}, {"id": "iJLghYawgo2EVAF9ZTUKcQ", "alias": "namaste-ji-halstenbek", "name": "Namaste Ji", "image_url": "https://s3-media2.fl.yelpcdn.com/bphoto/ARJwFj3mBrHNAAGpiMufvA/o.jpg", "is_closed": false, "url": "https://www.yelp.com/biz/namaste-ji-halstenbek?adjust_creative=hBJOknVQJ58S5goQyjmwRw&utm_campaign=yelp_api_v3&utm_medium=api_v3_business_search&utm_source=hBJOknVQJ58S5goQyjmwRw", "review_count": 21, "categories": [{"alias": "indpak", "title": "Indian"}], "rating": 4.0, "coordinates": {"latitude": 53.6114863, "longitude": 9.8675694}, "transactions": [], "price": "\u20ac\u20ac", "location": {"address1": "Heideweg 164", "address2": "", "address3": "", "city": "Halstenbek", "zip_code": "25469", "country": "DE", "state": "SH", "display_address": ["Heideweg 164", "25469 Halstenbek", "Germany"]}, "phone": "+4941018303486", "display_phone": "+49 4101 8303486", "distance": 2300.4599789571344}, {"id": "X4QtPnSx5RXOGMUh1vDWeQ", "alias": "vereinsgastronomie-halstenbeker-sch\u00fctzenverein-halstenbek", "name": "Vereinsgastronomie Halstenbeker Sch\u00fctzenverein", "image_url": "https://s3-media2.fl.yelpcdn.com/bphoto/nNw69WMsIKt-oBa5KRHcug/o.jpg", "is_closed": false, "url": "https://www.yelp.com/biz/vereinsgastronomie-halstenbeker-sch%C3%BCtzenverein-halstenbek?adjust_creative=hBJOknVQJ58S5goQyjmwRw&utm_campaign=yelp_api_v3&utm_medium=api_v3_business_search&utm_source=hBJOknVQJ58S5goQyjmwRw", "review_count": 1, "categories": [{"alias": "gastropubs", "title": "Gastropubs"}], "rating": 4.0, "coordinates": {"latitude": 53.6289, "longitude": 9.84521}, "transactions": [], "location": {"address1": "Am Sch\u00fctzenplatz 24", "address2": null, "address3": null, "city": "Halstenbek", "zip_code": "25469", "country": "DE", "state": "SH", "display_address": ["Am Sch\u00fctzenplatz 24", "25469 Halstenbek", "Germany"]}, "phone": "+49410145979", "display_phone": "+49 4101 45979", "distance": 250.17773169291684}, {"id": "tS5rfu-toQDYXhnNU5JBIg", "alias": "tennistreff-halstenbek", "name": "Tennistreff", "image_url": "", "is_closed": false, "url": "https://www.yelp.com/biz/tennistreff-halstenbek?adjust_creative=hBJOknVQJ58S5goQyjmwRw&utm_campaign=yelp_api_v3&utm_medium=api_v3_business_search&utm_source=hBJOknVQJ58S5goQyjmwRw", "review_count": 3, "categories": [{"alias": "tennis", "title": "Tennis"}, {"alias": "german", "title": "German"}], "rating": 4.5, "coordinates": {"latitude": 53.6398343, "longitude": 9.8347151}, "transactions": [], "location": {"address1": "Thesdorfer Weg 20", "address2": null, "address3": null, "city": "Halstenbek", "zip_code": "25469", "country": "DE", "state": "SH", "display_address": ["Thesdorfer Weg 20", "25469 Halstenbek", "Germany"]}, "phone": "+494101859424", "display_phone": "+49 4101 859424", "distance": 1542.9169535601643}, {"id": "nvmgtLOXRu4Zfywx9SGyzQ", "alias": "china-restaurant-mr-hoh-schenefeld", "name": "China-Restaurant Mr. Hoh", "image_url": "https://s3-media4.fl.yelpcdn.com/bphoto/m0LVWBB8M4JP42aSBhQBKQ/o.jpg", "is_closed": false, "url": "https://www.yelp.com/biz/china-restaurant-mr-hoh-schenefeld?adjust_creative=hBJOknVQJ58S5goQyjmwRw&utm_campaign=yelp_api_v3&utm_medium=api_v3_business_search&utm_source=hBJOknVQJ58S5goQyjmwRw", "review_count": 31, "categories": [{"alias": "chinese", "title": "Chinese"}], "rating": 4.0, "coordinates": {"latitude": 53.60809, "longitude": 9.84038}, "transactions": [], "price": "\u20ac\u20ac", "location": {"address1": "Lornsenstr. 122", "address2": null, "address3": null, "city": "Schenefeld", "zip_code": "22869", "country": "DE", "state": "SH", "display_address": ["Lornsenstr. 122", "22869 Schenefeld", "Germany"]}, "phone": "+49408304990", "display_phone": "+49 40 8304990", "distance": 2369.526749897482}, {"id": "ZgxHe3hwSkaPXgI69Pd-Cg", "alias": "redox-house-hamburg", "name": "REDOX HOUSE", "image_url": "https://s3-media1.fl.yelpcdn.com/bphoto/5e-8fP6SpSrRVS_CHDc4zQ/o.jpg", "is_closed": false, "url": "https://www.yelp.com/biz/redox-house-hamburg?adjust_creative=hBJOknVQJ58S5goQyjmwRw&utm_campaign=yelp_api_v3&utm_medium=api_v3_business_search&utm_source=hBJOknVQJ58S5goQyjmwRw", "review_count": 58, "categories": [{"alias": "steak", "title": "Steakhouses"}], "rating": 4.0, "coordinates": {"latitude": 53.59671, "longitude": 9.86669}, "transactions": [], "price": "\u20ac\u20ac", "location": {"address1": "Luruper Hauptstr. 216", "address2": null, "address3": null, "city": "Hamburg", "zip_code": "22547", "country": "DE", "state": "HH", "display_address": ["Luruper Hauptstr. 216", "22547 Hamburg", "Germany"]}, "phone": "+4940835937", "display_phone": "+49 40 835937", "distance": 3753.194601158851}, {"id": "7a-Dyfunt-X_SJPspqXehw", "alias": "heinsens-ellerbek-2", "name": "Heinsen's", "image_url": "https://s3-media2.fl.yelpcdn.com/bphoto/0ZIo5c_ankkPINDYYFSOSg/o.jpg", "is_closed": false, "url": "https://www.yelp.com/biz/heinsens-ellerbek-2?adjust_creative=hBJOknVQJ58S5goQyjmwRw&utm_campaign=yelp_api_v3&utm_medium=api_v3_business_search&utm_source=hBJOknVQJ58S5goQyjmwRw", "review_count": 45, "categories": [{"alias": "beergarden", "title": "Beer Garden"}, {"alias": "german", "title": "German"}, {"alias": "cafes", "title": "Cafes"}], "rating": 4.0, "coordinates": {"latitude": 53.6574301268169, "longitude": 9.86982769226836}, "transactions": [], "price": "\u20ac\u20ac\u20ac", "location": {"address1": "Hauptstr. 1", "address2": "", "address3": null, "city": "Ellerbek", "zip_code": "25474", "country": "DE", "state": "SH", "display_address": ["Hauptstr. 1", "25474 Ellerbek", "Germany"]}, "phone": "+49410137770", "display_phone": "+49 4101 37770", "distance": 3462.2866099449925}, {"id": "22HCDMkVa8NXpWyMxyFuZQ", "alias": "rhodos-rellingen", "name": "Rhodos", "image_url": "https://s3-media2.fl.yelpcdn.com/bphoto/MnfZdj9yyseT-3KD1yygeA/o.jpg", "is_closed": false, "url": "https://www.yelp.com/biz/rhodos-rellingen?adjust_creative=hBJOknVQJ58S5goQyjmwRw&utm_campaign=yelp_api_v3&utm_medium=api_v3_business_search&utm_source=hBJOknVQJ58S5goQyjmwRw", "review_count": 12, "categories": [{"alias": "greek", "title": "Greek"}], "rating": 4.5, "coordinates": {"latitude": 53.6517, "longitude": 9.82941}, "transactions": [], "price": "\u20ac\u20ac", "location": {"address1": "Hauptstr. 22", "address2": null, "address3": null, "city": "Rellingen", "zip_code": "25462", "country": "DE", "state": "SH", "display_address": ["Hauptstr. 22", "25462 Rellingen", "Germany"]}, "phone": "+494101200993", "display_phone": "+49 4101 200993", "distance": 2850.75589410524}, {"id": "RGHLgtULG4nWQWu52NmF7w", "alias": "king-d\u00f6ner-schenefeld", "name": "King D\u00f6ner", "image_url": "https://s3-media1.fl.yelpcdn.com/bphoto/qL_lZXHrJQcfSDI2Qiw8rg/o.jpg", "is_closed": false, "url": "https://www.yelp.com/biz/king-d%C3%B6ner-schenefeld?adjust_creative=hBJOknVQJ58S5goQyjmwRw&utm_campaign=yelp_api_v3&utm_medium=api_v3_business_search&utm_source=hBJOknVQJ58S5goQyjmwRw", "review_count": 3, "categories": [{"alias": "turkish", "title": "Turkish"}], "rating": 4.5, "coordinates": {"latitude": 53.5987, "longitude": 9.84878}, "transactions": [], "price": "\u20ac\u20ac\u20ac\u20ac", "location": {"address1": "Schenefelder Platz 1", "address2": null, "address3": null, "city": "Schenefeld", "zip_code": "22869", "country": "DE", "state": "SH", "display_address": ["Schenefelder Platz 1", "22869 Schenefeld", "Germany"]}, "phone": "+49408302888", "display_phone": "+49 40 8302888", "distance": 3351.98615290969}, {"id": "6OnopdC_M0sCtcbW9eDZ0w", "alias": "le-curry-schenefeld", "name": "Le Curry", "image_url": "https://s3-media3.fl.yelpcdn.com/bphoto/j10llrIUBj3fmEPsvnO8xw/o.jpg", "is_closed": false, "url": "https://www.yelp.com/biz/le-curry-schenefeld?adjust_creative=hBJOknVQJ58S5goQyjmwRw&utm_campaign=yelp_api_v3&utm_medium=api_v3_business_search&utm_source=hBJOknVQJ58S5goQyjmwRw", "review_count": 1, "categories": [{"alias": "currysausage", "title": "Curry Sausage"}], "rating": 4.0, "coordinates": {"latitude": 53.6018, "longitude": 9.83668}, "transactions": [], "location": {"address1": "Kiebitzweg 2", "address2": "im Stadtzentrum Schenefeld", "address3": null, "city": "Schenefeld", "zip_code": "22869", "country": "DE", "state": "SH", "display_address": ["Kiebitzweg 2", "im Stadtzentrum Schenefeld", "22869 Schenefeld", "Germany"]}, "phone": "", "display_phone": "", "distance": 3115.1641793167387}, {"id": "GUrTjGeZPsfnFj9vYxZEAg", "alias": "taverna-naxos-hamburg", "name": "Taverna Naxos", "image_url": "https://s3-media4.fl.yelpcdn.com/bphoto/PdNpB6WagloBKcXoPFGL9w/o.jpg", "is_closed": false, "url": "https://www.yelp.com/biz/taverna-naxos-hamburg?adjust_creative=hBJOknVQJ58S5goQyjmwRw&utm_campaign=yelp_api_v3&utm_medium=api_v3_business_search&utm_source=hBJOknVQJ58S5goQyjmwRw", "review_count": 11, "categories": [{"alias": "greek", "title": "Greek"}], "rating": 4.0, "coordinates": {"latitude": 53.6064, "longitude": 9.8741}, "transactions": [], "price": "\u20ac\u20ac", "location": {"address1": "Franzosenkoppel 104", "address2": null, "address3": null, "city": "Hamburg", "zip_code": "22547", "country": "DE", "state": "HH", "display_address": ["Franzosenkoppel 104", "22547 Hamburg", "Germany"]}, "phone": "+494042903695", "display_phone": "+49 40 42903695", "distance": 2994.8211421943424}, {"id": "KrElkJZG4z9o-Zq_6dld1w", "alias": "dritte-etage-halstenbek", "name": "dritte Etage", "image_url": "", "is_closed": false, "url": "https://www.yelp.com/biz/dritte-etage-halstenbek?adjust_creative=hBJOknVQJ58S5goQyjmwRw&utm_campaign=yelp_api_v3&utm_medium=api_v3_business_search&utm_source=hBJOknVQJ58S5goQyjmwRw", "review_count": 2, "categories": [{"alias": "restaurants", "title": "Restaurants"}], "rating": 4.5, "coordinates": {"latitude": 53.6311, "longitude": 9.86055}, "transactions": [], "price": "\u20ac\u20ac", "location": {"address1": "G\u00e4rtnerstr.  133-137", "address2": "Event GmbH", "address3": null, "city": "Halstenbek", "zip_code": "25469", "country": "DE", "state": "SH", "display_address": ["G\u00e4rtnerstr.  133-137", "Event GmbH", "25469 Halstenbek", "Germany"]}, "phone": "", "display_phone": "", "distance": 801.6262799874212}, {"id": "zE311HJ18xCM1JuAPmiGJA", "alias": "restaurant-muckefuck-rellingen-2", "name": "Restaurant Muckefuck", "image_url": "https://s3-media2.fl.yelpcdn.com/bphoto/-orUgjKqSDR9_oUT0fHnAA/o.jpg", "is_closed": false, "url": "https://www.yelp.com/biz/restaurant-muckefuck-rellingen-2?adjust_creative=hBJOknVQJ58S5goQyjmwRw&utm_campaign=yelp_api_v3&utm_medium=api_v3_business_search&utm_source=hBJOknVQJ58S5goQyjmwRw", "review_count": 3, "categories": [{"alias": "hotdogs", "title": "Fast Food"}], "rating": 3.0, "coordinates": {"latitude": 53.650658, "longitude": 9.8296056}, "transactions": [], "price": "\u20ac", "location": {"address1": "Hauptstr. 39A", "address2": null, "address3": null, "city": "Rellingen", "zip_code": "25462", "country": "DE", "state": "SH", "display_address": ["Hauptstr. 39A", "25462 Rellingen", "Germany"]}, "phone": "+494101512610", "display_phone": "+49 4101 512610", "distance": 2741.9372522406484}, {"id": "YakI5g9afEFa3blR_bmDkw", "alias": "akropolis-grillimbi\u00df-halstenbek", "name": "Akropolis Grillimbi\u00df", "image_url": "https://s3-media3.fl.yelpcdn.com/bphoto/MWSRdjtPM1kiIFMvwhUFkw/o.jpg", "is_closed": false, "url": "https://www.yelp.com/biz/akropolis-grillimbi%C3%9F-halstenbek?adjust_creative=hBJOknVQJ58S5goQyjmwRw&utm_campaign=yelp_api_v3&utm_medium=api_v3_business_search&utm_source=hBJOknVQJ58S5goQyjmwRw", "review_count": 11, "categories": [{"alias": "greek", "title": "Greek"}], "rating": 4.5, "coordinates": {"latitude": 53.6152941320271, "longitude": 9.86543951083672}, "transactions": [], "price": "\u20ac", "location": {"address1": "Siebentunnelweg 2", "address2": "", "address3": "", "city": "Halstenbek", "zip_code": "25469", "country": "DE", "state": "SH", "display_address": ["Siebentunnelweg 2", "25469 Halstenbek", "Germany"]}, "phone": "+49410143135", "display_phone": "+49 4101 43135", "distance": 1856.1875781705594}, {"id": "EYfGbrnLnD4vqZfpwGDCow", "alias": "nandoo-indian-cuisine-schenefeld", "name": "Nandoo Indian Cuisine", "image_url": "https://s3-media1.fl.yelpcdn.com/bphoto/0swmfB8j5GdLTn1zVrhpaA/o.jpg", "is_closed": false, "url": "https://www.yelp.com/biz/nandoo-indian-cuisine-schenefeld?adjust_creative=hBJOknVQJ58S5goQyjmwRw&utm_campaign=yelp_api_v3&utm_medium=api_v3_business_search&utm_source=hBJOknVQJ58S5goQyjmwRw", "review_count": 1, "categories": [{"alias": "indpak", "title": "Indian"}], "rating": 4.0, "coordinates": {"latitude": 53.601831248117, "longitude": 9.83684901148081}, "transactions": [], "location": {"address1": "Industriestr. 1", "address2": "", "address3": "", "city": "Schenefeld", "zip_code": "22869", "country": "DE", "state": "SH", "display_address": ["Industriestr. 1", "22869 Schenefeld", "Germany"]}, "phone": "+494041422998", "display_phone": "+49 40 41422998", "distance": 3108.9165936595277}, {"id": "yYGvyXSdjnBnY1OBjgYbRw", "alias": "taverna-nico-rellingen", "name": "Taverna Nico", "image_url": "https://s3-media1.fl.yelpcdn.com/bphoto/vnk9X84eX3HemCHw3yweAQ/o.jpg", "is_closed": false, "url": "https://www.yelp.com/biz/taverna-nico-rellingen?adjust_creative=hBJOknVQJ58S5goQyjmwRw&utm_campaign=yelp_api_v3&utm_medium=api_v3_business_search&utm_source=hBJOknVQJ58S5goQyjmwRw", "review_count": 11, "categories": [{"alias": "greek", "title": "Greek"}], "rating": 4.5, "coordinates": {"latitude": 53.6498891758998, "longitude": 9.8296494748688}, "transactions": [], "price": "\u20ac\u20ac", "location": {"address1": "Hauptstr. 37", "address2": null, "address3": null, "city": "Rellingen", "zip_code": "25462", "country": "DE", "state": "SH", "display_address": ["Hauptstr. 37", "25462 Rellingen", "Germany"]}, "phone": "+494101379384", "display_phone": "+49 4101 379384", "distance": 2665.2316918168385}, {"id": "AueWdcRlB4oFnfG2HMt7Ow", "alias": "gagga-schenefeld-2", "name": "Gagga", "image_url": "https://s3-media1.fl.yelpcdn.com/bphoto/JoAcgaRKpmJCoiZNoShd3g/o.jpg", "is_closed": false, "url": "https://www.yelp.com/biz/gagga-schenefeld-2?adjust_creative=hBJOknVQJ58S5goQyjmwRw&utm_campaign=yelp_api_v3&utm_medium=api_v3_business_search&utm_source=hBJOknVQJ58S5goQyjmwRw", "review_count": 55, "categories": [{"alias": "pubs", "title": "Pubs"}, {"alias": "tradamerican", "title": "American (Traditional)"}], "rating": 3.5, "coordinates": {"latitude": 53.59914, "longitude": 9.84578}, "transactions": [], "price": "\u20ac\u20ac", "location": {"address1": "Altonaer Chaussee 61", "address2": null, "address3": null, "city": "Schenefeld", "zip_code": "22869", "country": "DE", "state": "SH", "display_address": ["Altonaer Chaussee 61", "22869 Schenefeld", "Germany"]}, "phone": "+49408405580", "display_phone": "+49 40 8405580", "distance": 3312.404432953752}, {"id": "fNPN3vd-I41VlGBPLo7y7A", "alias": "taverna-zorbas-hamburg", "name": "Taverna Zorbas", "image_url": "https://s3-media2.fl.yelpcdn.com/bphoto/ICCOmDYTqtwePUZig7S54g/o.jpg", "is_closed": false, "url": "https://www.yelp.com/biz/taverna-zorbas-hamburg?adjust_creative=hBJOknVQJ58S5goQyjmwRw&utm_campaign=yelp_api_v3&utm_medium=api_v3_business_search&utm_source=hBJOknVQJ58S5goQyjmwRw", "review_count": 15, "categories": [{"alias": "greek", "title": "Greek"}, {"alias": "mediterranean", "title": "Mediterranean"}], "rating": 4.0, "coordinates": {"latitude": 53.5901900192397, "longitude": 9.87436699845165}, "transactions": [], "price": "\u20ac\u20ac", "location": {"address1": "Luruper Hauptstr. 124", "address2": "", "address3": null, "city": "Hamburg", "zip_code": "22547", "country": "DE", "state": "HH", "display_address": ["Luruper Hauptstr. 124", "22547 Hamburg", "Germany"]}, "phone": "+494084052635", "display_phone": "+49 40 84052635", "distance": 4612.433720785935}, {"id": "zNEBg7ppsntnn5-gC3ZW4Q", "alias": "la-vita-schenefeld", "name": "La Vita", "image_url": "https://s3-media2.fl.yelpcdn.com/bphoto/UtUYgKOuTnN2pL6yakAPcQ/o.jpg", "is_closed": false, "url": "https://www.yelp.com/biz/la-vita-schenefeld?adjust_creative=hBJOknVQJ58S5goQyjmwRw&utm_campaign=yelp_api_v3&utm_medium=api_v3_business_search&utm_source=hBJOknVQJ58S5goQyjmwRw", "review_count": 10, "categories": [{"alias": "italian", "title": "Italian"}], "rating": 3.5, "coordinates": {"latitude": 53.602, "longitude": 9.83718}, "transactions": [], "price": "\u20ac\u20ac", "location": {"address1": "Industriestr. 1", "address2": null, "address3": null, "city": "Schenefeld", "zip_code": "22869", "country": "DE", "state": "SH", "display_address": ["Industriestr. 1", "22869 Schenefeld", "Germany"]}, "phone": "+49408302634", "display_phone": "+49 40 8302634", "distance": 3085.199464238001}, {"id": "X14N6ogl5lNNLuFsvBzlzw", "alias": "restaurant-dubrovnik-schenefeld", "name": "Restaurant Dubrovnik", "image_url": "", "is_closed": false, "url": "https://www.yelp.com/biz/restaurant-dubrovnik-schenefeld?adjust_creative=hBJOknVQJ58S5goQyjmwRw&utm_campaign=yelp_api_v3&utm_medium=api_v3_business_search&utm_source=hBJOknVQJ58S5goQyjmwRw", "review_count": 9, "categories": [{"alias": "international", "title": "International"}, {"alias": "german", "title": "German"}, {"alias": "serbocroatian", "title": "Serbo Croatian"}], "rating": 4.5, "coordinates": {"latitude": 53.6081, "longitude": 9.83994}, "transactions": [], "price": "\u20ac\u20ac", "location": {"address1": "Lornsenstr. 111", "address2": null, "address3": null, "city": "Schenefeld", "zip_code": "22869", "country": "DE", "state": "SH", "display_address": ["Lornsenstr. 111", "22869 Schenefeld", "Germany"]}, "phone": "+49408391568", "display_phone": "+49 40 8391568", "distance": 2382.9140326227216}, {"id": "c1XGC8FPiuBDjl69Y7UglA", "alias": "asia-yu-schenefeld", "name": "Asia Yu", "image_url": "", "is_closed": false, "url": "https://www.yelp.com/biz/asia-yu-schenefeld?adjust_creative=hBJOknVQJ58S5goQyjmwRw&utm_campaign=yelp_api_v3&utm_medium=api_v3_business_search&utm_source=hBJOknVQJ58S5goQyjmwRw", "review_count": 1, "categories": [{"alias": "chinese", "title": "Chinese"}], "rating": 5.0, "coordinates": {"latitude": 53.5986, "longitude": 9.85118}, "transactions": [], "price": "\u20ac\u20ac", "location": {"address1": "Altonaer Chaussee 22 - 30", "address2": "zwischen Discounter und Tankstelle, neben Buchhandlung", "address3": null, "city": "Schenefeld", "zip_code": "22869", "country": "DE", "state": "SH", "display_address": ["Altonaer Chaussee 22 - 30", "zwischen Discounter und Tankstelle, neben Buchhandlung", "22869 Schenefeld", "Germany"]}, "phone": "+494028519442", "display_phone": "+49 40 28519442", "distance": 3366.1382379688434}, {"id": "u3ub5f0MS4qY67Q8XF9ZoA", "alias": "sodemanns-fisch-kutter-nr-1-hamburg", "name": "Sodemann's Fisch-Kutter Nr. 1", "image_url": "https://s3-media3.fl.yelpcdn.com/bphoto/BlysP6fVPaL0eEjKvEbByw/o.jpg", "is_closed": false, "url": "https://www.yelp.com/biz/sodemanns-fisch-kutter-nr-1-hamburg?adjust_creative=hBJOknVQJ58S5goQyjmwRw&utm_campaign=yelp_api_v3&utm_medium=api_v3_business_search&utm_source=hBJOknVQJ58S5goQyjmwRw", "review_count": 3, "categories": [{"alias": "foodtrucks", "title": "Food Trucks"}, {"alias": "fischbroetchen", "title": "Fischbroetchen"}], "rating": 5.0, "coordinates": {"latitude": 53.5537490844727, "longitude": 9.99182987213135}, "transactions": [], "price": "\u20ac\u20ac", "location": {"address1": "", "address2": null, "address3": "", "city": "Hamburg", "zip_code": "", "country": "DE", "state": "HH", "display_address": ["Hamburg", "Germany"]}, "phone": "+491773606663", "display_phone": "+49 177 3606663", "distance": 12881.945290284031}, {"id": "Qh8YXrTyRM8zojh7t5c1uw", "alias": "rio-grande-rellingen-3", "name": "Rio Grande", "image_url": "https://s3-media1.fl.yelpcdn.com/bphoto/C1xnkQ_fAHt8IXR6WjzcAg/o.jpg", "is_closed": false, "url": "https://www.yelp.com/biz/rio-grande-rellingen-3?adjust_creative=hBJOknVQJ58S5goQyjmwRw&utm_campaign=yelp_api_v3&utm_medium=api_v3_business_search&utm_source=hBJOknVQJ58S5goQyjmwRw", "review_count": 38, "categories": [{"alias": "steak", "title": "Steakhouses"}, {"alias": "argentine", "title": "Argentine"}], "rating": 3.5, "coordinates": {"latitude": 53.6500371, "longitude": 9.8307958}, "transactions": [], "price": "\u20ac\u20ac", "location": {"address1": "Schmiedestr. 2", "address2": null, "address3": null, "city": "Rellingen", "zip_code": "25462", "country": "DE", "state": "SH", "display_address": ["Schmiedestr. 2", "25462 Rellingen", "Germany"]}, "phone": "+494101599855", "display_phone": "+49 4101 599855", "distance": 2644.538574327834}, {"id": "nJSqt2G4D4bPQlL8GekZNg", "alias": "grill-kate-hamburg", "name": "Grill-Kate", "image_url": "https://s3-media3.fl.yelpcdn.com/bphoto/Zvplb2-Phs6Gl7BKxdGkkA/o.jpg", "is_closed": false, "url": "https://www.yelp.com/biz/grill-kate-hamburg?adjust_creative=hBJOknVQJ58S5goQyjmwRw&utm_campaign=yelp_api_v3&utm_medium=api_v3_business_search&utm_source=hBJOknVQJ58S5goQyjmwRw", "review_count": 23, "categories": [{"alias": "german", "title": "German"}], "rating": 4.0, "coordinates": {"latitude": 53.5957824, "longitude": 9.8679767}, "transactions": [], "price": "\u20ac", "location": {"address1": "Luruper Hauptstr. 202", "address2": null, "address3": null, "city": "Hamburg", "zip_code": "22547", "country": "DE", "state": "HH", "display_address": ["Luruper Hauptstr. 202", "22547 Hamburg", "Germany"]}, "phone": "+49408315441", "display_phone": "+49 40 8315441", "distance": 3883.5939932239853}, {"id": "eu0dPfxU2SX-4ZZX6GQPzw", "alias": "taverna-pegasus-schenefeld", "name": "Taverna Pegasus", "image_url": "https://s3-media2.fl.yelpcdn.com/bphoto/aHZEhsqs1fhiec1WMgNgFg/o.jpg", "is_closed": false, "url": "https://www.yelp.com/biz/taverna-pegasus-schenefeld?adjust_creative=hBJOknVQJ58S5goQyjmwRw&utm_campaign=yelp_api_v3&utm_medium=api_v3_business_search&utm_source=hBJOknVQJ58S5goQyjmwRw", "review_count": 18, "categories": [{"alias": "greek", "title": "Greek"}], "rating": 3.5, "coordinates": {"latitude": 53.608651, "longitude": 9.841422}, "transactions": [], "price": "\u20ac\u20ac", "location": {"address1": "Friedrich-Ebert-Allee 3 - 11", "address2": null, "address3": null, "city": "Schenefeld", "zip_code": "22869", "country": "DE", "state": "SH", "display_address": ["Friedrich-Ebert-Allee 3 - 11", "22869 Schenefeld", "Germany"]}, "phone": "+494084053737", "display_phone": "+49 40 84053737", "distance": 2300.449692608282}, {"id": "dC83gjyunrb-I_uULUkUCg", "alias": "g\u00f6rner-grillstation-halstenbek", "name": "G\u00f6rner Grillstation", "image_url": "https://s3-media2.fl.yelpcdn.com/bphoto/EJAlMYY4qje24I42XnruFQ/o.jpg", "is_closed": false, "url": "https://www.yelp.com/biz/g%C3%B6rner-grillstation-halstenbek?adjust_creative=hBJOknVQJ58S5goQyjmwRw&utm_campaign=yelp_api_v3&utm_medium=api_v3_business_search&utm_source=hBJOknVQJ58S5goQyjmwRw", "review_count": 10, "categories": [{"alias": "bbq", "title": "Barbeque"}, {"alias": "german", "title": "German"}], "rating": 3.0, "coordinates": {"latitude": 53.6364, "longitude": 9.8401}, "transactions": [], "price": "\u20ac\u20ac", "location": {"address1": "Hauptstr. 49", "address2": null, "address3": null, "city": "Halstenbek", "zip_code": "25469", "country": "DE", "state": "SH", "display_address": ["Hauptstr. 49", "25469 Halstenbek", "Germany"]}, "phone": "+49410141229", "display_phone": "+49 4101 41229", "distance": 1024.8536306227275}, {"id": "iDX7o2U5ykcPhFrJe6R3DQ", "alias": "annies-schenefeld", "name": "Annie's", "image_url": "https://s3-media2.fl.yelpcdn.com/bphoto/r6S8EIRk2QKM6jQ0oj3UTQ/o.jpg", "is_closed": false, "url": "https://www.yelp.com/biz/annies-schenefeld?adjust_creative=hBJOknVQJ58S5goQyjmwRw&utm_campaign=yelp_api_v3&utm_medium=api_v3_business_search&utm_source=hBJOknVQJ58S5goQyjmwRw", "review_count": 2, "categories": [{"alias": "lounges", "title": "Lounges"}, {"alias": "cafes", "title": "Cafes"}], "rating": 5.0, "coordinates": {"latitude": 53.60147, "longitude": 9.83773}, "transactions": [], "price": "\u20ac\u20ac", "location": {"address1": "Industriestr. 1A", "address2": null, "address3": null, "city": "Schenefeld", "zip_code": "22869", "country": "DE", "state": "SH", "display_address": ["Industriestr. 1A", "22869 Schenefeld", "Germany"]}, "phone": "+494084057837", "display_phone": "+49 40 84057837", "distance": 3107.6089263902863}, {"id": "AaA1y0VedvjGj2yVtOhcDQ", "alias": "jet-pizza-hamburg-2", "name": "Jet Pizza", "image_url": "https://s3-media3.fl.yelpcdn.com/bphoto/WroyHI2Xck2cwupeC77x8A/o.jpg", "is_closed": false, "url": "https://www.yelp.com/biz/jet-pizza-hamburg-2?adjust_creative=hBJOknVQJ58S5goQyjmwRw&utm_campaign=yelp_api_v3&utm_medium=api_v3_business_search&utm_source=hBJOknVQJ58S5goQyjmwRw", "review_count": 1, "categories": [{"alias": "italian", "title": "Italian"}, {"alias": "pizza", "title": "Pizza"}], "rating": 4.0, "coordinates": {"latitude": 53.6006, "longitude": 9.87347}, "transactions": [], "price": "\u20ac\u20ac", "location": {"address1": "Fahrenort 54", "address2": null, "address3": null, "city": "Hamburg", "zip_code": "22547", "country": "DE", "state": "HH", "display_address": ["Fahrenort 54", "22547 Hamburg", "Germany"]}, "phone": "+49405702554", "display_phone": "+49 40 5702554", "distance": 3531.0869528508324}, {"id": "f0eos4cNjh2LehmVgG1JgQ", "alias": "taverna-bei-thomas-schenefeld", "name": "Taverna bei Thomas", "image_url": "", "is_closed": false, "url": "https://www.yelp.com/biz/taverna-bei-thomas-schenefeld?adjust_creative=hBJOknVQJ58S5goQyjmwRw&utm_campaign=yelp_api_v3&utm_medium=api_v3_business_search&utm_source=hBJOknVQJ58S5goQyjmwRw", "review_count": 7, "categories": [{"alias": "greek", "title": "Greek"}], "rating": 4.0, "coordinates": {"latitude": 53.5981, "longitude": 9.85387}, "transactions": [], "price": "\u20ac\u20ac", "location": {"address1": "Altonaer Chaussee 1", "address2": null, "address3": null, "city": "Schenefeld", "zip_code": "22869", "country": "DE", "state": "SH", "display_address": ["Altonaer Chaussee 1", "22869 Schenefeld", "Germany"]}, "phone": "", "display_phone": "", "distance": 3433.713169496908}, {"id": "c18eWYG1pgPaK-vncL9Xlw", "alias": "soul-kebab-hamburg-2", "name": "Soul Kebab", "image_url": "https://s3-media3.fl.yelpcdn.com/bphoto/Ie94h-kVtGyuEkhEnHzt8w/o.jpg", "is_closed": false, "url": "https://www.yelp.com/biz/soul-kebab-hamburg-2?adjust_creative=hBJOknVQJ58S5goQyjmwRw&utm_campaign=yelp_api_v3&utm_medium=api_v3_business_search&utm_source=hBJOknVQJ58S5goQyjmwRw", "review_count": 4, "categories": [{"alias": "kebab", "title": "Kebab"}, {"alias": "turkish", "title": "Turkish"}], "rating": 4.5, "coordinates": {"latitude": 53.5917619021825, "longitude": 9.87240115390106}, "transactions": [], "price": "\u20ac\u20ac", "location": {"address1": "Luruper Hauptstr. 138", "address2": "", "address3": "", "city": "Hamburg", "zip_code": "22547", "country": "DE", "state": "HH", "display_address": ["Luruper Hauptstr. 138", "22547 Hamburg", "Germany"]}, "phone": "+494033474645", "display_phone": "+49 40 33474645", "distance": 4402.872851711178}, {"id": "SIOD8jvuFrt0PFZ3AJ6_NA", "alias": "schweinske-hamburg-13", "name": "Schweinske", "image_url": "https://s3-media2.fl.yelpcdn.com/bphoto/ljr2OsrAnzLwrhVC0AmU5A/o.jpg", "is_closed": false, "url": "https://www.yelp.com/biz/schweinske-hamburg-13?adjust_creative=hBJOknVQJ58S5goQyjmwRw&utm_campaign=yelp_api_v3&utm_medium=api_v3_business_search&utm_source=hBJOknVQJ58S5goQyjmwRw", "review_count": 27, "categories": [{"alias": "german", "title": "German"}], "rating": 3.0, "coordinates": {"latitude": 53.59279, "longitude": 9.8713}, "transactions": [], "price": "\u20ac\u20ac", "location": {"address1": "Luruper Hauptstr. 164", "address2": null, "address3": null, "city": "Hamburg", "zip_code": "22547", "country": "DE", "state": "HH", "display_address": ["Luruper Hauptstr. 164", "22547 Hamburg", "Germany"]}, "phone": "+4940837377", "display_phone": "+49 40 837377", "distance": 4269.881368321203}, {"id": "jqTl7pmRjwieyVaOINJitA", "alias": "long-bistro-hamburg", "name": "Long Bistro", "image_url": "", "is_closed": false, "url": "https://www.yelp.com/biz/long-bistro-hamburg?adjust_creative=hBJOknVQJ58S5goQyjmwRw&utm_campaign=yelp_api_v3&utm_medium=api_v3_business_search&utm_source=hBJOknVQJ58S5goQyjmwRw", "review_count": 1, "categories": [{"alias": "panasian", "title": "Pan Asian"}], "rating": 5.0, "coordinates": {"latitude": 53.58792, "longitude": 9.85036}, "transactions": [], "location": {"address1": "Bornheide 57 f", "address2": "", "address3": "", "city": "Hamburg", "zip_code": "22549", "country": "DE", "state": "HH", "display_address": ["Bornheide 57 f", "22549 Hamburg", "Germany"]}, "phone": "+494084058881", "display_phone": "+49 40 84058881", "distance": 4551.514553546745}, {"id": "mLLCOcBXKw8HJRXXQO61Fw", "alias": "kebab-box-rellingen", "name": "Kebab Box", "image_url": "", "is_closed": false, "url": "https://www.yelp.com/biz/kebab-box-rellingen?adjust_creative=hBJOknVQJ58S5goQyjmwRw&utm_campaign=yelp_api_v3&utm_medium=api_v3_business_search&utm_source=hBJOknVQJ58S5goQyjmwRw", "review_count": 2, "categories": [{"alias": "hotdogs", "title": "Fast Food"}], "rating": 3.5, "coordinates": {"latitude": 53.6529, "longitude": 9.82928}, "transactions": [], "location": {"address1": "Hauptstr. 61", "address2": null, "address3": null, "city": "Rellingen", "zip_code": "25462", "country": "DE", "state": "SH", "display_address": ["Hauptstr. 61", "25462 Rellingen", "Germany"]}, "phone": "+494101511243", "display_phone": "+49 4101 511243", "distance": 2974.0521496722727}, {"id": "5x3ApuSiNu3QGD2MgwmHOw", "alias": "mai-mai-hamburg-6", "name": "Mai Mai", "image_url": "https://s3-media3.fl.yelpcdn.com/bphoto/EZWgzcsC4PxKvQTiXkhPEg/o.jpg", "is_closed": false, "url": "https://www.yelp.com/biz/mai-mai-hamburg-6?adjust_creative=hBJOknVQJ58S5goQyjmwRw&utm_campaign=yelp_api_v3&utm_medium=api_v3_business_search&utm_source=hBJOknVQJ58S5goQyjmwRw", "review_count": 4, "categories": [{"alias": "hotdogs", "title": "Fast Food"}, {"alias": "chinese", "title": "Chinese"}], "rating": 2.5, "coordinates": {"latitude": 53.5917971200509, "longitude": 9.87330763648938}, "transactions": [], "price": "\u20ac\u20ac", "location": {"address1": "Eckhoffplatz 1", "address2": "", "address3": "", "city": "Hamburg", "zip_code": "22547", "country": "DE", "state": "HH", "display_address": ["Eckhoffplatz 1", "22547 Hamburg", "Germany"]}, "phone": "", "display_phone": "", "distance": 4420.542102249695}, {"id": "KV32pPQAkkBvrqot6oryAw", "alias": "hellas-grill-hamburg", "name": "Hellas Grill", "image_url": "https://s3-media3.fl.yelpcdn.com/bphoto/TyYuynYid-9NKpo19BwaZA/o.jpg", "is_closed": false, "url": "https://www.yelp.com/biz/hellas-grill-hamburg?adjust_creative=hBJOknVQJ58S5goQyjmwRw&utm_campaign=yelp_api_v3&utm_medium=api_v3_business_search&utm_source=hBJOknVQJ58S5goQyjmwRw", "review_count": 2, "categories": [{"alias": "greek", "title": "Greek"}, {"alias": "hotdogs", "title": "Fast Food"}], "rating": 4.0, "coordinates": {"latitude": 53.60057, "longitude": 9.87347}, "transactions": [], "price": "\u20ac\u20ac", "location": {"address1": "Fahrenort 54", "address2": null, "address3": null, "city": "Hamburg", "zip_code": "22547", "country": "DE", "state": "HH", "display_address": ["Fahrenort 54", "22547 Hamburg", "Germany"]}, "phone": "+494087974775", "display_phone": "+49 40 87974775", "distance": 3534.054570811525}, {"id": "f4gHB43M98wZRy8taNLe7w", "alias": "gastst\u00e4tte-attika-halstenbek", "name": "Gastst\u00e4tte Attika", "image_url": "https://s3-media2.fl.yelpcdn.com/bphoto/99ktmmYxdCq_4weDu9ar7A/o.jpg", "is_closed": false, "url": "https://www.yelp.com/biz/gastst%C3%A4tte-attika-halstenbek?adjust_creative=hBJOknVQJ58S5goQyjmwRw&utm_campaign=yelp_api_v3&utm_medium=api_v3_business_search&utm_source=hBJOknVQJ58S5goQyjmwRw", "review_count": 18, "categories": [{"alias": "greek", "title": "Greek"}], "rating": 3.5, "coordinates": {"latitude": 53.63794, "longitude": 9.8424}, "transactions": [], "price": "\u20ac\u20ac", "location": {"address1": "B\u00e4ckerstr. 3", "address2": null, "address3": null, "city": "Halstenbek", "zip_code": "25469", "country": "DE", "state": "SH", "display_address": ["B\u00e4ckerstr. 3", "25469 Halstenbek", "Germany"]}, "phone": "+49410141331", "display_phone": "+49 4101 41331", "distance": 1117.8124939374222}, {"id": "WYBXd9zggh3jHXshwOeMIQ", "alias": "rellinger-hof-rellingen-2", "name": "Rellinger Hof", "image_url": "https://s3-media4.fl.yelpcdn.com/bphoto/OIi6QFl9S4aIPEVO64s24Q/o.jpg", "is_closed": false, "url": "https://www.yelp.com/biz/rellinger-hof-rellingen-2?adjust_creative=hBJOknVQJ58S5goQyjmwRw&utm_campaign=yelp_api_v3&utm_medium=api_v3_business_search&utm_source=hBJOknVQJ58S5goQyjmwRw", "review_count": 1, "categories": [{"alias": "german", "title": "German"}], "rating": 2.0, "coordinates": {"latitude": 53.6492, "longitude": 9.82989}, "transactions": [], "location": {"address1": "Hauptstr. 31", "address2": null, "address3": null, "city": "Rellingen", "zip_code": "25462", "country": "DE", "state": "SH", "display_address": ["Hauptstr. 31", "25462 Rellingen", "Germany"]}, "phone": "+4941012130", "display_phone": "+49 4101 2130", "distance": 2590.4643712214415}, {"id": "V1GEbdrOLwCb5wgg4wPorg", "alias": "trattoria-da-matteo-rellingen", "name": "Trattoria da Matteo", "image_url": "", "is_closed": false, "url": "https://www.yelp.com/biz/trattoria-da-matteo-rellingen?adjust_creative=hBJOknVQJ58S5goQyjmwRw&utm_campaign=yelp_api_v3&utm_medium=api_v3_business_search&utm_source=hBJOknVQJ58S5goQyjmwRw", "review_count": 1, "categories": [{"alias": "italian", "title": "Italian"}], "rating": 3.0, "coordinates": {"latitude": 53.6517941, "longitude": 9.8302747}, "transactions": [], "location": {"address1": "Hauptstr. 62", "address2": "", "address3": null, "city": "Rellingen", "zip_code": "25462", "country": "DE", "state": "SH", "display_address": ["Hauptstr. 62", "25462 Rellingen", "Germany"]}, "phone": "+4941018536259", "display_phone": "+49 4101 8536259", "distance": 2834.801050883457}, {"id": "7qbcYyI8R5Y7fmvYdfwhdg", "alias": "lee-und-lee-schenefeld", "name": "Lee & Lee", "image_url": "https://s3-media2.fl.yelpcdn.com/bphoto/LKrWwdqZfg0PT7vaXW8EPQ/o.jpg", "is_closed": false, "url": "https://www.yelp.com/biz/lee-und-lee-schenefeld?adjust_creative=hBJOknVQJ58S5goQyjmwRw&utm_campaign=yelp_api_v3&utm_medium=api_v3_business_search&utm_source=hBJOknVQJ58S5goQyjmwRw", "review_count": 5, "categories": [{"alias": "panasian", "title": "Pan Asian"}], "rating": 3.0, "coordinates": {"latitude": 53.6018, "longitude": 9.83667}, "transactions": [], "location": {"address1": "Kiebitzweg 2", "address2": null, "address3": null, "city": "Schenefeld", "zip_code": "22869", "country": "DE", "state": "SH", "display_address": ["Kiebitzweg 2", "22869 Schenefeld", "Germany"]}, "phone": "+494087974279", "display_phone": "+49 40 87974279", "distance": 3115.336355096612}, {"id": "mM9CAEVdzxHj14AehBpq3A", "alias": "liva-my-coffee-hamburg", "name": "Liva my coffee", "image_url": "https://s3-media1.fl.yelpcdn.com/bphoto/YZ1vC1Ju_4Apbic50rbExg/o.jpg", "is_closed": false, "url": "https://www.yelp.com/biz/liva-my-coffee-hamburg?adjust_creative=hBJOknVQJ58S5goQyjmwRw&utm_campaign=yelp_api_v3&utm_medium=api_v3_business_search&utm_source=hBJOknVQJ58S5goQyjmwRw", "review_count": 2, "categories": [{"alias": "cafes", "title": "Cafes"}], "rating": 4.5, "coordinates": {"latitude": 53.5914015692045, "longitude": 9.87373039126396}, "transactions": [], "price": "\u20ac", "location": {"address1": "Luruper Hauptstra\u00dfe", "address2": "", "address3": null, "city": "Hamburg", "zip_code": "22547", "country": "DE", "state": "HH", "display_address": ["Luruper Hauptstra\u00dfe", "22547 Hamburg", "Germany"]}, "phone": "+494033474500", "display_phone": "+49 40 33474500", "distance": 4471.659656015496}, {"id": "1scOX0fMV4UdmrlHxMlR0g", "alias": "baris-grill-haus-schenefeld", "name": "Baris Grill-Haus", "image_url": "", "is_closed": false, "url": "https://www.yelp.com/biz/baris-grill-haus-schenefeld?adjust_creative=hBJOknVQJ58S5goQyjmwRw&utm_campaign=yelp_api_v3&utm_medium=api_v3_business_search&utm_source=hBJOknVQJ58S5goQyjmwRw", "review_count": 2, "categories": [{"alias": "food", "title": "Food"}, {"alias": "mideastern", "title": "Middle Eastern"}, {"alias": "kebab", "title": "Kebab"}], "rating": 4.5, "coordinates": {"latitude": 53.6086, "longitude": 9.83903}, "transactions": [], "price": "\u20ac", "location": {"address1": "Lindenallee 8", "address2": null, "address3": null, "city": "Schenefeld", "zip_code": "22869", "country": "DE", "state": "SH", "display_address": ["Lindenallee 8", "22869 Schenefeld", "Germany"]}, "phone": "+494083929389", "display_phone": "+49 40 83929389", "distance": 2345.2561962519826}, {"id": "nOqJnf5EuFAmVdqZw_MBAA", "alias": "caf\u00e9-marie-hamburg", "name": "Caf\u00e9 Marie", "image_url": "https://s3-media3.fl.yelpcdn.com/bphoto/XGYugX1Us4dFW_sBsTHe-g/o.jpg", "is_closed": false, "url": "https://www.yelp.com/biz/caf%C3%A9-marie-hamburg?adjust_creative=hBJOknVQJ58S5goQyjmwRw&utm_campaign=yelp_api_v3&utm_medium=api_v3_business_search&utm_source=hBJOknVQJ58S5goQyjmwRw", "review_count": 12, "categories": [{"alias": "cafes", "title": "Cafes"}, {"alias": "breakfast_brunch", "title": "Breakfast & Brunch"}], "rating": 4.5, "coordinates": {"latitude": 53.5935, "longitude": 9.86989}, "transactions": [], "price": "\u20ac", "location": {"address1": "Luruper Hauptstr.177", "address2": "", "address3": null, "city": "Hamburg", "zip_code": "22547", "country": "DE", "state": "HH", "display_address": ["Luruper Hauptstr.177", "22547 Hamburg", "Germany"]}, "phone": "+491777374591", "display_phone": "+49 177 7374591", "distance": 4164.702609152786}, {"id": "Je39ss_26Nzi5FlwY9-i-A", "alias": "eiscaf\u00e9-arleccino-rellingen", "name": "Eiscaf\u00e9 Arleccino", "image_url": "", "is_closed": false, "url": "https://www.yelp.com/biz/eiscaf%C3%A9-arleccino-rellingen?adjust_creative=hBJOknVQJ58S5goQyjmwRw&utm_campaign=yelp_api_v3&utm_medium=api_v3_business_search&utm_source=hBJOknVQJ58S5goQyjmwRw", "review_count": 3, "categories": [{"alias": "restaurants", "title": "Restaurants"}], "rating": 2.5, "coordinates": {"latitude": 53.6535, "longitude": 9.82924}, "transactions": [], "price": "\u20ac\u20ac", "location": {"address1": "Hauptstr. 80", "address2": null, "address3": null, "city": "Rellingen", "zip_code": "25462", "country": "DE", "state": "SH", "display_address": ["Hauptstr. 80", "25462 Rellingen", "Germany"]}, "phone": "+494101200595", "display_phone": "+49 4101 200595", "distance": 3035.323045341931}, {"id": "APvIA_7ssxgC0atmQEFMcg", "alias": "burgerkultour-food-truck-hamburg-2", "name": "BurgerKultour Food Truck", "image_url": "https://s3-media4.fl.yelpcdn.com/bphoto/KoAuwalMnlAO8139MmdYBQ/o.jpg", "is_closed": false, "url": "https://www.yelp.com/biz/burgerkultour-food-truck-hamburg-2?adjust_creative=hBJOknVQJ58S5goQyjmwRw&utm_campaign=yelp_api_v3&utm_medium=api_v3_business_search&utm_source=hBJOknVQJ58S5goQyjmwRw", "review_count": 3, "categories": [{"alias": "foodtrucks", "title": "Food Trucks"}, {"alias": "burgers", "title": "Burgers"}], "rating": 4.5, "coordinates": {"latitude": 53.57154, "longitude": 9.95575}, "transactions": [], "price": "\u20ac\u20ac", "location": {"address1": "", "address2": "", "address3": "", "city": "Hamburg", "zip_code": "20259", "country": "DE", "state": "HH", "display_address": ["20259 Hamburg", "Germany"]}, "phone": "+4917626055122", "display_phone": "+49 176 26055122", "distance": 9571.520246442378}, {"id": "n_Yio-a9VzssOtDbgezpRA", "alias": "subu-sushi-burrito-hamburg-3", "name": "Subu Sushi Burrito", "image_url": "https://s3-media3.fl.yelpcdn.com/bphoto/x2oh5mzvkzvrXjswE_MjXQ/o.jpg", "is_closed": false, "url": "https://www.yelp.com/biz/subu-sushi-burrito-hamburg-3?adjust_creative=hBJOknVQJ58S5goQyjmwRw&utm_campaign=yelp_api_v3&utm_medium=api_v3_business_search&utm_source=hBJOknVQJ58S5goQyjmwRw", "review_count": 3, "categories": [{"alias": "foodtrucks", "title": "Food Trucks"}, {"alias": "sushi", "title": "Sushi Bars"}], "rating": 5.0, "coordinates": {"latitude": 53.5526819869811, "longitude": 10.0010880455375}, "transactions": [], "price": "\u20ac", "location": {"address1": "", "address2": "", "address3": "", "city": "Hamburg", "zip_code": "", "country": "DE", "state": "HH", "display_address": ["Hamburg", "Germany"]}, "phone": "+4917670834316", "display_phone": "+49 176 70834316", "distance": 13132.96653257222}, {"id": "LUsXC7_d90dqijdKoFZHrg", "alias": "china-restaurant-enten-haus-hamburg", "name": "China-Restaurant Enten-Haus", "image_url": "", "is_closed": false, "url": "https://www.yelp.com/biz/china-restaurant-enten-haus-hamburg?adjust_creative=hBJOknVQJ58S5goQyjmwRw&utm_campaign=yelp_api_v3&utm_medium=api_v3_business_search&utm_source=hBJOknVQJ58S5goQyjmwRw", "review_count": 1, "categories": [{"alias": "chinese", "title": "Chinese"}], "rating": 4.0, "coordinates": {"latitude": 53.59889, "longitude": 9.86187}, "transactions": [], "location": {"address1": "Fahrenort 125", "address2": null, "address3": null, "city": "Hamburg", "zip_code": "22547", "country": "DE", "state": "HH", "display_address": ["Fahrenort 125", "22547 Hamburg", "Germany"]}, "phone": "+49408316090", "display_phone": "+49 40 8316090", "distance": 3440.8211557662403}, {"id": "MQuYGwEojN7fFPMXRePLhw", "alias": "friedrichs-am-reiterhof-schenefeld", "name": "Friedrichs - Am Reiterhof", "image_url": "", "is_closed": false, "url": "https://www.yelp.com/biz/friedrichs-am-reiterhof-schenefeld?adjust_creative=hBJOknVQJ58S5goQyjmwRw&utm_campaign=yelp_api_v3&utm_medium=api_v3_business_search&utm_source=hBJOknVQJ58S5goQyjmwRw", "review_count": 6, "categories": [{"alias": "german", "title": "German"}], "rating": 2.5, "coordinates": {"latitude": 53.6084, "longitude": 9.82596}, "transactions": [], "location": {"address1": "Lindenallee 98", "address2": null, "address3": null, "city": "Schenefeld", "zip_code": "22869", "country": "DE", "state": "SH", "display_address": ["Lindenallee 98", "22869 Schenefeld", "Germany"]}, "phone": "+494018981959", "display_phone": "+49 40 18981959", "distance": 2734.5981773633257}, {"id": "plX5GeRy2oZwGICcURrxzQ", "alias": "lese-kultur-caf\u00e9-hamburg", "name": "Lese-Kultur-Caf\u00e9", "image_url": "", "is_closed": false, "url": "https://www.yelp.com/biz/lese-kultur-caf%C3%A9-hamburg?adjust_creative=hBJOknVQJ58S5goQyjmwRw&utm_campaign=yelp_api_v3&utm_medium=api_v3_business_search&utm_source=hBJOknVQJ58S5goQyjmwRw", "review_count": 1, "categories": [{"alias": "cafes", "title": "Cafes"}], "rating": 5.0, "coordinates": {"latitude": 53.595922, "longitude": 9.872672}, "transactions": [], "location": {"address1": "Stadtteilhaus Lurup", "address2": "B\u00f6verstland 38", "address3": null, "city": "Hamburg", "zip_code": "22547", "country": "DE", "state": "HH", "display_address": ["Stadtteilhaus Lurup", "B\u00f6verstland 38", "22547 Hamburg", "Germany"]}, "phone": "+494087974116", "display_phone": "+49 40 87974116", "distance": 3979.907286684201}, {"id": "-xrcJK-pbh18zQk-nG4oDQ", "alias": "eiscafe-fiore-schenefeld", "name": "Eiscafe Fiore", "image_url": "https://s3-media4.fl.yelpcdn.com/bphoto/MsEW5iYvVDwiH9UYBHAMWw/o.jpg", "is_closed": false, "url": "https://www.yelp.com/biz/eiscafe-fiore-schenefeld?adjust_creative=hBJOknVQJ58S5goQyjmwRw&utm_campaign=yelp_api_v3&utm_medium=api_v3_business_search&utm_source=hBJOknVQJ58S5goQyjmwRw", "review_count": 7, "categories": [{"alias": "cafes", "title": "Cafes"}, {"alias": "icecream", "title": "Ice Cream & Frozen Yogurt"}], "rating": 2.5, "coordinates": {"latitude": 53.6009, "longitude": 9.83725}, "transactions": [], "price": "\u20ac\u20ac", "location": {"address1": "Kiebitzweg 2", "address2": null, "address3": null, "city": "Schenefeld", "zip_code": "22869", "country": "DE", "state": "SH", "display_address": ["Kiebitzweg 2", "22869 Schenefeld", "Germany"]}, "phone": "+49408300537", "display_phone": "+49 40 8300537", "distance": 3202.572547298548}, {"id": "px1s7sLcSCiYRSNvfNsx3w", "alias": "arnoldis-schenefeld", "name": "Arnoldis", "image_url": "https://s3-media3.fl.yelpcdn.com/bphoto/eF8tzsDXhVgqJjkYLy0mKQ/o.jpg", "is_closed": false, "url": "https://www.yelp.com/biz/arnoldis-schenefeld?adjust_creative=hBJOknVQJ58S5goQyjmwRw&utm_campaign=yelp_api_v3&utm_medium=api_v3_business_search&utm_source=hBJOknVQJ58S5goQyjmwRw", "review_count": 18, "categories": [{"alias": "sandwiches", "title": "Sandwiches"}, {"alias": "salad", "title": "Salad"}, {"alias": "pizza", "title": "Pizza"}], "rating": 4.0, "coordinates": {"latitude": 53.6081246, "longitude": 9.8400738}, "transactions": [], "price": "\u20ac\u20ac", "location": {"address1": "Lornsenstr. 111 d", "address2": null, "address3": null, "city": "Schenefeld", "zip_code": "22869", "country": "DE", "state": "SH", "display_address": ["Lornsenstr. 111 d", "22869 Schenefeld", "Germany"]}, "phone": "+494084058550", "display_phone": "+49 40 84058550", "distance": 2378.0653017105064}, {"id": "Czh58o7sIWYTRJEZCxGKIw", "alias": "chinaboy-schenefeld", "name": "ChinaBoy", "image_url": "https://s3-media3.fl.yelpcdn.com/bphoto/v4O8_96rP63EG4BmB3XbDg/o.jpg", "is_closed": false, "url": "https://www.yelp.com/biz/chinaboy-schenefeld?adjust_creative=hBJOknVQJ58S5goQyjmwRw&utm_campaign=yelp_api_v3&utm_medium=api_v3_business_search&utm_source=hBJOknVQJ58S5goQyjmwRw", "review_count": 6, "categories": [{"alias": "chinese", "title": "Chinese"}], "rating": 4.0, "coordinates": {"latitude": 53.602, "longitude": 9.8363}, "transactions": [], "price": "\u20ac\u20ac", "location": {"address1": "Kiebitzweg 2", "address2": null, "address3": null, "city": "Schenefeld", "zip_code": "22869", "country": "DE", "state": "SH", "display_address": ["Kiebitzweg 2", "22869 Schenefeld", "Germany"]}, "phone": "", "display_phone": "", "distance": 3100.380425507156}, {"id": "pZE45kWciSphJGf70AaXVQ", "alias": "der-schwarze-tresen-schenefeld", "name": "Der schwarze Tresen", "image_url": "https://s3-media1.fl.yelpcdn.com/bphoto/6AxFeOALUTefH4N5WNFZDg/o.jpg", "is_closed": false, "url": "https://www.yelp.com/biz/der-schwarze-tresen-schenefeld?adjust_creative=hBJOknVQJ58S5goQyjmwRw&utm_campaign=yelp_api_v3&utm_medium=api_v3_business_search&utm_source=hBJOknVQJ58S5goQyjmwRw", "review_count": 1, "categories": [{"alias": "divebars", "title": "Dive Bars"}, {"alias": "breakfast_brunch", "title": "Breakfast & Brunch"}], "rating": 4.0, "coordinates": {"latitude": 53.602254, "longitude": 9.836563}, "transactions": [], "price": "\u20ac", "location": {"address1": "Stadtzentrum Schenefeld", "address2": "Industriestr. 1", "address3": null, "city": "Schenefeld", "zip_code": "22869", "country": "DE", "state": "SH", "display_address": ["Stadtzentrum Schenefeld", "Industriestr. 1", "22869 Schenefeld", "Germany"]}, "phone": "+4917680289417", "display_phone": "+49 176 80289417", "distance": 3068.5123436705667}, {"id": "oTPsEoBEdylcwgavD78DLw", "alias": "baltaci-d\u00f6ner-schenefeld", "name": "Baltaci D\u00f6ner", "image_url": "https://s3-media2.fl.yelpcdn.com/bphoto/Ka4K0Xd_Kr4RkWvW2S9-CQ/o.jpg", "is_closed": false, "url": "https://www.yelp.com/biz/baltaci-d%C3%B6ner-schenefeld?adjust_creative=hBJOknVQJ58S5goQyjmwRw&utm_campaign=yelp_api_v3&utm_medium=api_v3_business_search&utm_source=hBJOknVQJ58S5goQyjmwRw", "review_count": 4, "categories": [{"alias": "kebab", "title": "Kebab"}], "rating": 4.0, "coordinates": {"latitude": 53.6023, "longitude": 9.837}, "transactions": [], "price": "\u20ac\u20ac", "location": {"address1": "Industriestr. 1", "address2": "", "address3": null, "city": "Schenefeld", "zip_code": "22869", "country": "DE", "state": "SH", "display_address": ["Industriestr. 1", "22869 Schenefeld", "Germany"]}, "phone": "+494083018949", "display_phone": "+49 40 83018949", "distance": 3055.989638546324}, {"id": "wo70Gcw0VOGf_DC__t9Bsg", "alias": "d\u00fcr\u00fcm-hamburg", "name": "D\u00fcr\u00fcm", "image_url": "https://s3-media3.fl.yelpcdn.com/bphoto/tYRufKWCSqQnpvfA4C-a0w/o.jpg", "is_closed": false, "url": "https://www.yelp.com/biz/d%C3%BCr%C3%BCm-hamburg?adjust_creative=hBJOknVQJ58S5goQyjmwRw&utm_campaign=yelp_api_v3&utm_medium=api_v3_business_search&utm_source=hBJOknVQJ58S5goQyjmwRw", "review_count": 9, "categories": [{"alias": "kebab", "title": "Kebab"}], "rating": 3.0, "coordinates": {"latitude": 53.5875142, "longitude": 9.8515812}, "transactions": [], "price": "\u20ac\u20ac", "location": {"address1": "Bornheide 49", "address2": null, "address3": null, "city": "Hamburg", "zip_code": "22549", "country": "DE", "state": "HH", "display_address": ["Bornheide 49", "22549 Hamburg", "Germany"]}, "phone": "+494084054640", "display_phone": "+49 40 84054640", "distance": 4598.903477794812}, {"id": "2jzIbZsfzca5drJYk7JwbQ", "alias": "the-bao-bros-hamburg-2", "name": "The Bao Bros", "image_url": "https://s3-media1.fl.yelpcdn.com/bphoto/vUMA4Y35x3UwZk6fMJfZRw/o.jpg", "is_closed": false, "url": "https://www.yelp.com/biz/the-bao-bros-hamburg-2?adjust_creative=hBJOknVQJ58S5goQyjmwRw&utm_campaign=yelp_api_v3&utm_medium=api_v3_business_search&utm_source=hBJOknVQJ58S5goQyjmwRw", "review_count": 2, "categories": [{"alias": "foodtrucks", "title": "Food Trucks"}, {"alias": "burgers", "title": "Burgers"}], "rating": 4.0, "coordinates": {"latitude": 53.5533409118652, "longitude": 9.99246978759766}, "transactions": [], "price": "\u20ac", "location": {"address1": "", "address2": "", "address3": "", "city": "Hamburg", "zip_code": "", "country": "DE", "state": "HH", "display_address": ["Hamburg", "Germany"]}, "phone": "+4915140700076", "display_phone": "+49 1514 0700076", "distance": 12881.940397891178}, {"id": "R5wNK0pZ2e7NB48ooxSPlg", "alias": "reo-schenefeld", "name": "Reo", "image_url": "https://s3-media2.fl.yelpcdn.com/bphoto/UP73qMWpSWUIhPRe9OinzA/o.jpg", "is_closed": false, "url": "https://www.yelp.com/biz/reo-schenefeld?adjust_creative=hBJOknVQJ58S5goQyjmwRw&utm_campaign=yelp_api_v3&utm_medium=api_v3_business_search&utm_source=hBJOknVQJ58S5goQyjmwRw", "review_count": 7, "categories": [{"alias": "steak", "title": "Steakhouses"}], "rating": 2.5, "coordinates": {"latitude": 53.602, "longitude": 9.8363}, "transactions": [], "price": "\u20ac\u20ac", "location": {"address1": "Kiebitzweg 2", "address2": null, "address3": null, "city": "Schenefeld", "zip_code": "22869", "country": "DE", "state": "SH", "display_address": ["Kiebitzweg 2", "22869 Schenefeld", "Germany"]}, "phone": "+494063943175", "display_phone": "+49 40 63943175", "distance": 3100.380425507156}, {"id": "kDoYfY1trpUnfERmLQJQag", "alias": "hallo-pizza-hamburg-4", "name": "Hallo Pizza!", "image_url": "https://s3-media1.fl.yelpcdn.com/bphoto/sbL3JhVerPzXQLtg63Tm5g/o.jpg", "is_closed": false, "url": "https://www.yelp.com/biz/hallo-pizza-hamburg-4?adjust_creative=hBJOknVQJ58S5goQyjmwRw&utm_campaign=yelp_api_v3&utm_medium=api_v3_business_search&utm_source=hBJOknVQJ58S5goQyjmwRw", "review_count": 9, "categories": [{"alias": "pizza", "title": "Pizza"}], "rating": 4.0, "coordinates": {"latitude": 53.5983, "longitude": 9.85854}, "transactions": [], "price": "\u20ac\u20ac", "location": {"address1": "Luruper Hauptstr. 274", "address2": null, "address3": null, "city": "Hamburg", "zip_code": "22547", "country": "DE", "state": "HH", "display_address": ["Luruper Hauptstr. 274", "22547 Hamburg", "Germany"]}, "phone": "+494083210111", "display_phone": "+49 40 83210111", "distance": 3454.203628956041}, {"id": "ZzolreLfcNzAuSmM6NLR_g", "alias": "hellas-hamburg", "name": "Hellas", "image_url": "https://s3-media2.fl.yelpcdn.com/bphoto/GfdI4z3VCglaXIWZrG-gfA/o.jpg", "is_closed": false, "url": "https://www.yelp.com/biz/hellas-hamburg?adjust_creative=hBJOknVQJ58S5goQyjmwRw&utm_campaign=yelp_api_v3&utm_medium=api_v3_business_search&utm_source=hBJOknVQJ58S5goQyjmwRw", "review_count": 11, "categories": [{"alias": "greek", "title": "Greek"}], "rating": 3.5, "coordinates": {"latitude": 53.5981, "longitude": 9.85866}, "transactions": [], "price": "\u20ac\u20ac", "location": {"address1": "Luruper Hauptstr. 274", "address2": null, "address3": null, "city": "Hamburg", "zip_code": "22547", "country": "DE", "state": "HH", "display_address": ["Luruper Hauptstr. 274", "22547 Hamburg", "Germany"]}, "phone": "+494083200171", "display_phone": "+49 40 83200171", "distance": 3477.514581540158}, {"id": "cGIKCcR0wZszz8VldC2-7g", "alias": "currywerk-hamburg", "name": "curryWERK", "image_url": "https://s3-media4.fl.yelpcdn.com/bphoto/j_ZPQAB6JrAru84VDuLiRA/o.jpg", "is_closed": false, "url": "https://www.yelp.com/biz/currywerk-hamburg?adjust_creative=hBJOknVQJ58S5goQyjmwRw&utm_campaign=yelp_api_v3&utm_medium=api_v3_business_search&utm_source=hBJOknVQJ58S5goQyjmwRw", "review_count": 1, "categories": [{"alias": "foodtrucks", "title": "Food Trucks"}, {"alias": "currysausage", "title": "Curry Sausage"}], "rating": 4.0, "coordinates": {"latitude": 53.5498886108398, "longitude": 9.94732189178467}, "transactions": [], "price": "\u20ac\u20ac", "location": {"address1": "", "address2": "", "address3": "", "city": "Hamburg", "zip_code": "22767", "country": "DE", "state": "HH", "display_address": ["22767 Hamburg", "Germany"]}, "phone": "+4917632443433", "display_phone": "+49 176 32443433", "distance": 10826.55632742761}, {"id": "SVlDjez3scj2-_ndAMrp_A", "alias": "eis-baron-hamburg", "name": "Eis-Baron", "image_url": "", "is_closed": false, "url": "https://www.yelp.com/biz/eis-baron-hamburg?adjust_creative=hBJOknVQJ58S5goQyjmwRw&utm_campaign=yelp_api_v3&utm_medium=api_v3_business_search&utm_source=hBJOknVQJ58S5goQyjmwRw", "review_count": 4, "categories": [{"alias": "icecream", "title": "Ice Cream & Frozen Yogurt"}, {"alias": "waffles", "title": "Waffles"}, {"alias": "hotdogs", "title": "Fast Food"}], "rating": 2.0, "coordinates": {"latitude": 53.591814, "longitude": 9.873827}, "transactions": [], "price": "\u20ac", "location": {"address1": "Eckhoffplatz", "address2": "", "address3": "", "city": "Hamburg", "zip_code": "22547", "country": "DE", "state": "HH", "display_address": ["Eckhoffplatz", "22547 Hamburg", "Germany"]}, "phone": "", "display_phone": "", "distance": 4431.339824255381}, {"id": "vbkRPXgy1U68vQxxRxHNjA", "alias": "burger-me-hamburg-2", "name": "Burger Me", "image_url": "https://s3-media4.fl.yelpcdn.com/bphoto/ZcxOgogItRjk7GJceb-wJA/o.jpg", "is_closed": false, "url": "https://www.yelp.com/biz/burger-me-hamburg-2?adjust_creative=hBJOknVQJ58S5goQyjmwRw&utm_campaign=yelp_api_v3&utm_medium=api_v3_business_search&utm_source=hBJOknVQJ58S5goQyjmwRw", "review_count": 2, "categories": [{"alias": "burgers", "title": "Burgers"}], "rating": 4.5, "coordinates": {"latitude": 53.5976270839418, "longitude": 9.86267987490799}, "transactions": [], "location": {"address1": "Luruper Hauptstr. 250", "address2": "", "address3": null, "city": "Hamburg", "zip_code": "22547", "country": "DE", "state": "BW", "display_address": ["Luruper Hauptstr. 250", "22547 Hamburg", "Germany"]}, "phone": "+4940787000", "display_phone": "+49 40 787000", "distance": 3586.58302342965}, {"id": "SeodQIjOcsrznD7rwIB-Jw", "alias": "the-big-balmy-hamburg-2", "name": "The Big Balmy", "image_url": "https://s3-media2.fl.yelpcdn.com/bphoto/KWUCQvGDONs_iDxlKXzgvQ/o.jpg", "is_closed": false, "url": "https://www.yelp.com/biz/the-big-balmy-hamburg-2?adjust_creative=hBJOknVQJ58S5goQyjmwRw&utm_campaign=yelp_api_v3&utm_medium=api_v3_business_search&utm_source=hBJOknVQJ58S5goQyjmwRw", "review_count": 27, "categories": [{"alias": "burgers", "title": "Burgers"}, {"alias": "foodtrucks", "title": "Food Trucks"}], "rating": 3.5, "coordinates": {"latitude": 53.537786, "longitude": 10.028218}, "transactions": [], "price": "\u20ac\u20ac", "location": {"address1": "", "address2": null, "address3": null, "city": "Hamburg", "zip_code": "", "country": "DE", "state": "HH", "display_address": ["Hamburg", "Germany"]}, "phone": "+494069278630", "display_phone": "+49 40 69278630", "distance": 15571.591881356173}]