[{"id": "iwXSKpZOGyaWXg1anpHhGg", "alias": "olive-hamburg-2", "name": "Olive", "image_url": "https://s3-media3.fl.yelpcdn.com/bphoto/eQlaod-mJn-8tNsAOdv_Fw/o.jpg", "is_closed": false, "url": "https://www.yelp.com/biz/olive-hamburg-2?adjust_creative=hBJOknVQJ58S5goQyjmwRw&utm_campaign=yelp_api_v3&utm_medium=api_v3_business_search&utm_source=hBJOknVQJ58S5goQyjmwRw", "review_count": 52, "categories": [{"alias": "greek", "title": "Greek"}, {"alias": "mediterranean", "title": "Mediterranean"}], "rating": 4.5, "coordinates": {"latitude": 53.64738, "longitude": 10.16931}, "transactions": [], "price": "\u20ac\u20ac", "location": {"address1": "Eulenkrugstr. 66", "address2": "", "address3": "", "city": "Hamburg", "zip_code": "22359", "country": "DE", "state": "HH", "display_address": ["Eulenkrugstr. 66", "22359 Hamburg", "Germany"]}, "phone": "+494064532649", "display_phone": "+49 40 64532649", "distance": 2504.329127795492}, {"id": "gnp5pdA_TxC3aFsnA-LlgA", "alias": "adria-grill-hamburg", "name": "Adria Grill", "image_url": "https://s3-media3.fl.yelpcdn.com/bphoto/jFEMqyesLufR1vwtNQe2nQ/o.jpg", "is_closed": false, "url": "https://www.yelp.com/biz/adria-grill-hamburg?adjust_creative=hBJOknVQJ58S5goQyjmwRw&utm_campaign=yelp_api_v3&utm_medium=api_v3_business_search&utm_source=hBJOknVQJ58S5goQyjmwRw", "review_count": 16, "categories": [{"alias": "serbocroatian", "title": "Serbo Croatian"}], "rating": 4.0, "coordinates": {"latitude": 53.622511493136, "longitude": 10.1650228334827}, "transactions": [], "price": "\u20ac\u20ac", "location": {"address1": "Saseler Str. 1", "address2": null, "address3": null, "city": "Hamburg", "zip_code": "22145", "country": "DE", "state": "HH", "display_address": ["Saseler Str. 1", "22145 Hamburg", "Germany"]}, "phone": "+49406787053", "display_phone": "+49 40 6787053", "distance": 1161.590121343174}, {"id": "YORyYpWGC59Sojp4lW8dBQ", "alias": "ristorante-villaggio-hamburg", "name": "Ristorante Villaggio", "image_url": "https://s3-media4.fl.yelpcdn.com/bphoto/UzpkW0HSJWPx3-mPVsy_kg/o.jpg", "is_closed": false, "url": "https://www.yelp.com/biz/ristorante-villaggio-hamburg?adjust_creative=hBJOknVQJ58S5goQyjmwRw&utm_campaign=yelp_api_v3&utm_medium=api_v3_business_search&utm_source=hBJOknVQJ58S5goQyjmwRw", "review_count": 3, "categories": [{"alias": "italian", "title": "Italian"}], "rating": 4.0, "coordinates": {"latitude": 53.649162, "longitude": 10.16791}, "transactions": [], "price": "\u20ac\u20ac", "location": {"address1": "Hotel du Nord", "address2": "Im Alten Dorfe 40", "address3": "", "city": "Hamburg", "zip_code": "22359", "country": "DE", "state": "HH", "display_address": ["Hotel du Nord", "Im Alten Dorfe 40", "22359 Hamburg", "Germany"]}, "phone": "+49406034042", "display_phone": "+49 40 6034042", "distance": 2726.647955851802}, {"id": "KjsENxvgT0hjC0YGFjZjoQ", "alias": "huus-no-5-hamburg", "name": "huus no. 5", "image_url": "https://s3-media2.fl.yelpcdn.com/bphoto/gKMffzsjbSKFdQNTrac3yw/o.jpg", "is_closed": false, "url": "https://www.yelp.com/biz/huus-no-5-hamburg?adjust_creative=hBJOknVQJ58S5goQyjmwRw&utm_campaign=yelp_api_v3&utm_medium=api_v3_business_search&utm_source=hBJOknVQJ58S5goQyjmwRw", "review_count": 2, "categories": [{"alias": "international", "title": "International"}, {"alias": "bistros", "title": "Bistros"}], "rating": 4.5, "coordinates": {"latitude": 53.64934, "longitude": 10.16612}, "transactions": [], "price": "\u20ac\u20ac", "location": {"address1": "Dorfwinkel 5", "address2": null, "address3": "", "city": "Hamburg", "zip_code": "22359", "country": "DE", "state": "HH", "display_address": ["Dorfwinkel 5", "22359 Hamburg", "Germany"]}, "phone": "+494037020027", "display_phone": "+49 40 37020027", "distance": 2789.019702968793}, {"id": "X5XoKvZuLvLXLnpodFFrNA", "alias": "bei-dino-hamburg", "name": "Bei Dino", "image_url": "https://s3-media2.fl.yelpcdn.com/bphoto/06_Gyg3earR7qRtpM_0lgQ/o.jpg", "is_closed": false, "url": "https://www.yelp.com/biz/bei-dino-hamburg?adjust_creative=hBJOknVQJ58S5goQyjmwRw&utm_campaign=yelp_api_v3&utm_medium=api_v3_business_search&utm_source=hBJOknVQJ58S5goQyjmwRw", "review_count": 1, "categories": [{"alias": "italian", "title": "Italian"}, {"alias": "pizza", "title": "Pizza"}], "rating": 5.0, "coordinates": {"latitude": 53.602, "longitude": 10.1574}, "transactions": [], "price": "\u20ac\u20ac\u20ac\u20ac", "location": {"address1": "Rahlstedter Str. 159", "address2": "", "address3": null, "city": "Hamburg", "zip_code": "22143", "country": "DE", "state": "HH", "display_address": ["Rahlstedter Str. 159", "22143 Hamburg", "Germany"]}, "phone": "+494024439963", "display_phone": "+49 40 24439963", "distance": 3112.304163492921}, {"id": "Dcf5kwdsqjvnsa70xtC1kg", "alias": "gastst\u00e4tte-le-rustique-hamburg", "name": "Gastst\u00e4tte Le Rustique", "image_url": "https://s3-media1.fl.yelpcdn.com/bphoto/GLrrwqVrMl8vAAzjKmYATA/o.jpg", "is_closed": false, "url": "https://www.yelp.com/biz/gastst%C3%A4tte-le-rustique-hamburg?adjust_creative=hBJOknVQJ58S5goQyjmwRw&utm_campaign=yelp_api_v3&utm_medium=api_v3_business_search&utm_source=hBJOknVQJ58S5goQyjmwRw", "review_count": 18, "categories": [{"alias": "international", "title": "International"}], "rating": 4.0, "coordinates": {"latitude": 53.64971, "longitude": 10.16393}, "transactions": [], "price": "\u20ac\u20ac", "location": {"address1": "Claus-Ferck-Str. 14", "address2": null, "address3": null, "city": "Hamburg", "zip_code": "22359", "country": "DE", "state": "HH", "display_address": ["Claus-Ferck-Str. 14", "22359 Hamburg", "Germany"]}, "phone": "+49406036851", "display_phone": "+49 40 6036851", "distance": 2919.8315513141433}, {"id": "nSE3LIJsKM9f6IPKG6nbAw", "alias": "eichenkrug-hamburg", "name": "Eichenkrug", "image_url": "https://s3-media3.fl.yelpcdn.com/bphoto/lO1r45ThqzbrYxNocZH01Q/o.jpg", "is_closed": false, "url": "https://www.yelp.com/biz/eichenkrug-hamburg?adjust_creative=hBJOknVQJ58S5goQyjmwRw&utm_campaign=yelp_api_v3&utm_medium=api_v3_business_search&utm_source=hBJOknVQJ58S5goQyjmwRw", "review_count": 24, "categories": [{"alias": "northerngerman", "title": "Northern German"}], "rating": 4.0, "coordinates": {"latitude": 53.65057, "longitude": 10.1674399}, "transactions": [], "price": "\u20ac\u20ac\u20ac", "location": {"address1": "Im Alten Dorfe 60", "address2": "", "address3": "", "city": "Hamburg", "zip_code": "22359", "country": "DE", "state": "HH", "display_address": ["Im Alten Dorfe 60", "22359 Hamburg", "Germany"]}, "phone": "+49406038781", "display_phone": "+49 40 6038781", "distance": 2880.8489618732006}, {"id": "W7Di0VFheedEkLU5yw2Hqg", "alias": "dorfkrug-volksdorf-hamburg", "name": "Dorfkrug Volksdorf", "image_url": "https://s3-media1.fl.yelpcdn.com/bphoto/OB6qQYoIeK9_pQrFSgkyvw/o.jpg", "is_closed": false, "url": "https://www.yelp.com/biz/dorfkrug-volksdorf-hamburg?adjust_creative=hBJOknVQJ58S5goQyjmwRw&utm_campaign=yelp_api_v3&utm_medium=api_v3_business_search&utm_source=hBJOknVQJ58S5goQyjmwRw", "review_count": 31, "categories": [{"alias": "german", "title": "German"}], "rating": 4.0, "coordinates": {"latitude": 53.6494979, "longitude": 10.1678128}, "transactions": [], "price": "\u20ac\u20ac\u20ac", "location": {"address1": "Im Alten Dorfe 44", "address2": null, "address3": null, "city": "Hamburg", "zip_code": "22359", "country": "DE", "state": "HH", "display_address": ["Im Alten Dorfe 44", "22359 Hamburg", "Germany"]}, "phone": "+49406039294", "display_phone": "+49 40 6039294", "distance": 2764.20422834141}, {"id": "HGRU7GpWZzUNXHFZySx0Pg", "alias": "le-qu\u00e1n-hamburg-6", "name": "Le Qu\u00e1n", "image_url": "https://s3-media2.fl.yelpcdn.com/bphoto/vvREouObluQmMvIQVl-3gw/o.jpg", "is_closed": false, "url": "https://www.yelp.com/biz/le-qu%C3%A1n-hamburg-6?adjust_creative=hBJOknVQJ58S5goQyjmwRw&utm_campaign=yelp_api_v3&utm_medium=api_v3_business_search&utm_source=hBJOknVQJ58S5goQyjmwRw", "review_count": 5, "categories": [{"alias": "vietnamese", "title": "Vietnamese"}], "rating": 3.5, "coordinates": {"latitude": 53.648544, "longitude": 10.165218}, "transactions": [], "price": "\u20ac\u20ac", "location": {"address1": "Im Alten Dorfe 24", "address2": "", "address3": null, "city": "Hamburg", "zip_code": "22359", "country": "DE", "state": "HH", "display_address": ["Im Alten Dorfe 24", "22359 Hamburg", "Germany"]}, "phone": "+494064532657", "display_phone": "+49 40 64532657", "distance": 2727.4296522311915}, {"id": "2xjOX59KWs7KLgcpw86Eiw", "alias": "louisiana-hamburg-6", "name": "Louisiana", "image_url": "https://s3-media2.fl.yelpcdn.com/bphoto/kIPkpQv0hobKQ61bqkBsdg/o.jpg", "is_closed": false, "url": "https://www.yelp.com/biz/louisiana-hamburg-6?adjust_creative=hBJOknVQJ58S5goQyjmwRw&utm_campaign=yelp_api_v3&utm_medium=api_v3_business_search&utm_source=hBJOknVQJ58S5goQyjmwRw", "review_count": 60, "categories": [{"alias": "tradamerican", "title": "American (Traditional)"}, {"alias": "cocktailbars", "title": "Cocktail Bars"}], "rating": 3.0, "coordinates": {"latitude": 53.64881, "longitude": 10.16691}, "transactions": [], "price": "\u20ac\u20ac", "location": {"address1": "Im alten Dorfe 36", "address2": "", "address3": "", "city": "Hamburg", "zip_code": "22359", "country": "DE", "state": "HH", "display_address": ["Im alten Dorfe 36", "22359 Hamburg", "Germany"]}, "phone": "+494045063323", "display_phone": "+49 40 45063323", "distance": 2706.684431573842}, {"id": "GUNxVSa-aaUv5jV8oEqxRw", "alias": "das-leben-isst-sch\u00f6n-hamburg", "name": "Das Leben isst sch\u00f6n!", "image_url": "https://s3-media1.fl.yelpcdn.com/bphoto/n1uOkoVERAGng3b8_5os2g/o.jpg", "is_closed": false, "url": "https://www.yelp.com/biz/das-leben-isst-sch%C3%B6n-hamburg?adjust_creative=hBJOknVQJ58S5goQyjmwRw&utm_campaign=yelp_api_v3&utm_medium=api_v3_business_search&utm_source=hBJOknVQJ58S5goQyjmwRw", "review_count": 24, "categories": [{"alias": "cafes", "title": "Cafes"}, {"alias": "breakfast_brunch", "title": "Breakfast & Brunch"}], "rating": 4.0, "coordinates": {"latitude": 53.648382, "longitude": 10.16816}, "transactions": [], "price": "\u20ac\u20ac", "location": {"address1": "Wiesenh\u00f6fen 7", "address2": "", "address3": "", "city": "Hamburg", "zip_code": "22359", "country": "DE", "state": "HH", "display_address": ["Wiesenh\u00f6fen 7", "22359 Hamburg", "Germany"]}, "phone": "+494080079090", "display_phone": "+49 40 80079090", "distance": 2641.0627683612047}, {"id": "dwbv8cRWOzfD4_VBMTzVCA", "alias": "hotel-meiendorfer-park-hamburg", "name": "Hotel Meiendorfer Park", "image_url": "https://s3-media1.fl.yelpcdn.com/bphoto/LmGe4FROxtNpJjZ4qdPDgw/o.jpg", "is_closed": false, "url": "https://www.yelp.com/biz/hotel-meiendorfer-park-hamburg?adjust_creative=hBJOknVQJ58S5goQyjmwRw&utm_campaign=yelp_api_v3&utm_medium=api_v3_business_search&utm_source=hBJOknVQJ58S5goQyjmwRw", "review_count": 1, "categories": [{"alias": "hotels", "title": "Hotels"}, {"alias": "german", "title": "German"}], "rating": 4.0, "coordinates": {"latitude": 53.62308, "longitude": 10.1664}, "transactions": [], "location": {"address1": "Meiendorfer Str. 101", "address2": null, "address3": null, "city": "Hamburg", "zip_code": "22145", "country": "DE", "state": "SH", "display_address": ["Meiendorfer Str. 101", "22145 Hamburg", "Germany"]}, "phone": "+49406781718", "display_phone": "+49 40 6781718", "distance": 1059.2542256896704}, {"id": "9-KFAI9eGa6am7T29THPOg", "alias": "la-plaza-hamburg", "name": "La Plaza", "image_url": "https://s3-media2.fl.yelpcdn.com/bphoto/zFpzVFW5yBUSChkwpCsxMw/o.jpg", "is_closed": false, "url": "https://www.yelp.com/biz/la-plaza-hamburg?adjust_creative=hBJOknVQJ58S5goQyjmwRw&utm_campaign=yelp_api_v3&utm_medium=api_v3_business_search&utm_source=hBJOknVQJ58S5goQyjmwRw", "review_count": 8, "categories": [{"alias": "tapas", "title": "Tapas Bars"}, {"alias": "cafes", "title": "Cafes"}], "rating": 4.0, "coordinates": {"latitude": 53.64931, "longitude": 10.16334}, "transactions": [], "price": "\u20ac\u20ac", "location": {"address1": "Claus-Ferck-Str. 9-11", "address2": "", "address3": "", "city": "Hamburg", "zip_code": "22359", "country": "DE", "state": "HH", "display_address": ["Claus-Ferck-Str. 9-11", "22359 Hamburg", "Germany"]}, "phone": "+494069464411", "display_phone": "+49 40 69464411", "distance": 2850.326470813491}, {"id": "2nEhazu2nscUQp8p2rEhgA", "alias": "hallo-pizza-hamburg-13", "name": "Hallo Pizza!", "image_url": "https://s3-media1.fl.yelpcdn.com/bphoto/HZKg-zU9v4ugvI_qHn2d-Q/o.jpg", "is_closed": false, "url": "https://www.yelp.com/biz/hallo-pizza-hamburg-13?adjust_creative=hBJOknVQJ58S5goQyjmwRw&utm_campaign=yelp_api_v3&utm_medium=api_v3_business_search&utm_source=hBJOknVQJ58S5goQyjmwRw", "review_count": 3, "categories": [{"alias": "pizza", "title": "Pizza"}], "rating": 4.0, "coordinates": {"latitude": 53.623527, "longitude": 10.1671349}, "transactions": [], "price": "\u20ac", "location": {"address1": "Meiendorfer Str. 109", "address2": null, "address3": null, "city": "Hamburg", "zip_code": "22145", "country": "DE", "state": "HH", "display_address": ["Meiendorfer Str. 109", "22145 Hamburg", "Germany"]}, "phone": "+494067595050", "display_phone": "+49 40 67595050", "distance": 994.2219345975376}, {"id": "V8J4Trv5qPEySUdi3AOlWQ", "alias": "auszeit-hamburg-4", "name": "Auszeit", "image_url": "https://s3-media1.fl.yelpcdn.com/bphoto/ZcuOQNpXtCJGJwk4QYqTPQ/o.jpg", "is_closed": false, "url": "https://www.yelp.com/biz/auszeit-hamburg-4?adjust_creative=hBJOknVQJ58S5goQyjmwRw&utm_campaign=yelp_api_v3&utm_medium=api_v3_business_search&utm_source=hBJOknVQJ58S5goQyjmwRw", "review_count": 9, "categories": [{"alias": "bowling", "title": "Bowling"}, {"alias": "german", "title": "German"}, {"alias": "international", "title": "International"}], "rating": 4.5, "coordinates": {"latitude": 53.586142, "longitude": 10.160171}, "transactions": [], "price": "\u20ac\u20ac\u20ac", "location": {"address1": "H\u00fcllenkoppel 56", "address2": null, "address3": null, "city": "Hamburg", "zip_code": "22149", "country": "DE", "state": "HH", "display_address": ["H\u00fcllenkoppel 56", "22149 Hamburg", "Germany"]}, "phone": "+494067391007", "display_phone": "+49 40 67391007", "distance": 4654.76237721767}, {"id": "od8bKF_bhe-OquHKaGo6eA", "alias": "block-house-hamburg-10", "name": "Block House", "image_url": "https://s3-media2.fl.yelpcdn.com/bphoto/FOB6HXZlBKthwIBWBZ5v_w/o.jpg", "is_closed": false, "url": "https://www.yelp.com/biz/block-house-hamburg-10?adjust_creative=hBJOknVQJ58S5goQyjmwRw&utm_campaign=yelp_api_v3&utm_medium=api_v3_business_search&utm_source=hBJOknVQJ58S5goQyjmwRw", "review_count": 41, "categories": [{"alias": "steak", "title": "Steakhouses"}], "rating": 4.0, "coordinates": {"latitude": 53.6476514, "longitude": 10.1639881}, "transactions": [], "price": "\u20ac\u20ac\u20ac", "location": {"address1": "Groten Hoff 12", "address2": null, "address3": null, "city": "Hamburg", "zip_code": "22359", "country": "DE", "state": "HH", "display_address": ["Groten Hoff 12", "22359 Hamburg", "Germany"]}, "phone": "+49406037025", "display_phone": "+49 40 6037025", "distance": 2670.862105130855}, {"id": "Md9oX45_iGOBBkRI79OIdA", "alias": "aegeon-hamburg", "name": "Aegeon", "image_url": "https://s3-media4.fl.yelpcdn.com/bphoto/HNrm7XGli6wa-Y77H4mmMg/o.jpg", "is_closed": false, "url": "https://www.yelp.com/biz/aegeon-hamburg?adjust_creative=hBJOknVQJ58S5goQyjmwRw&utm_campaign=yelp_api_v3&utm_medium=api_v3_business_search&utm_source=hBJOknVQJ58S5goQyjmwRw", "review_count": 14, "categories": [{"alias": "greek", "title": "Greek"}], "rating": 4.0, "coordinates": {"latitude": 53.6521, "longitude": 10.1858041}, "transactions": [], "price": "\u20ac\u20ac", "location": {"address1": "Buchenring 69", "address2": "", "address3": "", "city": "Hamburg", "zip_code": "22359", "country": "DE", "state": "HH", "display_address": ["Buchenring 69", "22359 Hamburg", "Germany"]}, "phone": "+49406030946", "display_phone": "+49 40 6030946", "distance": 2912.709479765771}, {"id": "LA5p9GlUaSHvqWi1VDtTVg", "alias": "croque-insel-hamburg", "name": "Croque-Insel", "image_url": "https://s3-media3.fl.yelpcdn.com/bphoto/pNpDWMSFo2Ex7lbiUS8CSw/o.jpg", "is_closed": false, "url": "https://www.yelp.com/biz/croque-insel-hamburg?adjust_creative=hBJOknVQJ58S5goQyjmwRw&utm_campaign=yelp_api_v3&utm_medium=api_v3_business_search&utm_source=hBJOknVQJ58S5goQyjmwRw", "review_count": 2, "categories": [{"alias": "sandwiches", "title": "Sandwiches"}], "rating": 5.0, "coordinates": {"latitude": 53.6223993598285, "longitude": 10.1652405883885}, "transactions": [], "location": {"address1": "Saseler Str. 1", "address2": null, "address3": null, "city": "Hamburg", "zip_code": "22145", "country": "DE", "state": "HH", "display_address": ["Saseler Str. 1", "22145 Hamburg", "Germany"]}, "phone": "+49406792179", "display_phone": "+49 40 6792179", "distance": 1152.378083830534}, {"id": "zYxi8TgYgSkaL-SIVAYZRg", "alias": "restaurante-hacienda-hamburg", "name": "Restaurante Hacienda", "image_url": "https://s3-media3.fl.yelpcdn.com/bphoto/1RBAKjM3rQpzYw8Svd4n4w/o.jpg", "is_closed": false, "url": "https://www.yelp.com/biz/restaurante-hacienda-hamburg?adjust_creative=hBJOknVQJ58S5goQyjmwRw&utm_campaign=yelp_api_v3&utm_medium=api_v3_business_search&utm_source=hBJOknVQJ58S5goQyjmwRw", "review_count": 39, "categories": [{"alias": "brazilian", "title": "Brazilian"}], "rating": 3.0, "coordinates": {"latitude": 53.64905, "longitude": 10.1678599}, "transactions": [], "price": "\u20ac\u20ac\u20ac", "location": {"address1": "Alten Dorfe 38", "address2": null, "address3": null, "city": "Hamburg", "zip_code": "22359", "country": "DE", "state": "HH", "display_address": ["Alten Dorfe 38", "22359 Hamburg", "Germany"]}, "phone": "+49406095858", "display_phone": "+49 40 6095858", "distance": 2713.0073271711735}, {"id": "FuG99GxibvKDoUVSf1vTPQ", "alias": "zorbas-hamburg", "name": "Zorbas", "image_url": "https://s3-media4.fl.yelpcdn.com/bphoto/VLeenxj7hlHsUCRnHx6sfQ/o.jpg", "is_closed": false, "url": "https://www.yelp.com/biz/zorbas-hamburg?adjust_creative=hBJOknVQJ58S5goQyjmwRw&utm_campaign=yelp_api_v3&utm_medium=api_v3_business_search&utm_source=hBJOknVQJ58S5goQyjmwRw", "review_count": 16, "categories": [{"alias": "greek", "title": "Greek"}], "rating": 4.0, "coordinates": {"latitude": 53.6532899257829, "longitude": 10.1684149981781}, "transactions": [], "price": "\u20ac\u20ac", "location": {"address1": "Ahrensburger Weg 1", "address2": "", "address3": "", "city": "Hamburg", "zip_code": "22359", "country": "DE", "state": "HH", "display_address": ["Ahrensburger Weg 1", "22359 Hamburg", "Germany"]}, "phone": "+494064533369", "display_phone": "+49 40 64533369", "distance": 3154.2219739393486}, {"id": "gHkp_3gVMlfUi3ioBkPyig", "alias": "atelier-gourmand-hamburg", "name": "Atelier Gourmand", "image_url": "https://s3-media4.fl.yelpcdn.com/bphoto/WOcLkUV0kCv53cWf1SlKug/o.jpg", "is_closed": false, "url": "https://www.yelp.com/biz/atelier-gourmand-hamburg?adjust_creative=hBJOknVQJ58S5goQyjmwRw&utm_campaign=yelp_api_v3&utm_medium=api_v3_business_search&utm_source=hBJOknVQJ58S5goQyjmwRw", "review_count": 3, "categories": [{"alias": "creperies", "title": "Creperies"}, {"alias": "cafes", "title": "Cafes"}, {"alias": "icecream", "title": "Ice Cream & Frozen Yogurt"}], "rating": 4.5, "coordinates": {"latitude": 53.6494770873162, "longitude": 10.1634323693115}, "transactions": [], "price": "\u20ac", "location": {"address1": "Claus-Ferck-Str. 10", "address2": "", "address3": "", "city": "Hamburg", "zip_code": "22359", "country": "DE", "state": "HH", "display_address": ["Claus-Ferck-Str. 10", "22359 Hamburg", "Germany"]}, "phone": "+494060442988", "display_phone": "+49 40 60442988", "distance": 2870.114642158719}, {"id": "RNowDcasaDPG3L8yTyDB9Q", "alias": "rielmanns-waldrestaurant-hamburg", "name": "Rielmann's Waldrestaurant", "image_url": "https://s3-media4.fl.yelpcdn.com/bphoto/gHZ7uvq1ORt2Uuzi0tiS6Q/o.jpg", "is_closed": false, "url": "https://www.yelp.com/biz/rielmanns-waldrestaurant-hamburg?adjust_creative=hBJOknVQJ58S5goQyjmwRw&utm_campaign=yelp_api_v3&utm_medium=api_v3_business_search&utm_source=hBJOknVQJ58S5goQyjmwRw", "review_count": 2, "categories": [{"alias": "german", "title": "German"}], "rating": 3.0, "coordinates": {"latitude": 53.6657821856223, "longitude": 10.1572838053107}, "transactions": [], "location": {"address1": "Im Regestall 53", "address2": "", "address3": null, "city": "Hamburg", "zip_code": "22359", "country": "DE", "state": "HH", "display_address": ["Im Regestall 53", "22359 Hamburg", "Germany"]}, "phone": "+494046963707", "display_phone": "+49 40 46963707", "distance": 4702.777156538815}, {"id": "FAHAE9hqEqYelG_fjDrxFg", "alias": "caf\u00e9-ol\u00e9-hamburg-3", "name": "Caf\u00e9 Ol\u00e9", "image_url": "https://s3-media4.fl.yelpcdn.com/bphoto/VWnPzcmoFpqNR4UOVBxqMw/o.jpg", "is_closed": false, "url": "https://www.yelp.com/biz/caf%C3%A9-ol%C3%A9-hamburg-3?adjust_creative=hBJOknVQJ58S5goQyjmwRw&utm_campaign=yelp_api_v3&utm_medium=api_v3_business_search&utm_source=hBJOknVQJ58S5goQyjmwRw", "review_count": 56, "categories": [{"alias": "bars", "title": "Bars"}, {"alias": "international", "title": "International"}], "rating": 4.0, "coordinates": {"latitude": 53.60526, "longitude": 10.1606}, "transactions": [], "price": "\u20ac\u20ac", "location": {"address1": "Schweriner Str. 23", "address2": null, "address3": null, "city": "Hamburg", "zip_code": "22143", "country": "DE", "state": "HH", "display_address": ["Schweriner Str. 23", "22143 Hamburg", "Germany"]}, "phone": "+494067586133", "display_phone": "+49 40 67586133", "distance": 2719.237814752416}, {"id": "ciJqgCeUUG0U0DJMSJFfUA", "alias": "ristorante-italia-hamburg-2", "name": "Ristorante Italia", "image_url": "https://s3-media3.fl.yelpcdn.com/bphoto/ATtLebNmvMdhDCYYO_Bxgw/o.jpg", "is_closed": false, "url": "https://www.yelp.com/biz/ristorante-italia-hamburg-2?adjust_creative=hBJOknVQJ58S5goQyjmwRw&utm_campaign=yelp_api_v3&utm_medium=api_v3_business_search&utm_source=hBJOknVQJ58S5goQyjmwRw", "review_count": 21, "categories": [{"alias": "italian", "title": "Italian"}], "rating": 3.5, "coordinates": {"latitude": 53.64922, "longitude": 10.1678}, "transactions": [], "price": "\u20ac\u20ac", "location": {"address1": "Im Alten Dorfe 40", "address2": null, "address3": null, "city": "Hamburg", "zip_code": "22359", "country": "DE", "state": "HH", "display_address": ["Im Alten Dorfe 40", "22359 Hamburg", "Germany"]}, "phone": "+49406034042", "display_phone": "+49 40 6034042", "distance": 2726.647955851802}, {"id": "cvXBP5-dd8k91V0139Lvxw", "alias": "koralle-bar-und-bistro-hamburg-2", "name": "Koralle Bar & Bistro", "image_url": "https://s3-media2.fl.yelpcdn.com/bphoto/7mB18YhDqJ-IpJSg3ymQ-Q/o.jpg", "is_closed": false, "url": "https://www.yelp.com/biz/koralle-bar-und-bistro-hamburg-2?adjust_creative=hBJOknVQJ58S5goQyjmwRw&utm_campaign=yelp_api_v3&utm_medium=api_v3_business_search&utm_source=hBJOknVQJ58S5goQyjmwRw", "review_count": 1, "categories": [{"alias": "bars", "title": "Bars"}, {"alias": "bistros", "title": "Bistros"}, {"alias": "venues", "title": "Venues & Event Spaces"}], "rating": 4.0, "coordinates": {"latitude": 53.6516153, "longitude": 10.163339}, "transactions": [], "location": {"address1": "Kattjahren 1 A", "address2": "", "address3": null, "city": "Hamburg", "zip_code": "22359", "country": "DE", "state": "HH", "display_address": ["Kattjahren 1 A", "22359 Hamburg", "Germany"]}, "phone": "+494073054695", "display_phone": "+49 40 73054695", "distance": 3090.1311068092546}, {"id": "WfoA3dcI1IFBi5CIlp4AOA", "alias": "haralds-imbiss-hamburg-2", "name": "Haralds Imbiss", "image_url": "https://s3-media4.fl.yelpcdn.com/bphoto/b8Qk_6KhK-Dod1iTQOVrCQ/o.jpg", "is_closed": false, "url": "https://www.yelp.com/biz/haralds-imbiss-hamburg-2?adjust_creative=hBJOknVQJ58S5goQyjmwRw&utm_campaign=yelp_api_v3&utm_medium=api_v3_business_search&utm_source=hBJOknVQJ58S5goQyjmwRw", "review_count": 6, "categories": [{"alias": "currysausage", "title": "Curry Sausage"}], "rating": 4.5, "coordinates": {"latitude": 53.6509, "longitude": 10.163}, "transactions": [], "price": "\u20ac\u20ac", "location": {"address1": "Marktplatz Volksdorf", "address2": "", "address3": null, "city": "Hamburg", "zip_code": "22359", "country": "DE", "state": "HH", "display_address": ["Marktplatz Volksdorf", "22359 Hamburg", "Germany"]}, "phone": "+4917620821577", "display_phone": "+49 176 20821577", "distance": 3026.0415823359185}, {"id": "vSymknDtUzXUuaIthyyr3w", "alias": "mega-d\u00f6ner-hamburg-2", "name": "Mega D\u00f6ner", "image_url": "https://s3-media2.fl.yelpcdn.com/bphoto/Jk3yRhsjWPCjXqus-ua5oA/o.jpg", "is_closed": false, "url": "https://www.yelp.com/biz/mega-d%C3%B6ner-hamburg-2?adjust_creative=hBJOknVQJ58S5goQyjmwRw&utm_campaign=yelp_api_v3&utm_medium=api_v3_business_search&utm_source=hBJOknVQJ58S5goQyjmwRw", "review_count": 14, "categories": [{"alias": "kebab", "title": "Kebab"}], "rating": 3.5, "coordinates": {"latitude": 53.6502, "longitude": 10.16274}, "transactions": [], "price": "\u20ac", "location": {"address1": "Farmsener Landstr. 195", "address2": "", "address3": "", "city": "Hamburg", "zip_code": "22359", "country": "DE", "state": "HH", "display_address": ["Farmsener Landstr. 195", "22359 Hamburg", "Germany"]}, "phone": "", "display_phone": "", "distance": 2982.047374126969}, {"id": "FNX8Da9zS2soVlmTYnDobQ", "alias": "de-fries-express-hamburg-3", "name": "de Fries Express", "image_url": "https://s3-media3.fl.yelpcdn.com/bphoto/eCMlAK1i79t6mK3wrx9ZSA/o.jpg", "is_closed": false, "url": "https://www.yelp.com/biz/de-fries-express-hamburg-3?adjust_creative=hBJOknVQJ58S5goQyjmwRw&utm_campaign=yelp_api_v3&utm_medium=api_v3_business_search&utm_source=hBJOknVQJ58S5goQyjmwRw", "review_count": 24, "categories": [{"alias": "foodstands", "title": "Food Stands"}, {"alias": "hotdogs", "title": "Fast Food"}], "rating": 4.5, "coordinates": {"latitude": 53.64919, "longitude": 10.16395}, "transactions": [], "price": "\u20ac", "location": {"address1": "Claus-Ferck-Str. 6", "address2": "", "address3": "", "city": "Hamburg", "zip_code": "22359", "country": "DE", "state": "HH", "display_address": ["Claus-Ferck-Str. 6", "22359 Hamburg", "Germany"]}, "phone": "+494060951366", "display_phone": "+49 40 60951366", "distance": 2828.8242310288456}, {"id": "DMrcITnMvwtK9UQQuQ_lVw", "alias": "crazy-kebab-hamburg", "name": "Crazy Kebab", "image_url": "", "is_closed": false, "url": "https://www.yelp.com/biz/crazy-kebab-hamburg?adjust_creative=hBJOknVQJ58S5goQyjmwRw&utm_campaign=yelp_api_v3&utm_medium=api_v3_business_search&utm_source=hBJOknVQJ58S5goQyjmwRw", "review_count": 1, "categories": [{"alias": "kebab", "title": "Kebab"}], "rating": 4.0, "coordinates": {"latitude": 53.627943, "longitude": 10.167453}, "transactions": [], "location": {"address1": "Spitzbergenweg 34 f", "address2": "", "address3": "", "city": "Hamburg", "zip_code": "22145", "country": "DE", "state": "HH", "display_address": ["Spitzbergenweg 34 f", "22145 Hamburg", "Germany"]}, "phone": "+4915205270901", "display_phone": "+49 1520 5270901", "distance": 961.7652062711937}, {"id": "hsO_CX7RKshbcl1B-WRiUQ", "alias": "fischhaus-volksdorf-hamburg", "name": "Fischhaus Volksdorf", "image_url": "https://s3-media2.fl.yelpcdn.com/bphoto/W2_U5l3vXS6bQyO6FYqXig/o.jpg", "is_closed": false, "url": "https://www.yelp.com/biz/fischhaus-volksdorf-hamburg?adjust_creative=hBJOknVQJ58S5goQyjmwRw&utm_campaign=yelp_api_v3&utm_medium=api_v3_business_search&utm_source=hBJOknVQJ58S5goQyjmwRw", "review_count": 5, "categories": [{"alias": "seafoodmarkets", "title": "Seafood Markets"}, {"alias": "bistros", "title": "Bistros"}], "rating": 4.0, "coordinates": {"latitude": 53.64923, "longitude": 10.16645}, "transactions": [], "price": "\u20ac", "location": {"address1": "Dorfwinkel 4-6", "address2": null, "address3": null, "city": "Hamburg", "zip_code": "22359", "country": "DE", "state": "HH", "display_address": ["Dorfwinkel 4-6", "22359 Hamburg", "Germany"]}, "phone": "+49406032018", "display_phone": "+49 40 6032018", "distance": 2778.753897412189}, {"id": "HC4LSmTCh1Xm_N3F8HRalA", "alias": "thai-foo-hamburg-2", "name": "thai foo", "image_url": "https://s3-media2.fl.yelpcdn.com/bphoto/AszGYatnLkzlbEc7BjMzlg/o.jpg", "is_closed": false, "url": "https://www.yelp.com/biz/thai-foo-hamburg-2?adjust_creative=hBJOknVQJ58S5goQyjmwRw&utm_campaign=yelp_api_v3&utm_medium=api_v3_business_search&utm_source=hBJOknVQJ58S5goQyjmwRw", "review_count": 7, "categories": [{"alias": "thai", "title": "Thai"}], "rating": 4.0, "coordinates": {"latitude": 53.6042, "longitude": 10.157}, "transactions": [], "price": "\u20ac\u20ac", "location": {"address1": "Wariner Weg 1", "address2": "", "address3": null, "city": "Hamburg", "zip_code": "22143", "country": "DE", "state": "HH", "display_address": ["Wariner Weg 1", "22143 Hamburg", "Germany"]}, "phone": "+494066977966", "display_phone": "+49 40 66977966", "distance": 2919.617785669662}, {"id": "DsJCxIY0iM8FWMt5Eel8sQ", "alias": "braaker-m\u00fchle-hamburg-4", "name": "Braaker M\u00fchle", "image_url": "https://s3-media3.fl.yelpcdn.com/bphoto/NcXvstHEjtJ3DGFlP3Z_yA/o.jpg", "is_closed": false, "url": "https://www.yelp.com/biz/braaker-m%C3%BChle-hamburg-4?adjust_creative=hBJOknVQJ58S5goQyjmwRw&utm_campaign=yelp_api_v3&utm_medium=api_v3_business_search&utm_source=hBJOknVQJ58S5goQyjmwRw", "review_count": 4, "categories": [{"alias": "bakeries", "title": "Bakeries"}, {"alias": "cafes", "title": "Cafes"}, {"alias": "sandwiches", "title": "Sandwiches"}], "rating": 5.0, "coordinates": {"latitude": 53.6141431, "longitude": 10.1563974}, "transactions": [], "price": "\u20ac", "location": {"address1": "Oldenfelder Stieg 2", "address2": null, "address3": null, "city": "Hamburg", "zip_code": "22143", "country": "DE", "state": "HH", "display_address": ["Oldenfelder Stieg 2", "22143 Hamburg", "Germany"]}, "phone": "+494066854242", "display_phone": "+49 40 66854242", "distance": 2123.8189188205038}, {"id": "9eBv6GtbwqA4gGBq85AqAA", "alias": "mcdonalds-hamburg-55", "name": "McDonald's", "image_url": "https://s3-media3.fl.yelpcdn.com/bphoto/JeDYo2mONIAZAIE6XTp7yw/o.jpg", "is_closed": false, "url": "https://www.yelp.com/biz/mcdonalds-hamburg-55?adjust_creative=hBJOknVQJ58S5goQyjmwRw&utm_campaign=yelp_api_v3&utm_medium=api_v3_business_search&utm_source=hBJOknVQJ58S5goQyjmwRw", "review_count": 18, "categories": [{"alias": "hotdogs", "title": "Fast Food"}, {"alias": "burgers", "title": "Burgers"}], "rating": 3.0, "coordinates": {"latitude": 53.60832, "longitude": 10.19007}, "transactions": [], "price": "\u20ac\u20ac", "location": {"address1": "Sieker Landstr. 126", "address2": null, "address3": null, "city": "Hamburg", "zip_code": "22143", "country": "DE", "state": "HH", "display_address": ["Sieker Landstr. 126", "22143 Hamburg", "Germany"]}, "phone": "+49406779502", "display_phone": "+49 40 6779502", "distance": 2056.633181337001}, {"id": "FcY_keScM6glMY9XkSzYqA", "alias": "die-villa-wiener-kaffeehaus-hamburg", "name": "Die Villa - Wiener Kaffeehaus", "image_url": "https://s3-media2.fl.yelpcdn.com/bphoto/sbmQ_n00mxSp73REyvCzbw/o.jpg", "is_closed": false, "url": "https://www.yelp.com/biz/die-villa-wiener-kaffeehaus-hamburg?adjust_creative=hBJOknVQJ58S5goQyjmwRw&utm_campaign=yelp_api_v3&utm_medium=api_v3_business_search&utm_source=hBJOknVQJ58S5goQyjmwRw", "review_count": 17, "categories": [{"alias": "cafes", "title": "Cafes"}], "rating": 3.5, "coordinates": {"latitude": 53.64847, "longitude": 10.166}, "transactions": [], "price": "\u20ac\u20ac", "location": {"address1": "Ohlendorff'sche Villa", "address2": "Im Alten Dorfe 28", "address3": "", "city": "Hamburg", "zip_code": "22359", "country": "DE", "state": "HH", "display_address": ["Ohlendorff'sche Villa", "Im Alten Dorfe 28", "22359 Hamburg", "Germany"]}, "phone": "+49406032558", "display_phone": "+49 40 6032558", "distance": 2695.4734583758104}, {"id": "3dssdPg3sB9-IpZOh8s-1w", "alias": "hofladen-gut-wulfsdorf-ahrensburg", "name": "Hofladen Gut Wulfsdorf", "image_url": "https://s3-media1.fl.yelpcdn.com/bphoto/M0qSCGfCGzuo-VdDwiOtQg/o.jpg", "is_closed": false, "url": "https://www.yelp.com/biz/hofladen-gut-wulfsdorf-ahrensburg?adjust_creative=hBJOknVQJ58S5goQyjmwRw&utm_campaign=yelp_api_v3&utm_medium=api_v3_business_search&utm_source=hBJOknVQJ58S5goQyjmwRw", "review_count": 6, "categories": [{"alias": "organic_stores", "title": "Organic Stores"}, {"alias": "convenience", "title": "Convenience Stores"}, {"alias": "cafes", "title": "Cafes"}], "rating": 4.5, "coordinates": {"latitude": 53.6592, "longitude": 10.1925}, "transactions": [], "price": "\u20ac\u20ac", "location": {"address1": "Bornkampsweg 39", "address2": null, "address3": null, "city": "Ahrensburg", "zip_code": "22926", "country": "DE", "state": "SH", "display_address": ["Bornkampsweg 39", "22926 Ahrensburg", "Germany"]}, "phone": "+49410232587", "display_phone": "+49 4102 32587", "distance": 3758.224809252145}, {"id": "ZBdsClM5VLExQkhKt9LXpw", "alias": "budai-hamburg", "name": "Budai", "image_url": "https://s3-media4.fl.yelpcdn.com/bphoto/jfibhyWOvP87ReXvqdf0AA/o.jpg", "is_closed": false, "url": "https://www.yelp.com/biz/budai-hamburg?adjust_creative=hBJOknVQJ58S5goQyjmwRw&utm_campaign=yelp_api_v3&utm_medium=api_v3_business_search&utm_source=hBJOknVQJ58S5goQyjmwRw", "review_count": 10, "categories": [{"alias": "mongolian", "title": "Mongolian"}, {"alias": "panasian", "title": "Pan Asian"}], "rating": 3.0, "coordinates": {"latitude": 53.60516, "longitude": 10.16089}, "transactions": [], "price": "\u20ac\u20ac", "location": {"address1": "Schweriner Str. 25", "address2": "", "address3": "", "city": "Hamburg", "zip_code": "22143", "country": "DE", "state": "HH", "display_address": ["Schweriner Str. 25", "22143 Hamburg", "Germany"]}, "phone": "+494065912760", "display_phone": "+49 40 65912760", "distance": 2719.237814752416}, {"id": "bk2qiPr9VurFqhpSBY8uoA", "alias": "hamers-hamburg", "name": "Hamer's", "image_url": "https://s3-media2.fl.yelpcdn.com/bphoto/mKbkUqobN8q_Ke-gSrSVXw/o.jpg", "is_closed": false, "url": "https://www.yelp.com/biz/hamers-hamburg?adjust_creative=hBJOknVQJ58S5goQyjmwRw&utm_campaign=yelp_api_v3&utm_medium=api_v3_business_search&utm_source=hBJOknVQJ58S5goQyjmwRw", "review_count": 2, "categories": [{"alias": "cafes", "title": "Cafes"}], "rating": 2.5, "coordinates": {"latitude": 53.649061, "longitude": 10.164155}, "transactions": [], "price": "\u20ac", "location": {"address1": "Claus-Ferck-Str. 4", "address2": null, "address3": "", "city": "Hamburg", "zip_code": "22359", "country": "DE", "state": "HH", "display_address": ["Claus-Ferck-Str. 4", "22359 Hamburg", "Germany"]}, "phone": "+494030740830", "display_phone": "+49 40 30740830", "distance": 2808.2860297083053}, {"id": "T_tQNhEpiurIvuZS3nRbEw", "alias": "le-petit-hamburg", "name": "Le Petit", "image_url": "https://s3-media1.fl.yelpcdn.com/bphoto/NFwrLZWqzWuwQ04gJCm8kA/o.jpg", "is_closed": false, "url": "https://www.yelp.com/biz/le-petit-hamburg?adjust_creative=hBJOknVQJ58S5goQyjmwRw&utm_campaign=yelp_api_v3&utm_medium=api_v3_business_search&utm_source=hBJOknVQJ58S5goQyjmwRw", "review_count": 7, "categories": [{"alias": "cafes", "title": "Cafes"}, {"alias": "bistros", "title": "Bistros"}], "rating": 3.0, "coordinates": {"latitude": 53.6488113, "longitude": 10.1679096}, "transactions": [], "price": "\u20ac", "location": {"address1": "Wiesenh\u00f6fen 3", "address2": "", "address3": "", "city": "Hamburg", "zip_code": "22359", "country": "DE", "state": "HH", "display_address": ["Wiesenh\u00f6fen 3", "22359 Hamburg", "Germany"]}, "phone": "+494054756660", "display_phone": "+49 40 54756660", "distance": 2712.966821925212}, {"id": "BnU3fJl_W0xfbLbUxy8JNQ", "alias": "schweinske-hamburg-21", "name": "Schweinske", "image_url": "https://s3-media2.fl.yelpcdn.com/bphoto/ZhfgHKFDPyXMIC0OBZzg7g/o.jpg", "is_closed": false, "url": "https://www.yelp.com/biz/schweinske-hamburg-21?adjust_creative=hBJOknVQJ58S5goQyjmwRw&utm_campaign=yelp_api_v3&utm_medium=api_v3_business_search&utm_source=hBJOknVQJ58S5goQyjmwRw", "review_count": 36, "categories": [{"alias": "german", "title": "German"}, {"alias": "breakfast_brunch", "title": "Breakfast & Brunch"}], "rating": 3.0, "coordinates": {"latitude": 53.6046159, "longitude": 10.1591506}, "transactions": [], "price": "\u20ac\u20ac", "location": {"address1": "Schweriner Str. 8 - 12", "address2": "", "address3": "", "city": "Hamburg", "zip_code": "22143", "country": "DE", "state": "HH", "display_address": ["Schweriner Str. 8 - 12", "22143 Hamburg", "Germany"]}, "phone": "+494067584422", "display_phone": "+49 40 67584422", "distance": 2803.8148806211934}, {"id": "d2mtc7YgETaFKEbli95msg", "alias": "bambusgarten-hamburg-3", "name": "Bambusgarten", "image_url": "https://s3-media4.fl.yelpcdn.com/bphoto/QBICO3wxOhAUOB0f56We9g/o.jpg", "is_closed": false, "url": "https://www.yelp.com/biz/bambusgarten-hamburg-3?adjust_creative=hBJOknVQJ58S5goQyjmwRw&utm_campaign=yelp_api_v3&utm_medium=api_v3_business_search&utm_source=hBJOknVQJ58S5goQyjmwRw", "review_count": 29, "categories": [{"alias": "cafes", "title": "Cafes"}], "rating": 2.5, "coordinates": {"latitude": 53.6444, "longitude": 10.19}, "transactions": [], "price": "\u20ac\u20ac", "location": {"address1": "Eulenkrugstr. 190", "address2": null, "address3": null, "city": "Hamburg", "zip_code": "22359", "country": "DE", "state": "HH", "display_address": ["Eulenkrugstr. 190", "22359 Hamburg", "Germany"]}, "phone": "+49405330449190", "display_phone": "+49 40 5330449190", "distance": 2116.8877643721007}, {"id": "aVaZDngIN9749uYxaPgmbw", "alias": "denos-grill-imbiss-hamburg", "name": "Deno's Grill Imbiss", "image_url": "https://s3-media3.fl.yelpcdn.com/bphoto/wKWCJNGroPugFMKTC3qQNw/o.jpg", "is_closed": false, "url": "https://www.yelp.com/biz/denos-grill-imbiss-hamburg?adjust_creative=hBJOknVQJ58S5goQyjmwRw&utm_campaign=yelp_api_v3&utm_medium=api_v3_business_search&utm_source=hBJOknVQJ58S5goQyjmwRw", "review_count": 1, "categories": [{"alias": "hotdogs", "title": "Fast Food"}], "rating": 2.0, "coordinates": {"latitude": 53.602819, "longitude": 10.180077}, "transactions": [], "location": {"address1": "Stapelfelder Str. 88", "address2": "", "address3": null, "city": "Hamburg", "zip_code": "22143", "country": "DE", "state": "HH", "display_address": ["Stapelfelder Str. 88", "22143 Hamburg", "Germany"]}, "phone": "+494063859942", "display_phone": "+49 40 63859942", "distance": 2582.209628110086}, {"id": "oj5pmfBRQjrqELlYgh8VQw", "alias": "zenthai-hamburg-5", "name": "Zenthai", "image_url": "https://s3-media1.fl.yelpcdn.com/bphoto/cuSqnTvLsBJUzL8nLxdukg/o.jpg", "is_closed": false, "url": "https://www.yelp.com/biz/zenthai-hamburg-5?adjust_creative=hBJOknVQJ58S5goQyjmwRw&utm_campaign=yelp_api_v3&utm_medium=api_v3_business_search&utm_source=hBJOknVQJ58S5goQyjmwRw", "review_count": 12, "categories": [{"alias": "panasian", "title": "Pan Asian"}], "rating": 3.5, "coordinates": {"latitude": 53.6048, "longitude": 10.1578}, "transactions": [], "price": "\u20ac", "location": {"address1": "Wariner Weg 1", "address2": "", "address3": "", "city": "Hamburg", "zip_code": "22143", "country": "DE", "state": "HH", "display_address": ["Wariner Weg 1", "22143 Hamburg", "Germany"]}, "phone": "+494067105239", "display_phone": "+49 40 67105239", "distance": 2834.8258207692747}]