[{"id": "HTJFV4B-xQRwvDxIun0g2g", "alias": "l-amira-farmsen-hamburg", "name": "L'Amira Farmsen", "image_url": "https://s3-media4.fl.yelpcdn.com/bphoto/vGGTedKCivZ-omRsQDWDnQ/o.jpg", "is_closed": false, "url": "https://www.yelp.com/biz/l-amira-farmsen-hamburg?adjust_creative=hBJOknVQJ58S5goQyjmwRw&utm_campaign=yelp_api_v3&utm_medium=api_v3_business_search&utm_source=hBJOknVQJ58S5goQyjmwRw", "review_count": 58, "categories": [{"alias": "syrian", "title": "Syrian"}], "rating": 4.5, "coordinates": {"latitude": 53.6165449, "longitude": 10.1136955}, "transactions": [], "price": "\u20ac\u20ac", "location": {"address1": "Neusurenland 101", "address2": "", "address3": "", "city": "Hamburg", "zip_code": "22159", "country": "DE", "state": "HH", "display_address": ["Neusurenland 101", "22159 Hamburg", "Germany"]}, "phone": "+494073088653", "display_phone": "+49 40 73088653", "distance": 1221.700888745045}, {"id": "HJ01zMNLEmQKEVdkMcJYUQ", "alias": "con-calma-hamburg", "name": "Con Calma", "image_url": "https://s3-media2.fl.yelpcdn.com/bphoto/fvN1qc3Bz5KqEJ9NoSz6zA/o.jpg", "is_closed": false, "url": "https://www.yelp.com/biz/con-calma-hamburg?adjust_creative=hBJOknVQJ58S5goQyjmwRw&utm_campaign=yelp_api_v3&utm_medium=api_v3_business_search&utm_source=hBJOknVQJ58S5goQyjmwRw", "review_count": 14, "categories": [{"alias": "italian", "title": "Italian"}], "rating": 4.5, "coordinates": {"latitude": 53.64219, "longitude": 10.1129}, "transactions": [], "price": "\u20ac", "location": {"address1": "Volksdorfer Weg 112", "address2": "", "address3": "", "city": "Hamburg", "zip_code": "22393", "country": "DE", "state": "HH", "display_address": ["Volksdorfer Weg 112", "22393 Hamburg", "Germany"]}, "phone": "+494087602817", "display_phone": "+49 40 87602817", "distance": 1816.1367416757307}, {"id": "n7W1ITUtp9K6w9kvV1Bcmw", "alias": "luna-hamburg-3", "name": "Luna", "image_url": "https://s3-media3.fl.yelpcdn.com/bphoto/JqUdwuBoeQGJ2_hEQelUDw/o.jpg", "is_closed": false, "url": "https://www.yelp.com/biz/luna-hamburg-3?adjust_creative=hBJOknVQJ58S5goQyjmwRw&utm_campaign=yelp_api_v3&utm_medium=api_v3_business_search&utm_source=hBJOknVQJ58S5goQyjmwRw", "review_count": 27, "categories": [{"alias": "italian", "title": "Italian"}], "rating": 4.5, "coordinates": {"latitude": 53.5873798815073, "longitude": 10.1283631958008}, "transactions": [], "price": "\u20ac\u20ac", "location": {"address1": "Tonndorfer Hauptstr. 96 a", "address2": null, "address3": null, "city": "Hamburg", "zip_code": "22045", "country": "DE", "state": "HH", "display_address": ["Tonndorfer Hauptstr. 96 a", "22045 Hamburg", "Germany"]}, "phone": "+49406535749", "display_phone": "+49 40 6535749", "distance": 4387.601213470369}, {"id": "5lJWDVEEOLYFG9JU_hYLSw", "alias": "hobs-diner-hamburg", "name": "Hobs - Diner", "image_url": "https://s3-media1.fl.yelpcdn.com/bphoto/fpK-3izEqqip8qXKfCXWNw/o.jpg", "is_closed": false, "url": "https://www.yelp.com/biz/hobs-diner-hamburg?adjust_creative=hBJOknVQJ58S5goQyjmwRw&utm_campaign=yelp_api_v3&utm_medium=api_v3_business_search&utm_source=hBJOknVQJ58S5goQyjmwRw", "review_count": 28, "categories": [{"alias": "sportsbars", "title": "Sports Bars"}, {"alias": "tradamerican", "title": "American (Traditional)"}, {"alias": "poolhalls", "title": "Pool Halls"}], "rating": 3.5, "coordinates": {"latitude": 53.61651, "longitude": 10.12226}, "transactions": [], "price": "\u20ac\u20ac", "location": {"address1": "Neusurenland 139", "address2": null, "address3": null, "city": "Hamburg", "zip_code": "22159", "country": "DE", "state": "HH", "display_address": ["Neusurenland 139", "22159 Hamburg", "Germany"]}, "phone": "+49406523164", "display_phone": "+49 40 6523164", "distance": 1158.3635333966618}, {"id": "OYQggP30PLAKb_DtaxLhzA", "alias": "qing-dao-hamburg", "name": "Qing Dao", "image_url": "https://s3-media2.fl.yelpcdn.com/bphoto/QilDd9pT_ZjLpBJiJkGMUw/o.jpg", "is_closed": false, "url": "https://www.yelp.com/biz/qing-dao-hamburg?adjust_creative=hBJOknVQJ58S5goQyjmwRw&utm_campaign=yelp_api_v3&utm_medium=api_v3_business_search&utm_source=hBJOknVQJ58S5goQyjmwRw", "review_count": 15, "categories": [{"alias": "chinese", "title": "Chinese"}, {"alias": "thai", "title": "Thai"}], "rating": 4.0, "coordinates": {"latitude": 53.5974, "longitude": 10.1026}, "transactions": [], "price": "\u20ac\u20ac", "location": {"address1": "Eckerkoppel 121", "address2": null, "address3": null, "city": "Hamburg", "zip_code": "22159", "country": "DE", "state": "HH", "display_address": ["Eckerkoppel 121", "22159 Hamburg", "Germany"]}, "phone": "+494064538989", "display_phone": "+49 40 64538989", "distance": 3470.171405028352}, {"id": "YY5zm9RE9A7Y6Bwz7c4Z4Q", "alias": "indian-temple-hamburg-4", "name": "Indian Temple", "image_url": "https://s3-media1.fl.yelpcdn.com/bphoto/XFfM2ecW3PStoPw8kxniCA/o.jpg", "is_closed": false, "url": "https://www.yelp.com/biz/indian-temple-hamburg-4?adjust_creative=hBJOknVQJ58S5goQyjmwRw&utm_campaign=yelp_api_v3&utm_medium=api_v3_business_search&utm_source=hBJOknVQJ58S5goQyjmwRw", "review_count": 12, "categories": [{"alias": "indpak", "title": "Indian"}], "rating": 4.5, "coordinates": {"latitude": 53.6531, "longitude": 10.10639}, "transactions": [], "price": "\u20ac\u20ac", "location": {"address1": "Saseler Chaussee 205", "address2": "", "address3": "", "city": "Hamburg", "zip_code": "22393", "country": "DE", "state": "HH", "display_address": ["Saseler Chaussee 205", "22393 Hamburg", "Germany"]}, "phone": "+494046642464", "display_phone": "+49 40 46642464", "distance": 3101.0220340392116}, {"id": "qsAIbON79_SOn2rEzYpUZA", "alias": "taverna-kreta-hamburg", "name": "Taverna Kreta", "image_url": "https://s3-media1.fl.yelpcdn.com/bphoto/mngkSUVrt-Lv0aWJxXvKxQ/o.jpg", "is_closed": false, "url": "https://www.yelp.com/biz/taverna-kreta-hamburg?adjust_creative=hBJOknVQJ58S5goQyjmwRw&utm_campaign=yelp_api_v3&utm_medium=api_v3_business_search&utm_source=hBJOknVQJ58S5goQyjmwRw", "review_count": 29, "categories": [{"alias": "greek", "title": "Greek"}], "rating": 4.5, "coordinates": {"latitude": 53.6241, "longitude": 10.1181}, "transactions": [], "price": "\u20ac\u20ac", "location": {"address1": "Roter Hahn 14", "address2": null, "address3": null, "city": "Hamburg", "zip_code": "22159", "country": "DE", "state": "HH", "display_address": ["Roter Hahn 14", "22159 Hamburg", "Germany"]}, "phone": "+49406448993", "display_phone": "+49 40 6448993", "distance": 343.26724202405745}, {"id": "VsgSTpeeqZUCvAJIXZlN-w", "alias": "just-falafels-hamburg", "name": "Just Falafels", "image_url": "https://s3-media3.fl.yelpcdn.com/bphoto/FY54O4kmbp-WKWDywuiaVQ/o.jpg", "is_closed": false, "url": "https://www.yelp.com/biz/just-falafels-hamburg?adjust_creative=hBJOknVQJ58S5goQyjmwRw&utm_campaign=yelp_api_v3&utm_medium=api_v3_business_search&utm_source=hBJOknVQJ58S5goQyjmwRw", "review_count": 1, "categories": [{"alias": "falafel", "title": "Falafel"}], "rating": 5.0, "coordinates": {"latitude": 53.620699, "longitude": 10.102013}, "transactions": [], "location": {"address1": "Pezolddamm 40", "address2": "", "address3": "", "city": "Hamburg", "zip_code": "22175", "country": "DE", "state": "HH", "display_address": ["Pezolddamm 40", "22175 Hamburg", "Germany"]}, "phone": "+494055645530", "display_phone": "+49 40 55645530", "distance": 1422.3128967386374}, {"id": "rvih7rBlO-VmsWMbgAkJbQ", "alias": "bb-bistro-hamburg", "name": "BB Bistro", "image_url": "https://s3-media3.fl.yelpcdn.com/bphoto/bps_H8kKPnWnMYKvdB3xPQ/o.jpg", "is_closed": false, "url": "https://www.yelp.com/biz/bb-bistro-hamburg?adjust_creative=hBJOknVQJ58S5goQyjmwRw&utm_campaign=yelp_api_v3&utm_medium=api_v3_business_search&utm_source=hBJOknVQJ58S5goQyjmwRw", "review_count": 31, "categories": [{"alias": "bistros", "title": "Bistros"}, {"alias": "chinese", "title": "Chinese"}], "rating": 4.5, "coordinates": {"latitude": 53.653329, "longitude": 10.114534}, "transactions": [], "price": "\u20ac", "location": {"address1": "Waldweg 8", "address2": "", "address3": "", "city": "Hamburg", "zip_code": "22393", "country": "DE", "state": "HH", "display_address": ["Waldweg 8", "22393 Hamburg", "Germany"]}, "phone": "+494088165634", "display_phone": "+49 40 88165634", "distance": 3001.5991120827102}, {"id": "VYbmzsJOfBHnUZhLiuVr0w", "alias": "pad-thai-hamburg", "name": "Pad Thai", "image_url": "https://s3-media2.fl.yelpcdn.com/bphoto/qoQ0n2pI-C76XbPD_AEbLw/o.jpg", "is_closed": false, "url": "https://www.yelp.com/biz/pad-thai-hamburg?adjust_creative=hBJOknVQJ58S5goQyjmwRw&utm_campaign=yelp_api_v3&utm_medium=api_v3_business_search&utm_source=hBJOknVQJ58S5goQyjmwRw", "review_count": 20, "categories": [{"alias": "thai", "title": "Thai"}, {"alias": "panasian", "title": "Pan Asian"}], "rating": 4.5, "coordinates": {"latitude": 53.5995102, "longitude": 10.1181002}, "transactions": [], "price": "\u20ac", "location": {"address1": "Berner Heerweg 98", "address2": "", "address3": "", "city": "Hamburg", "zip_code": "22159", "country": "DE", "state": "HH", "display_address": ["Berner Heerweg 98", "22159 Hamburg", "Germany"]}, "phone": "+49406436499", "display_phone": "+49 40 6436499", "distance": 3019.7043986349418}, {"id": "ttHhNqy1or8gL8bFyC19uQ", "alias": "der-gyros-spezialist-hamburg", "name": "Der Gyros-Spezialist", "image_url": "https://s3-media4.fl.yelpcdn.com/bphoto/hIO-FDqfRZGybl--b3V2UA/o.jpg", "is_closed": false, "url": "https://www.yelp.com/biz/der-gyros-spezialist-hamburg?adjust_creative=hBJOknVQJ58S5goQyjmwRw&utm_campaign=yelp_api_v3&utm_medium=api_v3_business_search&utm_source=hBJOknVQJ58S5goQyjmwRw", "review_count": 87, "categories": [{"alias": "greek", "title": "Greek"}], "rating": 4.5, "coordinates": {"latitude": 53.62113, "longitude": 10.10274}, "transactions": [], "price": "\u20ac\u20ac", "location": {"address1": "Pezolddamm 45", "address2": "", "address3": "", "city": "Hamburg", "zip_code": "22175", "country": "DE", "state": "HH", "display_address": ["Pezolddamm 45", "22175 Hamburg", "Germany"]}, "phone": "+49406434946", "display_phone": "+49 40 6434946", "distance": 1355.0812243758728}, {"id": "7yDn3Eb-Oo9lECGO2MS0qw", "alias": "watzmann-wirtshaus-hamburg", "name": "Watzmann Wirtshaus", "image_url": "https://s3-media4.fl.yelpcdn.com/bphoto/fAGbOGkp82110R3lEOTKfw/o.jpg", "is_closed": false, "url": "https://www.yelp.com/biz/watzmann-wirtshaus-hamburg?adjust_creative=hBJOknVQJ58S5goQyjmwRw&utm_campaign=yelp_api_v3&utm_medium=api_v3_business_search&utm_source=hBJOknVQJ58S5goQyjmwRw", "review_count": 66, "categories": [{"alias": "austrian", "title": "Austrian"}], "rating": 4.0, "coordinates": {"latitude": 53.65195, "longitude": 10.10617}, "transactions": [], "price": "\u20ac\u20ac", "location": {"address1": "Saseler Chaussee 166", "address2": null, "address3": null, "city": "Hamburg", "zip_code": "22393", "country": "DE", "state": "HH", "display_address": ["Saseler Chaussee 166", "22393 Hamburg", "Germany"]}, "phone": "+49406003589", "display_phone": "+49 40 6003589", "distance": 2983.1623159015962}, {"id": "-6tlO6UyWyo_NsKur7uKCw", "alias": "la-madera-hamburg-2", "name": "La Madera", "image_url": "https://s3-media3.fl.yelpcdn.com/bphoto/9J8fAarpfPXzpScmOs85gw/o.jpg", "is_closed": false, "url": "https://www.yelp.com/biz/la-madera-hamburg-2?adjust_creative=hBJOknVQJ58S5goQyjmwRw&utm_campaign=yelp_api_v3&utm_medium=api_v3_business_search&utm_source=hBJOknVQJ58S5goQyjmwRw", "review_count": 103, "categories": [{"alias": "steak", "title": "Steakhouses"}, {"alias": "spanish", "title": "Spanish"}], "rating": 3.5, "coordinates": {"latitude": 53.6434, "longitude": 10.09883}, "transactions": [], "price": "\u20ac\u20ac\u20ac", "location": {"address1": "Saseler Chaussee 101", "address2": "", "address3": "", "city": "Hamburg", "zip_code": "22393", "country": "DE", "state": "HH", "display_address": ["Saseler Chaussee 101", "22393 Hamburg", "Germany"]}, "phone": "+494038076165", "display_phone": "+49 40 38076165", "distance": 2384.3752125452816}, {"id": "fAQL7j7udJXG7lmU7PHzJQ", "alias": "restaurant-hellas-hamburg-2", "name": "Restaurant Hellas", "image_url": "https://s3-media1.fl.yelpcdn.com/bphoto/eueMnGjWpKm5_hRq4iFWWg/o.jpg", "is_closed": false, "url": "https://www.yelp.com/biz/restaurant-hellas-hamburg-2?adjust_creative=hBJOknVQJ58S5goQyjmwRw&utm_campaign=yelp_api_v3&utm_medium=api_v3_business_search&utm_source=hBJOknVQJ58S5goQyjmwRw", "review_count": 22, "categories": [{"alias": "greek", "title": "Greek"}], "rating": 4.5, "coordinates": {"latitude": 53.62471, "longitude": 10.09919}, "transactions": [], "price": "\u20ac\u20ac", "location": {"address1": "Am St\u00fchm-S\u00fcd 86", "address2": null, "address3": null, "city": "Hamburg", "zip_code": "22175", "country": "DE", "state": "HH", "display_address": ["Am St\u00fchm-S\u00fcd 86", "22175 Hamburg", "Germany"]}, "phone": "+49406409546", "display_phone": "+49 40 6409546", "distance": 1460.2036841053418}, {"id": "sSIvrC1bY2hHZs7nx6zJeQ", "alias": "pizza-tree-hamburg", "name": "Pizza Tree", "image_url": "https://s3-media2.fl.yelpcdn.com/bphoto/Q1l_gVNGuu2rjPWL4bXbgw/o.jpg", "is_closed": false, "url": "https://www.yelp.com/biz/pizza-tree-hamburg?adjust_creative=hBJOknVQJ58S5goQyjmwRw&utm_campaign=yelp_api_v3&utm_medium=api_v3_business_search&utm_source=hBJOknVQJ58S5goQyjmwRw", "review_count": 2, "categories": [{"alias": "pizza", "title": "Pizza"}, {"alias": "salad", "title": "Salad"}, {"alias": "burgers", "title": "Burgers"}], "rating": 3.5, "coordinates": {"latitude": 53.62549, "longitude": 10.11434}, "transactions": [], "location": {"address1": "Stefan-Zweig-Str. 1", "address2": "", "address3": null, "city": "Hamburg", "zip_code": "22175", "country": "DE", "state": "HH", "display_address": ["Stefan-Zweig-Str. 1", "22175 Hamburg", "Germany"]}, "phone": "+494073677223", "display_phone": "+49 40 73677223", "distance": 463.33819350092546}, {"id": "BjfyGGgIDkVxmoneq1v7Nw", "alias": "ata-hamburg", "name": "Ata", "image_url": "https://s3-media2.fl.yelpcdn.com/bphoto/Z4kG4o9hOPBknlRq1cGFFQ/o.jpg", "is_closed": false, "url": "https://www.yelp.com/biz/ata-hamburg?adjust_creative=hBJOknVQJ58S5goQyjmwRw&utm_campaign=yelp_api_v3&utm_medium=api_v3_business_search&utm_source=hBJOknVQJ58S5goQyjmwRw", "review_count": 45, "categories": [{"alias": "turkish", "title": "Turkish"}], "rating": 4.5, "coordinates": {"latitude": 53.5939, "longitude": 10.0982}, "transactions": [], "price": "\u20ac\u20ac", "location": {"address1": "Am Stadtrand 66", "address2": null, "address3": null, "city": "Hamburg", "zip_code": "22047", "country": "DE", "state": "HH", "display_address": ["Am Stadtrand 66", "22047 Hamburg", "Germany"]}, "phone": "+494069641787", "display_phone": "+49 40 69641787", "distance": 3939.0007067058345}, {"id": "Bda7qjlbhgbEimtkgq8IrQ", "alias": "china-ente-restaurant-hamburg-2", "name": "China-Ente-Restaurant", "image_url": "https://s3-media1.fl.yelpcdn.com/bphoto/wrXm4UbqLdIEUZ_hjWLGPg/o.jpg", "is_closed": false, "url": "https://www.yelp.com/biz/china-ente-restaurant-hamburg-2?adjust_creative=hBJOknVQJ58S5goQyjmwRw&utm_campaign=yelp_api_v3&utm_medium=api_v3_business_search&utm_source=hBJOknVQJ58S5goQyjmwRw", "review_count": 14, "categories": [{"alias": "chinese", "title": "Chinese"}], "rating": 4.5, "coordinates": {"latitude": 53.64288, "longitude": 10.09904}, "transactions": [], "price": "\u20ac\u20ac\u20ac", "location": {"address1": "Saseler Chaussee 88 a", "address2": null, "address3": null, "city": "Hamburg", "zip_code": "22393", "country": "DE", "state": "HH", "display_address": ["Saseler Chaussee 88 a", "22393 Hamburg", "Germany"]}, "phone": "+49406014012", "display_phone": "+49 40 6014012", "distance": 2323.414207282959}, {"id": "X511PmuRIjSHaX7zw6-Zug", "alias": "porto-carras-hamburg", "name": "Porto Carras", "image_url": "https://s3-media4.fl.yelpcdn.com/bphoto/xsMWDM_pDE9wWDtaGfOOoA/o.jpg", "is_closed": false, "url": "https://www.yelp.com/biz/porto-carras-hamburg?adjust_creative=hBJOknVQJ58S5goQyjmwRw&utm_campaign=yelp_api_v3&utm_medium=api_v3_business_search&utm_source=hBJOknVQJ58S5goQyjmwRw", "review_count": 10, "categories": [{"alias": "greek", "title": "Greek"}], "rating": 4.5, "coordinates": {"latitude": 53.5925, "longitude": 10.1097}, "transactions": [], "price": "\u20ac\u20ac", "location": {"address1": "Berner Heerweg 7", "address2": null, "address3": null, "city": "Hamburg", "zip_code": "22159", "country": "DE", "state": "HH", "display_address": ["Berner Heerweg 7", "22159 Hamburg", "Germany"]}, "phone": "+494067599055", "display_phone": "+49 40 67599055", "distance": 3866.7119317385786}, {"id": "1qV1Wz2aohC6Rp-CZPGRVg", "alias": "berne-kebap-haus-hamburg", "name": "Berne Kebap Haus", "image_url": "https://s3-media4.fl.yelpcdn.com/bphoto/bpsRMMVl8g8lAmfmV5YO9g/o.jpg", "is_closed": false, "url": "https://www.yelp.com/biz/berne-kebap-haus-hamburg?adjust_creative=hBJOknVQJ58S5goQyjmwRw&utm_campaign=yelp_api_v3&utm_medium=api_v3_business_search&utm_source=hBJOknVQJ58S5goQyjmwRw", "review_count": 1, "categories": [{"alias": "kebab", "title": "Kebab"}], "rating": 5.0, "coordinates": {"latitude": 53.6252153896313, "longitude": 10.1390706002712}, "transactions": [], "price": "\u20ac", "location": {"address1": "Hermann-Balk-Str. 117", "address2": "", "address3": null, "city": "Hamburg", "zip_code": "22147", "country": "DE", "state": "HH", "display_address": ["Hermann-Balk-Str. 117", "22147 Hamburg", "Germany"]}, "phone": "+494032843723", "display_phone": "+49 40 32843723", "distance": 1192.3817049361105}, {"id": "G5qIXIDFswYYXy_-SlOwgw", "alias": "gut-karlsh\u00f6he-hamburg", "name": "Gut Karlsh\u00f6he", "image_url": "https://s3-media4.fl.yelpcdn.com/bphoto/K4UPzUKEdKdTIArYJNnFdw/o.jpg", "is_closed": false, "url": "https://www.yelp.com/biz/gut-karlsh%C3%B6he-hamburg?adjust_creative=hBJOknVQJ58S5goQyjmwRw&utm_campaign=yelp_api_v3&utm_medium=api_v3_business_search&utm_source=hBJOknVQJ58S5goQyjmwRw", "review_count": 9, "categories": [{"alias": "active", "title": "Active Life"}, {"alias": "cafes", "title": "Cafes"}, {"alias": "museums", "title": "Museums"}], "rating": 4.0, "coordinates": {"latitude": 53.62997, "longitude": 10.11033}, "transactions": [], "location": {"address1": "Karlsh\u00f6he 60d", "address2": null, "address3": null, "city": "Hamburg", "zip_code": "22175", "country": "DE", "state": "HH", "display_address": ["Karlsh\u00f6he 60d", "22175 Hamburg", "Germany"]}, "phone": "+494063702490", "display_phone": "+49 40 63702490", "distance": 805.1356218407996}, {"id": "EtyP2kB2FG6YiJTQxzV3mA", "alias": "sale-pepe-hamburg", "name": "Sale Pepe", "image_url": "https://s3-media2.fl.yelpcdn.com/bphoto/fRPybKpBBRPG8au-9RWuHA/o.jpg", "is_closed": false, "url": "https://www.yelp.com/biz/sale-pepe-hamburg?adjust_creative=hBJOknVQJ58S5goQyjmwRw&utm_campaign=yelp_api_v3&utm_medium=api_v3_business_search&utm_source=hBJOknVQJ58S5goQyjmwRw", "review_count": 2, "categories": [{"alias": "italian", "title": "Italian"}], "rating": 4.5, "coordinates": {"latitude": 53.6052, "longitude": 10.1183599}, "transactions": [], "price": "\u20ac\u20ac", "location": {"address1": "Berner Heerweg 173", "address2": "", "address3": "", "city": "Hamburg", "zip_code": "22159", "country": "DE", "state": "HH", "display_address": ["Berner Heerweg 173", "22159 Hamburg", "Germany"]}, "phone": "+494064533985", "display_phone": "+49 40 64533985", "distance": 2346.3095052352746}, {"id": "YWK95x01CAG9IE-O5BqmPg", "alias": "trattoria-amarone-hamburg", "name": "Trattoria Amarone", "image_url": "https://s3-media4.fl.yelpcdn.com/bphoto/FtNlyKZ9E6igTRIN7y6RMg/o.jpg", "is_closed": false, "url": "https://www.yelp.com/biz/trattoria-amarone-hamburg?adjust_creative=hBJOknVQJ58S5goQyjmwRw&utm_campaign=yelp_api_v3&utm_medium=api_v3_business_search&utm_source=hBJOknVQJ58S5goQyjmwRw", "review_count": 2, "categories": [{"alias": "italian", "title": "Italian"}, {"alias": "wine_bars", "title": "Wine Bars"}], "rating": 4.5, "coordinates": {"latitude": 53.586013, "longitude": 10.123615}, "transactions": [], "location": {"address1": "Tonndorfer Hauptstr. 59", "address2": "", "address3": null, "city": "Hamburg", "zip_code": "22045", "country": "DE", "state": "HH", "display_address": ["Tonndorfer Hauptstr. 59", "22045 Hamburg", "Germany"]}, "phone": "+494063738879", "display_phone": "+49 40 63738879", "distance": 4516.595597392452}, {"id": "-A_pku1o6DuLFe-3vy88-Q", "alias": "restaurant-estia-hamburg", "name": "Restaurant Estia", "image_url": "https://s3-media1.fl.yelpcdn.com/bphoto/oS_czziV0V8yNLRCLi2wow/o.jpg", "is_closed": false, "url": "https://www.yelp.com/biz/restaurant-estia-hamburg?adjust_creative=hBJOknVQJ58S5goQyjmwRw&utm_campaign=yelp_api_v3&utm_medium=api_v3_business_search&utm_source=hBJOknVQJ58S5goQyjmwRw", "review_count": 9, "categories": [{"alias": "greek", "title": "Greek"}], "rating": 3.5, "coordinates": {"latitude": 53.6244, "longitude": 10.1405}, "transactions": [], "price": "\u20ac\u20ac", "location": {"address1": "Hermann-Balk-Str. 112", "address2": null, "address3": null, "city": "Hamburg", "zip_code": "22147", "country": "DE", "state": "HH", "display_address": ["Hermann-Balk-Str. 112", "22147 Hamburg", "Germany"]}, "phone": "+494064400995", "display_phone": "+49 40 64400995", "distance": 1299.934666927191}, {"id": "Q56Y4jZph_c7ufWsi6mqXA", "alias": "crazy-croque-hamburg-6", "name": "Crazy Croque", "image_url": "https://s3-media1.fl.yelpcdn.com/bphoto/NcnlnHNsCAtRUdPZXZdvbw/o.jpg", "is_closed": false, "url": "https://www.yelp.com/biz/crazy-croque-hamburg-6?adjust_creative=hBJOknVQJ58S5goQyjmwRw&utm_campaign=yelp_api_v3&utm_medium=api_v3_business_search&utm_source=hBJOknVQJ58S5goQyjmwRw", "review_count": 7, "categories": [{"alias": "sandwiches", "title": "Sandwiches"}, {"alias": "burgers", "title": "Burgers"}], "rating": 4.0, "coordinates": {"latitude": 53.625, "longitude": 10.1148}, "transactions": [], "price": "\u20ac\u20ac", "location": {"address1": "Pezolddamm 156", "address2": null, "address3": null, "city": "Hamburg", "zip_code": "22159", "country": "DE", "state": "HH", "display_address": ["Pezolddamm 156", "22159 Hamburg", "Germany"]}, "phone": "+494063645655", "display_phone": "+49 40 63645655", "distance": 454.6925829801551}, {"id": "WsUam5VAAQ7yWpoBggzFSQ", "alias": "asia-k\u00fcche-hamburg", "name": "Asia K\u00fcche", "image_url": "https://s3-media2.fl.yelpcdn.com/bphoto/91FbganovwNRnmQaB3b1iw/o.jpg", "is_closed": false, "url": "https://www.yelp.com/biz/asia-k%C3%BCche-hamburg?adjust_creative=hBJOknVQJ58S5goQyjmwRw&utm_campaign=yelp_api_v3&utm_medium=api_v3_business_search&utm_source=hBJOknVQJ58S5goQyjmwRw", "review_count": 8, "categories": [{"alias": "panasian", "title": "Pan Asian"}], "rating": 2.5, "coordinates": {"latitude": 53.6251717, "longitude": 10.1404104}, "transactions": [], "price": "\u20ac\u20ac", "location": {"address1": "Hermann-Balk-Str. 120", "address2": "", "address3": "", "city": "Hamburg", "zip_code": "22147", "country": "DE", "state": "HH", "display_address": ["Hermann-Balk-Str. 120", "22147 Hamburg", "Germany"]}, "phone": "+49406446988", "display_phone": "+49 40 6446988", "distance": 1285.292439749051}, {"id": "YFiz5MT16IzUpEjkhoWxZw", "alias": "gastst\u00e4tte-herakles-hamburg", "name": "Gastst\u00e4tte Herakles", "image_url": "https://s3-media2.fl.yelpcdn.com/bphoto/DTHHFZtgNDo_AUv1b3dQOw/o.jpg", "is_closed": false, "url": "https://www.yelp.com/biz/gastst%C3%A4tte-herakles-hamburg?adjust_creative=hBJOknVQJ58S5goQyjmwRw&utm_campaign=yelp_api_v3&utm_medium=api_v3_business_search&utm_source=hBJOknVQJ58S5goQyjmwRw", "review_count": 4, "categories": [{"alias": "greek", "title": "Greek"}], "rating": 5.0, "coordinates": {"latitude": 53.5988, "longitude": 10.1174}, "transactions": [], "price": "\u20ac", "location": {"address1": "Berner Heerweg 90", "address2": null, "address3": null, "city": "Hamburg", "zip_code": "22159", "country": "DE", "state": "HH", "display_address": ["Berner Heerweg 90", "22159 Hamburg", "Germany"]}, "phone": "+49406682125", "display_phone": "+49 40 6682125", "distance": 3101.634351931257}, {"id": "NrKPNavZCmOuBFWLNLTrQA", "alias": "taverna-santorini-hamburg-4", "name": "Taverna Santorini", "image_url": "https://s3-media2.fl.yelpcdn.com/bphoto/eRyaIJu4GHd8hBnS6yoJvg/o.jpg", "is_closed": false, "url": "https://www.yelp.com/biz/taverna-santorini-hamburg-4?adjust_creative=hBJOknVQJ58S5goQyjmwRw&utm_campaign=yelp_api_v3&utm_medium=api_v3_business_search&utm_source=hBJOknVQJ58S5goQyjmwRw", "review_count": 26, "categories": [{"alias": "greek", "title": "Greek"}, {"alias": "mediterranean", "title": "Mediterranean"}], "rating": 3.5, "coordinates": {"latitude": 53.649165, "longitude": 10.1032543}, "transactions": [], "price": "\u20ac\u20ac", "location": {"address1": "Saseler Chaussee 161", "address2": "", "address3": "", "city": "Hamburg", "zip_code": "22393", "country": "DE", "state": "HH", "display_address": ["Saseler Chaussee 161", "22393 Hamburg", "Germany"]}, "phone": "+49406018080", "display_phone": "+49 40 6018080", "distance": 2771.8769620050334}, {"id": "bg_AEMghxinAeoxAGdC3zw", "alias": "medallion-hamburg", "name": "Medallion", "image_url": "https://s3-media1.fl.yelpcdn.com/bphoto/-KQn8FnNV-ppK4NIYMFYXQ/o.jpg", "is_closed": false, "url": "https://www.yelp.com/biz/medallion-hamburg?adjust_creative=hBJOknVQJ58S5goQyjmwRw&utm_campaign=yelp_api_v3&utm_medium=api_v3_business_search&utm_source=hBJOknVQJ58S5goQyjmwRw", "review_count": 14, "categories": [{"alias": "international", "title": "International"}], "rating": 4.0, "coordinates": {"latitude": 53.5943, "longitude": 10.1458}, "transactions": [], "price": "\u20ac", "location": {"address1": "Rahlstedter Str. 38", "address2": "", "address3": null, "city": "Hamburg", "zip_code": "22149", "country": "DE", "state": "HH", "display_address": ["Rahlstedter Str. 38", "22149 Hamburg", "Germany"]}, "phone": "+494067599669", "display_phone": "+49 40 67599669", "distance": 3943.3278326967143}, {"id": "giwP6SI-BC0hwpzZeb1UxA", "alias": "china-restaurant-bi-hu-hamburg", "name": "China Restaurant BI HU", "image_url": "https://s3-media4.fl.yelpcdn.com/bphoto/PE98dBlMUxOLZtIgmwLbNw/o.jpg", "is_closed": false, "url": "https://www.yelp.com/biz/china-restaurant-bi-hu-hamburg?adjust_creative=hBJOknVQJ58S5goQyjmwRw&utm_campaign=yelp_api_v3&utm_medium=api_v3_business_search&utm_source=hBJOknVQJ58S5goQyjmwRw", "review_count": 8, "categories": [{"alias": "chinese", "title": "Chinese"}], "rating": 3.0, "coordinates": {"latitude": 53.5965, "longitude": 10.1167}, "transactions": [], "price": "\u20ac\u20ac", "location": {"address1": "Kupferdamm 1", "address2": null, "address3": null, "city": "Hamburg", "zip_code": "22159", "country": "DE", "state": "HH", "display_address": ["Kupferdamm 1", "22159 Hamburg", "Germany"]}, "phone": "+494066853540", "display_phone": "+49 40 66853540", "distance": 3360.344628348611}, {"id": "XAYxj7jgDCYCHeeeW6EZpA", "alias": "leandros-hamburg", "name": "Leandros", "image_url": "https://s3-media2.fl.yelpcdn.com/bphoto/uvaiNTyOECCTTC-0czXxKg/o.jpg", "is_closed": false, "url": "https://www.yelp.com/biz/leandros-hamburg?adjust_creative=hBJOknVQJ58S5goQyjmwRw&utm_campaign=yelp_api_v3&utm_medium=api_v3_business_search&utm_source=hBJOknVQJ58S5goQyjmwRw", "review_count": 7, "categories": [{"alias": "greek", "title": "Greek"}], "rating": 2.5, "coordinates": {"latitude": 53.6427, "longitude": 10.12886}, "transactions": [], "price": "\u20ac\u20ac\u20ac", "location": {"address1": "Meiendorfer M\u00fchlenweg 35", "address2": "", "address3": null, "city": "Hamburg", "zip_code": "22393", "country": "DE", "state": "HH", "display_address": ["Meiendorfer M\u00fchlenweg 35", "22393 Hamburg", "Germany"]}, "phone": "+494049207616", "display_phone": "+49 40 49207616", "distance": 1644.855744735836}, {"id": "ZCNX0Jow6YkO_HDoT0TewA", "alias": "luisenhof-und-dubrovnik-hamburg", "name": "Luisenhof & Dubrovnik", "image_url": "https://s3-media2.fl.yelpcdn.com/bphoto/zl1WpS75hZ9awDkAfTrSRQ/o.jpg", "is_closed": false, "url": "https://www.yelp.com/biz/luisenhof-und-dubrovnik-hamburg?adjust_creative=hBJOknVQJ58S5goQyjmwRw&utm_campaign=yelp_api_v3&utm_medium=api_v3_business_search&utm_source=hBJOknVQJ58S5goQyjmwRw", "review_count": 14, "categories": [{"alias": "international", "title": "International"}, {"alias": "german", "title": "German"}], "rating": 3.5, "coordinates": {"latitude": 53.6072, "longitude": 10.1165}, "transactions": [], "price": "\u20ac\u20ac", "location": {"address1": "Am Luisenhof 1", "address2": null, "address3": null, "city": "Hamburg", "zip_code": "22159", "country": "DE", "state": "HH", "display_address": ["Am Luisenhof 1", "22159 Hamburg", "Germany"]}, "phone": "+49406431071", "display_phone": "+49 40 6431071", "distance": 2179.373010314997}, {"id": "oohAJFC5eClaPZO9dcsrsw", "alias": "taverna-bei-anna-hamburg", "name": "Taverna Bei Anna", "image_url": "https://s3-media2.fl.yelpcdn.com/bphoto/4r4ro1JOdeeszyl0G917-w/o.jpg", "is_closed": false, "url": "https://www.yelp.com/biz/taverna-bei-anna-hamburg?adjust_creative=hBJOknVQJ58S5goQyjmwRw&utm_campaign=yelp_api_v3&utm_medium=api_v3_business_search&utm_source=hBJOknVQJ58S5goQyjmwRw", "review_count": 24, "categories": [{"alias": "greek", "title": "Greek"}], "rating": 3.5, "coordinates": {"latitude": 53.6141, "longitude": 10.1357}, "transactions": [], "price": "\u20ac\u20ac", "location": {"address1": "Bekassinenau 67", "address2": null, "address3": null, "city": "Hamburg", "zip_code": "22147", "country": "DE", "state": "HH", "display_address": ["Bekassinenau 67", "22147 Hamburg", "Germany"]}, "phone": "+49406471357", "display_phone": "+49 40 6471357", "distance": 1689.8170636668874}, {"id": "jEVrKVGGr50sba9op8A3sw", "alias": "china-boy-hamburg", "name": "China Boy", "image_url": "https://s3-media4.fl.yelpcdn.com/bphoto/gAf1fNaZvBXueIQ-3Vw4Yw/o.jpg", "is_closed": false, "url": "https://www.yelp.com/biz/china-boy-hamburg?adjust_creative=hBJOknVQJ58S5goQyjmwRw&utm_campaign=yelp_api_v3&utm_medium=api_v3_business_search&utm_source=hBJOknVQJ58S5goQyjmwRw", "review_count": 22, "categories": [{"alias": "panasian", "title": "Pan Asian"}], "rating": 3.0, "coordinates": {"latitude": 53.6057, "longitude": 10.1187}, "transactions": [], "price": "\u20ac\u20ac", "location": {"address1": "Berner Heerweg 175", "address2": null, "address3": null, "city": "Hamburg", "zip_code": "22159", "country": "DE", "state": "HH", "display_address": ["Berner Heerweg 175", "22159 Hamburg", "Germany"]}, "phone": "+49406451611", "display_phone": "+49 40 6451611", "distance": 2330.126445902598}, {"id": "bGDTPY4glhsdwHxJi8SAEg", "alias": "apos-bistro-hamburg", "name": "Apos Bistro", "image_url": "https://s3-media3.fl.yelpcdn.com/bphoto/fyCZlRLbHPxAve_Kc8LJ2g/o.jpg", "is_closed": false, "url": "https://www.yelp.com/biz/apos-bistro-hamburg?adjust_creative=hBJOknVQJ58S5goQyjmwRw&utm_campaign=yelp_api_v3&utm_medium=api_v3_business_search&utm_source=hBJOknVQJ58S5goQyjmwRw", "review_count": 9, "categories": [{"alias": "bistros", "title": "Bistros"}], "rating": 3.5, "coordinates": {"latitude": 53.6179411, "longitude": 10.1445135}, "transactions": [], "price": "\u20ac\u20ac", "location": {"address1": "Greifenberger Str. 61", "address2": null, "address3": null, "city": "Hamburg", "zip_code": "22147", "country": "DE", "state": "HH", "display_address": ["Greifenberger Str. 61", "22147 Hamburg", "Germany"]}, "phone": "+494064891941", "display_phone": "+49 40 64891941", "distance": 1817.6985020301797}, {"id": "iiU4A7Sr1OXCibvmS1756Q", "alias": "restaurant-bacchus-hamburg-3", "name": "Restaurant Bacchus", "image_url": "https://s3-media3.fl.yelpcdn.com/bphoto/v2Vk0hpRqSVwoJ16pQ0m3w/o.jpg", "is_closed": false, "url": "https://www.yelp.com/biz/restaurant-bacchus-hamburg-3?adjust_creative=hBJOknVQJ58S5goQyjmwRw&utm_campaign=yelp_api_v3&utm_medium=api_v3_business_search&utm_source=hBJOknVQJ58S5goQyjmwRw", "review_count": 20, "categories": [{"alias": "greek", "title": "Greek"}], "rating": 4.5, "coordinates": {"latitude": 53.5913493, "longitude": 10.1451886}, "transactions": [], "price": "\u20ac\u20ac", "location": {"address1": "Ellerneck 58", "address2": null, "address3": null, "city": "Hamburg", "zip_code": "22149", "country": "DE", "state": "HH", "display_address": ["Ellerneck 58", "22149 Hamburg", "Germany"]}, "phone": "+49406733983", "display_phone": "+49 40 6733983", "distance": 4226.891571086082}, {"id": "bp2Z3UichsPCMfokIAluvA", "alias": "san-marino-hamburg-2", "name": "San Marino", "image_url": "https://s3-media1.fl.yelpcdn.com/bphoto/TP-eYZnMzYNO3_GGkPkLRA/o.jpg", "is_closed": false, "url": "https://www.yelp.com/biz/san-marino-hamburg-2?adjust_creative=hBJOknVQJ58S5goQyjmwRw&utm_campaign=yelp_api_v3&utm_medium=api_v3_business_search&utm_source=hBJOknVQJ58S5goQyjmwRw", "review_count": 6, "categories": [{"alias": "italian", "title": "Italian"}], "rating": 3.0, "coordinates": {"latitude": 53.6186151617801, "longitude": 10.1356185972691}, "transactions": [], "price": "\u20ac\u20ac", "location": {"address1": "Bekassinenau 114", "address2": "", "address3": "", "city": "Hamburg", "zip_code": "22147", "country": "DE", "state": "HH", "display_address": ["Bekassinenau 114", "22147 Hamburg", "Germany"]}, "phone": "+494067103931", "display_phone": "+49 40 67103931", "distance": 1304.1915810051485}, {"id": "j83Ua1NqVDfr_jLo3EMIlA", "alias": "caf\u00e9-pause-hamburg-5", "name": "Caf\u00e9 Pause", "image_url": "https://s3-media1.fl.yelpcdn.com/bphoto/O0-JRfhhsJczYdsxPedX-w/o.jpg", "is_closed": false, "url": "https://www.yelp.com/biz/caf%C3%A9-pause-hamburg-5?adjust_creative=hBJOknVQJ58S5goQyjmwRw&utm_campaign=yelp_api_v3&utm_medium=api_v3_business_search&utm_source=hBJOknVQJ58S5goQyjmwRw", "review_count": 1, "categories": [{"alias": "cafes", "title": "Cafes"}], "rating": 5.0, "coordinates": {"latitude": 53.6546156269338, "longitude": 10.1097825542092}, "transactions": [], "location": {"address1": "Sasel-Haus", "address2": "Saseler Parkweg 3", "address3": "", "city": "Hamburg", "zip_code": "22393", "country": "DE", "state": "HH", "display_address": ["Sasel-Haus", "Saseler Parkweg 3", "22393 Hamburg", "Germany"]}, "phone": "+491748004001", "display_phone": "+49 174 8004001", "distance": 3203.3570360078634}, {"id": "BOHWiX5XA7Svlmx_ipS7Xw", "alias": "alsterliebe-hamburg", "name": "Alsterliebe", "image_url": "https://s3-media2.fl.yelpcdn.com/bphoto/GrKOcNFERGMk2NDokQxRcg/o.jpg", "is_closed": false, "url": "https://www.yelp.com/biz/alsterliebe-hamburg?adjust_creative=hBJOknVQJ58S5goQyjmwRw&utm_campaign=yelp_api_v3&utm_medium=api_v3_business_search&utm_source=hBJOknVQJ58S5goQyjmwRw", "review_count": 2, "categories": [{"alias": "accessories", "title": "Accessories"}, {"alias": "homedecor", "title": "Home Decor"}, {"alias": "cafes", "title": "Cafes"}], "rating": 4.0, "coordinates": {"latitude": 53.6515, "longitude": 10.09596}, "transactions": [], "location": {"address1": "Frahmredder 1", "address2": "", "address3": "", "city": "Hamburg", "zip_code": "22393", "country": "DE", "state": "HH", "display_address": ["Frahmredder 1", "22393 Hamburg", "Germany"]}, "phone": "+494038047131", "display_phone": "+49 40 38047131", "distance": 3234.304518182793}, {"id": "M511DBafDIvUcOODPUeVdQ", "alias": "bistro-sc-condor-hamburg", "name": "Bistro SC Condor", "image_url": "https://s3-media2.fl.yelpcdn.com/bphoto/zI9qACggFCfiCnd6n304PA/o.jpg", "is_closed": false, "url": "https://www.yelp.com/biz/bistro-sc-condor-hamburg?adjust_creative=hBJOknVQJ58S5goQyjmwRw&utm_campaign=yelp_api_v3&utm_medium=api_v3_business_search&utm_source=hBJOknVQJ58S5goQyjmwRw", "review_count": 1, "categories": [{"alias": "bistros", "title": "Bistros"}], "rating": 5.0, "coordinates": {"latitude": 53.6079, "longitude": 10.1226}, "transactions": [], "price": "\u20ac", "location": {"address1": "Berner Heerweg 188", "address2": null, "address3": null, "city": "Hamburg", "zip_code": "22159", "country": "DE", "state": "HH", "display_address": ["Berner Heerweg 188", "22159 Hamburg", "Germany"]}, "phone": "+49406451848", "display_phone": "+49 40 6451848", "distance": 2082.1493360875784}, {"id": "gc1Qk_79IUVZcInyIm9PDA", "alias": "bolero-hamburg-5", "name": "Bolero", "image_url": "https://s3-media3.fl.yelpcdn.com/bphoto/F3OtYMrwt4TetFIzg55Tsg/o.jpg", "is_closed": false, "url": "https://www.yelp.com/biz/bolero-hamburg-5?adjust_creative=hBJOknVQJ58S5goQyjmwRw&utm_campaign=yelp_api_v3&utm_medium=api_v3_business_search&utm_source=hBJOknVQJ58S5goQyjmwRw", "review_count": 94, "categories": [{"alias": "mexican", "title": "Mexican"}, {"alias": "cocktailbars", "title": "Cocktail Bars"}], "rating": 3.0, "coordinates": {"latitude": 53.58824, "longitude": 10.09641}, "transactions": [], "price": "\u20ac\u20ac", "location": {"address1": "Friedrich-Ebert-Damm 128", "address2": null, "address3": null, "city": "Hamburg", "zip_code": "22047", "country": "DE", "state": "HH", "display_address": ["Friedrich-Ebert-Damm 128", "22047 Hamburg", "Germany"]}, "phone": "+494069691202", "display_phone": "+49 40 69691202", "distance": 4574.461328201724}, {"id": "ViYFQMBkHuyybK-trk-anw", "alias": "maurizio-hamburg", "name": "Maurizio", "image_url": "https://s3-media2.fl.yelpcdn.com/bphoto/TCN6cTsb9bfZ7RklswpcBg/o.jpg", "is_closed": false, "url": "https://www.yelp.com/biz/maurizio-hamburg?adjust_creative=hBJOknVQJ58S5goQyjmwRw&utm_campaign=yelp_api_v3&utm_medium=api_v3_business_search&utm_source=hBJOknVQJ58S5goQyjmwRw", "review_count": 5, "categories": [{"alias": "italian", "title": "Italian"}], "rating": 4.0, "coordinates": {"latitude": 53.64967, "longitude": 10.11751}, "transactions": [], "location": {"address1": "Berner Weg 33", "address2": "", "address3": "", "city": "Hamburg", "zip_code": "22393", "country": "DE", "state": "HH", "display_address": ["Berner Weg 33", "22393 Hamburg", "Germany"]}, "phone": "+494024437850", "display_phone": "+49 40 24437850", "distance": 2574.4802281382285}, {"id": "bgbZXdQLgDSqcy6OHZ3Pdw", "alias": "jacky-chang-hamburg", "name": "Jacky Chang", "image_url": "https://s3-media2.fl.yelpcdn.com/bphoto/Y8rROICVPApDteZXq30uAg/o.jpg", "is_closed": false, "url": "https://www.yelp.com/biz/jacky-chang-hamburg?adjust_creative=hBJOknVQJ58S5goQyjmwRw&utm_campaign=yelp_api_v3&utm_medium=api_v3_business_search&utm_source=hBJOknVQJ58S5goQyjmwRw", "review_count": 12, "categories": [{"alias": "panasian", "title": "Pan Asian"}], "rating": 3.0, "coordinates": {"latitude": 53.6052, "longitude": 10.1183599}, "transactions": [], "price": "\u20ac\u20ac", "location": {"address1": "Berner Heerweg 173", "address2": "", "address3": "", "city": "Hamburg", "zip_code": "22159", "country": "DE", "state": "HH", "display_address": ["Berner Heerweg 173", "22159 Hamburg", "Germany"]}, "phone": "+49406438850", "display_phone": "+49 40 6438850", "distance": 2346.3095052352746}, {"id": "xU2xZcdV9ITI5UGAD5tdJA", "alias": "forum-sasel-hamburg", "name": "Forum Sasel", "image_url": "https://s3-media2.fl.yelpcdn.com/bphoto/aZpLxutpg0QSHwS-UUI9sw/o.jpg", "is_closed": false, "url": "https://www.yelp.com/biz/forum-sasel-hamburg?adjust_creative=hBJOknVQJ58S5goQyjmwRw&utm_campaign=yelp_api_v3&utm_medium=api_v3_business_search&utm_source=hBJOknVQJ58S5goQyjmwRw", "review_count": 23, "categories": [{"alias": "international", "title": "International"}, {"alias": "cocktailbars", "title": "Cocktail Bars"}, {"alias": "sportsbars", "title": "Sports Bars"}], "rating": 3.5, "coordinates": {"latitude": 53.6535788177995, "longitude": 10.1121384625408}, "transactions": [], "price": "\u20ac\u20ac", "location": {"address1": "Saseler Markt 1", "address2": "", "address3": "", "city": "Hamburg", "zip_code": "22393", "country": "DE", "state": "HH", "display_address": ["Saseler Markt 1", "22393 Hamburg", "Germany"]}, "phone": "+494088165850", "display_phone": "+49 40 88165850", "distance": 3057.478819843822}, {"id": "gVp3MTlFvgnRDJ2a7XMFTA", "alias": "hei\u00dfe-ecke-hamburg-3", "name": "Hei\u00dfe Ecke", "image_url": "https://s3-media3.fl.yelpcdn.com/bphoto/nWgKWIU6H7_71HmesOjoBQ/o.jpg", "is_closed": false, "url": "https://www.yelp.com/biz/hei%C3%9Fe-ecke-hamburg-3?adjust_creative=hBJOknVQJ58S5goQyjmwRw&utm_campaign=yelp_api_v3&utm_medium=api_v3_business_search&utm_source=hBJOknVQJ58S5goQyjmwRw", "review_count": 11, "categories": [{"alias": "kebab", "title": "Kebab"}], "rating": 3.5, "coordinates": {"latitude": 53.6076288663775, "longitude": 10.1169973611832}, "transactions": [], "price": "\u20ac", "location": {"address1": "August-Krogmannstr. 22", "address2": "", "address3": "", "city": "Hamburg", "zip_code": "22159", "country": "DE", "state": "HH", "display_address": ["August-Krogmannstr. 22", "22159 Hamburg", "Germany"]}, "phone": "", "display_phone": "", "distance": 2127.705812959558}, {"id": "zvkheD2NuYxCvxKCJP_RKA", "alias": "croque-und-crepes-hamburg-7", "name": "Croque & Crepes", "image_url": "https://s3-media1.fl.yelpcdn.com/bphoto/elc2YImmdAXulRwXzRpceQ/o.jpg", "is_closed": false, "url": "https://www.yelp.com/biz/croque-und-crepes-hamburg-7?adjust_creative=hBJOknVQJ58S5goQyjmwRw&utm_campaign=yelp_api_v3&utm_medium=api_v3_business_search&utm_source=hBJOknVQJ58S5goQyjmwRw", "review_count": 28, "categories": [{"alias": "sandwiches", "title": "Sandwiches"}, {"alias": "creperies", "title": "Creperies"}], "rating": 4.5, "coordinates": {"latitude": 53.6068, "longitude": 10.119}, "transactions": [], "price": "\u20ac\u20ac", "location": {"address1": "August-Krogmannstr. 2", "address2": null, "address3": null, "city": "Hamburg", "zip_code": "22159", "country": "DE", "state": "HH", "display_address": ["August-Krogmannstr. 2", "22159 Hamburg", "Germany"]}, "phone": "+49406430900", "display_phone": "+49 40 6430900", "distance": 2206.765765245401}, {"id": "efI_NlXd4vZz03SsjaLRCA", "alias": "d\u00f6-back-hamburg-2", "name": "D\u00d6-Back", "image_url": "https://s3-media3.fl.yelpcdn.com/bphoto/OLOR81E_mA0YOlaFQbz4_w/o.jpg", "is_closed": false, "url": "https://www.yelp.com/biz/d%C3%B6-back-hamburg-2?adjust_creative=hBJOknVQJ58S5goQyjmwRw&utm_campaign=yelp_api_v3&utm_medium=api_v3_business_search&utm_source=hBJOknVQJ58S5goQyjmwRw", "review_count": 5, "categories": [{"alias": "kebab", "title": "Kebab"}], "rating": 3.0, "coordinates": {"latitude": 53.6267, "longitude": 10.13893}, "transactions": [], "price": "\u20ac", "location": {"address1": "Berner Heerweg 372", "address2": null, "address3": "", "city": "Hamburg", "zip_code": "22159", "country": "DE", "state": "HH", "display_address": ["Berner Heerweg 372", "22159 Hamburg", "Germany"]}, "phone": "+494064861088", "display_phone": "+49 40 64861088", "distance": 1168.079212612892}, {"id": "MsmXXwUr9HGCdeLEXEF_3Q", "alias": "schnoors-hamburg", "name": "Schnoor's", "image_url": "https://s3-media2.fl.yelpcdn.com/bphoto/XUNae9EiZsEJM3P52l7m9A/o.jpg", "is_closed": false, "url": "https://www.yelp.com/biz/schnoors-hamburg?adjust_creative=hBJOknVQJ58S5goQyjmwRw&utm_campaign=yelp_api_v3&utm_medium=api_v3_business_search&utm_source=hBJOknVQJ58S5goQyjmwRw", "review_count": 6, "categories": [{"alias": "modern_european", "title": "Modern European"}, {"alias": "beergarden", "title": "Beer Garden"}], "rating": 2.0, "coordinates": {"latitude": 53.63869, "longitude": 10.1065}, "transactions": [], "price": "\u20ac\u20ac", "location": {"address1": "Donauweg 2", "address2": null, "address3": null, "city": "Hamburg", "zip_code": "22359", "country": "DE", "state": "HH", "display_address": ["Donauweg 2", "22359 Hamburg", "Germany"]}, "phone": "+494064941030", "display_phone": "+49 40 64941030", "distance": 1654.5845776979031}, {"id": "wQXci5HPimPT00Ub1oHRTA", "alias": "shin-shin-hamburg", "name": "Shin Shin", "image_url": "https://s3-media1.fl.yelpcdn.com/bphoto/AmnCNLLIqKxbmb1JjlfkVA/o.jpg", "is_closed": false, "url": "https://www.yelp.com/biz/shin-shin-hamburg?adjust_creative=hBJOknVQJ58S5goQyjmwRw&utm_campaign=yelp_api_v3&utm_medium=api_v3_business_search&utm_source=hBJOknVQJ58S5goQyjmwRw", "review_count": 60, "categories": [{"alias": "chinese", "title": "Chinese"}], "rating": 3.5, "coordinates": {"latitude": 53.6599219019676, "longitude": 10.1155304326125}, "transactions": [], "price": "\u20ac\u20ac", "location": {"address1": "Saseler Chaussee 254", "address2": null, "address3": null, "city": "Hamburg", "zip_code": "22393", "country": "DE", "state": "HH", "display_address": ["Saseler Chaussee 254", "22393 Hamburg", "Germany"]}, "phone": "+49406019064", "display_phone": "+49 40 6019064", "distance": 3723.057344274327}, {"id": "34AjJqRyzU6Aq57KVC34Kw", "alias": "kim-chi-hamburg-3", "name": "Kim-Chi", "image_url": "https://s3-media3.fl.yelpcdn.com/bphoto/_yOS07aEdpVOGu2_ijvbXQ/o.jpg", "is_closed": false, "url": "https://www.yelp.com/biz/kim-chi-hamburg-3?adjust_creative=hBJOknVQJ58S5goQyjmwRw&utm_campaign=yelp_api_v3&utm_medium=api_v3_business_search&utm_source=hBJOknVQJ58S5goQyjmwRw", "review_count": 9, "categories": [{"alias": "panasian", "title": "Pan Asian"}], "rating": 3.0, "coordinates": {"latitude": 53.6194, "longitude": 10.0973}, "transactions": [], "price": "\u20ac", "location": {"address1": "Fahrenkr\u00f6n 146", "address2": null, "address3": null, "city": "Hamburg", "zip_code": "22179", "country": "DE", "state": "HH", "display_address": ["Fahrenkr\u00f6n 146", "22179 Hamburg", "Germany"]}, "phone": "+494064413900", "display_phone": "+49 40 64413900", "distance": 1764.6874351025556}, {"id": "JYW4LsJPYmWM5RI-DNrfBw", "alias": "la-rucola-hamburg", "name": "La Rucola", "image_url": "https://s3-media4.fl.yelpcdn.com/bphoto/1_Q54uR6iMNlJDfx8nCdNQ/o.jpg", "is_closed": false, "url": "https://www.yelp.com/biz/la-rucola-hamburg?adjust_creative=hBJOknVQJ58S5goQyjmwRw&utm_campaign=yelp_api_v3&utm_medium=api_v3_business_search&utm_source=hBJOknVQJ58S5goQyjmwRw", "review_count": 10, "categories": [{"alias": "italian", "title": "Italian"}], "rating": 4.0, "coordinates": {"latitude": 53.6695114717445, "longitude": 10.1428208803824}, "transactions": [], "price": "\u20ac\u20ac\u20ac", "location": {"address1": "St\u00fcffeleck 2", "address2": "", "address3": null, "city": "Hamburg", "zip_code": "22359", "country": "DE", "state": "HH", "display_address": ["St\u00fcffeleck 2", "22359 Hamburg", "Germany"]}, "phone": "+49406048062", "display_phone": "+49 40 6048062", "distance": 4980.328210696067}, {"id": "Xop8tuUgi1wWhZ2UNo8I9Q", "alias": "restaurant-mellingburger-schleuse-hamburg", "name": "Restaurant Mellingburger Schleuse", "image_url": "https://s3-media2.fl.yelpcdn.com/bphoto/ihfZ5LheEmuWRPg8-kqSVw/o.jpg", "is_closed": false, "url": "https://www.yelp.com/biz/restaurant-mellingburger-schleuse-hamburg?adjust_creative=hBJOknVQJ58S5goQyjmwRw&utm_campaign=yelp_api_v3&utm_medium=api_v3_business_search&utm_source=hBJOknVQJ58S5goQyjmwRw", "review_count": 5, "categories": [{"alias": "german", "title": "German"}], "rating": 4.0, "coordinates": {"latitude": 53.66999, "longitude": 10.09828}, "transactions": [], "location": {"address1": "Mellingburgredder 1", "address2": "", "address3": "", "city": "Hamburg", "zip_code": "22395", "country": "DE", "state": "HH", "display_address": ["Mellingburgredder 1", "22395 Hamburg", "Germany"]}, "phone": "+49406024001", "display_phone": "+49 40 6024001", "distance": 4921.654277788376}, {"id": "RPCwdpCqreC2CpGLipFuig", "alias": "mongolei-hamburg", "name": "Mongolei", "image_url": "https://s3-media2.fl.yelpcdn.com/bphoto/lrrogn1Lk72WxKYE-3mhtQ/o.jpg", "is_closed": false, "url": "https://www.yelp.com/biz/mongolei-hamburg?adjust_creative=hBJOknVQJ58S5goQyjmwRw&utm_campaign=yelp_api_v3&utm_medium=api_v3_business_search&utm_source=hBJOknVQJ58S5goQyjmwRw", "review_count": 52, "categories": [{"alias": "panasian", "title": "Pan Asian"}], "rating": 3.5, "coordinates": {"latitude": 53.5888895, "longitude": 10.098177}, "transactions": [], "price": "\u20ac\u20ac", "location": {"address1": "Friedrich-Ebert-Damm 143 - 145", "address2": "", "address3": "", "city": "Hamburg", "zip_code": "22047", "country": "DE", "state": "HH", "display_address": ["Friedrich-Ebert-Damm 143 - 145", "22047 Hamburg", "Germany"]}, "phone": "+494088234838", "display_phone": "+49 40 88234838", "distance": 4459.06512040969}, {"id": "JgAdQhdsjWBMXxqPTRTjTA", "alias": "chios-grill-hamburg-2", "name": "Chios Grill", "image_url": "https://s3-media3.fl.yelpcdn.com/bphoto/fZaJtT-ZO5Ivv4cdF_mRSA/o.jpg", "is_closed": false, "url": "https://www.yelp.com/biz/chios-grill-hamburg-2?adjust_creative=hBJOknVQJ58S5goQyjmwRw&utm_campaign=yelp_api_v3&utm_medium=api_v3_business_search&utm_source=hBJOknVQJ58S5goQyjmwRw", "review_count": 10, "categories": [{"alias": "greek", "title": "Greek"}], "rating": 4.5, "coordinates": {"latitude": 53.5924887, "longitude": 10.1373915}, "transactions": [], "price": "\u20ac\u20ac", "location": {"address1": "Tonndorfer Hauptstr. 176", "address2": "", "address3": "", "city": "Hamburg", "zip_code": "22045", "country": "DE", "state": "HH", "display_address": ["Tonndorfer Hauptstr. 176", "22045 Hamburg", "Germany"]}, "phone": "+494087093156", "display_phone": "+49 40 87093156", "distance": 3942.1411799164}, {"id": "7cmEUHIsFpaiEo8p7EFRag", "alias": "cafe-del-sol-hamburg-2", "name": "Cafe Del Sol", "image_url": "https://s3-media2.fl.yelpcdn.com/bphoto/VOKdSBA9DkdZ4ffBiN3WpQ/o.jpg", "is_closed": false, "url": "https://www.yelp.com/biz/cafe-del-sol-hamburg-2?adjust_creative=hBJOknVQJ58S5goQyjmwRw&utm_campaign=yelp_api_v3&utm_medium=api_v3_business_search&utm_source=hBJOknVQJ58S5goQyjmwRw", "review_count": 145, "categories": [{"alias": "german", "title": "German"}, {"alias": "breakfast_brunch", "title": "Breakfast & Brunch"}], "rating": 3.5, "coordinates": {"latitude": 53.58419, "longitude": 10.126157}, "transactions": [], "price": "\u20ac\u20ac", "location": {"address1": "Jenfelder Allee 80 A", "address2": "", "address3": null, "city": "Hamburg", "zip_code": "22045", "country": "DE", "state": "HH", "display_address": ["Jenfelder Allee 80 A", "22045 Hamburg", "Germany"]}, "phone": "+494066857534", "display_phone": "+49 40 66857534", "distance": 4781.206136681449}, {"id": "6LuUJRK8mOPCsvhtllB1Jw", "alias": "bravi-ragazzi-hamburg", "name": "Bravi Ragazzi", "image_url": "", "is_closed": false, "url": "https://www.yelp.com/biz/bravi-ragazzi-hamburg?adjust_creative=hBJOknVQJ58S5goQyjmwRw&utm_campaign=yelp_api_v3&utm_medium=api_v3_business_search&utm_source=hBJOknVQJ58S5goQyjmwRw", "review_count": 1, "categories": [{"alias": "pizza", "title": "Pizza"}, {"alias": "italian", "title": "Italian"}], "rating": 5.0, "coordinates": {"latitude": 53.599692, "longitude": 10.118151}, "transactions": [], "location": {"address1": "Berner Heerweg 100", "address2": "", "address3": null, "city": "Hamburg", "zip_code": "22159", "country": "DE", "state": "HH", "display_address": ["Berner Heerweg 100", "22159 Hamburg", "Germany"]}, "phone": "+494034866926", "display_phone": "+49 40 34866926", "distance": 2999.107845797773}, {"id": "Ynp7YmJAy6qTatoZcT66Eg", "alias": "restaurant-pane-e-vino-hamburg", "name": "Restaurant Pane E Vino", "image_url": "https://s3-media1.fl.yelpcdn.com/bphoto/82PXWqUQf_edShIaQHBe5Q/o.jpg", "is_closed": false, "url": "https://www.yelp.com/biz/restaurant-pane-e-vino-hamburg?adjust_creative=hBJOknVQJ58S5goQyjmwRw&utm_campaign=yelp_api_v3&utm_medium=api_v3_business_search&utm_source=hBJOknVQJ58S5goQyjmwRw", "review_count": 17, "categories": [{"alias": "italian", "title": "Italian"}], "rating": 3.0, "coordinates": {"latitude": 53.6202, "longitude": 10.0977}, "transactions": [], "price": "\u20ac\u20ac", "location": {"address1": "Pezolddamm 1", "address2": null, "address3": null, "city": "Hamburg", "zip_code": "22175", "country": "DE", "state": "HH", "display_address": ["Pezolddamm 1", "22175 Hamburg", "Germany"]}, "phone": "+494064426895", "display_phone": "+49 40 64426895", "distance": 1702.1134133354979}, {"id": "8Hj7wbmTyoNr8OmYj_AUYA", "alias": "argentina-steak-house-hamburg", "name": "Argentina Steak-House", "image_url": "https://s3-media3.fl.yelpcdn.com/bphoto/iOt_pvp8kgqMDIRIh4X7yQ/o.jpg", "is_closed": false, "url": "https://www.yelp.com/biz/argentina-steak-house-hamburg?adjust_creative=hBJOknVQJ58S5goQyjmwRw&utm_campaign=yelp_api_v3&utm_medium=api_v3_business_search&utm_source=hBJOknVQJ58S5goQyjmwRw", "review_count": 40, "categories": [{"alias": "steak", "title": "Steakhouses"}], "rating": 3.5, "coordinates": {"latitude": 53.64447, "longitude": 10.09971}, "transactions": [], "price": "\u20ac\u20ac", "location": {"address1": "Saseler Chaussee 111", "address2": "", "address3": "", "city": "Hamburg", "zip_code": "22393", "country": "DE", "state": "HH", "display_address": ["Saseler Chaussee 111", "22393 Hamburg", "Germany"]}, "phone": "+494053889849", "display_phone": "+49 40 53889849", "distance": 2450.9277941342493}, {"id": "Z_VhoYana9KZlVipdBw58Q", "alias": "kleinhuis-gartenbistro-hamburg", "name": "Kleinhuis' Gartenbistro", "image_url": "https://s3-media2.fl.yelpcdn.com/bphoto/zrIA1rCwZNp2uDeUeVZdew/o.jpg", "is_closed": false, "url": "https://www.yelp.com/biz/kleinhuis-gartenbistro-hamburg?adjust_creative=hBJOknVQJ58S5goQyjmwRw&utm_campaign=yelp_api_v3&utm_medium=api_v3_business_search&utm_source=hBJOknVQJ58S5goQyjmwRw", "review_count": 2, "categories": [{"alias": "german", "title": "German"}, {"alias": "bistros", "title": "Bistros"}], "rating": 3.0, "coordinates": {"latitude": 53.630419, "longitude": 10.110478}, "transactions": [], "location": {"address1": "Karlsh\u00f6he 60 d", "address2": null, "address3": null, "city": "Hamburg", "zip_code": "22175", "country": "DE", "state": "HH", "display_address": ["Karlsh\u00f6he 60 d", "22175 Hamburg", "Germany"]}, "phone": "+494060009245", "display_phone": "+49 40 60009245", "distance": 821.1395169009637}, {"id": "LH5ahW4cXmyBSr1D4dSeHA", "alias": "dominos-hamburg-9", "name": "Domino's", "image_url": "https://s3-media1.fl.yelpcdn.com/bphoto/FCXTVrzDPp-nKJjDZzUr0A/o.jpg", "is_closed": false, "url": "https://www.yelp.com/biz/dominos-hamburg-9?adjust_creative=hBJOknVQJ58S5goQyjmwRw&utm_campaign=yelp_api_v3&utm_medium=api_v3_business_search&utm_source=hBJOknVQJ58S5goQyjmwRw", "review_count": 1, "categories": [{"alias": "pizza", "title": "Pizza"}], "rating": 5.0, "coordinates": {"latitude": 53.60255, "longitude": 10.14512}, "transactions": [], "location": {"address1": "Bargteheider Str. 75", "address2": "", "address3": null, "city": "Hamburg", "zip_code": "22143", "country": "DE", "state": "HH", "display_address": ["Bargteheider Str. 75", "22143 Hamburg", "Germany"]}, "phone": "+49406736070", "display_phone": "+49 40 6736070", "distance": 3109.1821710981335}, {"id": "fzEGjPIcjuxx_TVoEy9GVg", "alias": "weltladen-und-caf\u00e9-hamburg", "name": "Weltladen & Caf\u00e9", "image_url": "https://s3-media3.fl.yelpcdn.com/bphoto/dspuKA-13OlfLt_KHbjW_g/o.jpg", "is_closed": false, "url": "https://www.yelp.com/biz/weltladen-und-caf%C3%A9-hamburg?adjust_creative=hBJOknVQJ58S5goQyjmwRw&utm_campaign=yelp_api_v3&utm_medium=api_v3_business_search&utm_source=hBJOknVQJ58S5goQyjmwRw", "review_count": 2, "categories": [{"alias": "cafes", "title": "Cafes"}], "rating": 4.5, "coordinates": {"latitude": 53.6542200096796, "longitude": 10.1132201403379}, "transactions": [], "location": {"address1": "Saseler Markt 8", "address2": "", "address3": null, "city": "Hamburg", "zip_code": "22393", "country": "DE", "state": "HH", "display_address": ["Saseler Markt 8", "22393 Hamburg", "Germany"]}, "phone": "+494060011916", "display_phone": "+49 40 60011916", "distance": 3114.7046259227127}, {"id": "ugQlHvgEVolXPln9jsmenA", "alias": "baris-grillhaus-hamburg", "name": "Baris Grillhaus", "image_url": "https://s3-media3.fl.yelpcdn.com/bphoto/XLzCcvgXVZ9_rntj2NZ5aA/o.jpg", "is_closed": false, "url": "https://www.yelp.com/biz/baris-grillhaus-hamburg?adjust_creative=hBJOknVQJ58S5goQyjmwRw&utm_campaign=yelp_api_v3&utm_medium=api_v3_business_search&utm_source=hBJOknVQJ58S5goQyjmwRw", "review_count": 9, "categories": [{"alias": "kebab", "title": "Kebab"}], "rating": 3.0, "coordinates": {"latitude": 53.6071, "longitude": 10.11808}, "transactions": [], "price": "\u20ac\u20ac", "location": {"address1": "August-Krogmannstr. 12", "address2": "", "address3": "", "city": "Hamburg", "zip_code": "22159", "country": "DE", "state": "HH", "display_address": ["August-Krogmannstr. 12", "22159 Hamburg", "Germany"]}, "phone": "+494069464336", "display_phone": "+49 40 69464336", "distance": 2184.0329374341445}, {"id": "cua3_fdR9fejQwLYgHWYOA", "alias": "sushi-for-friends-hamburg-3", "name": "Sushi for Friends", "image_url": "https://s3-media1.fl.yelpcdn.com/bphoto/nDCCXsMFnB4iajti1fadfg/o.jpg", "is_closed": false, "url": "https://www.yelp.com/biz/sushi-for-friends-hamburg-3?adjust_creative=hBJOknVQJ58S5goQyjmwRw&utm_campaign=yelp_api_v3&utm_medium=api_v3_business_search&utm_source=hBJOknVQJ58S5goQyjmwRw", "review_count": 26, "categories": [{"alias": "sushi", "title": "Sushi Bars"}], "rating": 3.0, "coordinates": {"latitude": 53.65209, "longitude": 10.10624}, "transactions": [], "price": "\u20ac\u20ac\u20ac", "location": {"address1": "Saseler Chaussee 168", "address2": "", "address3": "", "city": "Hamburg", "zip_code": "22393", "country": "DE", "state": "HH", "display_address": ["Saseler Chaussee 168", "22393 Hamburg", "Germany"]}, "phone": "+494060671608", "display_phone": "+49 40 60671608", "distance": 2998.3389551403443}, {"id": "H0k-5wLsmRWkAPdYB3iAdw", "alias": "maxburger-hamburg", "name": "Maxburger", "image_url": "", "is_closed": false, "url": "https://www.yelp.com/biz/maxburger-hamburg?adjust_creative=hBJOknVQJ58S5goQyjmwRw&utm_campaign=yelp_api_v3&utm_medium=api_v3_business_search&utm_source=hBJOknVQJ58S5goQyjmwRw", "review_count": 3, "categories": [{"alias": "burgers", "title": "Burgers"}], "rating": 3.0, "coordinates": {"latitude": 53.5880935, "longitude": 10.12411}, "transactions": [], "location": {"address1": "Stein-Hardenberg-Str. 83", "address2": null, "address3": null, "city": "Hamburg", "zip_code": "22045", "country": "DE", "state": "HH", "display_address": ["Stein-Hardenberg-Str. 83", "22045 Hamburg", "Germany"]}, "phone": "+494082299250", "display_phone": "+49 40 82299250", "distance": 4286.781592522293}, {"id": "aGGb59d0pgT-pDWSis-EVg", "alias": "braaker-m\u00fchle-hamburg-6", "name": "Braaker M\u00fchle", "image_url": "https://s3-media3.fl.yelpcdn.com/bphoto/q3mc4HvwxlqUP_d5kOWFIQ/o.jpg", "is_closed": false, "url": "https://www.yelp.com/biz/braaker-m%C3%BChle-hamburg-6?adjust_creative=hBJOknVQJ58S5goQyjmwRw&utm_campaign=yelp_api_v3&utm_medium=api_v3_business_search&utm_source=hBJOknVQJ58S5goQyjmwRw", "review_count": 1, "categories": [{"alias": "bakeries", "title": "Bakeries"}, {"alias": "cakeshop", "title": "Patisserie/Cake Shop"}, {"alias": "cafes", "title": "Cafes"}], "rating": 5.0, "coordinates": {"latitude": 53.6071291, "longitude": 10.1182898}, "transactions": [], "location": {"address1": "August-Krogmann-Str. 10", "address2": null, "address3": null, "city": "Hamburg", "zip_code": "22159", "country": "DE", "state": "HH", "display_address": ["August-Krogmann-Str. 10", "22159 Hamburg", "Germany"]}, "phone": "+494064422123", "display_phone": "+49 40 64422123", "distance": 2173.799390488077}, {"id": "_KEs5iyxsJzhE6dmiur-_Q", "alias": "corfu-grill-hamburg-6", "name": "Corfu Grill", "image_url": "https://s3-media1.fl.yelpcdn.com/bphoto/PjW1pXfqtgldYbIZW1EB3A/o.jpg", "is_closed": false, "url": "https://www.yelp.com/biz/corfu-grill-hamburg-6?adjust_creative=hBJOknVQJ58S5goQyjmwRw&utm_campaign=yelp_api_v3&utm_medium=api_v3_business_search&utm_source=hBJOknVQJ58S5goQyjmwRw", "review_count": 14, "categories": [{"alias": "greek", "title": "Greek"}, {"alias": "hotdogs", "title": "Fast Food"}], "rating": 3.5, "coordinates": {"latitude": 53.6034816, "longitude": 10.1304022}, "transactions": [], "price": "\u20ac\u20ac\u20ac", "location": {"address1": "Alter Zollweg 197", "address2": "", "address3": "", "city": "Hamburg", "zip_code": "22147", "country": "DE", "state": "HH", "display_address": ["Alter Zollweg 197", "22147 Hamburg", "Germany"]}, "phone": "+49406470946", "display_phone": "+49 40 6470946", "distance": 2642.7926653468844}, {"id": "fDCSXYKbbA6t6hgNhmcLwg", "alias": "ok-pizza-hamburg", "name": "OK Pizza", "image_url": "", "is_closed": false, "url": "https://www.yelp.com/biz/ok-pizza-hamburg?adjust_creative=hBJOknVQJ58S5goQyjmwRw&utm_campaign=yelp_api_v3&utm_medium=api_v3_business_search&utm_source=hBJOknVQJ58S5goQyjmwRw", "review_count": 2, "categories": [{"alias": "pizza", "title": "Pizza"}], "rating": 5.0, "coordinates": {"latitude": 53.6513, "longitude": 10.10565}, "transactions": [], "location": {"address1": "Saseler Chaussee 160", "address2": "", "address3": "", "city": "Hamburg", "zip_code": "22393", "country": "DE", "state": "HH", "display_address": ["Saseler Chaussee 160", "22393 Hamburg", "Germany"]}, "phone": "+49406045544", "display_phone": "+49 40 6045544", "distance": 2922.6297092949358}, {"id": "X2_8s7iOr4QzyWsh6fklsg", "alias": "ajs-colourful-kitchen-hamburg", "name": "AJs Colourful Kitchen", "image_url": "", "is_closed": false, "url": "https://www.yelp.com/biz/ajs-colourful-kitchen-hamburg?adjust_creative=hBJOknVQJ58S5goQyjmwRw&utm_campaign=yelp_api_v3&utm_medium=api_v3_business_search&utm_source=hBJOknVQJ58S5goQyjmwRw", "review_count": 1, "categories": [{"alias": "restaurants", "title": "Restaurants"}], "rating": 4.0, "coordinates": {"latitude": 53.600203, "longitude": 10.11779}, "transactions": [], "location": {"address1": "Berner Heerweg 111", "address2": "", "address3": null, "city": "Hamburg", "zip_code": "22159", "country": "DE", "state": "HH", "display_address": ["Berner Heerweg 111", "22159 Hamburg", "Germany"]}, "phone": "+491603518963", "display_phone": "+49 160 3518963", "distance": 2939.8190123441163}, {"id": "_qZTgjOKo5EyR8wl4VtzOw", "alias": "saigon-cuisine-hamburg-2", "name": "Saigon Cuisine", "image_url": "https://s3-media1.fl.yelpcdn.com/bphoto/-4oR_6QaJyFqUpOOVLMf7g/o.jpg", "is_closed": false, "url": "https://www.yelp.com/biz/saigon-cuisine-hamburg-2?adjust_creative=hBJOknVQJ58S5goQyjmwRw&utm_campaign=yelp_api_v3&utm_medium=api_v3_business_search&utm_source=hBJOknVQJ58S5goQyjmwRw", "review_count": 2, "categories": [{"alias": "vietnamese", "title": "Vietnamese"}], "rating": 2.0, "coordinates": {"latitude": 53.5846424024781, "longitude": 10.1334889233112}, "transactions": [], "location": {"address1": "Sch\u00f6neberger Str. 1", "address2": "", "address3": null, "city": "Hamburg", "zip_code": "22045", "country": "DE", "state": "HH", "display_address": ["Sch\u00f6neberger Str. 1", "22045 Hamburg", "Germany"]}, "phone": "+494066997688", "display_phone": "+49 40 66997688", "distance": 4736.628592496717}, {"id": "UOx3hj4sG6RfCz62aM71YA", "alias": "pizza-max-hamburg-8", "name": "Pizza Max", "image_url": "https://s3-media3.fl.yelpcdn.com/bphoto/uyVp2-8OqiDz5-y5gYo94Q/o.jpg", "is_closed": false, "url": "https://www.yelp.com/biz/pizza-max-hamburg-8?adjust_creative=hBJOknVQJ58S5goQyjmwRw&utm_campaign=yelp_api_v3&utm_medium=api_v3_business_search&utm_source=hBJOknVQJ58S5goQyjmwRw", "review_count": 5, "categories": [{"alias": "pizza", "title": "Pizza"}], "rating": 3.5, "coordinates": {"latitude": 53.5882, "longitude": 10.1239}, "transactions": [], "price": "\u20ac\u20ac", "location": {"address1": "Stein-Hardenberg-Str. 83", "address2": null, "address3": null, "city": "Hamburg", "zip_code": "22045", "country": "DE", "state": "HH", "display_address": ["Stein-Hardenberg-Str. 83", "22045 Hamburg", "Germany"]}, "phone": "+494082299250", "display_phone": "+49 40 82299250", "distance": 4274.339456833771}, {"id": "JbC6Cvbi4Gr5V6iAXB-0VA", "alias": "crazy-croque-hamburg", "name": "Crazy Croque", "image_url": "https://s3-media2.fl.yelpcdn.com/bphoto/Tmm8hEvPXRWQxtY2jHvYaA/o.jpg", "is_closed": false, "url": "https://www.yelp.com/biz/crazy-croque-hamburg?adjust_creative=hBJOknVQJ58S5goQyjmwRw&utm_campaign=yelp_api_v3&utm_medium=api_v3_business_search&utm_source=hBJOknVQJ58S5goQyjmwRw", "review_count": 54, "categories": [{"alias": "sandwiches", "title": "Sandwiches"}], "rating": 4.0, "coordinates": {"latitude": 53.58855, "longitude": 10.09947}, "transactions": [], "price": "\u20ac\u20ac", "location": {"address1": "Friedrich-Ebert-Damm 160 a", "address2": null, "address3": null, "city": "Hamburg", "zip_code": "22047", "country": "DE", "state": "HH", "display_address": ["Friedrich-Ebert-Damm 160 a", "22047 Hamburg", "Germany"]}, "phone": "+49406939900", "display_phone": "+49 40 6939900", "distance": 4464.501572470368}, {"id": "t-8RttB1p7LGZ96k3mLZJg", "alias": "asia-bistro-saigon-hamburg", "name": "Asia Bistro Saigon", "image_url": "https://s3-media1.fl.yelpcdn.com/bphoto/wV6V5DfgSvT2QrkqUvU8gA/o.jpg", "is_closed": false, "url": "https://www.yelp.com/biz/asia-bistro-saigon-hamburg?adjust_creative=hBJOknVQJ58S5goQyjmwRw&utm_campaign=yelp_api_v3&utm_medium=api_v3_business_search&utm_source=hBJOknVQJ58S5goQyjmwRw", "review_count": 9, "categories": [{"alias": "chinese", "title": "Chinese"}, {"alias": "panasian", "title": "Pan Asian"}], "rating": 4.5, "coordinates": {"latitude": 53.6, "longitude": 10.1394}, "transactions": [], "price": "\u20ac\u20ac", "location": {"address1": "Scharbeutzer Str. 85", "address2": null, "address3": null, "city": "Hamburg", "zip_code": "22147", "country": "DE", "state": "HH", "display_address": ["Scharbeutzer Str. 85", "22147 Hamburg", "Germany"]}, "phone": "+49406431206", "display_phone": "+49 40 6431206", "distance": 3194.1378067146275}, {"id": "nNbSvvMMKcvhIioI8bkMCw", "alias": "yummy-deli-hamburg", "name": "Yummy Deli", "image_url": "", "is_closed": false, "url": "https://www.yelp.com/biz/yummy-deli-hamburg?adjust_creative=hBJOknVQJ58S5goQyjmwRw&utm_campaign=yelp_api_v3&utm_medium=api_v3_business_search&utm_source=hBJOknVQJ58S5goQyjmwRw", "review_count": 3, "categories": [{"alias": "vietnamese", "title": "Vietnamese"}, {"alias": "sushi", "title": "Sushi Bars"}], "rating": 3.5, "coordinates": {"latitude": 53.586710289306, "longitude": 10.125789642334}, "transactions": [], "location": {"address1": "Tonndorfer Hauptstr. 69 - 71", "address2": "", "address3": "Im Rewe Center", "city": "Hamburg", "zip_code": "22045", "country": "DE", "state": "HH", "display_address": ["Tonndorfer Hauptstr. 69 - 71", "Im Rewe Center", "22045 Hamburg", "Germany"]}, "phone": "+494018230060", "display_phone": "+49 40 18230060", "distance": 4446.698215198927}, {"id": "veiIRrnbIIY3Udy0wRlpXw", "alias": "hallo-pizza-hamburg-12", "name": "Hallo Pizza!", "image_url": "https://s3-media3.fl.yelpcdn.com/bphoto/vn2q6AmBLXTUn0mkYIIPWQ/o.jpg", "is_closed": false, "url": "https://www.yelp.com/biz/hallo-pizza-hamburg-12?adjust_creative=hBJOknVQJ58S5goQyjmwRw&utm_campaign=yelp_api_v3&utm_medium=api_v3_business_search&utm_source=hBJOknVQJ58S5goQyjmwRw", "review_count": 6, "categories": [{"alias": "pizza", "title": "Pizza"}], "rating": 5.0, "coordinates": {"latitude": 53.58424, "longitude": 10.13803}, "transactions": [], "price": "\u20ac\u20ac\u20ac\u20ac", "location": {"address1": "Sch\u00f6neberger Str. 20", "address2": null, "address3": null, "city": "Hamburg", "zip_code": "22045", "country": "DE", "state": "HH", "display_address": ["Sch\u00f6neberger Str. 20", "22045 Hamburg", "Germany"]}, "phone": "+494052388700", "display_phone": "+49 40 52388700", "distance": 4840.77743076278}, {"id": "pf_RiSbOuQKLkhDodWf4Zg", "alias": "schweinske-hamburg-15", "name": "Schweinske", "image_url": "https://s3-media4.fl.yelpcdn.com/bphoto/sCaYsSGos8klABFJQtC-Sg/o.jpg", "is_closed": false, "url": "https://www.yelp.com/biz/schweinske-hamburg-15?adjust_creative=hBJOknVQJ58S5goQyjmwRw&utm_campaign=yelp_api_v3&utm_medium=api_v3_business_search&utm_source=hBJOknVQJ58S5goQyjmwRw", "review_count": 61, "categories": [{"alias": "german", "title": "German"}, {"alias": "breakfast_brunch", "title": "Breakfast & Brunch"}], "rating": 3.0, "coordinates": {"latitude": 53.608071, "longitude": 10.11642}, "transactions": [], "price": "\u20ac\u20ac", "location": {"address1": "August-Krogmann-Str. 25", "address2": null, "address3": null, "city": "Hamburg", "zip_code": "22159", "country": "DE", "state": "HH", "display_address": ["August-Krogmann-Str. 25", "22159 Hamburg", "Germany"]}, "phone": "+494064537516", "display_phone": "+49 40 64537516", "distance": 2082.6606176386717}, {"id": "RbgazphzWysS4xHd-TU1Bg", "alias": "filmkantine-hamburg", "name": "Filmkantine", "image_url": "https://s3-media2.fl.yelpcdn.com/bphoto/0i1NzGhMcO-WIwsKXppxhQ/o.jpg", "is_closed": false, "url": "https://www.yelp.com/biz/filmkantine-hamburg?adjust_creative=hBJOknVQJ58S5goQyjmwRw&utm_campaign=yelp_api_v3&utm_medium=api_v3_business_search&utm_source=hBJOknVQJ58S5goQyjmwRw", "review_count": 6, "categories": [{"alias": "canteen", "title": "Canteen"}], "rating": 3.5, "coordinates": {"latitude": 53.586, "longitude": 10.1269}, "transactions": [], "price": "\u20ac\u20ac\u20ac", "location": {"address1": "Studio Hamburg", "address2": "Jenfelder Allee 80", "address3": null, "city": "Hamburg", "zip_code": "22039", "country": "DE", "state": "HH", "display_address": ["Studio Hamburg", "Jenfelder Allee 80", "22039 Hamburg", "Germany"]}, "phone": "+4966885310", "display_phone": "+49 6688 5310", "distance": 4531.047636417638}, {"id": "Z9ed1JBXupt9ULdZXNRbNg", "alias": "asialong-hamburg", "name": "asialong", "image_url": "", "is_closed": false, "url": "https://www.yelp.com/biz/asialong-hamburg?adjust_creative=hBJOknVQJ58S5goQyjmwRw&utm_campaign=yelp_api_v3&utm_medium=api_v3_business_search&utm_source=hBJOknVQJ58S5goQyjmwRw", "review_count": 4, "categories": [{"alias": "vietnamese", "title": "Vietnamese"}, {"alias": "panasian", "title": "Pan Asian"}], "rating": 3.5, "coordinates": {"latitude": 53.6000801166592, "longitude": 10.1389519202378}, "transactions": [], "location": {"address1": "Scharbeutzer Str. 85", "address2": null, "address3": "", "city": "Hamburg", "zip_code": "22147", "country": "DE", "state": "HH", "display_address": ["Scharbeutzer Str. 85", "22147 Hamburg", "Germany"]}, "phone": "+494088187329", "display_phone": "+49 40 88187329", "distance": 3174.832166554875}, {"id": "2eayVcKqiIuDVdb5Qqt-Fg", "alias": "zenthai-hamburg-4", "name": "Zenthai", "image_url": "https://s3-media3.fl.yelpcdn.com/bphoto/2lF3e6Ej5DQ70NJdZEIGGg/o.jpg", "is_closed": false, "url": "https://www.yelp.com/biz/zenthai-hamburg-4?adjust_creative=hBJOknVQJ58S5goQyjmwRw&utm_campaign=yelp_api_v3&utm_medium=api_v3_business_search&utm_source=hBJOknVQJ58S5goQyjmwRw", "review_count": 3, "categories": [{"alias": "sushi", "title": "Sushi Bars"}, {"alias": "panasian", "title": "Pan Asian"}], "rating": 2.0, "coordinates": {"latitude": 53.60681, "longitude": 10.11904}, "transactions": [], "price": "\u20ac", "location": {"address1": "August-Krogmann-Str. 2", "address2": "", "address3": "", "city": "Hamburg", "zip_code": "22159", "country": "DE", "state": "HH", "display_address": ["August-Krogmann-Str. 2", "22159 Hamburg", "Germany"]}, "phone": "", "display_phone": "", "distance": 2185.5958559389933}, {"id": "xZgEJoV1fgi-jdQkHTJe6Q", "alias": "smileys-hamburg-12", "name": "Smiley's", "image_url": "https://s3-media4.fl.yelpcdn.com/bphoto/l8AuEvXYXnHPd4d86bnVWQ/o.jpg", "is_closed": false, "url": "https://www.yelp.com/biz/smileys-hamburg-12?adjust_creative=hBJOknVQJ58S5goQyjmwRw&utm_campaign=yelp_api_v3&utm_medium=api_v3_business_search&utm_source=hBJOknVQJ58S5goQyjmwRw", "review_count": 4, "categories": [{"alias": "pizza", "title": "Pizza"}], "rating": 3.5, "coordinates": {"latitude": 53.6536, "longitude": 10.1057}, "transactions": [], "price": "\u20ac\u20ac", "location": {"address1": "Stadtbahnstr. 32", "address2": null, "address3": null, "city": "Hamburg", "zip_code": "22393", "country": "DE", "state": "HH", "display_address": ["Stadtbahnstr. 32", "22393 Hamburg", "Germany"]}, "phone": "+49406017585", "display_phone": "+49 40 6017585", "distance": 3169.585726444064}, {"id": "RCuRvwrnJcs-hutrCnoJCQ", "alias": "krox-hamburg-5", "name": "Krox", "image_url": "https://s3-media3.fl.yelpcdn.com/bphoto/j1LB_yAyZfpH8UUabjcxeA/o.jpg", "is_closed": false, "url": "https://www.yelp.com/biz/krox-hamburg-5?adjust_creative=hBJOknVQJ58S5goQyjmwRw&utm_campaign=yelp_api_v3&utm_medium=api_v3_business_search&utm_source=hBJOknVQJ58S5goQyjmwRw", "review_count": 6, "categories": [{"alias": "sandwiches", "title": "Sandwiches"}, {"alias": "creperies", "title": "Creperies"}, {"alias": "pizza", "title": "Pizza"}], "rating": 4.0, "coordinates": {"latitude": 53.58847, "longitude": 10.12383}, "transactions": [], "location": {"address1": "Sonnenweg 15", "address2": "", "address3": "", "city": "Hamburg", "zip_code": "22045", "country": "DE", "state": "HH", "display_address": ["Sonnenweg 15", "22045 Hamburg", "Germany"]}, "phone": "+4940660066", "display_phone": "+49 40 660066", "distance": 4234.039707775298}, {"id": "Ct8p-l9z7Irdh6DK6ujlkg", "alias": "smileys-hamburg", "name": "Smiley's", "image_url": "https://s3-media4.fl.yelpcdn.com/bphoto/ZeAhxSEvejN5QMK3EBRGjA/o.jpg", "is_closed": false, "url": "https://www.yelp.com/biz/smileys-hamburg?adjust_creative=hBJOknVQJ58S5goQyjmwRw&utm_campaign=yelp_api_v3&utm_medium=api_v3_business_search&utm_source=hBJOknVQJ58S5goQyjmwRw", "review_count": 23, "categories": [{"alias": "pizza", "title": "Pizza"}], "rating": 3.5, "coordinates": {"latitude": 53.60262, "longitude": 10.1291}, "transactions": [], "price": "\u20ac\u20ac", "location": {"address1": "Alter Zollweg 192", "address2": null, "address3": null, "city": "Hamburg", "zip_code": "22147", "country": "DE", "state": "HH", "display_address": ["Alter Zollweg 192", "22147 Hamburg", "Germany"]}, "phone": "+494064539560", "display_phone": "+49 40 64539560", "distance": 2711.8245140608983}, {"id": "CbAt26AJcBJR4EHcqltEeg", "alias": "zorbas-hamburg-2", "name": "Zorbas", "image_url": "", "is_closed": false, "url": "https://www.yelp.com/biz/zorbas-hamburg-2?adjust_creative=hBJOknVQJ58S5goQyjmwRw&utm_campaign=yelp_api_v3&utm_medium=api_v3_business_search&utm_source=hBJOknVQJ58S5goQyjmwRw", "review_count": 1, "categories": [{"alias": "greek", "title": "Greek"}], "rating": 2.0, "coordinates": {"latitude": 53.6046, "longitude": 10.1176}, "transactions": [], "price": "\u20ac\u20ac", "location": {"address1": "Berner Heerweg 173", "address2": null, "address3": null, "city": "Hamburg", "zip_code": "22159", "country": "DE", "state": "HH", "display_address": ["Berner Heerweg 173", "22159 Hamburg", "Germany"]}, "phone": "+49406454823", "display_phone": "+49 40 6454823", "distance": 2457.9946534736523}, {"id": "aNWnsNOYLimm6JLwGHrGUA", "alias": "mcdonalds-hamburg-4", "name": "McDonald's", "image_url": "https://s3-media3.fl.yelpcdn.com/bphoto/LH31L8wi2eVgxSfd8jgFQg/o.jpg", "is_closed": false, "url": "https://www.yelp.com/biz/mcdonalds-hamburg-4?adjust_creative=hBJOknVQJ58S5goQyjmwRw&utm_campaign=yelp_api_v3&utm_medium=api_v3_business_search&utm_source=hBJOknVQJ58S5goQyjmwRw", "review_count": 6, "categories": [{"alias": "burgers", "title": "Burgers"}, {"alias": "hotdogs", "title": "Fast Food"}], "rating": 3.0, "coordinates": {"latitude": 53.60704, "longitude": 10.11837}, "transactions": [], "price": "\u20ac\u20ac", "location": {"address1": "August-Krogmann-Str. 10", "address2": "", "address3": "", "city": "Hamburg", "zip_code": "22159", "country": "DE", "state": "HH", "display_address": ["August-Krogmann-Str. 10", "22159 Hamburg", "Germany"]}, "phone": "+494053304204", "display_phone": "+49 40 53304204", "distance": 2173.1630952798478}, {"id": "CAsdxz7NDDTmobcMTR9adQ", "alias": "peters-h\u00e4hnchen-grill-hamburg-2", "name": "Peter's H\u00e4hnchen Grill", "image_url": "https://s3-media2.fl.yelpcdn.com/bphoto/bCTklMfBHdjSSHRJaPG7Jg/o.jpg", "is_closed": false, "url": "https://www.yelp.com/biz/peters-h%C3%A4hnchen-grill-hamburg-2?adjust_creative=hBJOknVQJ58S5goQyjmwRw&utm_campaign=yelp_api_v3&utm_medium=api_v3_business_search&utm_source=hBJOknVQJ58S5goQyjmwRw", "review_count": 14, "categories": [{"alias": "hotdogs", "title": "Fast Food"}], "rating": 2.0, "coordinates": {"latitude": 53.58432, "longitude": 10.14268}, "transactions": [], "price": "\u20ac\u20ac", "location": {"address1": "Berliner Platz 19", "address2": "", "address3": null, "city": "Hamburg", "zip_code": "22045", "country": "DE", "state": "HH", "display_address": ["Berliner Platz 19", "22045 Hamburg", "Germany"]}, "phone": "+49406533121", "display_phone": "+49 40 6533121", "distance": 4914.360861034143}, {"id": "0E6MSfGiFGVRqcp2U5mTFA", "alias": "burger-king-hamburg-2", "name": "Burger King", "image_url": "https://s3-media2.fl.yelpcdn.com/bphoto/gkIdKVwfl1R2DEnu_5LRoQ/o.jpg", "is_closed": false, "url": "https://www.yelp.com/biz/burger-king-hamburg-2?adjust_creative=hBJOknVQJ58S5goQyjmwRw&utm_campaign=yelp_api_v3&utm_medium=api_v3_business_search&utm_source=hBJOknVQJ58S5goQyjmwRw", "review_count": 48, "categories": [{"alias": "hotdogs", "title": "Fast Food"}, {"alias": "burgers", "title": "Burgers"}], "rating": 2.0, "coordinates": {"latitude": 53.58894, "longitude": 10.100627}, "transactions": [], "price": "\u20ac\u20ac", "location": {"address1": "Friedrich-Ebert-Damm 166", "address2": null, "address3": null, "city": "Hamburg", "zip_code": "22047", "country": "DE", "state": "HH", "display_address": ["Friedrich-Ebert-Damm 166", "22047 Hamburg", "Germany"]}, "phone": "+494046631170", "display_phone": "+49 40 46631170", "distance": 4406.536250801929}, {"id": "RydfOmd5cLtqBxE80Q_CGg", "alias": "burger-king-hamburg-17", "name": "Burger King", "image_url": "https://s3-media1.fl.yelpcdn.com/bphoto/U5O-x4_5xKBA5hylh5eMXg/o.jpg", "is_closed": false, "url": "https://www.yelp.com/biz/burger-king-hamburg-17?adjust_creative=hBJOknVQJ58S5goQyjmwRw&utm_campaign=yelp_api_v3&utm_medium=api_v3_business_search&utm_source=hBJOknVQJ58S5goQyjmwRw", "review_count": 6, "categories": [{"alias": "burgers", "title": "Burgers"}, {"alias": "hotdogs", "title": "Fast Food"}], "rating": 2.5, "coordinates": {"latitude": 53.6052, "longitude": 10.1183599}, "transactions": [], "price": "\u20ac\u20ac", "location": {"address1": "Berner Heerweg 173-175", "address2": "", "address3": "", "city": "Hamburg", "zip_code": "22159", "country": "DE", "state": "HH", "display_address": ["Berner Heerweg 173-175", "22159 Hamburg", "Germany"]}, "phone": "+494041541333", "display_phone": "+49 40 41541333", "distance": 2413.257790066845}, {"id": "o_LN9k-Z3QJkZvz0X4rBDA", "alias": "pizza-max-hamburg-12", "name": "Pizza Max", "image_url": "https://s3-media4.fl.yelpcdn.com/bphoto/_AzpobkYYDAl3_R92xh7iQ/o.jpg", "is_closed": false, "url": "https://www.yelp.com/biz/pizza-max-hamburg-12?adjust_creative=hBJOknVQJ58S5goQyjmwRw&utm_campaign=yelp_api_v3&utm_medium=api_v3_business_search&utm_source=hBJOknVQJ58S5goQyjmwRw", "review_count": 1, "categories": [{"alias": "pizza", "title": "Pizza"}], "rating": 1.0, "coordinates": {"latitude": 53.6513347185164, "longitude": 10.1057185789401}, "transactions": [], "price": "\u20ac\u20ac\u20ac", "location": {"address1": "Stadtbahnstr. 19 a", "address2": "", "address3": "", "city": "Hamburg", "zip_code": "22393", "country": "DE", "state": "HH", "display_address": ["Stadtbahnstr. 19 a", "22393 Hamburg", "Germany"]}, "phone": "+4940600886800", "display_phone": "+49 40 600886800", "distance": 2931.742618675424}, {"id": "a_D612wDcgOYT5UM0tMjTQ", "alias": "mundfein-pizzawerkstatt-hamburg-7", "name": "Mundfein Pizzawerkstatt", "image_url": "", "is_closed": false, "url": "https://www.yelp.com/biz/mundfein-pizzawerkstatt-hamburg-7?adjust_creative=hBJOknVQJ58S5goQyjmwRw&utm_campaign=yelp_api_v3&utm_medium=api_v3_business_search&utm_source=hBJOknVQJ58S5goQyjmwRw", "review_count": 3, "categories": [{"alias": "pizza", "title": "Pizza"}], "rating": 3.0, "coordinates": {"latitude": 53.66581, "longitude": 10.12076}, "transactions": [], "price": "\u20ac\u20ac", "location": {"address1": "Bergstedter Chaussee 77", "address2": "", "address3": "", "city": "Hamburg", "zip_code": "22395", "country": "DE", "state": "HH", "display_address": ["Bergstedter Chaussee 77", "22395 Hamburg", "Germany"]}, "phone": "+494021007896", "display_phone": "+49 40 21007896", "distance": 4364.705504848453}, {"id": "THiQx27gTKO93V2VwDRcOw", "alias": "lounge-caf\u00e9-hamburg", "name": "Lounge Caf\u00e9", "image_url": "https://s3-media3.fl.yelpcdn.com/bphoto/c8LvIhVRdsNrgQGxYohjcg/o.jpg", "is_closed": false, "url": "https://www.yelp.com/biz/lounge-caf%C3%A9-hamburg?adjust_creative=hBJOknVQJ58S5goQyjmwRw&utm_campaign=yelp_api_v3&utm_medium=api_v3_business_search&utm_source=hBJOknVQJ58S5goQyjmwRw", "review_count": 1, "categories": [{"alias": "cafes", "title": "Cafes"}, {"alias": "coffee", "title": "Coffee & Tea"}], "rating": 1.0, "coordinates": {"latitude": 53.587841213227, "longitude": 10.0959847784911}, "transactions": [], "price": "\u20ac\u20ac", "location": {"address1": "Helbingtwiete 7", "address2": "", "address3": "", "city": "Hamburg", "zip_code": "22047", "country": "DE", "state": "HH", "display_address": ["Helbingtwiete 7", "22047 Hamburg", "Germany"]}, "phone": "", "display_phone": "", "distance": 4618.848161890241}]