[{"id": "GOkAbpc01-TQFeMJ1m33vA", "alias": "la-terrazza-hamburg", "name": "La Terrazza", "image_url": "https://s3-media3.fl.yelpcdn.com/bphoto/NjoxAhgl6EcwmgOmk1KgSw/o.jpg", "is_closed": false, "url": "https://www.yelp.com/biz/la-terrazza-hamburg?adjust_creative=hBJOknVQJ58S5goQyjmwRw&utm_campaign=yelp_api_v3&utm_medium=api_v3_business_search&utm_source=hBJOknVQJ58S5goQyjmwRw", "review_count": 34, "categories": [{"alias": "italian", "title": "Italian"}], "rating": 4.5, "coordinates": {"latitude": 53.63217, "longitude": 9.95583}, "transactions": [], "price": "\u20ac\u20ac", "location": {"address1": "Adlerhorst 18", "address2": "", "address3": "", "city": "Hamburg", "zip_code": "22459", "country": "DE", "state": "HH", "display_address": ["Adlerhorst 18", "22459 Hamburg", "Germany"]}, "phone": "+494056009241", "display_phone": "+49 40 56009241", "distance": 1033.3299881151406}, {"id": "risFWghqY9UAzmemif3e4w", "alias": "gasthaus-pilio-hamburg", "name": "Gasthaus Pilio", "image_url": "https://s3-media2.fl.yelpcdn.com/bphoto/8tzSJl0BAGX0nHvIpuQCtA/o.jpg", "is_closed": false, "url": "https://www.yelp.com/biz/gasthaus-pilio-hamburg?adjust_creative=hBJOknVQJ58S5goQyjmwRw&utm_campaign=yelp_api_v3&utm_medium=api_v3_business_search&utm_source=hBJOknVQJ58S5goQyjmwRw", "review_count": 45, "categories": [{"alias": "greek", "title": "Greek"}], "rating": 4.5, "coordinates": {"latitude": 53.6215299206977, "longitude": 9.95179004967213}, "transactions": [], "price": "\u20ac\u20ac", "location": {"address1": "Tibarg 33 a", "address2": "", "address3": "", "city": "Hamburg", "zip_code": "22459", "country": "DE", "state": "HH", "display_address": ["Tibarg 33 a", "22459 Hamburg", "Germany"]}, "phone": "+4940582214", "display_phone": "+49 40 582214", "distance": 1393.2895487837698}, {"id": "P4DcAjOedAFJFulOC9zoCA", "alias": "adyton-hamburg", "name": "Adyton", "image_url": "https://s3-media3.fl.yelpcdn.com/bphoto/jsdX5nPCSjWgCGZ4SfsA_g/o.jpg", "is_closed": false, "url": "https://www.yelp.com/biz/adyton-hamburg?adjust_creative=hBJOknVQJ58S5goQyjmwRw&utm_campaign=yelp_api_v3&utm_medium=api_v3_business_search&utm_source=hBJOknVQJ58S5goQyjmwRw", "review_count": 4, "categories": [{"alias": "international", "title": "International"}], "rating": 4.5, "coordinates": {"latitude": 53.6435, "longitude": 9.96095}, "transactions": [], "price": "\u20ac\u20ac", "location": {"address1": "Sachsenweg 78", "address2": null, "address3": null, "city": "Hamburg", "zip_code": "22455", "country": "DE", "state": "HH", "display_address": ["Sachsenweg 78", "22455 Hamburg", "Germany"]}, "phone": "+494055421621", "display_phone": "+49 40 55421621", "distance": 1830.7662232320336}, {"id": "Gc3mUnsxH94Qald5kFMNhQ", "alias": "die-kleine-fischerstube-hamburg", "name": "Die kleine Fischerstube", "image_url": "https://s3-media3.fl.yelpcdn.com/bphoto/AWGJePl3L95hF-1WK98fyw/o.jpg", "is_closed": false, "url": "https://www.yelp.com/biz/die-kleine-fischerstube-hamburg?adjust_creative=hBJOknVQJ58S5goQyjmwRw&utm_campaign=yelp_api_v3&utm_medium=api_v3_business_search&utm_source=hBJOknVQJ58S5goQyjmwRw", "review_count": 31, "categories": [{"alias": "seafood", "title": "Seafood"}, {"alias": "german", "title": "German"}], "rating": 4.0, "coordinates": {"latitude": 53.62115, "longitude": 9.9519}, "transactions": [], "price": "\u20ac\u20ac", "location": {"address1": "Tibarg 27", "address2": "", "address3": "", "city": "Hamburg", "zip_code": "22459", "country": "DE", "state": "HH", "display_address": ["Tibarg 27", "22459 Hamburg", "Germany"]}, "phone": "+494058954720", "display_phone": "+49 40 58954720", "distance": 1414.5639477339212}, {"id": "eoL1qr4RMpfRbSguTiSvwQ", "alias": "mau-hamburg", "name": "MAU", "image_url": "https://s3-media2.fl.yelpcdn.com/bphoto/BEFyDOm0TqqkhTaXLj2HRg/o.jpg", "is_closed": false, "url": "https://www.yelp.com/biz/mau-hamburg?adjust_creative=hBJOknVQJ58S5goQyjmwRw&utm_campaign=yelp_api_v3&utm_medium=api_v3_business_search&utm_source=hBJOknVQJ58S5goQyjmwRw", "review_count": 1, "categories": [{"alias": "vietnamese", "title": "Vietnamese"}], "rating": 5.0, "coordinates": {"latitude": 53.592792, "longitude": 9.986743}, "transactions": [], "location": {"address1": "Martinistr. 14", "address2": "", "address3": null, "city": "Hamburg", "zip_code": "20251", "country": "DE", "state": "HH", "display_address": ["Martinistr. 14", "20251 Hamburg", "Germany"]}, "phone": "+494032860288", "display_phone": "+49 40 32860288", "distance": 4063.09447864627}, {"id": "_xp9F0Qmo8G0KIyIPKFiPw", "alias": "schweizer-haus-hamburg", "name": "Schweizer Haus", "image_url": "https://s3-media3.fl.yelpcdn.com/bphoto/36KLcJCajRwv7DgCthCanw/o.jpg", "is_closed": false, "url": "https://www.yelp.com/biz/schweizer-haus-hamburg?adjust_creative=hBJOknVQJ58S5goQyjmwRw&utm_campaign=yelp_api_v3&utm_medium=api_v3_business_search&utm_source=hBJOknVQJ58S5goQyjmwRw", "review_count": 7, "categories": [{"alias": "international", "title": "International"}, {"alias": "burgers", "title": "Burgers"}, {"alias": "sportsbars", "title": "Sports Bars"}], "rating": 3.5, "coordinates": {"latitude": 53.6257731, "longitude": 9.9460834}, "transactions": [], "price": "\u20ac\u20ac", "location": {"address1": "Hadermannsweg 57", "address2": null, "address3": null, "city": "Hamburg", "zip_code": "22459", "country": "DE", "state": "HH", "display_address": ["Hadermannsweg 57", "22459 Hamburg", "Germany"]}, "phone": "+494030717656", "display_phone": "+49 40 30717656", "distance": 1592.4541318818124}, {"id": "l2DXqPaUw7G8PHpXfONO0w", "alias": "osteria-liguria-hamburg", "name": "Osteria Liguria", "image_url": "https://s3-media1.fl.yelpcdn.com/bphoto/eyVloBLtkH9d9G2XyXv3Jg/o.jpg", "is_closed": false, "url": "https://www.yelp.com/biz/osteria-liguria-hamburg?adjust_creative=hBJOknVQJ58S5goQyjmwRw&utm_campaign=yelp_api_v3&utm_medium=api_v3_business_search&utm_source=hBJOknVQJ58S5goQyjmwRw", "review_count": 64, "categories": [{"alias": "italian", "title": "Italian"}], "rating": 4.5, "coordinates": {"latitude": 53.60974, "longitude": 9.9581}, "transactions": [], "price": "\u20ac\u20ac", "location": {"address1": "Kollaustr. 125", "address2": "", "address3": null, "city": "Hamburg", "zip_code": "22453", "country": "DE", "state": "HH", "display_address": ["Kollaustr. 125", "22453 Hamburg", "Germany"]}, "phone": "+4940582569", "display_phone": "+49 40 582569", "distance": 2168.1460278008476}, {"id": "Hi-T7r5zZCVZAykf7L3uDA", "alias": "humboldt-hamburg", "name": "Humboldt", "image_url": "https://s3-media3.fl.yelpcdn.com/bphoto/-1U0b4EpB_XIBOvwOr2uyQ/o.jpg", "is_closed": false, "url": "https://www.yelp.com/biz/humboldt-hamburg?adjust_creative=hBJOknVQJ58S5goQyjmwRw&utm_campaign=yelp_api_v3&utm_medium=api_v3_business_search&utm_source=hBJOknVQJ58S5goQyjmwRw", "review_count": 32, "categories": [{"alias": "german", "title": "German"}, {"alias": "tradamerican", "title": "American (Traditional)"}, {"alias": "sportsbars", "title": "Sports Bars"}], "rating": 3.0, "coordinates": {"latitude": 53.6208699066105, "longitude": 9.95290316641331}, "transactions": [], "price": "\u20ac", "location": {"address1": "Tibarg 40", "address2": "", "address3": "", "city": "Hamburg", "zip_code": "22459", "country": "DE", "state": "HH", "display_address": ["Tibarg 40", "22459 Hamburg", "Germany"]}, "phone": "+494058951933", "display_phone": "+49 40 58951933", "distance": 1371.3288861519072}, {"id": "naHSQVdkPYV8NTottebzRg", "alias": "trattoria-pirandello-hamburg", "name": "Trattoria Pirandello", "image_url": "https://s3-media3.fl.yelpcdn.com/bphoto/QtSQ9XL27EOBwI068uFkjA/o.jpg", "is_closed": false, "url": "https://www.yelp.com/biz/trattoria-pirandello-hamburg?adjust_creative=hBJOknVQJ58S5goQyjmwRw&utm_campaign=yelp_api_v3&utm_medium=api_v3_business_search&utm_source=hBJOknVQJ58S5goQyjmwRw", "review_count": 19, "categories": [{"alias": "pizza", "title": "Pizza"}, {"alias": "italian", "title": "Italian"}], "rating": 4.0, "coordinates": {"latitude": 53.64031, "longitude": 9.94794}, "transactions": [], "price": "\u20ac\u20ac", "location": {"address1": "Nordalbingerweg 17", "address2": "", "address3": "", "city": "Hamburg", "zip_code": "22455", "country": "DE", "state": "HH", "display_address": ["Nordalbingerweg 17", "22455 Hamburg", "Germany"]}, "phone": "+494055598570", "display_phone": "+49 40 55598570", "distance": 2000.911712930303}, {"id": "lUkcht1m41ywE72D4qwxEw", "alias": "le-marrakech-hamburg", "name": "Le Marrakech", "image_url": "https://s3-media1.fl.yelpcdn.com/bphoto/iBFo1qX-VD6beQ5p242D_w/o.jpg", "is_closed": false, "url": "https://www.yelp.com/biz/le-marrakech-hamburg?adjust_creative=hBJOknVQJ58S5goQyjmwRw&utm_campaign=yelp_api_v3&utm_medium=api_v3_business_search&utm_source=hBJOknVQJ58S5goQyjmwRw", "review_count": 102, "categories": [{"alias": "homedecor", "title": "Home Decor"}, {"alias": "oriental", "title": "Oriental"}, {"alias": "moroccan", "title": "Moroccan"}], "rating": 4.0, "coordinates": {"latitude": 53.6031032464623, "longitude": 9.97474717063903}, "transactions": [], "price": "\u20ac\u20ac\u20ac", "location": {"address1": "Kellerbleek 10", "address2": "", "address3": null, "city": "Hamburg", "zip_code": "22529", "country": "DE", "state": "HH", "display_address": ["Kellerbleek 10", "22529 Hamburg", "Germany"]}, "phone": "+494088889895", "display_phone": "+49 40 88889895", "distance": 2778.164403051567}, {"id": "OZ9aIUijZbgLn9GyN1QChQ", "alias": "mai-bistro-hamburg", "name": "Mai Bistro", "image_url": "https://s3-media4.fl.yelpcdn.com/bphoto/N69n8eUT8CYBKsZdF4omDA/o.jpg", "is_closed": false, "url": "https://www.yelp.com/biz/mai-bistro-hamburg?adjust_creative=hBJOknVQJ58S5goQyjmwRw&utm_campaign=yelp_api_v3&utm_medium=api_v3_business_search&utm_source=hBJOknVQJ58S5goQyjmwRw", "review_count": 4, "categories": [{"alias": "vietnamese", "title": "Vietnamese"}, {"alias": "chinese", "title": "Chinese"}], "rating": 5.0, "coordinates": {"latitude": 53.6406600758964, "longitude": 9.9473499879241}, "transactions": [], "price": "\u20ac\u20ac", "location": {"address1": "Rudolf-Klug-Weg 9", "address2": "", "address3": null, "city": "Hamburg", "zip_code": "22455", "country": "DE", "state": "HH", "display_address": ["Rudolf-Klug-Weg 9", "22455 Hamburg", "Germany"]}, "phone": "+494055599544", "display_phone": "+49 40 55599544", "distance": 2055.9202472323996}, {"id": "REYc_tPiqy0K01Qc4n3Gow", "alias": "trattoria-da-michele-norderstedt", "name": "Trattoria da Michele", "image_url": "https://s3-media1.fl.yelpcdn.com/bphoto/oWR1fGoAEY2XuEkaYsvbRA/o.jpg", "is_closed": false, "url": "https://www.yelp.com/biz/trattoria-da-michele-norderstedt?adjust_creative=hBJOknVQJ58S5goQyjmwRw&utm_campaign=yelp_api_v3&utm_medium=api_v3_business_search&utm_source=hBJOknVQJ58S5goQyjmwRw", "review_count": 58, "categories": [{"alias": "italian", "title": "Italian"}, {"alias": "mediterranean", "title": "Mediterranean"}, {"alias": "pizza", "title": "Pizza"}], "rating": 4.5, "coordinates": {"latitude": 53.6683625, "longitude": 9.9879207}, "transactions": [], "price": "\u20ac\u20ac", "location": {"address1": "Rugenbarg 74 h", "address2": "", "address3": "", "city": "Norderstedt", "zip_code": "22848", "country": "DE", "state": "SH", "display_address": ["Rugenbarg 74 h", "22848 Norderstedt", "Germany"]}, "phone": "+494052883339", "display_phone": "+49 40 52883339", "distance": 4649.601423410603}, {"id": "_LLuKQ0DAn9zgE4D9Mpc9Q", "alias": "taverna-santorini-hamburg-2", "name": "Taverna Santorini", "image_url": "https://s3-media1.fl.yelpcdn.com/bphoto/0ciNadd3zAnDi-YdsFJ_7w/o.jpg", "is_closed": false, "url": "https://www.yelp.com/biz/taverna-santorini-hamburg-2?adjust_creative=hBJOknVQJ58S5goQyjmwRw&utm_campaign=yelp_api_v3&utm_medium=api_v3_business_search&utm_source=hBJOknVQJ58S5goQyjmwRw", "review_count": 9, "categories": [{"alias": "greek", "title": "Greek"}], "rating": 4.0, "coordinates": {"latitude": 53.6226, "longitude": 9.950964}, "transactions": [], "price": "\u20ac", "location": {"address1": "Wendlohstr. 13", "address2": "", "address3": "", "city": "Hamburg", "zip_code": "22459", "country": "DE", "state": "HH", "display_address": ["Wendlohstr. 13", "22459 Hamburg", "Germany"]}, "phone": "+494022628444", "display_phone": "+49 40 22628444", "distance": 1382.9585195109132}, {"id": "DySKJC7bafLBQApP7iPqjw", "alias": "lust-auf-griechenland-hamburg-2", "name": "Lust auf Griechenland", "image_url": "https://s3-media2.fl.yelpcdn.com/bphoto/aqpE0uLXjhwSLjv4pHOeCw/o.jpg", "is_closed": false, "url": "https://www.yelp.com/biz/lust-auf-griechenland-hamburg-2?adjust_creative=hBJOknVQJ58S5goQyjmwRw&utm_campaign=yelp_api_v3&utm_medium=api_v3_business_search&utm_source=hBJOknVQJ58S5goQyjmwRw", "review_count": 71, "categories": [{"alias": "greek", "title": "Greek"}], "rating": 4.5, "coordinates": {"latitude": 53.6047435849681, "longitude": 9.96657572686672}, "transactions": [], "price": "\u20ac\u20ac", "location": {"address1": "Kellerbleek 6", "address2": "", "address3": "", "city": "Hamburg", "zip_code": "22529", "country": "DE", "state": "HH", "display_address": ["Kellerbleek 6", "22529 Hamburg", "Germany"]}, "phone": "+494064505929", "display_phone": "+49 40 64505929", "distance": 2587.383534020234}, {"id": "TtWWDZnIvRGDQ9Ef0maXIA", "alias": "arizona-kitchen-norderstedt", "name": "Arizona Kitchen", "image_url": "https://s3-media1.fl.yelpcdn.com/bphoto/YiiJpg1sQPUQyKr3Zx48Bg/o.jpg", "is_closed": false, "url": "https://www.yelp.com/biz/arizona-kitchen-norderstedt?adjust_creative=hBJOknVQJ58S5goQyjmwRw&utm_campaign=yelp_api_v3&utm_medium=api_v3_business_search&utm_source=hBJOknVQJ58S5goQyjmwRw", "review_count": 91, "categories": [{"alias": "tradamerican", "title": "American (Traditional)"}, {"alias": "cocktailbars", "title": "Cocktail Bars"}], "rating": 3.5, "coordinates": {"latitude": 53.6595, "longitude": 9.98047}, "transactions": [], "price": "\u20ac\u20ac", "location": {"address1": "Niendorfer Str. 176", "address2": null, "address3": null, "city": "Norderstedt", "zip_code": "22848", "country": "DE", "state": "SH", "display_address": ["Niendorfer Str. 176", "22848 Norderstedt", "Germany"]}, "phone": "+494052877997", "display_phone": "+49 40 52877997", "distance": 3587.9976364664344}, {"id": "-bCIbK-xOJr00C2VumngNQ", "alias": "kuchenstund-hamburg", "name": "Kuchenstund", "image_url": "https://s3-media1.fl.yelpcdn.com/bphoto/CYNNVtUJd0reG7q2JRC6iw/o.jpg", "is_closed": false, "url": "https://www.yelp.com/biz/kuchenstund-hamburg?adjust_creative=hBJOknVQJ58S5goQyjmwRw&utm_campaign=yelp_api_v3&utm_medium=api_v3_business_search&utm_source=hBJOknVQJ58S5goQyjmwRw", "review_count": 5, "categories": [{"alias": "cafes", "title": "Cafes"}], "rating": 5.0, "coordinates": {"latitude": 53.61837, "longitude": 9.95103}, "transactions": [], "price": "\u20ac\u20ac", "location": {"address1": "Tibarg 16", "address2": null, "address3": "", "city": "Hamburg", "zip_code": "22459", "country": "DE", "state": "HH", "display_address": ["Tibarg 16", "22459 Hamburg", "Germany"]}, "phone": "+494055446935", "display_phone": "+49 40 55446935", "distance": 1669.3910849741094}, {"id": "8aXDddyawgyuOjePAnnFzw", "alias": "eat-und-sweet-hamburg-2", "name": "Eat & Sweet", "image_url": "https://s3-media1.fl.yelpcdn.com/bphoto/V0Czc5wP9N5Gxy09GCloVg/o.jpg", "is_closed": false, "url": "https://www.yelp.com/biz/eat-und-sweet-hamburg-2?adjust_creative=hBJOknVQJ58S5goQyjmwRw&utm_campaign=yelp_api_v3&utm_medium=api_v3_business_search&utm_source=hBJOknVQJ58S5goQyjmwRw", "review_count": 5, "categories": [{"alias": "cakeshop", "title": "Patisserie/Cake Shop"}, {"alias": "cupcakes", "title": "Cupcakes"}, {"alias": "cafes", "title": "Cafes"}], "rating": 4.5, "coordinates": {"latitude": 53.6192272707374, "longitude": 9.95103437301634}, "transactions": [], "price": "\u20ac\u20ac", "location": {"address1": "Tibarg 5", "address2": "", "address3": "", "city": "Hamburg", "zip_code": "22459", "country": "DE", "state": "HH", "display_address": ["Tibarg 5", "22459 Hamburg", "Germany"]}, "phone": "+494030724615", "display_phone": "+49 40 30724615", "distance": 1578.9198439514878}, {"id": "50XytaOXas1B-6REju0SuA", "alias": "gia-dinh-hamburg", "name": "Gia Dinh", "image_url": "https://s3-media1.fl.yelpcdn.com/bphoto/aO5wzkoMw8UWRs5l3ktxWw/o.jpg", "is_closed": false, "url": "https://www.yelp.com/biz/gia-dinh-hamburg?adjust_creative=hBJOknVQJ58S5goQyjmwRw&utm_campaign=yelp_api_v3&utm_medium=api_v3_business_search&utm_source=hBJOknVQJ58S5goQyjmwRw", "review_count": 5, "categories": [{"alias": "vietnamese", "title": "Vietnamese"}, {"alias": "foodstands", "title": "Food Stands"}], "rating": 5.0, "coordinates": {"latitude": 53.60647, "longitude": 9.98076}, "transactions": [], "price": "\u20ac", "location": {"address1": "Borsteler Chaussee 90", "address2": null, "address3": "", "city": "Hamburg", "zip_code": "22453", "country": "DE", "state": "HH", "display_address": ["Borsteler Chaussee 90", "22453 Hamburg", "Germany"]}, "phone": "+494055896634", "display_phone": "+49 40 55896634", "distance": 2490.2083227127055}, {"id": "CeHsFlk6QQAR5_cQ7JMwEw", "alias": "chicago-meatpackers-hamburg", "name": "Chicago Meatpackers", "image_url": "https://s3-media4.fl.yelpcdn.com/bphoto/NzwEmZPYJ0Qg7f9RdoR_oQ/o.jpg", "is_closed": false, "url": "https://www.yelp.com/biz/chicago-meatpackers-hamburg?adjust_creative=hBJOknVQJ58S5goQyjmwRw&utm_campaign=yelp_api_v3&utm_medium=api_v3_business_search&utm_source=hBJOknVQJ58S5goQyjmwRw", "review_count": 117, "categories": [{"alias": "tradamerican", "title": "American (Traditional)"}, {"alias": "diners", "title": "Diners"}, {"alias": "burgers", "title": "Burgers"}], "rating": 3.5, "coordinates": {"latitude": 53.59246, "longitude": 9.98655}, "transactions": [], "price": "\u20ac\u20ac", "location": {"address1": "Martinistr. 11", "address2": "", "address3": "", "city": "Hamburg", "zip_code": "20251", "country": "DE", "state": "HH", "display_address": ["Martinistr. 11", "20251 Hamburg", "Germany"]}, "phone": "+494046775689", "display_phone": "+49 40 46775689", "distance": 4095.795668448454}, {"id": "AUrulavZJ2ubI9F_qPuRqQ", "alias": "el-greco-hamburg-9", "name": "El Greco", "image_url": "https://s3-media1.fl.yelpcdn.com/bphoto/SsGRcPsTc1fSEItU0X86ng/o.jpg", "is_closed": false, "url": "https://www.yelp.com/biz/el-greco-hamburg-9?adjust_creative=hBJOknVQJ58S5goQyjmwRw&utm_campaign=yelp_api_v3&utm_medium=api_v3_business_search&utm_source=hBJOknVQJ58S5goQyjmwRw", "review_count": 12, "categories": [{"alias": "greek", "title": "Greek"}], "rating": 3.5, "coordinates": {"latitude": 53.6345116, "longitude": 9.9540963}, "transactions": [], "price": "\u20ac\u20ac", "location": {"address1": "Paul-Sorge-Str. 142 A", "address2": "", "address3": null, "city": "Hamburg", "zip_code": "22455", "country": "DE", "state": "HH", "display_address": ["Paul-Sorge-Str. 142 A", "22455 Hamburg", "Germany"]}, "phone": "+49405514557", "display_phone": "+49 40 5514557", "distance": 1276.7452514903025}, {"id": "PpXwCPdrM-hNbxixughftQ", "alias": "restaurant-eppo-hamburg-2", "name": "Restaurant Eppo", "image_url": "https://s3-media3.fl.yelpcdn.com/bphoto/_aXybb3gE-etqapVJaRHSg/o.jpg", "is_closed": false, "url": "https://www.yelp.com/biz/restaurant-eppo-hamburg-2?adjust_creative=hBJOknVQJ58S5goQyjmwRw&utm_campaign=yelp_api_v3&utm_medium=api_v3_business_search&utm_source=hBJOknVQJ58S5goQyjmwRw", "review_count": 1, "categories": [{"alias": "german", "title": "German"}], "rating": 5.0, "coordinates": {"latitude": 53.58841, "longitude": 9.97344}, "transactions": [], "location": {"address1": "Hotel Dorint", "address2": "Martinistr. 72", "address3": "", "city": "Hamburg", "zip_code": "20251", "country": "DE", "state": "HH", "display_address": ["Hotel Dorint", "Martinistr. 72", "20251 Hamburg", "Germany"]}, "phone": "+49405701500", "display_phone": "+49 40 5701500", "distance": 4405.838241195504}, {"id": "uwwwsqHVlGQoVy6Nbqln7A", "alias": "schramme-10-hamburg", "name": "Schramme 10", "image_url": "https://s3-media3.fl.yelpcdn.com/bphoto/DsiUsqbwfJKgElkj4RtAgg/o.jpg", "is_closed": false, "url": "https://www.yelp.com/biz/schramme-10-hamburg?adjust_creative=hBJOknVQJ58S5goQyjmwRw&utm_campaign=yelp_api_v3&utm_medium=api_v3_business_search&utm_source=hBJOknVQJ58S5goQyjmwRw", "review_count": 65, "categories": [{"alias": "bars", "title": "Bars"}, {"alias": "international", "title": "International"}], "rating": 4.5, "coordinates": {"latitude": 53.5906612551736, "longitude": 9.9889269076689}, "transactions": [], "price": "\u20ac", "location": {"address1": "Schrammsweg 10", "address2": null, "address3": null, "city": "Hamburg", "zip_code": "20249", "country": "DE", "state": "HH", "display_address": ["Schrammsweg 10", "20249 Hamburg", "Germany"]}, "phone": "+494023801625", "display_phone": "+49 40 23801625", "distance": 4328.471081445061}, {"id": "Yx93qjHYxkF_PYlJRHamag", "alias": "restaurant-porto-marina-hamburg", "name": "Restaurant Porto Marina", "image_url": "https://s3-media4.fl.yelpcdn.com/bphoto/g0FzunYqZ68FqNhZArCJ4Q/o.jpg", "is_closed": false, "url": "https://www.yelp.com/biz/restaurant-porto-marina-hamburg?adjust_creative=hBJOknVQJ58S5goQyjmwRw&utm_campaign=yelp_api_v3&utm_medium=api_v3_business_search&utm_source=hBJOknVQJ58S5goQyjmwRw", "review_count": 30, "categories": [{"alias": "greek", "title": "Greek"}], "rating": 3.5, "coordinates": {"latitude": 53.6223, "longitude": 9.95297}, "transactions": [], "price": "\u20ac\u20ac", "location": {"address1": "Tibarg 52", "address2": null, "address3": null, "city": "Hamburg", "zip_code": "22459", "country": "DE", "state": "HH", "display_address": ["Tibarg 52", "22459 Hamburg", "Germany"]}, "phone": "+494018886007", "display_phone": "+49 40 18886007", "distance": 1283.1074857404606}, {"id": "6AuelNJx_-5xGBtFfFwm1A", "alias": "haltestelle-zur-wurst-hamburg", "name": "Haltestelle zur Wurst", "image_url": "https://s3-media3.fl.yelpcdn.com/bphoto/NYWaVA6Iqx7Ghxf14NCNoA/o.jpg", "is_closed": false, "url": "https://www.yelp.com/biz/haltestelle-zur-wurst-hamburg?adjust_creative=hBJOknVQJ58S5goQyjmwRw&utm_campaign=yelp_api_v3&utm_medium=api_v3_business_search&utm_source=hBJOknVQJ58S5goQyjmwRw", "review_count": 10, "categories": [{"alias": "hotdogs", "title": "Fast Food"}], "rating": 5.0, "coordinates": {"latitude": 53.6106927961091, "longitude": 9.95697327770995}, "transactions": [], "price": "\u20ac", "location": {"address1": "St.-Pauli-Trainingsgel\u00e4nde", "address2": "Kollaustr. 137", "address3": null, "city": "Hamburg", "zip_code": "22453", "country": "DE", "state": "HH", "display_address": ["St.-Pauli-Trainingsgel\u00e4nde", "Kollaustr. 137", "22453 Hamburg", "Germany"]}, "phone": "+4915115374253", "display_phone": "+49 1511 5374253", "distance": 2098.89174137238}, {"id": "lIpPv6slkK9qCrEdU94b7w", "alias": "estancia-la-sabrina-hamburg", "name": "Estancia La Sabrina", "image_url": "https://s3-media3.fl.yelpcdn.com/bphoto/S26uJe5yVN9ATts4xX65Uw/o.jpg", "is_closed": false, "url": "https://www.yelp.com/biz/estancia-la-sabrina-hamburg?adjust_creative=hBJOknVQJ58S5goQyjmwRw&utm_campaign=yelp_api_v3&utm_medium=api_v3_business_search&utm_source=hBJOknVQJ58S5goQyjmwRw", "review_count": 50, "categories": [{"alias": "argentine", "title": "Argentine"}, {"alias": "steak", "title": "Steakhouses"}], "rating": 4.5, "coordinates": {"latitude": 53.59572, "longitude": 9.98659}, "transactions": [], "price": "\u20ac\u20ac", "location": {"address1": "Erikastr. 81 A", "address2": "", "address3": null, "city": "Hamburg", "zip_code": "20251", "country": "DE", "state": "HH", "display_address": ["Erikastr. 81 A", "20251 Hamburg", "Germany"]}, "phone": "+4940463755", "display_phone": "+49 40 463755", "distance": 3745.4259422884597}, {"id": "mXOmODvz3JjJKtPoU4Pe7w", "alias": "the-eatalian-hamburg", "name": "The Eatalian", "image_url": "https://s3-media3.fl.yelpcdn.com/bphoto/6QFKlQaeGgrjXND0aKY30Q/o.jpg", "is_closed": false, "url": "https://www.yelp.com/biz/the-eatalian-hamburg?adjust_creative=hBJOknVQJ58S5goQyjmwRw&utm_campaign=yelp_api_v3&utm_medium=api_v3_business_search&utm_source=hBJOknVQJ58S5goQyjmwRw", "review_count": 4, "categories": [{"alias": "italian", "title": "Italian"}, {"alias": "coffee", "title": "Coffee & Tea"}], "rating": 4.0, "coordinates": {"latitude": 53.6210037, "longitude": 9.9522173}, "transactions": [], "price": "\u20ac\u20ac", "location": {"address1": "Tibarg Center", "address2": "Tibarg 41", "address3": "", "city": "Hamburg", "zip_code": "22459", "country": "DE", "state": "HH", "display_address": ["Tibarg Center", "Tibarg 41", "22459 Hamburg", "Germany"]}, "phone": "", "display_phone": "", "distance": 1400.4299185409577}, {"id": "CMexeUkqwebafGSYBmWAsQ", "alias": "han-yang-hamburg", "name": "Han Yang", "image_url": "https://s3-media2.fl.yelpcdn.com/bphoto/GS9RRZxKWrrcSFe34Foy6A/o.jpg", "is_closed": false, "url": "https://www.yelp.com/biz/han-yang-hamburg?adjust_creative=hBJOknVQJ58S5goQyjmwRw&utm_campaign=yelp_api_v3&utm_medium=api_v3_business_search&utm_source=hBJOknVQJ58S5goQyjmwRw", "review_count": 10, "categories": [{"alias": "chinese", "title": "Chinese"}], "rating": 4.0, "coordinates": {"latitude": 53.6220355885043, "longitude": 9.95360252628155}, "transactions": [], "price": "\u20ac\u20ac\u20ac", "location": {"address1": "Zum Markt 1", "address2": "", "address3": "", "city": "Hamburg", "zip_code": "22459", "country": "DE", "state": "HH", "display_address": ["Zum Markt 1", "22459 Hamburg", "Germany"]}, "phone": "+49405523715", "display_phone": "+49 40 5523715", "distance": 1261.8643848502807}, {"id": "z6MkcEHpNwqKByqm3zCr1w", "alias": "campus-hamburg", "name": "Campus", "image_url": "https://s3-media1.fl.yelpcdn.com/bphoto/gO_gER3tcGrCC-1dtijdDg/o.jpg", "is_closed": false, "url": "https://www.yelp.com/biz/campus-hamburg?adjust_creative=hBJOknVQJ58S5goQyjmwRw&utm_campaign=yelp_api_v3&utm_medium=api_v3_business_search&utm_source=hBJOknVQJ58S5goQyjmwRw", "review_count": 20, "categories": [{"alias": "bistros", "title": "Bistros"}], "rating": 4.0, "coordinates": {"latitude": 53.5908, "longitude": 9.99018}, "transactions": [], "price": "\u20ac\u20ac", "location": {"address1": "Schrammsweg 21", "address2": null, "address3": null, "city": "Hamburg", "zip_code": "20249", "country": "DE", "state": "HH", "display_address": ["Schrammsweg 21", "20249 Hamburg", "Germany"]}, "phone": "+494046773446", "display_phone": "+49 40 46773446", "distance": 4338.40677838343}, {"id": "O6UOP2jrlMEdsYL3bnvfAw", "alias": "bistro-uno-hamburg-3", "name": "Bistro Uno", "image_url": "https://s3-media2.fl.yelpcdn.com/bphoto/6LvloPKQksRhjiSOYSwj0A/o.jpg", "is_closed": false, "url": "https://www.yelp.com/biz/bistro-uno-hamburg-3?adjust_creative=hBJOknVQJ58S5goQyjmwRw&utm_campaign=yelp_api_v3&utm_medium=api_v3_business_search&utm_source=hBJOknVQJ58S5goQyjmwRw", "review_count": 16, "categories": [{"alias": "italian", "title": "Italian"}, {"alias": "salad", "title": "Salad"}, {"alias": "pizza", "title": "Pizza"}], "rating": 5.0, "coordinates": {"latitude": 53.58773, "longitude": 9.9845}, "transactions": [], "price": "\u20ac\u20ac", "location": {"address1": "Eppendorfer Landstr. 31", "address2": "", "address3": "", "city": "Hamburg", "zip_code": "20249", "country": "DE", "state": "HH", "display_address": ["Eppendorfer Landstr. 31", "20249 Hamburg", "Germany"]}, "phone": "+494046863787", "display_phone": "+49 40 46863787", "distance": 4571.375781437795}, {"id": "HbcCzYodz6eFisY8J1ffuw", "alias": "caycay-hamburg", "name": "CayCay", "image_url": "https://s3-media4.fl.yelpcdn.com/bphoto/b50wibUIHAksD2kW9xjvPw/o.jpg", "is_closed": false, "url": "https://www.yelp.com/biz/caycay-hamburg?adjust_creative=hBJOknVQJ58S5goQyjmwRw&utm_campaign=yelp_api_v3&utm_medium=api_v3_business_search&utm_source=hBJOknVQJ58S5goQyjmwRw", "review_count": 5, "categories": [{"alias": "panasian", "title": "Pan Asian"}], "rating": 5.0, "coordinates": {"latitude": 53.5941720084402, "longitude": 9.98742499150727}, "transactions": [], "price": "\u20ac", "location": {"address1": "Erikastr. 70", "address2": "", "address3": null, "city": "Hamburg", "zip_code": "20251", "country": "DE", "state": "HH", "display_address": ["Erikastr. 70", "20251 Hamburg", "Germany"]}, "phone": "+494028473095", "display_phone": "+49 40 28473095", "distance": 3926.14583640065}, {"id": "Cp5yywYa6MZNPv0QhAzy0g", "alias": "ponzu-hamburg", "name": "PONZU", "image_url": "https://s3-media4.fl.yelpcdn.com/bphoto/edtOpObgHbGPOvvrgPgSdw/o.jpg", "is_closed": false, "url": "https://www.yelp.com/biz/ponzu-hamburg?adjust_creative=hBJOknVQJ58S5goQyjmwRw&utm_campaign=yelp_api_v3&utm_medium=api_v3_business_search&utm_source=hBJOknVQJ58S5goQyjmwRw", "review_count": 2, "categories": [{"alias": "sushi", "title": "Sushi Bars"}, {"alias": "panasian", "title": "Pan Asian"}], "rating": 5.0, "coordinates": {"latitude": 53.6182, "longitude": 9.95068}, "transactions": [], "location": {"address1": "Tibarg 16", "address2": "", "address3": null, "city": "Hamburg", "zip_code": "22459", "country": "DE", "state": "HH", "display_address": ["Tibarg 16", "22459 Hamburg", "Germany"]}, "phone": "+494081972461", "display_phone": "+49 40 81972461", "distance": 1668.9447139722436}, {"id": "8y2vyVt15hK8-hPj1j6qsg", "alias": "das-bistro-im-nnz-premium-hamburg", "name": "Das Bistro im Nnz Premium", "image_url": "https://s3-media2.fl.yelpcdn.com/bphoto/QXDWKufYjdNnO17JEqDKgw/o.jpg", "is_closed": false, "url": "https://www.yelp.com/biz/das-bistro-im-nnz-premium-hamburg?adjust_creative=hBJOknVQJ58S5goQyjmwRw&utm_campaign=yelp_api_v3&utm_medium=api_v3_business_search&utm_source=hBJOknVQJ58S5goQyjmwRw", "review_count": 9, "categories": [{"alias": "bistros", "title": "Bistros"}], "rating": 4.0, "coordinates": {"latitude": 53.6413, "longitude": 9.94809}, "transactions": [], "price": "\u20ac\u20ac", "location": {"address1": "Ernst-Mittelbach-Ring 49", "address2": null, "address3": null, "city": "Hamburg", "zip_code": "22455", "country": "DE", "state": "HH", "display_address": ["Ernst-Mittelbach-Ring 49", "22455 Hamburg", "Germany"]}, "phone": "+494022600137", "display_phone": "+49 40 22600137", "distance": 2071.2993719658475}, {"id": "rZsV7d1gofjY-9_ZIzLnhg", "alias": "cantina-cuatro-hamburg", "name": "cantina cuatro", "image_url": "https://s3-media3.fl.yelpcdn.com/bphoto/EKMkeIJktDm0w3eV1j7tHw/o.jpg", "is_closed": false, "url": "https://www.yelp.com/biz/cantina-cuatro-hamburg?adjust_creative=hBJOknVQJ58S5goQyjmwRw&utm_campaign=yelp_api_v3&utm_medium=api_v3_business_search&utm_source=hBJOknVQJ58S5goQyjmwRw", "review_count": 2, "categories": [{"alias": "canteen", "title": "Canteen"}], "rating": 4.0, "coordinates": {"latitude": 53.6031, "longitude": 9.96201}, "transactions": [], "location": {"address1": "Audi Zentrum", "address2": "Kollaustr. 41-63", "address3": null, "city": "Hamburg", "zip_code": "22529", "country": "DE", "state": "HH", "display_address": ["Audi Zentrum", "Kollaustr. 41-63", "22529 Hamburg", "Germany"]}, "phone": "", "display_phone": "", "distance": 2809.8458612738073}, {"id": "WvsUfGyc2KAAcQj64wyvlA", "alias": "asia-quick-hamburg-10", "name": "Asia Quick", "image_url": "https://s3-media3.fl.yelpcdn.com/bphoto/L_o4jFyDJPbIIw-FGlYFhw/o.jpg", "is_closed": false, "url": "https://www.yelp.com/biz/asia-quick-hamburg-10?adjust_creative=hBJOknVQJ58S5goQyjmwRw&utm_campaign=yelp_api_v3&utm_medium=api_v3_business_search&utm_source=hBJOknVQJ58S5goQyjmwRw", "review_count": 26, "categories": [{"alias": "panasian", "title": "Pan Asian"}], "rating": 4.0, "coordinates": {"latitude": 53.62021, "longitude": 9.95231}, "transactions": [], "price": "\u20ac", "location": {"address1": "Tibarg 34", "address2": "", "address3": "", "city": "Hamburg", "zip_code": "22459", "country": "DE", "state": "HH", "display_address": ["Tibarg 34", "22459 Hamburg", "Germany"]}, "phone": "+494087507993", "display_phone": "+49 40 87507993", "distance": 1446.1248771948096}, {"id": "KJ3-rPeiJcETLoTMpb9amQ", "alias": "schuback-am-park-hamburg", "name": "Schuback am Park", "image_url": "https://s3-media4.fl.yelpcdn.com/bphoto/_H78Vno3GrOc-UkH8D2nLw/o.jpg", "is_closed": false, "url": "https://www.yelp.com/biz/schuback-am-park-hamburg?adjust_creative=hBJOknVQJ58S5goQyjmwRw&utm_campaign=yelp_api_v3&utm_medium=api_v3_business_search&utm_source=hBJOknVQJ58S5goQyjmwRw", "review_count": 15, "categories": [{"alias": "german", "title": "German"}], "rating": 4.0, "coordinates": {"latitude": 53.596235, "longitude": 9.987534}, "transactions": [], "price": "\u20ac\u20ac", "location": {"address1": "Eppendorfer Landstr. 165", "address2": "", "address3": "", "city": "Hamburg", "zip_code": "20251", "country": "DE", "state": "HH", "display_address": ["Eppendorfer Landstr. 165", "20251 Hamburg", "Germany"]}, "phone": "+4940476670", "display_phone": "+49 40 476670", "distance": 3709.697290780816}, {"id": "Aqo370d_LdrQ-Odh5bg0mA", "alias": "chalon-hamburg-3", "name": "Chalon", "image_url": "https://s3-media3.fl.yelpcdn.com/bphoto/J_dUq8UFVPnkOcorSEzzeQ/o.jpg", "is_closed": false, "url": "https://www.yelp.com/biz/chalon-hamburg-3?adjust_creative=hBJOknVQJ58S5goQyjmwRw&utm_campaign=yelp_api_v3&utm_medium=api_v3_business_search&utm_source=hBJOknVQJ58S5goQyjmwRw", "review_count": 25, "categories": [{"alias": "mongolian", "title": "Mongolian"}, {"alias": "sushi", "title": "Sushi Bars"}, {"alias": "panasian", "title": "Pan Asian"}], "rating": 4.0, "coordinates": {"latitude": 53.63139, "longitude": 9.9552}, "transactions": [], "price": "\u20ac\u20ac", "location": {"address1": "Adlerhorst 8", "address2": "", "address3": "", "city": "Hamburg", "zip_code": "22459", "country": "DE", "state": "HH", "display_address": ["Adlerhorst 8", "22459 Hamburg", "Germany"]}, "phone": "+494089804966", "display_phone": "+49 40 89804966", "distance": 1020.1656103626682}, {"id": "t6_yOLXBOwfxef9d7i-26Q", "alias": "ruby-hamburg", "name": "Ruby", "image_url": "https://s3-media2.fl.yelpcdn.com/bphoto/VCMPAwWzxHzcFE86rgq5SQ/o.jpg", "is_closed": false, "url": "https://www.yelp.com/biz/ruby-hamburg?adjust_creative=hBJOknVQJ58S5goQyjmwRw&utm_campaign=yelp_api_v3&utm_medium=api_v3_business_search&utm_source=hBJOknVQJ58S5goQyjmwRw", "review_count": 4, "categories": [{"alias": "vietnamese", "title": "Vietnamese"}, {"alias": "panasian", "title": "Pan Asian"}], "rating": 5.0, "coordinates": {"latitude": 53.5934540184053, "longitude": 9.98951670673814}, "transactions": [], "price": "\u20ac\u20ac", "location": {"address1": "Eppendorfer Marktplatz 12", "address2": "", "address3": null, "city": "Hamburg", "zip_code": "20251", "country": "DE", "state": "HH", "display_address": ["Eppendorfer Marktplatz 12", "20251 Hamburg", "Germany"]}, "phone": "+494094772493", "display_phone": "+49 40 94772493", "distance": 4044.422255249624}, {"id": "lPaVZ6RCliJS2cS4j-fLcA", "alias": "papillon-hamburg", "name": "Papillon", "image_url": "https://s3-media3.fl.yelpcdn.com/bphoto/W2LUYq10kBaFbiYcz3c9Bw/o.jpg", "is_closed": false, "url": "https://www.yelp.com/biz/papillon-hamburg?adjust_creative=hBJOknVQJ58S5goQyjmwRw&utm_campaign=yelp_api_v3&utm_medium=api_v3_business_search&utm_source=hBJOknVQJ58S5goQyjmwRw", "review_count": 7, "categories": [{"alias": "international", "title": "International"}], "rating": 4.5, "coordinates": {"latitude": 53.6062, "longitude": 9.95523}, "transactions": [], "price": "\u20ac\u20ac\u20ac", "location": {"address1": "Niendorfer Str. 59", "address2": null, "address3": null, "city": "Hamburg", "zip_code": "22529", "country": "DE", "state": "HH", "display_address": ["Niendorfer Str. 59", "22529 Hamburg", "Germany"]}, "phone": "+4940584440", "display_phone": "+49 40 584440", "distance": 2603.800450724816}, {"id": "8UdqNGq1zI2UZy2VY_oy8A", "alias": "schippels-kebab-hamburg", "name": "Schippels Kebab", "image_url": "https://s3-media3.fl.yelpcdn.com/bphoto/ErX83aTkQpIlSPmxmnaWiA/o.jpg", "is_closed": false, "url": "https://www.yelp.com/biz/schippels-kebab-hamburg?adjust_creative=hBJOknVQJ58S5goQyjmwRw&utm_campaign=yelp_api_v3&utm_medium=api_v3_business_search&utm_source=hBJOknVQJ58S5goQyjmwRw", "review_count": 2, "categories": [{"alias": "kebab", "title": "Kebab"}], "rating": 3.0, "coordinates": {"latitude": 53.6343213226088, "longitude": 9.95346829073646}, "transactions": [], "location": {"address1": "Paul-Sorge-Str. 142 B", "address2": "", "address3": null, "city": "Hamburg", "zip_code": "22455", "country": "DE", "state": "HH", "display_address": ["Paul-Sorge-Str. 142 B", "22455 Hamburg", "Germany"]}, "phone": "+494055505880", "display_phone": "+49 40 55505880", "distance": 1299.1817357687796}, {"id": "u3HOMS0TWUw2qT0wiUOnGw", "alias": "kyodai-hamburg", "name": "Kyodai", "image_url": "https://s3-media3.fl.yelpcdn.com/bphoto/-g2yXTai4KcmfuVTStmbqA/o.jpg", "is_closed": false, "url": "https://www.yelp.com/biz/kyodai-hamburg?adjust_creative=hBJOknVQJ58S5goQyjmwRw&utm_campaign=yelp_api_v3&utm_medium=api_v3_business_search&utm_source=hBJOknVQJ58S5goQyjmwRw", "review_count": 23, "categories": [{"alias": "sushi", "title": "Sushi Bars"}, {"alias": "panasian", "title": "Pan Asian"}], "rating": 4.0, "coordinates": {"latitude": 53.59247, "longitude": 9.99229}, "transactions": [], "price": "\u20ac\u20ac", "location": {"address1": "Ludolfstr. 60", "address2": "", "address3": "", "city": "Hamburg", "zip_code": "20249", "country": "DE", "state": "HH", "display_address": ["Ludolfstr. 60", "20249 Hamburg", "Germany"]}, "phone": "+494036035333", "display_phone": "+49 40 36035333", "distance": 4225.472875247567}, {"id": "0PJKzQFEOTt51xtMJxiACg", "alias": "entflammbar-hamburg-2", "name": "entflammBAR", "image_url": "https://s3-media3.fl.yelpcdn.com/bphoto/l4lpttDHdTRx-U52Krusmg/o.jpg", "is_closed": false, "url": "https://www.yelp.com/biz/entflammbar-hamburg-2?adjust_creative=hBJOknVQJ58S5goQyjmwRw&utm_campaign=yelp_api_v3&utm_medium=api_v3_business_search&utm_source=hBJOknVQJ58S5goQyjmwRw", "review_count": 52, "categories": [{"alias": "cocktailbars", "title": "Cocktail Bars"}, {"alias": "flatbread", "title": "Flatbread"}], "rating": 4.5, "coordinates": {"latitude": 53.593898, "longitude": 9.98866}, "transactions": [], "price": "\u20ac\u20ac", "location": {"address1": "Eppendorfer Marktplatz 21", "address2": null, "address3": null, "city": "Hamburg", "zip_code": "20251", "country": "DE", "state": "HH", "display_address": ["Eppendorfer Marktplatz 21", "20251 Hamburg", "Germany"]}, "phone": "+494046863388", "display_phone": "+49 40 46863388", "distance": 3979.7813341226797}, {"id": "4WmPkDvDDeSpYStuCWUx5Q", "alias": "bistro-italia-hamburg", "name": "Bistro Italia", "image_url": "https://s3-media2.fl.yelpcdn.com/bphoto/WQ6yMIcOgrFXR7XnxjCoBQ/o.jpg", "is_closed": false, "url": "https://www.yelp.com/biz/bistro-italia-hamburg?adjust_creative=hBJOknVQJ58S5goQyjmwRw&utm_campaign=yelp_api_v3&utm_medium=api_v3_business_search&utm_source=hBJOknVQJ58S5goQyjmwRw", "review_count": 51, "categories": [{"alias": "italian", "title": "Italian"}], "rating": 4.5, "coordinates": {"latitude": 53.5940299, "longitude": 9.98367}, "transactions": [], "price": "\u20ac", "location": {"address1": "Tarpenbekstr. 49", "address2": null, "address3": null, "city": "Hamburg", "zip_code": "20251", "country": "DE", "state": "HH", "display_address": ["Tarpenbekstr. 49", "20251 Hamburg", "Germany"]}, "phone": "+494028782760", "display_phone": "+49 40 28782760", "distance": 3883.2788212570604}, {"id": "zujjfzO3CQZg-9KtOC87zQ", "alias": "pulverm\u00fchle-hamburg", "name": "Pulverm\u00fchle", "image_url": "https://s3-media1.fl.yelpcdn.com/bphoto/IFnVKG6E7RjZeFXW5S0SAg/o.jpg", "is_closed": false, "url": "https://www.yelp.com/biz/pulverm%C3%BChle-hamburg?adjust_creative=hBJOknVQJ58S5goQyjmwRw&utm_campaign=yelp_api_v3&utm_medium=api_v3_business_search&utm_source=hBJOknVQJ58S5goQyjmwRw", "review_count": 17, "categories": [{"alias": "italian", "title": "Italian"}, {"alias": "lounges", "title": "Lounges"}], "rating": 4.0, "coordinates": {"latitude": 53.6050355409105, "longitude": 9.96611014736027}, "transactions": [], "price": "\u20ac\u20ac\u20ac", "location": {"address1": "Bei der Pulverm\u00fchle 1", "address2": "", "address3": "", "city": "Hamburg", "zip_code": "22453", "country": "DE", "state": "HH", "display_address": ["Bei der Pulverm\u00fchle 1", "22453 Hamburg", "Germany"]}, "phone": "+494022864948", "display_phone": "+49 40 22864948", "distance": 2557.9061530851936}, {"id": "ssulrzin1OWnuGnuKKOa-A", "alias": "il-porcino-restaurant-hamburg", "name": "Il Porcino Restaurant", "image_url": "https://s3-media3.fl.yelpcdn.com/bphoto/zHyT4wWqwYmkK-b9_xsXrA/o.jpg", "is_closed": false, "url": "https://www.yelp.com/biz/il-porcino-restaurant-hamburg?adjust_creative=hBJOknVQJ58S5goQyjmwRw&utm_campaign=yelp_api_v3&utm_medium=api_v3_business_search&utm_source=hBJOknVQJ58S5goQyjmwRw", "review_count": 34, "categories": [{"alias": "italian", "title": "Italian"}], "rating": 3.5, "coordinates": {"latitude": 53.62286, "longitude": 9.9511299}, "transactions": [], "price": "\u20ac\u20ac", "location": {"address1": "Wendlohstr. 6", "address2": "", "address3": "", "city": "Hamburg", "zip_code": "22459", "country": "DE", "state": "HH", "display_address": ["Wendlohstr. 6", "22459 Hamburg", "Germany"]}, "phone": "+494058955944", "display_phone": "+49 40 58955944", "distance": 1356.1841850593007}, {"id": "_avQf9vEHV3BaoGn2Bo4Ww", "alias": "ciao-bella-hamburg-8", "name": "Ciao Bella", "image_url": "https://s3-media2.fl.yelpcdn.com/bphoto/pUHzxCICPr4t-VdtnsUUNA/o.jpg", "is_closed": false, "url": "https://www.yelp.com/biz/ciao-bella-hamburg-8?adjust_creative=hBJOknVQJ58S5goQyjmwRw&utm_campaign=yelp_api_v3&utm_medium=api_v3_business_search&utm_source=hBJOknVQJ58S5goQyjmwRw", "review_count": 2, "categories": [{"alias": "italian", "title": "Italian"}], "rating": 4.0, "coordinates": {"latitude": 53.6010428, "longitude": 9.9745951}, "transactions": [], "location": {"address1": "Nedderfeld 70", "address2": "", "address3": null, "city": "Hamburg", "zip_code": "22529", "country": "DE", "state": "HH", "display_address": ["Nedderfeld 70", "22529 Hamburg", "Germany"]}, "phone": "+494080603058", "display_phone": "+49 40 80603058", "distance": 3004.8653771526465}, {"id": "Y8zQgmCxi9HrPWncKLU8Gg", "alias": "kleines-hofcaf\u00e9-hamburg-3", "name": "Kleines Hofcaf\u00e9", "image_url": "", "is_closed": false, "url": "https://www.yelp.com/biz/kleines-hofcaf%C3%A9-hamburg-3?adjust_creative=hBJOknVQJ58S5goQyjmwRw&utm_campaign=yelp_api_v3&utm_medium=api_v3_business_search&utm_source=hBJOknVQJ58S5goQyjmwRw", "review_count": 1, "categories": [{"alias": "cafes", "title": "Cafes"}], "rating": 5.0, "coordinates": {"latitude": 53.601, "longitude": 9.9556799}, "transactions": [], "location": {"address1": "Grelckstr. 19", "address2": "", "address3": null, "city": "Hamburg", "zip_code": "22529", "country": "DE", "state": "HH", "display_address": ["Grelckstr. 19", "22529 Hamburg", "Germany"]}, "phone": "+494058955595", "display_phone": "+49 40 58955595", "distance": 3141.3068612942297}, {"id": "mURl_v8Ir4AMxfDs8VVizg", "alias": "mein-fischladen-hamburg", "name": "Mein Fischladen", "image_url": "https://s3-media3.fl.yelpcdn.com/bphoto/m7cHAyH7CZnWLvahD-D9qw/o.jpg", "is_closed": false, "url": "https://www.yelp.com/biz/mein-fischladen-hamburg?adjust_creative=hBJOknVQJ58S5goQyjmwRw&utm_campaign=yelp_api_v3&utm_medium=api_v3_business_search&utm_source=hBJOknVQJ58S5goQyjmwRw", "review_count": 10, "categories": [{"alias": "seafood", "title": "Seafood"}, {"alias": "fishmonger", "title": "Fishmonger"}], "rating": 4.5, "coordinates": {"latitude": 53.640307, "longitude": 9.947865}, "transactions": [], "price": "\u20ac", "location": {"address1": "Nordalbinger Weg 17", "address2": "", "address3": "", "city": "Hamburg", "zip_code": "22455", "country": "DE", "state": "HH", "display_address": ["Nordalbinger Weg 17", "22455 Hamburg", "Germany"]}, "phone": "+49405525337", "display_phone": "+49 40 5525337", "distance": 2004.273047382109}, {"id": "EvDArjy8EKcCsMqM-PC7JQ", "alias": "casa-grande-hamburg", "name": "Casa Grande", "image_url": "https://s3-media2.fl.yelpcdn.com/bphoto/mmPJZogd10KeMCdO5za9Mw/o.jpg", "is_closed": false, "url": "https://www.yelp.com/biz/casa-grande-hamburg?adjust_creative=hBJOknVQJ58S5goQyjmwRw&utm_campaign=yelp_api_v3&utm_medium=api_v3_business_search&utm_source=hBJOknVQJ58S5goQyjmwRw", "review_count": 8, "categories": [{"alias": "pizza", "title": "Pizza"}, {"alias": "italian", "title": "Italian"}], "rating": 3.5, "coordinates": {"latitude": 53.60706, "longitude": 9.97943}, "transactions": [], "price": "\u20ac\u20ac", "location": {"address1": "Borsteler Chaussee 110", "address2": "", "address3": "", "city": "Hamburg", "zip_code": "22453", "country": "DE", "state": "HH", "display_address": ["Borsteler Chaussee 110", "22453 Hamburg", "Germany"]}, "phone": "+49405117904", "display_phone": "+49 40 5117904", "distance": 2401.749726810918}, {"id": "vp3fB4wycmUs-5otOTvjwg", "alias": "tibarg-kebap-haus-hamburg", "name": "Tibarg Kebap Haus", "image_url": "https://s3-media2.fl.yelpcdn.com/bphoto/srQylN-aEVRKiE2qZtT9oA/o.jpg", "is_closed": false, "url": "https://www.yelp.com/biz/tibarg-kebap-haus-hamburg?adjust_creative=hBJOknVQJ58S5goQyjmwRw&utm_campaign=yelp_api_v3&utm_medium=api_v3_business_search&utm_source=hBJOknVQJ58S5goQyjmwRw", "review_count": 29, "categories": [{"alias": "kebab", "title": "Kebab"}, {"alias": "turkish", "title": "Turkish"}], "rating": 3.5, "coordinates": {"latitude": 53.6199833755157, "longitude": 9.95198987424374}, "transactions": [], "price": "\u20ac\u20ac", "location": {"address1": "Tibarg 32a", "address2": "", "address3": "", "city": "Hamburg", "zip_code": "22459", "country": "DE", "state": "HH", "display_address": ["Tibarg 32a", "22459 Hamburg", "Germany"]}, "phone": "+4915734315204", "display_phone": "+49 1573 4315204", "distance": 1477.864131674719}, {"id": "ViYfJSwyihg261ray_RmZg", "alias": "barmeiers-gartencaf\u00e9-hamburg-2", "name": "Barmeiers Gartencaf\u00e9", "image_url": "https://s3-media3.fl.yelpcdn.com/bphoto/saIP0UtoP2X-Rq9b7m1NoQ/o.jpg", "is_closed": false, "url": "https://www.yelp.com/biz/barmeiers-gartencaf%C3%A9-hamburg-2?adjust_creative=hBJOknVQJ58S5goQyjmwRw&utm_campaign=yelp_api_v3&utm_medium=api_v3_business_search&utm_source=hBJOknVQJ58S5goQyjmwRw", "review_count": 14, "categories": [{"alias": "bistros", "title": "Bistros"}, {"alias": "cafes", "title": "Cafes"}], "rating": 4.5, "coordinates": {"latitude": 53.59724, "longitude": 9.98962}, "transactions": [], "price": "\u20ac\u20ac", "location": {"address1": "Eppendorfer Landstr. 180", "address2": "", "address3": "", "city": "Hamburg", "zip_code": "20251", "country": "DE", "state": "HH", "display_address": ["Eppendorfer Landstr. 180", "20251 Hamburg", "Germany"]}, "phone": "+491707669400", "display_phone": "+49 170 7669400", "distance": 3644.4488971673427}, {"id": "Jjm56y3eFnZ-dwvdxfpN2A", "alias": "first-croque-hamburg-eppendorf-hamburg", "name": "First Croque Hamburg-Eppendorf", "image_url": "https://s3-media2.fl.yelpcdn.com/bphoto/EbWPgsQ6MSDW7S-YwahrKQ/o.jpg", "is_closed": false, "url": "https://www.yelp.com/biz/first-croque-hamburg-eppendorf-hamburg?adjust_creative=hBJOknVQJ58S5goQyjmwRw&utm_campaign=yelp_api_v3&utm_medium=api_v3_business_search&utm_source=hBJOknVQJ58S5goQyjmwRw", "review_count": 8, "categories": [{"alias": "french", "title": "French"}, {"alias": "italian", "title": "Italian"}], "rating": 4.5, "coordinates": {"latitude": 53.59423, "longitude": 9.98367}, "transactions": [], "price": "\u20ac", "location": {"address1": "Tarpenbekstr. 51", "address2": null, "address3": null, "city": "Hamburg", "zip_code": "20251", "country": "DE", "state": "HH", "display_address": ["Tarpenbekstr. 51", "20251 Hamburg", "Germany"]}, "phone": "+4940472728", "display_phone": "+49 40 472728", "distance": 3849.183523118223}, {"id": "2aiKx4k-XzACd5iLkvsuWQ", "alias": "gaumenschmaus-h\u00e4hnchengrill-hamburg", "name": "Gaumenschmaus - H\u00e4hnchengrill", "image_url": "https://s3-media4.fl.yelpcdn.com/bphoto/RubgsBZX2FmIxa1hAr-QfA/o.jpg", "is_closed": false, "url": "https://www.yelp.com/biz/gaumenschmaus-h%C3%A4hnchengrill-hamburg?adjust_creative=hBJOknVQJ58S5goQyjmwRw&utm_campaign=yelp_api_v3&utm_medium=api_v3_business_search&utm_source=hBJOknVQJ58S5goQyjmwRw", "review_count": 1, "categories": [{"alias": "foodstands", "title": "Food Stands"}], "rating": 4.0, "coordinates": {"latitude": 53.5849, "longitude": 9.96434}, "transactions": [], "location": {"address1": "Troplowitzstr. 8", "address2": null, "address3": null, "city": "Hamburg", "zip_code": "22529", "country": "DE", "state": "HH", "display_address": ["Troplowitzstr. 8", "22529 Hamburg", "Germany"]}, "phone": "", "display_phone": "", "distance": 4798.587264499531}, {"id": "j60l4xNvd8e3mrrExilQKg", "alias": "zwutschkerl-alm-norderstedt", "name": "Zwutschkerl Alm", "image_url": "https://s3-media2.fl.yelpcdn.com/bphoto/HGrX3KOi8wMPPUD-TnapAA/o.jpg", "is_closed": false, "url": "https://www.yelp.com/biz/zwutschkerl-alm-norderstedt?adjust_creative=hBJOknVQJ58S5goQyjmwRw&utm_campaign=yelp_api_v3&utm_medium=api_v3_business_search&utm_source=hBJOknVQJ58S5goQyjmwRw", "review_count": 2, "categories": [{"alias": "german", "title": "German"}, {"alias": "austrian", "title": "Austrian"}], "rating": 4.5, "coordinates": {"latitude": 53.6614217, "longitude": 9.9849684}, "transactions": [], "price": "\u20ac\u20ac", "location": {"address1": "Gutenbergring 30 a", "address2": null, "address3": "", "city": "Norderstedt", "zip_code": "22848", "country": "DE", "state": "SH", "display_address": ["Gutenbergring 30 a", "22848 Norderstedt", "Germany"]}, "phone": "+49405253431", "display_phone": "+49 40 5253431", "distance": 3853.742143481287}, {"id": "7tnl5LheAU7pjbaIAk3Lsg", "alias": "grill-haus-der-grieche-hamburg", "name": "Grill-Haus - Der Grieche", "image_url": "https://s3-media1.fl.yelpcdn.com/bphoto/rsrzJiHq5MaKDTjjmrgBLw/o.jpg", "is_closed": false, "url": "https://www.yelp.com/biz/grill-haus-der-grieche-hamburg?adjust_creative=hBJOknVQJ58S5goQyjmwRw&utm_campaign=yelp_api_v3&utm_medium=api_v3_business_search&utm_source=hBJOknVQJ58S5goQyjmwRw", "review_count": 26, "categories": [{"alias": "greek", "title": "Greek"}], "rating": 4.0, "coordinates": {"latitude": 53.60732, "longitude": 9.9789}, "transactions": [], "price": "\u20ac", "location": {"address1": "Borsteler Chaussee 120", "address2": "", "address3": "", "city": "Hamburg", "zip_code": "22453", "country": "DE", "state": "HH", "display_address": ["Borsteler Chaussee 120", "22453 Hamburg", "Germany"]}, "phone": "+494068285149", "display_phone": "+49 40 68285149", "distance": 2366.3901911585654}, {"id": "c6dhfuYvkp6Hq11JNe3cxw", "alias": "rio-grande-hamburg-5", "name": "Rio Grande", "image_url": "https://s3-media3.fl.yelpcdn.com/bphoto/XyiotFMNhaRfQ3yOZR9eaQ/o.jpg", "is_closed": false, "url": "https://www.yelp.com/biz/rio-grande-hamburg-5?adjust_creative=hBJOknVQJ58S5goQyjmwRw&utm_campaign=yelp_api_v3&utm_medium=api_v3_business_search&utm_source=hBJOknVQJ58S5goQyjmwRw", "review_count": 29, "categories": [{"alias": "international", "title": "International"}], "rating": 4.0, "coordinates": {"latitude": 53.5982, "longitude": 9.96564}, "transactions": [], "price": "\u20ac\u20ac", "location": {"address1": "Lokstedter Steindamm 7", "address2": null, "address3": null, "city": "Hamburg", "zip_code": "22529", "country": "DE", "state": "HH", "display_address": ["Lokstedter Steindamm 7", "22529 Hamburg", "Germany"]}, "phone": "+49405533669", "display_phone": "+49 40 5533669", "distance": 3317.6102744705327}, {"id": "6bHEN20g1Ck6vqC2PZguDg", "alias": "cafe-artig-niendorf", "name": "Cafe Artig", "image_url": "https://s3-media1.fl.yelpcdn.com/bphoto/7ax_5A2wXgmym8Y7W8xHsg/o.jpg", "is_closed": false, "url": "https://www.yelp.com/biz/cafe-artig-niendorf?adjust_creative=hBJOknVQJ58S5goQyjmwRw&utm_campaign=yelp_api_v3&utm_medium=api_v3_business_search&utm_source=hBJOknVQJ58S5goQyjmwRw", "review_count": 4, "categories": [{"alias": "cafes", "title": "Cafes"}], "rating": 4.5, "coordinates": {"latitude": 53.627179, "longitude": 9.944794}, "transactions": [], "price": "\u20ac\u20ac", "location": {"address1": "Graf-Anton-Weg 27", "address2": "", "address3": "", "city": "Niendorf", "zip_code": "22459", "country": "DE", "state": "HH", "display_address": ["Graf-Anton-Weg 27", "22459 Niendorf", "Germany"]}, "phone": "+494057205314", "display_phone": "+49 40 57205314", "distance": 1659.0044081376932}, {"id": "ZxkuTIJSHKsGse1PJuq_MA", "alias": "casa-deonila-hamburg", "name": "Casa Deonila", "image_url": "https://s3-media1.fl.yelpcdn.com/bphoto/4CwJ14izBbmRxr1bsm5KWw/o.jpg", "is_closed": false, "url": "https://www.yelp.com/biz/casa-deonila-hamburg?adjust_creative=hBJOknVQJ58S5goQyjmwRw&utm_campaign=yelp_api_v3&utm_medium=api_v3_business_search&utm_source=hBJOknVQJ58S5goQyjmwRw", "review_count": 3, "categories": [{"alias": "brazilian", "title": "Brazilian"}, {"alias": "delicatessen", "title": "Delicatessen"}], "rating": 4.0, "coordinates": {"latitude": 53.59324, "longitude": 9.967177}, "transactions": [], "price": "\u20ac\u20ac", "location": {"address1": "Lokstedter Steindamm 55 b", "address2": "", "address3": "", "city": "Hamburg", "zip_code": "22529", "country": "DE", "state": "HH", "display_address": ["Lokstedter Steindamm 55 b", "22529 Hamburg", "Germany"]}, "phone": "+494037026800", "display_phone": "+49 40 37026800", "distance": 3864.4937899851957}, {"id": "S_5-0aPJ9hmUh0-gFJdRLQ", "alias": "pizzeria-mario-hamburg", "name": "Pizzeria MARIO", "image_url": "https://s3-media1.fl.yelpcdn.com/bphoto/8FAQSSl218gD5Hgc_MqvZw/o.jpg", "is_closed": false, "url": "https://www.yelp.com/biz/pizzeria-mario-hamburg?adjust_creative=hBJOknVQJ58S5goQyjmwRw&utm_campaign=yelp_api_v3&utm_medium=api_v3_business_search&utm_source=hBJOknVQJ58S5goQyjmwRw", "review_count": 26, "categories": [{"alias": "italian", "title": "Italian"}], "rating": 4.0, "coordinates": {"latitude": 53.58988, "longitude": 9.98599}, "transactions": [], "price": "\u20ac\u20ac", "location": {"address1": "Robert-Koch-Str. 36", "address2": null, "address3": null, "city": "Hamburg", "zip_code": "20249", "country": "DE", "state": "HH", "display_address": ["Robert-Koch-Str. 36", "20249 Hamburg", "Germany"]}, "phone": "+494046858651", "display_phone": "+49 40 46858651", "distance": 4372.065824706743}, {"id": "t84wVEJL0Xw3qThaxGA1lw", "alias": "borchers-hamburg", "name": "Borchers", "image_url": "https://s3-media4.fl.yelpcdn.com/bphoto/XmWb8GAsBegL9ueblLaQ6w/o.jpg", "is_closed": false, "url": "https://www.yelp.com/biz/borchers-hamburg?adjust_creative=hBJOknVQJ58S5goQyjmwRw&utm_campaign=yelp_api_v3&utm_medium=api_v3_business_search&utm_source=hBJOknVQJ58S5goQyjmwRw", "review_count": 126, "categories": [{"alias": "cafes", "title": "Cafes"}, {"alias": "bistros", "title": "Bistros"}, {"alias": "international", "title": "International"}], "rating": 3.5, "coordinates": {"latitude": 53.59432, "longitude": 9.98695}, "transactions": [], "price": "\u20ac\u20ac", "location": {"address1": "Geschwister-Scholl-Str.1-3", "address2": null, "address3": null, "city": "Hamburg", "zip_code": "20251", "country": "DE", "state": "HH", "display_address": ["Geschwister-Scholl-Str.1-3", "20251 Hamburg", "Germany"]}, "phone": "+4940462677", "display_phone": "+49 40 462677", "distance": 3899.7857866405843}, {"id": "El4FdT2Y6eTX6kKNZaduKQ", "alias": "coffee-to-fly-hamburg", "name": "Coffee To Fly", "image_url": "https://s3-media2.fl.yelpcdn.com/bphoto/SR9s-ZvESkaXd5iycIqBOg/o.jpg", "is_closed": false, "url": "https://www.yelp.com/biz/coffee-to-fly-hamburg?adjust_creative=hBJOknVQJ58S5goQyjmwRw&utm_campaign=yelp_api_v3&utm_medium=api_v3_business_search&utm_source=hBJOknVQJ58S5goQyjmwRw", "review_count": 41, "categories": [{"alias": "cafes", "title": "Cafes"}], "rating": 4.0, "coordinates": {"latitude": 53.640552037762, "longitude": 9.99215513309023}, "transactions": [], "price": "\u20ac\u20ac", "location": {"address1": "Holtkoppel 100", "address2": "", "address3": "", "city": "Hamburg", "zip_code": "22415", "country": "DE", "state": "HH", "display_address": ["Holtkoppel 100", "22415 Hamburg", "Germany"]}, "phone": "+491797680957", "display_phone": "+49 179 7680957", "distance": 2028.0404683941556}, {"id": "L3kzjOmJsfuImwYiIyjbOQ", "alias": "tan-d\u00f6ner-hamburg", "name": "Tan D\u00f6ner", "image_url": "https://s3-media2.fl.yelpcdn.com/bphoto/JE09f1QnZo0S1H6r1LD7zA/o.jpg", "is_closed": false, "url": "https://www.yelp.com/biz/tan-d%C3%B6ner-hamburg?adjust_creative=hBJOknVQJ58S5goQyjmwRw&utm_campaign=yelp_api_v3&utm_medium=api_v3_business_search&utm_source=hBJOknVQJ58S5goQyjmwRw", "review_count": 1, "categories": [{"alias": "kebab", "title": "Kebab"}, {"alias": "turkish", "title": "Turkish"}], "rating": 4.0, "coordinates": {"latitude": 53.59299, "longitude": 9.98749}, "transactions": [], "location": {"address1": "Erikastr. 46", "address2": "", "address3": null, "city": "Hamburg", "zip_code": "20251", "country": "DE", "state": "HH", "display_address": ["Erikastr. 46", "20251 Hamburg", "Germany"]}, "phone": "+4915254736577", "display_phone": "+49 1525 4736577", "distance": 4049.9864334011454}, {"id": "qhvu8CsZxUUPobjf2t7fiw", "alias": "raw-like-sushi-und-more-hamburg", "name": "raw like sushi & more", "image_url": "https://s3-media3.fl.yelpcdn.com/bphoto/ETYMRd8kKLdVDgSQ1vEdAQ/o.jpg", "is_closed": false, "url": "https://www.yelp.com/biz/raw-like-sushi-und-more-hamburg?adjust_creative=hBJOknVQJ58S5goQyjmwRw&utm_campaign=yelp_api_v3&utm_medium=api_v3_business_search&utm_source=hBJOknVQJ58S5goQyjmwRw", "review_count": 130, "categories": [{"alias": "sushi", "title": "Sushi Bars"}, {"alias": "panasian", "title": "Pan Asian"}], "rating": 4.5, "coordinates": {"latitude": 53.59227, "longitude": 9.98719}, "transactions": [], "price": "\u20ac\u20ac\u20ac", "location": {"address1": "Martinistr. 5", "address2": "", "address3": "", "city": "Hamburg", "zip_code": "20251", "country": "DE", "state": "HH", "display_address": ["Martinistr. 5", "20251 Hamburg", "Germany"]}, "phone": "+4940476731", "display_phone": "+49 40 476731", "distance": 4127.400972776916}, {"id": "T1fj3vdJR7ZEZK8YeT1YZw", "alias": "trattoria-campo-da-franco-hamburg", "name": "Trattoria Campo da Franco", "image_url": "https://s3-media1.fl.yelpcdn.com/bphoto/ey6XK3eZWosy6QwbO2C7tg/o.jpg", "is_closed": false, "url": "https://www.yelp.com/biz/trattoria-campo-da-franco-hamburg?adjust_creative=hBJOknVQJ58S5goQyjmwRw&utm_campaign=yelp_api_v3&utm_medium=api_v3_business_search&utm_source=hBJOknVQJ58S5goQyjmwRw", "review_count": 54, "categories": [{"alias": "italian", "title": "Italian"}], "rating": 4.0, "coordinates": {"latitude": 53.59283, "longitude": 9.99215}, "transactions": [], "price": "\u20ac\u20ac", "location": {"address1": "Ludolfstr. 43", "address2": "", "address3": "", "city": "Hamburg", "zip_code": "20249", "country": "DE", "state": "HH", "display_address": ["Ludolfstr. 43", "20249 Hamburg", "Germany"]}, "phone": "+494038642968", "display_phone": "+49 40 38642968", "distance": 4160.869586164496}, {"id": "-ZbVwBZKyHQ6cRa8hB1SjA", "alias": "lucacelli-hamburg-2", "name": "Lucacelli", "image_url": "https://s3-media1.fl.yelpcdn.com/bphoto/tPAqnaheV3xmM-vLvJtQZg/o.jpg", "is_closed": false, "url": "https://www.yelp.com/biz/lucacelli-hamburg-2?adjust_creative=hBJOknVQJ58S5goQyjmwRw&utm_campaign=yelp_api_v3&utm_medium=api_v3_business_search&utm_source=hBJOknVQJ58S5goQyjmwRw", "review_count": 3, "categories": [{"alias": "italian", "title": "Italian"}], "rating": 4.0, "coordinates": {"latitude": 53.592233, "longitude": 9.987829}, "transactions": [], "price": "\u20ac\u20ac", "location": {"address1": "Eppendorfer Landstr. 95", "address2": "", "address3": null, "city": "Hamburg", "zip_code": "20249", "country": "DE", "state": "HH", "display_address": ["Eppendorfer Landstr. 95", "20249 Hamburg", "Germany"]}, "phone": "+494088185944", "display_phone": "+49 40 88185944", "distance": 4136.161860273302}, {"id": "HAU91NbOkOOiLrYcyKi7MQ", "alias": "cucina-matta-hamburg", "name": "Cucina Matta", "image_url": "https://s3-media2.fl.yelpcdn.com/bphoto/_vSyPXG576aE4ztJ8c2Cig/o.jpg", "is_closed": false, "url": "https://www.yelp.com/biz/cucina-matta-hamburg?adjust_creative=hBJOknVQJ58S5goQyjmwRw&utm_campaign=yelp_api_v3&utm_medium=api_v3_business_search&utm_source=hBJOknVQJ58S5goQyjmwRw", "review_count": 5, "categories": [{"alias": "italian", "title": "Italian"}], "rating": 4.0, "coordinates": {"latitude": 53.5852, "longitude": 9.98109}, "transactions": [], "price": "\u20ac\u20ac\u20ac", "location": {"address1": "Curschmannstr. 5", "address2": null, "address3": null, "city": "Hamburg", "zip_code": "20251", "country": "DE", "state": "HH", "display_address": ["Curschmannstr. 5", "20251 Hamburg", "Germany"]}, "phone": "+494041357899", "display_phone": "+49 40 41357899", "distance": 4807.326303850308}, {"id": "82dOefeRVtepc-E0C-auOA", "alias": "winterhuder-f\u00e4hrhaus-hamburg", "name": "Winterhuder F\u00e4hrhaus", "image_url": "https://s3-media1.fl.yelpcdn.com/bphoto/7MmrDembptI23oWaL5mbFA/o.jpg", "is_closed": false, "url": "https://www.yelp.com/biz/winterhuder-f%C3%A4hrhaus-hamburg?adjust_creative=hBJOknVQJ58S5goQyjmwRw&utm_campaign=yelp_api_v3&utm_medium=api_v3_business_search&utm_source=hBJOknVQJ58S5goQyjmwRw", "review_count": 9, "categories": [{"alias": "northerngerman", "title": "Northern German"}, {"alias": "cafes", "title": "Cafes"}], "rating": 4.5, "coordinates": {"latitude": 53.5933765948905, "longitude": 9.99418772757053}, "transactions": [], "price": "\u20ac\u20ac", "location": {"address1": "Hudtwalckerstr. 13", "address2": "", "address3": "", "city": "Hamburg", "zip_code": "22299", "country": "DE", "state": "HH", "display_address": ["Hudtwalckerstr. 13", "22299 Hamburg", "Germany"]}, "phone": "+4940351747", "display_phone": "+49 40 351747", "distance": 4160.954390535292}, {"id": "9ZS11biSgUWnf10FK6nAWg", "alias": "da-elena-hamburg", "name": "Da Elena", "image_url": "https://s3-media1.fl.yelpcdn.com/bphoto/nqOhvJYdGy2G6Qa66LkT8g/o.jpg", "is_closed": false, "url": "https://www.yelp.com/biz/da-elena-hamburg?adjust_creative=hBJOknVQJ58S5goQyjmwRw&utm_campaign=yelp_api_v3&utm_medium=api_v3_business_search&utm_source=hBJOknVQJ58S5goQyjmwRw", "review_count": 5, "categories": [{"alias": "italian", "title": "Italian"}], "rating": 4.0, "coordinates": {"latitude": 53.59461, "longitude": 9.98322}, "transactions": [], "price": "\u20ac\u20ac", "location": {"address1": "Geschwister-Scholl-Str. 52 a", "address2": "", "address3": "", "city": "Hamburg", "zip_code": "20251", "country": "DE", "state": "HH", "display_address": ["Geschwister-Scholl-Str. 52 a", "20251 Hamburg", "Germany"]}, "phone": "+494018046197", "display_phone": "+49 40 18046197", "distance": 3806.452987724606}, {"id": "jtws8WRD-gHfYDihq1sjrA", "alias": "geschwister-caf\u00e9-hamburg", "name": "Geschwister Caf\u00e9", "image_url": "https://s3-media3.fl.yelpcdn.com/bphoto/GtRyL9JMZ26nMqIp-BZIog/o.jpg", "is_closed": false, "url": "https://www.yelp.com/biz/geschwister-caf%C3%A9-hamburg?adjust_creative=hBJOknVQJ58S5goQyjmwRw&utm_campaign=yelp_api_v3&utm_medium=api_v3_business_search&utm_source=hBJOknVQJ58S5goQyjmwRw", "review_count": 11, "categories": [{"alias": "cafes", "title": "Cafes"}], "rating": 4.5, "coordinates": {"latitude": 53.59423, "longitude": 9.98367}, "transactions": [], "price": "\u20ac\u20ac", "location": {"address1": "Tarpenbekstr. 51", "address2": "", "address3": null, "city": "Hamburg", "zip_code": "20251", "country": "DE", "state": "HH", "display_address": ["Tarpenbekstr. 51", "20251 Hamburg", "Germany"]}, "phone": "+494046095543", "display_phone": "+49 40 46095543", "distance": 3849.183523118223}, {"id": "InzWWAxKtzKyrCubhsvz-w", "alias": "il-cantuccio-hamburg-2", "name": "Il Cantuccio", "image_url": "https://s3-media4.fl.yelpcdn.com/bphoto/iMN6AhCt8OdM3QPzCZrmbA/o.jpg", "is_closed": false, "url": "https://www.yelp.com/biz/il-cantuccio-hamburg-2?adjust_creative=hBJOknVQJ58S5goQyjmwRw&utm_campaign=yelp_api_v3&utm_medium=api_v3_business_search&utm_source=hBJOknVQJ58S5goQyjmwRw", "review_count": 2, "categories": [{"alias": "italian", "title": "Italian"}], "rating": 4.5, "coordinates": {"latitude": 53.58713, "longitude": 9.98488}, "transactions": [], "price": "\u20ac\u20ac\u20ac\u20ac", "location": {"address1": "Eppendorfer Landstr. 36", "address2": "", "address3": null, "city": "Hamburg", "zip_code": "20249", "country": "DE", "state": "HH", "display_address": ["Eppendorfer Landstr. 36", "20249 Hamburg", "Germany"]}, "phone": "+494069691495", "display_phone": "+49 40 69691495", "distance": 4652.047325254256}, {"id": "ha-5zKEGlMgTyBsCymXiGQ", "alias": "oniro-hamburg", "name": "Oniro", "image_url": "https://s3-media4.fl.yelpcdn.com/bphoto/j5LQzG4Urz2LKHZVe-kzwQ/o.jpg", "is_closed": false, "url": "https://www.yelp.com/biz/oniro-hamburg?adjust_creative=hBJOknVQJ58S5goQyjmwRw&utm_campaign=yelp_api_v3&utm_medium=api_v3_business_search&utm_source=hBJOknVQJ58S5goQyjmwRw", "review_count": 9, "categories": [{"alias": "mediterranean", "title": "Mediterranean"}], "rating": 4.5, "coordinates": {"latitude": 53.59883, "longitude": 9.99525}, "transactions": [], "price": "\u20ac\u20ac", "location": {"address1": "Lattenkamp 29", "address2": "", "address3": "", "city": "Hamburg", "zip_code": "22299", "country": "DE", "state": "HH", "display_address": ["Lattenkamp 29", "22299 Hamburg", "Germany"]}, "phone": "+4940512660", "display_phone": "+49 40 512660", "distance": 3639.3084810733985}, {"id": "2_J7aspVLP73qAgJR5gppQ", "alias": "bar-italia-hamburg", "name": "Bar Italia", "image_url": "https://s3-media2.fl.yelpcdn.com/bphoto/RTF_gBBe5miKIIi4EU4Yeg/o.jpg", "is_closed": false, "url": "https://www.yelp.com/biz/bar-italia-hamburg?adjust_creative=hBJOknVQJ58S5goQyjmwRw&utm_campaign=yelp_api_v3&utm_medium=api_v3_business_search&utm_source=hBJOknVQJ58S5goQyjmwRw", "review_count": 18, "categories": [{"alias": "italian", "title": "Italian"}, {"alias": "venues", "title": "Venues & Event Spaces"}, {"alias": "mediterranean", "title": "Mediterranean"}], "rating": 3.5, "coordinates": {"latitude": 53.589708856102, "longitude": 9.9864195804654}, "transactions": [], "price": "\u20ac\u20ac", "location": {"address1": "Eppendorfer Landstr. 61", "address2": "", "address3": "", "city": "Hamburg", "zip_code": "20249", "country": "DE", "state": "HH", "display_address": ["Eppendorfer Landstr. 61", "20249 Hamburg", "Germany"]}, "phone": "+494042916590", "display_phone": "+49 40 42916590", "distance": 4386.10462507547}, {"id": "SA79tJbyfNW3IZ5garwgqg", "alias": "il-tramonto-mustafa-uludag-hamburg-2", "name": "Il Tramonto Mustafa Uludag", "image_url": "https://s3-media4.fl.yelpcdn.com/bphoto/hIKfoIMf4stfcHHpwYI5gQ/o.jpg", "is_closed": false, "url": "https://www.yelp.com/biz/il-tramonto-mustafa-uludag-hamburg-2?adjust_creative=hBJOknVQJ58S5goQyjmwRw&utm_campaign=yelp_api_v3&utm_medium=api_v3_business_search&utm_source=hBJOknVQJ58S5goQyjmwRw", "review_count": 37, "categories": [{"alias": "italian", "title": "Italian"}], "rating": 4.0, "coordinates": {"latitude": 53.6005175, "longitude": 9.9565587}, "transactions": [], "price": "\u20ac\u20ac\u20ac", "location": {"address1": "Grelckstr. 13", "address2": null, "address3": null, "city": "Hamburg", "zip_code": "22529", "country": "DE", "state": "HH", "display_address": ["Grelckstr. 13", "22529 Hamburg", "Germany"]}, "phone": "+494054007509", "display_phone": "+49 40 54007509", "distance": 3173.241939088531}, {"id": "iCMzNrvQrwbejyoXFU5vUg", "alias": "welcome-india-hamburg-3", "name": "Welcome India", "image_url": "https://s3-media1.fl.yelpcdn.com/bphoto/u1z_6BYtvpuWRO9bte4IAA/o.jpg", "is_closed": false, "url": "https://www.yelp.com/biz/welcome-india-hamburg-3?adjust_creative=hBJOknVQJ58S5goQyjmwRw&utm_campaign=yelp_api_v3&utm_medium=api_v3_business_search&utm_source=hBJOknVQJ58S5goQyjmwRw", "review_count": 10, "categories": [{"alias": "indpak", "title": "Indian"}], "rating": 3.5, "coordinates": {"latitude": 53.6118852411481, "longitude": 9.95571292137109}, "transactions": [], "price": "\u20ac\u20ac", "location": {"address1": "Kollaustr. 144", "address2": null, "address3": "", "city": "Hamburg", "zip_code": "22453", "country": "DE", "state": "HH", "display_address": ["Kollaustr. 144", "22453 Hamburg", "Germany"]}, "phone": "+494046646789", "display_phone": "+49 40 46646789", "distance": 2015.9447011351062}, {"id": "p1QFpP-X5Bo8kqGtzH-1Yw", "alias": "gandhi-hamburg", "name": "Gandhi", "image_url": "https://s3-media4.fl.yelpcdn.com/bphoto/hTV-K2cG1j4qpPNNdbcOag/o.jpg", "is_closed": false, "url": "https://www.yelp.com/biz/gandhi-hamburg?adjust_creative=hBJOknVQJ58S5goQyjmwRw&utm_campaign=yelp_api_v3&utm_medium=api_v3_business_search&utm_source=hBJOknVQJ58S5goQyjmwRw", "review_count": 69, "categories": [{"alias": "indpak", "title": "Indian"}], "rating": 4.0, "coordinates": {"latitude": 53.5852517, "longitude": 9.9822937}, "transactions": [], "price": "\u20ac\u20ac", "location": {"address1": "Eppendorfer Landstr. 6", "address2": null, "address3": null, "city": "Hamburg", "zip_code": "20249", "country": "DE", "state": "HH", "display_address": ["Eppendorfer Landstr. 6", "20249 Hamburg", "Germany"]}, "phone": "+494046007886", "display_phone": "+49 40 46007886", "distance": 4814.4314925927065}, {"id": "DG0K3nFGgFfudCax2MCvkw", "alias": "shukria-restaurant-hamburg", "name": "Shukria Restaurant", "image_url": "https://s3-media4.fl.yelpcdn.com/bphoto/nDBgXkrqOXSHrcQPhK5Enw/o.jpg", "is_closed": false, "url": "https://www.yelp.com/biz/shukria-restaurant-hamburg?adjust_creative=hBJOknVQJ58S5goQyjmwRw&utm_campaign=yelp_api_v3&utm_medium=api_v3_business_search&utm_source=hBJOknVQJ58S5goQyjmwRw", "review_count": 48, "categories": [{"alias": "indpak", "title": "Indian"}], "rating": 3.5, "coordinates": {"latitude": 53.5932706, "longitude": 9.9895094}, "transactions": [], "price": "\u20ac\u20ac", "location": {"address1": "Eppendorfer Marktplatz 8", "address2": null, "address3": null, "city": "Hamburg", "zip_code": "20251", "country": "DE", "state": "HH", "display_address": ["Eppendorfer Marktplatz 8", "20251 Hamburg", "Germany"]}, "phone": "+49404801147", "display_phone": "+49 40 4801147", "distance": 4063.6048025779105}, {"id": "WetyIlnM0O9pRYHBw9_OwA", "alias": "long-asia-hamburg", "name": "Long Asia", "image_url": "https://s3-media4.fl.yelpcdn.com/bphoto/B7M1msF2F4V7cGasOayDMQ/o.jpg", "is_closed": false, "url": "https://www.yelp.com/biz/long-asia-hamburg?adjust_creative=hBJOknVQJ58S5goQyjmwRw&utm_campaign=yelp_api_v3&utm_medium=api_v3_business_search&utm_source=hBJOknVQJ58S5goQyjmwRw", "review_count": 3, "categories": [{"alias": "panasian", "title": "Pan Asian"}], "rating": 5.0, "coordinates": {"latitude": 53.598085, "longitude": 9.974319}, "transactions": [], "price": "\u20ac", "location": {"address1": "M\u00fcnsterstr. 40", "address2": "", "address3": "", "city": "Hamburg", "zip_code": "22529", "country": "DE", "state": "HH", "display_address": ["M\u00fcnsterstr. 40", "22529 Hamburg", "Germany"]}, "phone": "", "display_phone": "", "distance": 3330.1158378764235}, {"id": "_4zidViOu2PIFQbo8oT_MA", "alias": "bottega-palermo-2-hamburg", "name": "Bottega Palermo 2", "image_url": "https://s3-media4.fl.yelpcdn.com/bphoto/LgWFSdiq0X4u2ZLCVP36jg/o.jpg", "is_closed": false, "url": "https://www.yelp.com/biz/bottega-palermo-2-hamburg?adjust_creative=hBJOknVQJ58S5goQyjmwRw&utm_campaign=yelp_api_v3&utm_medium=api_v3_business_search&utm_source=hBJOknVQJ58S5goQyjmwRw", "review_count": 2, "categories": [{"alias": "bistros", "title": "Bistros"}, {"alias": "italian", "title": "Italian"}], "rating": 3.0, "coordinates": {"latitude": 53.5898097407653, "longitude": 9.9884957447648}, "transactions": [], "location": {"address1": "Goernestr. 15", "address2": "", "address3": "", "city": "Hamburg", "zip_code": "20249", "country": "DE", "state": "HH", "display_address": ["Goernestr. 15", "20249 Hamburg", "Germany"]}, "phone": "+494021903546", "display_phone": "+49 40 21903546", "distance": 4411.229686956376}, {"id": "jFvtF_WCsb2IAlkOYzL0Bg", "alias": "landhaus-kaminski-norderstedt", "name": "Landhaus Kaminski", "image_url": "", "is_closed": false, "url": "https://www.yelp.com/biz/landhaus-kaminski-norderstedt?adjust_creative=hBJOknVQJ58S5goQyjmwRw&utm_campaign=yelp_api_v3&utm_medium=api_v3_business_search&utm_source=hBJOknVQJ58S5goQyjmwRw", "review_count": 4, "categories": [{"alias": "german", "title": "German"}], "rating": 5.0, "coordinates": {"latitude": 53.6583450958209, "longitude": 9.95852675288916}, "transactions": [], "location": {"address1": "Ohechaussee 442", "address2": "", "address3": null, "city": "Norderstedt", "zip_code": "22848", "country": "DE", "state": "SH", "display_address": ["Ohechaussee 442", "22848 Norderstedt", "Germany"]}, "phone": "+494018881703", "display_phone": "+49 40 18881703", "distance": 3465.375795350512}, {"id": "l3AIfDd2egtIEhIw2EZA4g", "alias": "mio-hamburg-3", "name": "Mio", "image_url": "", "is_closed": false, "url": "https://www.yelp.com/biz/mio-hamburg-3?adjust_creative=hBJOknVQJ58S5goQyjmwRw&utm_campaign=yelp_api_v3&utm_medium=api_v3_business_search&utm_source=hBJOknVQJ58S5goQyjmwRw", "review_count": 1, "categories": [{"alias": "icecream", "title": "Ice Cream & Frozen Yogurt"}, {"alias": "italian", "title": "Italian"}, {"alias": "breakfast_brunch", "title": "Breakfast & Brunch"}], "rating": 4.0, "coordinates": {"latitude": 53.6203291, "longitude": 9.9520887}, "transactions": [], "location": {"address1": "Tibarg 34", "address2": "", "address3": null, "city": "Hamburg", "zip_code": "22459", "country": "DE", "state": "HH", "display_address": ["Tibarg 34", "22459 Hamburg", "Germany"]}, "phone": "", "display_phone": "", "distance": 1449.9115465047028}, {"id": "h-eNEal78U93PwHQDwOo9w", "alias": "shukria-quick-hamburg", "name": "Shukria Quick", "image_url": "https://s3-media3.fl.yelpcdn.com/bphoto/8beYh9CAGcErBiFzmUMAqg/o.jpg", "is_closed": false, "url": "https://www.yelp.com/biz/shukria-quick-hamburg?adjust_creative=hBJOknVQJ58S5goQyjmwRw&utm_campaign=yelp_api_v3&utm_medium=api_v3_business_search&utm_source=hBJOknVQJ58S5goQyjmwRw", "review_count": 25, "categories": [{"alias": "indpak", "title": "Indian"}, {"alias": "bistros", "title": "Bistros"}], "rating": 3.5, "coordinates": {"latitude": 53.5932829, "longitude": 9.98947}, "transactions": [], "price": "\u20ac\u20ac", "location": {"address1": "Heinickestr. 1", "address2": "", "address3": "", "city": "Hamburg", "zip_code": "20249", "country": "DE", "state": "HH", "display_address": ["Heinickestr. 1", "20249 Hamburg", "Germany"]}, "phone": "+49404801147", "display_phone": "+49 40 4801147", "distance": 4061.483304985315}, {"id": "1G0zjIuvyGPr7M30bMzcwQ", "alias": "le-wurst-hamburg", "name": "Le Wurst", "image_url": "https://s3-media1.fl.yelpcdn.com/bphoto/MfDh2pKhm0UOhHj60WmmYw/o.jpg", "is_closed": false, "url": "https://www.yelp.com/biz/le-wurst-hamburg?adjust_creative=hBJOknVQJ58S5goQyjmwRw&utm_campaign=yelp_api_v3&utm_medium=api_v3_business_search&utm_source=hBJOknVQJ58S5goQyjmwRw", "review_count": 6, "categories": [{"alias": "currysausage", "title": "Curry Sausage"}], "rating": 5.0, "coordinates": {"latitude": 53.587294, "longitude": 9.98406}, "transactions": [], "location": {"address1": "Eppendorfer Landstr. 23 - 25", "address2": "", "address3": null, "city": "Hamburg", "zip_code": "20249", "country": "DE", "state": "HH", "display_address": ["Eppendorfer Landstr. 23 - 25", "20249 Hamburg", "Germany"]}, "phone": "+491788602211", "display_phone": "+49 178 8602211", "distance": 4608.793206778544}, {"id": "g0yGCPPFTqy-1ezJUKSKqg", "alias": "mr-wok-hamburg-2", "name": "Mr. Wok", "image_url": "https://s3-media3.fl.yelpcdn.com/bphoto/tZcVChg_KIRvGfuSjqMjNA/o.jpg", "is_closed": false, "url": "https://www.yelp.com/biz/mr-wok-hamburg-2?adjust_creative=hBJOknVQJ58S5goQyjmwRw&utm_campaign=yelp_api_v3&utm_medium=api_v3_business_search&utm_source=hBJOknVQJ58S5goQyjmwRw", "review_count": 3, "categories": [{"alias": "chinese", "title": "Chinese"}], "rating": 4.5, "coordinates": {"latitude": 53.5995599, "longitude": 9.96552}, "transactions": [], "location": {"address1": "Osterfeldstr. 88", "address2": "", "address3": null, "city": "Hamburg", "zip_code": "22529", "country": "DE", "state": "HH", "display_address": ["Osterfeldstr. 88", "22529 Hamburg", "Germany"]}, "phone": "+494028470852", "display_phone": "+49 40 28470852", "distance": 3163.569799403178}, {"id": "TP-8Q2Gpwaxv3Twa_Ke0EA", "alias": "mai-mai-hamburg-3", "name": "Mai Mai", "image_url": "https://s3-media2.fl.yelpcdn.com/bphoto/3-EQexMOeavPWD7I7O292w/o.jpg", "is_closed": false, "url": "https://www.yelp.com/biz/mai-mai-hamburg-3?adjust_creative=hBJOknVQJ58S5goQyjmwRw&utm_campaign=yelp_api_v3&utm_medium=api_v3_business_search&utm_source=hBJOknVQJ58S5goQyjmwRw", "review_count": 5, "categories": [{"alias": "panasian", "title": "Pan Asian"}], "rating": 2.0, "coordinates": {"latitude": 53.62216, "longitude": 9.9523}, "transactions": [], "price": "\u20ac\u20ac", "location": {"address1": "Tibarg 41", "address2": "", "address3": "", "city": "Hamburg", "zip_code": "22459", "country": "DE", "state": "HH", "display_address": ["Tibarg 41", "22459 Hamburg", "Germany"]}, "phone": "", "display_phone": "", "distance": 1309.163920911421}, {"id": "3Prf03yFidtVfaJQobvmLw", "alias": "hermitage-caf\u00e9-und-bar-hamburg-2", "name": "Hermitage Caf\u00e9 & Bar", "image_url": "https://s3-media4.fl.yelpcdn.com/bphoto/0MDoqD0m7nMIHpcSrBD5Cg/o.jpg", "is_closed": false, "url": "https://www.yelp.com/biz/hermitage-caf%C3%A9-und-bar-hamburg-2?adjust_creative=hBJOknVQJ58S5goQyjmwRw&utm_campaign=yelp_api_v3&utm_medium=api_v3_business_search&utm_source=hBJOknVQJ58S5goQyjmwRw", "review_count": 2, "categories": [{"alias": "cafes", "title": "Cafes"}, {"alias": "sportsbars", "title": "Sports Bars"}], "rating": 4.5, "coordinates": {"latitude": 53.592676, "longitude": 9.987871}, "transactions": [], "location": {"address1": "Martinistr. 6", "address2": null, "address3": "", "city": "Hamburg", "zip_code": "20251", "country": "DE", "state": "HH", "display_address": ["Martinistr. 6", "20251 Hamburg", "Germany"]}, "phone": "+494084309290", "display_phone": "+49 40 84309290", "distance": 4093.8621478154355}, {"id": "uglmJaEj_IasCPrCXL3Bgw", "alias": "el-jamon-hamburg", "name": "El Jamon", "image_url": "https://s3-media2.fl.yelpcdn.com/bphoto/14ZVSCX9ir0ldz9ajxOPgg/o.jpg", "is_closed": false, "url": "https://www.yelp.com/biz/el-jamon-hamburg?adjust_creative=hBJOknVQJ58S5goQyjmwRw&utm_campaign=yelp_api_v3&utm_medium=api_v3_business_search&utm_source=hBJOknVQJ58S5goQyjmwRw", "review_count": 1, "categories": [{"alias": "tapas", "title": "Tapas Bars"}], "rating": 3.0, "coordinates": {"latitude": 53.586872, "longitude": 9.984752}, "transactions": [], "location": {"address1": "Eppendorfer Landstr. 32", "address2": "", "address3": null, "city": "Hamburg", "zip_code": "20249", "country": "DE", "state": "HH", "display_address": ["Eppendorfer Landstr. 32", "20249 Hamburg", "Germany"]}, "phone": "+494055642288", "display_phone": "+49 40 55642288", "distance": 4675.126388628354}, {"id": "1y1zWHbkXe2h8qA4yWeMXQ", "alias": "deseo-hamburg-9", "name": "Deseo", "image_url": "https://s3-media4.fl.yelpcdn.com/bphoto/1dWH1zCKXi_r5iThitPZpw/o.jpg", "is_closed": false, "url": "https://www.yelp.com/biz/deseo-hamburg-9?adjust_creative=hBJOknVQJ58S5goQyjmwRw&utm_campaign=yelp_api_v3&utm_medium=api_v3_business_search&utm_source=hBJOknVQJ58S5goQyjmwRw", "review_count": 7, "categories": [{"alias": "tapas", "title": "Tapas Bars"}, {"alias": "international", "title": "International"}, {"alias": "spanish", "title": "Spanish"}], "rating": 3.5, "coordinates": {"latitude": 53.5853767, "longitude": 9.9825574}, "transactions": [], "price": "\u20ac\u20ac\u20ac", "location": {"address1": "Eppendorfer Landstr. 10", "address2": "", "address3": null, "city": "Hamburg", "zip_code": "20249", "country": "DE", "state": "HH", "display_address": ["Eppendorfer Landstr. 10", "20249 Hamburg", "Germany"]}, "phone": "+494049201670", "display_phone": "+49 40 49201670", "distance": 4803.712482701597}, {"id": "_ihH8K40gBF6zbzs9BShqA", "alias": "taverna-symposion-hamburg", "name": "Taverna Symposion", "image_url": "https://s3-media2.fl.yelpcdn.com/bphoto/cj536W_-bOGUk0R6wA475Q/o.jpg", "is_closed": false, "url": "https://www.yelp.com/biz/taverna-symposion-hamburg?adjust_creative=hBJOknVQJ58S5goQyjmwRw&utm_campaign=yelp_api_v3&utm_medium=api_v3_business_search&utm_source=hBJOknVQJ58S5goQyjmwRw", "review_count": 29, "categories": [{"alias": "greek", "title": "Greek"}, {"alias": "mediterranean", "title": "Mediterranean"}], "rating": 4.0, "coordinates": {"latitude": 53.59431, "longitude": 9.98741}, "transactions": [], "price": "\u20ac\u20ac", "location": {"address1": "Erikastr. 74", "address2": "", "address3": "", "city": "Hamburg", "zip_code": "20251", "country": "DE", "state": "HH", "display_address": ["Erikastr. 74", "20251 Hamburg", "Germany"]}, "phone": "+4940477241", "display_phone": "+49 40 477241", "distance": 3911.8161705290677}, {"id": "IUPHudgUpSt8BHv46i0-uQ", "alias": "cornelia-poletto-hamburg", "name": "Cornelia Poletto", "image_url": "https://s3-media1.fl.yelpcdn.com/bphoto/26IHvlHv8SVx3dB7jIBWhQ/o.jpg", "is_closed": false, "url": "https://www.yelp.com/biz/cornelia-poletto-hamburg?adjust_creative=hBJOknVQJ58S5goQyjmwRw&utm_campaign=yelp_api_v3&utm_medium=api_v3_business_search&utm_source=hBJOknVQJ58S5goQyjmwRw", "review_count": 27, "categories": [{"alias": "italian", "title": "Italian"}], "rating": 3.5, "coordinates": {"latitude": 53.590297, "longitude": 9.987549}, "transactions": [], "price": "\u20ac\u20ac\u20ac\u20ac", "location": {"address1": "Eppendorfer Landstr. 80", "address2": "", "address3": "", "city": "Hamburg", "zip_code": "20249", "country": "DE", "state": "HH", "display_address": ["Eppendorfer Landstr. 80", "20249 Hamburg", "Germany"]}, "phone": "+49404802159", "display_phone": "+49 40 4802159", "distance": 4342.088340974028}, {"id": "q1qIhi3FKmlU_uts5ZeeSQ", "alias": "die-pizzeria-hamburg", "name": "Die Pizzeria", "image_url": "https://s3-media1.fl.yelpcdn.com/bphoto/K5-kAvo_xgkxv14YErwq3g/o.jpg", "is_closed": false, "url": "https://www.yelp.com/biz/die-pizzeria-hamburg?adjust_creative=hBJOknVQJ58S5goQyjmwRw&utm_campaign=yelp_api_v3&utm_medium=api_v3_business_search&utm_source=hBJOknVQJ58S5goQyjmwRw", "review_count": 66, "categories": [{"alias": "italian", "title": "Italian"}, {"alias": "pizza", "title": "Pizza"}], "rating": 3.5, "coordinates": {"latitude": 53.59625, "longitude": 9.98775}, "transactions": [], "price": "\u20ac\u20ac", "location": {"address1": "Eppendorfer Landstr. 165", "address2": "", "address3": "", "city": "Hamburg", "zip_code": "20251", "country": "DE", "state": "HH", "display_address": ["Eppendorfer Landstr. 165", "20251 Hamburg", "Germany"]}, "phone": "+494046776566", "display_phone": "+49 40 46776566", "distance": 3710.349142498086}, {"id": "Otb6Q94h2N8Oxnio9ZnEKQ", "alias": "hanoi-deli-hamburg-2", "name": "Hanoi deli", "image_url": "https://s3-media2.fl.yelpcdn.com/bphoto/ezg9KGG-Bvbd37zKO4lWow/o.jpg", "is_closed": false, "url": "https://www.yelp.com/biz/hanoi-deli-hamburg-2?adjust_creative=hBJOknVQJ58S5goQyjmwRw&utm_campaign=yelp_api_v3&utm_medium=api_v3_business_search&utm_source=hBJOknVQJ58S5goQyjmwRw", "review_count": 18, "categories": [{"alias": "vietnamese", "title": "Vietnamese"}], "rating": 3.0, "coordinates": {"latitude": 53.584902, "longitude": 9.981487}, "transactions": [], "price": "\u20ac\u20ac", "location": {"address1": "Eppendorfer Baum 47", "address2": "", "address3": "", "city": "Hamburg", "zip_code": "20249", "country": "DE", "state": "HH", "display_address": ["Eppendorfer Baum 47", "20249 Hamburg", "Germany"]}, "phone": "", "display_phone": "", "distance": 4841.549450401971}, {"id": "-rEgwMosGsxFEgwwIEYSyg", "alias": "croque-point-niendorf-nord-hamburg", "name": "Croque Point Niendorf Nord", "image_url": "", "is_closed": false, "url": "https://www.yelp.com/biz/croque-point-niendorf-nord-hamburg?adjust_creative=hBJOknVQJ58S5goQyjmwRw&utm_campaign=yelp_api_v3&utm_medium=api_v3_business_search&utm_source=hBJOknVQJ58S5goQyjmwRw", "review_count": 9, "categories": [{"alias": "sandwiches", "title": "Sandwiches"}], "rating": 4.5, "coordinates": {"latitude": 53.64031, "longitude": 9.94794}, "transactions": [], "price": "\u20ac\u20ac", "location": {"address1": "Nordalbingerweg 17 b", "address2": null, "address3": null, "city": "Hamburg", "zip_code": "22455", "country": "DE", "state": "HH", "display_address": ["Nordalbingerweg 17 b", "22455 Hamburg", "Germany"]}, "phone": "+494057128880", "display_phone": "+49 40 57128880", "distance": 2000.911712930303}, {"id": "PQ9kUgrtYXGjvm4kc28Z0w", "alias": "melodia-hamburg-2", "name": "Melodia", "image_url": "https://s3-media3.fl.yelpcdn.com/bphoto/Ef1jzn8UL3QKa9GMWP5g2g/o.jpg", "is_closed": false, "url": "https://www.yelp.com/biz/melodia-hamburg-2?adjust_creative=hBJOknVQJ58S5goQyjmwRw&utm_campaign=yelp_api_v3&utm_medium=api_v3_business_search&utm_source=hBJOknVQJ58S5goQyjmwRw", "review_count": 2, "categories": [{"alias": "greek", "title": "Greek"}], "rating": 2.5, "coordinates": {"latitude": 53.6053262629276, "longitude": 9.98279549293252}, "transactions": [], "price": "\u20ac", "location": {"address1": "Borsteler Chaussee 47", "address2": "", "address3": null, "city": "Hamburg", "zip_code": "22453", "country": "DE", "state": "HH", "display_address": ["Borsteler Chaussee 47", "22453 Hamburg", "Germany"]}, "phone": "+494050016166", "display_phone": "+49 40 50016166", "distance": 2651.782547634195}, {"id": "ze8c6sJEWZwSlunr3uviHw", "alias": "st\u00fcffel-hamburg-3", "name": "St\u00fcffel", "image_url": "https://s3-media2.fl.yelpcdn.com/bphoto/ZmdOEiMBQPyQvvhmEilneQ/o.jpg", "is_closed": false, "url": "https://www.yelp.com/biz/st%C3%BCffel-hamburg-3?adjust_creative=hBJOknVQJ58S5goQyjmwRw&utm_campaign=yelp_api_v3&utm_medium=api_v3_business_search&utm_source=hBJOknVQJ58S5goQyjmwRw", "review_count": 4, "categories": [{"alias": "german", "title": "German"}, {"alias": "austrian", "title": "Austrian"}], "rating": 4.0, "coordinates": {"latitude": 53.58534, "longitude": 9.988829}, "transactions": [], "location": {"address1": "Isekai 1", "address2": "", "address3": null, "city": "Hamburg", "zip_code": "20249", "country": "DE", "state": "HH", "display_address": ["Isekai 1", "20249 Hamburg", "Germany"]}, "phone": "+494060902050", "display_phone": "+49 40 60902050", "distance": 4905.591332429519}, {"id": "0NpMMnais3qIa_V-tt1Zqg", "alias": "elion-hamburg", "name": "Elion", "image_url": "https://s3-media1.fl.yelpcdn.com/bphoto/Ohxv_iQCCMaqGGiU2rRpDw/o.jpg", "is_closed": false, "url": "https://www.yelp.com/biz/elion-hamburg?adjust_creative=hBJOknVQJ58S5goQyjmwRw&utm_campaign=yelp_api_v3&utm_medium=api_v3_business_search&utm_source=hBJOknVQJ58S5goQyjmwRw", "review_count": 2, "categories": [{"alias": "greek", "title": "Greek"}], "rating": 5.0, "coordinates": {"latitude": 53.5897, "longitude": 9.98895}, "transactions": [], "price": "\u20ac\u20ac", "location": {"address1": "Goernestr. 19", "address2": "", "address3": null, "city": "Hamburg", "zip_code": "20249", "country": "DE", "state": "HH", "display_address": ["Goernestr. 19", "20249 Hamburg", "Germany"]}, "phone": "", "display_phone": "", "distance": 4432.520276080557}, {"id": "19uXg_TsMdYHg19MZptw-g", "alias": "lingtons-restaurant-hamburg", "name": "Lingtons Restaurant", "image_url": "https://s3-media2.fl.yelpcdn.com/bphoto/sVLbYqoDxV7R8JNwWsKSFA/o.jpg", "is_closed": false, "url": "https://www.yelp.com/biz/lingtons-restaurant-hamburg?adjust_creative=hBJOknVQJ58S5goQyjmwRw&utm_campaign=yelp_api_v3&utm_medium=api_v3_business_search&utm_source=hBJOknVQJ58S5goQyjmwRw", "review_count": 1, "categories": [{"alias": "restaurants", "title": "Restaurants"}], "rating": 1.0, "coordinates": {"latitude": 53.6434, "longitude": 9.96049}, "transactions": [], "price": "\u20ac\u20ac", "location": {"address1": "Sachsenweg 85", "address2": null, "address3": null, "city": "Hamburg", "zip_code": "22455", "country": "DE", "state": "HH", "display_address": ["Sachsenweg 85", "22455 Hamburg", "Germany"]}, "phone": "+49405518220", "display_phone": "+49 40 5518220", "distance": 1830.3711970754841}, {"id": "q9oQno3vzxE9yDVsYp6m5w", "alias": "mai-mai-hamburg-2", "name": "Mai-Mai", "image_url": "https://s3-media2.fl.yelpcdn.com/bphoto/MUIxdwnbNOYMJQo9k7Wz8A/o.jpg", "is_closed": false, "url": "https://www.yelp.com/biz/mai-mai-hamburg-2?adjust_creative=hBJOknVQJ58S5goQyjmwRw&utm_campaign=yelp_api_v3&utm_medium=api_v3_business_search&utm_source=hBJOknVQJ58S5goQyjmwRw", "review_count": 8, "categories": [{"alias": "panasian", "title": "Pan Asian"}], "rating": 3.5, "coordinates": {"latitude": 53.601565, "longitude": 9.97521}, "transactions": [], "price": "\u20ac", "location": {"address1": "Nedderfeld 70", "address2": "", "address3": "Erdgeschoss", "city": "Hamburg", "zip_code": "22529", "country": "DE", "state": "HH", "display_address": ["Nedderfeld 70", "Erdgeschoss", "22529 Hamburg", "Germany"]}, "phone": "", "display_phone": "", "distance": 2951.592217909456}, {"id": "ROjjU9R4yuQFO-Nmu4x9tA", "alias": "kochhaus-hamburg-7", "name": "Kochhaus", "image_url": "https://s3-media2.fl.yelpcdn.com/bphoto/-M-CMJag7hLeNyJ3V-s4HQ/o.jpg", "is_closed": false, "url": "https://www.yelp.com/biz/kochhaus-hamburg-7?adjust_creative=hBJOknVQJ58S5goQyjmwRw&utm_campaign=yelp_api_v3&utm_medium=api_v3_business_search&utm_source=hBJOknVQJ58S5goQyjmwRw", "review_count": 7, "categories": [{"alias": "delicatessen", "title": "Delicatessen"}, {"alias": "cafes", "title": "Cafes"}], "rating": 4.5, "coordinates": {"latitude": 53.59072, "longitude": 9.98773}, "transactions": [], "price": "\u20ac\u20ac", "location": {"address1": "Eppendorfer Landstr. 86", "address2": "", "address3": "", "city": "Hamburg", "zip_code": "20249", "country": "DE", "state": "HH", "display_address": ["Eppendorfer Landstr. 86", "20249 Hamburg", "Germany"]}, "phone": "+4930577089100", "display_phone": "+49 30 577089100", "distance": 4300.021154805777}, {"id": "9CZvK4co5_so_9xr5rXHcQ", "alias": "smileys-hamburg-18", "name": "Smiley's", "image_url": "https://s3-media3.fl.yelpcdn.com/bphoto/T9oi5VJODeof-L62efwJRw/o.jpg", "is_closed": false, "url": "https://www.yelp.com/biz/smileys-hamburg-18?adjust_creative=hBJOknVQJ58S5goQyjmwRw&utm_campaign=yelp_api_v3&utm_medium=api_v3_business_search&utm_source=hBJOknVQJ58S5goQyjmwRw", "review_count": 13, "categories": [{"alias": "pizza", "title": "Pizza"}], "rating": 4.0, "coordinates": {"latitude": 53.6336, "longitude": 9.95305}, "transactions": [], "price": "\u20ac\u20ac", "location": {"address1": "Paul-Sorge-Str. 140", "address2": null, "address3": null, "city": "Hamburg", "zip_code": "22455", "country": "DE", "state": "HH", "display_address": ["Paul-Sorge-Str. 140", "22455 Hamburg", "Germany"]}, "phone": "+494055540050", "display_phone": "+49 40 55540050", "distance": 1281.0096165372202}, {"id": "lWoNBmT3DHDA8c47d25Q_g", "alias": "cafe-leinpfad-hamburg", "name": "Cafe Leinpfad", "image_url": "https://s3-media4.fl.yelpcdn.com/bphoto/EyoEsIILZgtAj-B6589x8g/o.jpg", "is_closed": false, "url": "https://www.yelp.com/biz/cafe-leinpfad-hamburg?adjust_creative=hBJOknVQJ58S5goQyjmwRw&utm_campaign=yelp_api_v3&utm_medium=api_v3_business_search&utm_source=hBJOknVQJ58S5goQyjmwRw", "review_count": 60, "categories": [{"alias": "cafes", "title": "Cafes"}], "rating": 3.0, "coordinates": {"latitude": 53.5930878482935, "longitude": 9.99417940831216}, "transactions": [], "price": "\u20ac\u20ac", "location": {"address1": "Leinpfad/Hudtwalckerstra\u00dfe", "address2": "", "address3": null, "city": "Hamburg", "zip_code": "22299", "country": "DE", "state": "HH", "display_address": ["Leinpfad/Hudtwalckerstra\u00dfe", "22299 Hamburg", "Germany"]}, "phone": "+4940464856", "display_phone": "+49 40 464856", "distance": 4190.408974727981}, {"id": "wj-N07PFGwQ607YmZtNxGw", "alias": "thai-quick-hamburg-2", "name": "Thai Quick", "image_url": "https://s3-media3.fl.yelpcdn.com/bphoto/iFjE4N7rLc9w8DA-K1QgWw/o.jpg", "is_closed": false, "url": "https://www.yelp.com/biz/thai-quick-hamburg-2?adjust_creative=hBJOknVQJ58S5goQyjmwRw&utm_campaign=yelp_api_v3&utm_medium=api_v3_business_search&utm_source=hBJOknVQJ58S5goQyjmwRw", "review_count": 13, "categories": [{"alias": "hotdogs", "title": "Fast Food"}, {"alias": "panasian", "title": "Pan Asian"}], "rating": 2.5, "coordinates": {"latitude": 53.5932503965521, "longitude": 9.9448683144501}, "transactions": [], "price": "\u20ac\u20ac", "location": {"address1": "Koppelstr. 49 a", "address2": "", "address3": null, "city": "Hamburg", "zip_code": "22529", "country": "DE", "state": "HH", "display_address": ["Koppelstr. 49 a", "22529 Hamburg", "Germany"]}, "phone": "+4940566611", "display_phone": "+49 40 566611", "distance": 4195.961966276795}, {"id": "VEQsRMk4MNEKQ7WlF0cZ8g", "alias": "delikate-hamburg", "name": "DeliKate", "image_url": "https://s3-media2.fl.yelpcdn.com/bphoto/CrSs2q7HU79SAN8_EXoEqg/o.jpg", "is_closed": false, "url": "https://www.yelp.com/biz/delikate-hamburg?adjust_creative=hBJOknVQJ58S5goQyjmwRw&utm_campaign=yelp_api_v3&utm_medium=api_v3_business_search&utm_source=hBJOknVQJ58S5goQyjmwRw", "review_count": 5, "categories": [{"alias": "cafes", "title": "Cafes"}], "rating": 4.5, "coordinates": {"latitude": 53.59643634327, "longitude": 9.98727305363323}, "transactions": [], "price": "\u20ac\u20ac", "location": {"address1": "Schubackstr. 4", "address2": "", "address3": "", "city": "Hamburg", "zip_code": "20251", "country": "DE", "state": "HH", "display_address": ["Schubackstr. 4", "20251 Hamburg", "Germany"]}, "phone": "+494046647422", "display_phone": "+49 40 46647422", "distance": 3683.06160011346}, {"id": "Ggswp3bltokJBFNrZOyjfA", "alias": "health-kitchen-hamburg", "name": "Health Kitchen", "image_url": "https://s3-media4.fl.yelpcdn.com/bphoto/v28Vry782RapI896XTTF5g/o.jpg", "is_closed": false, "url": "https://www.yelp.com/biz/health-kitchen-hamburg?adjust_creative=hBJOknVQJ58S5goQyjmwRw&utm_campaign=yelp_api_v3&utm_medium=api_v3_business_search&utm_source=hBJOknVQJ58S5goQyjmwRw", "review_count": 1, "categories": [{"alias": "canteen", "title": "Canteen"}], "rating": 4.0, "coordinates": {"latitude": 53.5936978688899, "longitude": 9.97366750528874}, "transactions": [], "price": "\u20ac", "location": {"address1": "Martinistr. 52", "address2": "Campus Lehre, N 55", "address3": "", "city": "Hamburg", "zip_code": "20246", "country": "DE", "state": "HH", "display_address": ["Martinistr. 52", "Campus Lehre, N 55", "20246 Hamburg", "Germany"]}, "phone": "", "display_phone": "", "distance": 3813.833631224462}, {"id": "LNCFSTjypSK8jIoqtt8cyQ", "alias": "restaurant-marlin-im-valvo-park-hamburg", "name": "Restaurant Marlin im Valvo Park", "image_url": "https://s3-media3.fl.yelpcdn.com/bphoto/YJsDdmQwwqRgVKvG3VBFtQ/o.jpg", "is_closed": false, "url": "https://www.yelp.com/biz/restaurant-marlin-im-valvo-park-hamburg?adjust_creative=hBJOknVQJ58S5goQyjmwRw&utm_campaign=yelp_api_v3&utm_medium=api_v3_business_search&utm_source=hBJOknVQJ58S5goQyjmwRw", "review_count": 93, "categories": [{"alias": "seafood", "title": "Seafood"}], "rating": 3.5, "coordinates": {"latitude": 53.66531, "longitude": 9.99474}, "transactions": [], "price": "\u20ac\u20ac\u20ac", "location": {"address1": "Tarpen 40", "address2": "Geb\u00e4ude 11", "address3": "", "city": "Hamburg", "zip_code": "22419", "country": "DE", "state": "HH", "display_address": ["Tarpen 40", "Geb\u00e4ude 11", "22419 Hamburg", "Germany"]}, "phone": "+494030850040", "display_phone": "+49 40 30850040", "distance": 4473.465861943311}, {"id": "6P64TboUCvYM3Td9Yczouw", "alias": "schnellimbi\u00df-hamburg", "name": "Schnellimbi\u00df", "image_url": "https://s3-media3.fl.yelpcdn.com/bphoto/tLVym6QJSh6g-J4MIe3xew/o.jpg", "is_closed": false, "url": "https://www.yelp.com/biz/schnellimbi%C3%9F-hamburg?adjust_creative=hBJOknVQJ58S5goQyjmwRw&utm_campaign=yelp_api_v3&utm_medium=api_v3_business_search&utm_source=hBJOknVQJ58S5goQyjmwRw", "review_count": 3, "categories": [{"alias": "hotdogs", "title": "Fast Food"}], "rating": 2.5, "coordinates": {"latitude": 53.64043, "longitude": 9.94832}, "transactions": [], "price": "\u20ac\u20ac", "location": {"address1": "Nordalbingerweg 19", "address2": null, "address3": null, "city": "Hamburg", "zip_code": "22455", "country": "DE", "state": "HH", "display_address": ["Nordalbingerweg 19", "22455 Hamburg", "Germany"]}, "phone": "+494057144523", "display_phone": "+49 40 57144523", "distance": 1992.0983141328447}, {"id": "jLqPPf_yPgfzauW4uWjmMg", "alias": "cimstern-hamburg", "name": "cimstern", "image_url": "", "is_closed": false, "url": "https://www.yelp.com/biz/cimstern-hamburg?adjust_creative=hBJOknVQJ58S5goQyjmwRw&utm_campaign=yelp_api_v3&utm_medium=api_v3_business_search&utm_source=hBJOknVQJ58S5goQyjmwRw", "review_count": 2, "categories": [{"alias": "bistros", "title": "Bistros"}], "rating": 5.0, "coordinates": {"latitude": 53.5859652, "longitude": 9.9717801}, "transactions": [], "price": "\u20ac", "location": {"address1": "CiM - Centrum f\u00fcr innovative Medizin", "address2": "Falkenried 88", "address3": null, "city": "Hamburg", "zip_code": "20251", "country": "DE", "state": "HH", "display_address": ["CiM - Centrum f\u00fcr innovative Medizin", "Falkenried 88", "20251 Hamburg", "Germany"]}, "phone": "+494047196196", "display_phone": "+49 40 47196196", "distance": 4667.355502892129}, {"id": "vjtKJeMVSrRVl3P8n7fSqg", "alias": "caf\u00e9-und-bar-celona-hamburg-3", "name": "Caf\u00e9 & Bar Celona", "image_url": "https://s3-media3.fl.yelpcdn.com/bphoto/jm4fwNrWbbFJBefI3gHd5g/o.jpg", "is_closed": false, "url": "https://www.yelp.com/biz/caf%C3%A9-und-bar-celona-hamburg-3?adjust_creative=hBJOknVQJ58S5goQyjmwRw&utm_campaign=yelp_api_v3&utm_medium=api_v3_business_search&utm_source=hBJOknVQJ58S5goQyjmwRw", "review_count": 16, "categories": [{"alias": "bars", "title": "Bars"}, {"alias": "international", "title": "International"}, {"alias": "buffets", "title": "Buffets"}], "rating": 3.5, "coordinates": {"latitude": 53.5854992590962, "longitude": 9.98118336807265}, "transactions": [], "price": "\u20ac\u20ac", "location": {"address1": "Lenhartzstr. 1 - 5", "address2": "", "address3": "", "city": "Hamburg", "zip_code": "20249", "country": "DE", "state": "HH", "display_address": ["Lenhartzstr. 1 - 5", "20249 Hamburg", "Germany"]}, "phone": "+494020201458", "display_phone": "+49 40 20201458", "distance": 4775.394617973703}, {"id": "E61I5JcNZTLMEJMzyUMHDQ", "alias": "grill-station-norderstedt", "name": "Grill Station", "image_url": "", "is_closed": false, "url": "https://www.yelp.com/biz/grill-station-norderstedt?adjust_creative=hBJOknVQJ58S5goQyjmwRw&utm_campaign=yelp_api_v3&utm_medium=api_v3_business_search&utm_source=hBJOknVQJ58S5goQyjmwRw", "review_count": 1, "categories": [{"alias": "hotdogs", "title": "Fast Food"}, {"alias": "currysausage", "title": "Curry Sausage"}], "rating": 4.0, "coordinates": {"latitude": 53.669406, "longitude": 9.972473}, "transactions": [], "location": {"address1": "OBI", "address2": "Niendorfer Str. 85", "address3": "", "city": "Norderstedt", "zip_code": "22848", "country": "DE", "state": "SH", "display_address": ["OBI", "Niendorfer Str. 85", "22848 Norderstedt", "Germany"]}, "phone": "", "display_phone": "", "distance": 4561.597495840058}, {"id": "pbkgSowYJvfe4kwSAqQ7hw", "alias": "zur-alten-m\u00fchle-hamburg", "name": "Zur Alten M\u00fchle", "image_url": "https://s3-media1.fl.yelpcdn.com/bphoto/2QyB6Zi4h2_NBvQMPoFilQ/o.jpg", "is_closed": false, "url": "https://www.yelp.com/biz/zur-alten-m%C3%BChle-hamburg?adjust_creative=hBJOknVQJ58S5goQyjmwRw&utm_campaign=yelp_api_v3&utm_medium=api_v3_business_search&utm_source=hBJOknVQJ58S5goQyjmwRw", "review_count": 45, "categories": [{"alias": "german", "title": "German"}], "rating": 2.5, "coordinates": {"latitude": 53.59741, "longitude": 9.9893699}, "transactions": [], "price": "\u20ac\u20ac", "location": {"address1": "Eppendorfer Landstr. 176", "address2": null, "address3": null, "city": "Hamburg", "zip_code": "20251", "country": "DE", "state": "HH", "display_address": ["Eppendorfer Landstr. 176", "20251 Hamburg", "Germany"]}, "phone": "+4940517820", "display_phone": "+49 40 517820", "distance": 3632.9098299815855}, {"id": "t6TKXmG78pTa-hOAFOjI9g", "alias": "al-baffo-ristorante-hamburg-2", "name": "Al Baffo Ristorante", "image_url": "https://s3-media2.fl.yelpcdn.com/bphoto/gBP53EuoVM0NfppkQhlsVw/o.jpg", "is_closed": false, "url": "https://www.yelp.com/biz/al-baffo-ristorante-hamburg-2?adjust_creative=hBJOknVQJ58S5goQyjmwRw&utm_campaign=yelp_api_v3&utm_medium=api_v3_business_search&utm_source=hBJOknVQJ58S5goQyjmwRw", "review_count": 8, "categories": [{"alias": "italian", "title": "Italian"}], "rating": 3.0, "coordinates": {"latitude": 53.61062, "longitude": 9.96878}, "transactions": [], "price": "\u20ac\u20ac", "location": {"address1": "Stavenhagenstr. 28", "address2": null, "address3": null, "city": "Hamburg", "zip_code": "22453", "country": "DE", "state": "HH", "display_address": ["Stavenhagenstr. 28", "22453 Hamburg", "Germany"]}, "phone": "+49405537981", "display_phone": "+49 40 5537981", "distance": 1917.3509863106167}, {"id": "B7l1qchePBD0PqmPnpiCXw", "alias": "pizza-mia-hamburg", "name": "Pizza Mia", "image_url": "", "is_closed": false, "url": "https://www.yelp.com/biz/pizza-mia-hamburg?adjust_creative=hBJOknVQJ58S5goQyjmwRw&utm_campaign=yelp_api_v3&utm_medium=api_v3_business_search&utm_source=hBJOknVQJ58S5goQyjmwRw", "review_count": 4, "categories": [{"alias": "pizza", "title": "Pizza"}, {"alias": "italian", "title": "Italian"}], "rating": 4.0, "coordinates": {"latitude": 53.5927, "longitude": 9.97318}, "transactions": [], "price": "\u20ac\u20ac", "location": {"address1": "Universit\u00e4tsklinikum Eppendorf", "address2": "Geb\u00e4ude N19", "address3": "Martinistr. 52", "city": "Hamburg", "zip_code": "20251", "country": "DE", "state": "HH", "display_address": ["Universit\u00e4tsklinikum Eppendorf", "Geb\u00e4ude N19", "Martinistr. 52", "20251 Hamburg", "Germany"]}, "phone": "+4940741053058", "display_phone": "+49 40 741053058", "distance": 3922.6954073618017}, {"id": "ag3UkCDcww-uzqQliHvq2Q", "alias": "tassajara-hamburg", "name": "Tassajara", "image_url": "https://s3-media4.fl.yelpcdn.com/bphoto/3XtAXSyH7gZY_uXHfEa66Q/o.jpg", "is_closed": false, "url": "https://www.yelp.com/biz/tassajara-hamburg?adjust_creative=hBJOknVQJ58S5goQyjmwRw&utm_campaign=yelp_api_v3&utm_medium=api_v3_business_search&utm_source=hBJOknVQJ58S5goQyjmwRw", "review_count": 117, "categories": [{"alias": "vegetarian", "title": "Vegetarian"}, {"alias": "vegan", "title": "Vegan"}], "rating": 4.0, "coordinates": {"latitude": 53.58514, "longitude": 9.9821899}, "transactions": [], "price": "\u20ac\u20ac\u20ac", "location": {"address1": "Eppendorfer Landstr. 4", "address2": null, "address3": null, "city": "Hamburg", "zip_code": "20249", "country": "DE", "state": "HH", "display_address": ["Eppendorfer Landstr. 4", "20249 Hamburg", "Germany"]}, "phone": "+4940483801", "display_phone": "+49 40 483801", "distance": 4832.230234124296}, {"id": "pyr-Ihj9vSnvKDwKVtEUBQ", "alias": "brechtmanns-bistro-hamburg", "name": "Brechtmanns Bistro", "image_url": "https://s3-media3.fl.yelpcdn.com/bphoto/Pq3H07FBX8h0iID7gPpjxQ/o.jpg", "is_closed": false, "url": "https://www.yelp.com/biz/brechtmanns-bistro-hamburg?adjust_creative=hBJOknVQJ58S5goQyjmwRw&utm_campaign=yelp_api_v3&utm_medium=api_v3_business_search&utm_source=hBJOknVQJ58S5goQyjmwRw", "review_count": 12, "categories": [{"alias": "asianfusion", "title": "Asian Fusion"}, {"alias": "german", "title": "German"}], "rating": 4.5, "coordinates": {"latitude": 53.5930647410399, "longitude": 9.98690571320554}, "transactions": [], "price": "\u20ac\u20ac\u20ac", "location": {"address1": "Erikastr. 43", "address2": "", "address3": null, "city": "Hamburg", "zip_code": "20251", "country": "DE", "state": "HH", "display_address": ["Erikastr. 43", "20251 Hamburg", "Germany"]}, "phone": "+494041305888", "display_phone": "+49 40 41305888", "distance": 4034.384958112547}, {"id": "0PMKKKwOw_Ju6yOGk2gJGw", "alias": "zixin-hamburg", "name": "Zixin", "image_url": "", "is_closed": false, "url": "https://www.yelp.com/biz/zixin-hamburg?adjust_creative=hBJOknVQJ58S5goQyjmwRw&utm_campaign=yelp_api_v3&utm_medium=api_v3_business_search&utm_source=hBJOknVQJ58S5goQyjmwRw", "review_count": 7, "categories": [{"alias": "seafood", "title": "Seafood"}, {"alias": "vegetarian", "title": "Vegetarian"}, {"alias": "panasian", "title": "Pan Asian"}], "rating": 4.0, "coordinates": {"latitude": 53.6095, "longitude": 9.97456}, "transactions": [], "price": "\u20ac", "location": {"address1": "Borsteler Chaussee 179", "address2": null, "address3": null, "city": "Hamburg", "zip_code": "22453", "country": "DE", "state": "HH", "display_address": ["Borsteler Chaussee 179", "22453 Hamburg", "Germany"]}, "phone": "+494085159858", "display_phone": "+49 40 85159858", "distance": 2071.221625167352}, {"id": "jN509Y_9w4MVz5M3mFInWw", "alias": "croque-factory-hamburg-2", "name": "Croque Factory", "image_url": "https://s3-media2.fl.yelpcdn.com/bphoto/KnTIu4oz2bKnnWmMwQkdqA/o.jpg", "is_closed": false, "url": "https://www.yelp.com/biz/croque-factory-hamburg-2?adjust_creative=hBJOknVQJ58S5goQyjmwRw&utm_campaign=yelp_api_v3&utm_medium=api_v3_business_search&utm_source=hBJOknVQJ58S5goQyjmwRw", "review_count": 39, "categories": [{"alias": "sandwiches", "title": "Sandwiches"}], "rating": 4.0, "coordinates": {"latitude": 53.606564, "longitude": 9.979632}, "transactions": [], "price": "\u20ac\u20ac\u20ac", "location": {"address1": "Borsteler Chaussee 103", "address2": "", "address3": "", "city": "Hamburg", "zip_code": "22453", "country": "DE", "state": "HH", "display_address": ["Borsteler Chaussee 103", "22453 Hamburg", "Germany"]}, "phone": "+494059355356", "display_phone": "+49 40 59355356", "distance": 2453.993757043955}, {"id": "388auqX2eYriHHCmRz82OA", "alias": "restaurant-and-catering-k\u00f6pke-hamburg", "name": "Restaurant & Catering K\u00f6pke", "image_url": "https://s3-media4.fl.yelpcdn.com/bphoto/jMGiXhD8E4H6L-6KgIzMug/o.jpg", "is_closed": false, "url": "https://www.yelp.com/biz/restaurant-and-catering-k%C3%B6pke-hamburg?adjust_creative=hBJOknVQJ58S5goQyjmwRw&utm_campaign=yelp_api_v3&utm_medium=api_v3_business_search&utm_source=hBJOknVQJ58S5goQyjmwRw", "review_count": 16, "categories": [{"alias": "catering", "title": "Caterers"}, {"alias": "german", "title": "German"}], "rating": 4.5, "coordinates": {"latitude": 53.59073, "longitude": 9.98882}, "transactions": [], "price": "\u20ac\u20ac\u20ac", "location": {"address1": "Schrammsweg 10", "address2": null, "address3": null, "city": "Hamburg", "zip_code": "20249", "country": "DE", "state": "HH", "display_address": ["Schrammsweg 10", "20249 Hamburg", "Germany"]}, "phone": "+494047193881", "display_phone": "+49 40 47193881", "distance": 4323.672951019135}, {"id": "gToodJ414ScyINvmH6QWlQ", "alias": "movit-hamburg", "name": "movit", "image_url": "https://s3-media2.fl.yelpcdn.com/bphoto/5Egy0ailvowsjiF3QMvnZg/o.jpg", "is_closed": false, "url": "https://www.yelp.com/biz/movit-hamburg?adjust_creative=hBJOknVQJ58S5goQyjmwRw&utm_campaign=yelp_api_v3&utm_medium=api_v3_business_search&utm_source=hBJOknVQJ58S5goQyjmwRw", "review_count": 1, "categories": [{"alias": "cafes", "title": "Cafes"}], "rating": 4.0, "coordinates": {"latitude": 53.5956, "longitude": 9.9836}, "transactions": [], "location": {"address1": "Tarpenbekstr. 65", "address2": "", "address3": null, "city": "Hamburg", "zip_code": "20251", "country": "DE", "state": "HH", "display_address": ["Tarpenbekstr. 65", "20251 Hamburg", "Germany"]}, "phone": "", "display_phone": "", "distance": 3705.4093946943512}, {"id": "NiDhEkDB_OaVr_MtjXa8mw", "alias": "taverna-arhontiko-hamburg", "name": "Taverna Arhontiko", "image_url": "https://s3-media4.fl.yelpcdn.com/bphoto/nagnnIdpSf0Qo0cqWBJgOw/o.jpg", "is_closed": false, "url": "https://www.yelp.com/biz/taverna-arhontiko-hamburg?adjust_creative=hBJOknVQJ58S5goQyjmwRw&utm_campaign=yelp_api_v3&utm_medium=api_v3_business_search&utm_source=hBJOknVQJ58S5goQyjmwRw", "review_count": 8, "categories": [{"alias": "greek", "title": "Greek"}], "rating": 4.0, "coordinates": {"latitude": 53.585941, "longitude": 9.967115}, "transactions": [], "price": "\u20ac\u20ac", "location": {"address1": "Troplowitzstr. 2", "address2": "", "address3": "", "city": "Hamburg", "zip_code": "22529", "country": "DE", "state": "HH", "display_address": ["Troplowitzstr. 2", "22529 Hamburg", "Germany"]}, "phone": "+494020911038", "display_phone": "+49 40 20911038", "distance": 4665.893280688153}, {"id": "6e9CeRpTcR_NVdP7wWka4A", "alias": "speisekai-hamburg-2", "name": "Speisekai", "image_url": "https://s3-media1.fl.yelpcdn.com/bphoto/NRf9c5pYcOkKlNI2wKjmtw/o.jpg", "is_closed": false, "url": "https://www.yelp.com/biz/speisekai-hamburg-2?adjust_creative=hBJOknVQJ58S5goQyjmwRw&utm_campaign=yelp_api_v3&utm_medium=api_v3_business_search&utm_source=hBJOknVQJ58S5goQyjmwRw", "review_count": 2, "categories": [{"alias": "venues", "title": "Venues & Event Spaces"}, {"alias": "german", "title": "German"}], "rating": 3.5, "coordinates": {"latitude": 53.5853697577104, "longitude": 9.99220374157033}, "transactions": [], "location": {"address1": "Isekai 12", "address2": null, "address3": "", "city": "Hamburg", "zip_code": "20249", "country": "DE", "state": "HH", "display_address": ["Isekai 12", "20249 Hamburg", "Germany"]}, "phone": "+494046090396", "display_phone": "+49 40 46090396", "distance": 4954.393878418044}, {"id": "cOMSw4EpJsdD59g6XvXKog", "alias": "br\u00fcder-lund-hamburg", "name": "Br\u00fcder Lund", "image_url": "https://s3-media1.fl.yelpcdn.com/bphoto/vi54DNUTQvdPJ9N_8pUFug/o.jpg", "is_closed": false, "url": "https://www.yelp.com/biz/br%C3%BCder-lund-hamburg?adjust_creative=hBJOknVQJ58S5goQyjmwRw&utm_campaign=yelp_api_v3&utm_medium=api_v3_business_search&utm_source=hBJOknVQJ58S5goQyjmwRw", "review_count": 12, "categories": [{"alias": "wine_bars", "title": "Wine Bars"}, {"alias": "international", "title": "International"}], "rating": 4.0, "coordinates": {"latitude": 53.58494, "longitude": 9.98048}, "transactions": [], "price": "\u20ac\u20ac\u20ac", "location": {"address1": "Eppendorfer Weg 283", "address2": "", "address3": null, "city": "Hamburg", "zip_code": "20251", "country": "DE", "state": "HH", "display_address": ["Eppendorfer Weg 283", "20251 Hamburg", "Germany"]}, "phone": "", "display_phone": "", "distance": 4826.241960619721}, {"id": "Qc5cpg_-TRyy-7SK4LcaeQ", "alias": "kantine-bezirksamt-hamburg-nord-hamburg", "name": "Kantine Bezirksamt Hamburg-Nord", "image_url": "", "is_closed": false, "url": "https://www.yelp.com/biz/kantine-bezirksamt-hamburg-nord-hamburg?adjust_creative=hBJOknVQJ58S5goQyjmwRw&utm_campaign=yelp_api_v3&utm_medium=api_v3_business_search&utm_source=hBJOknVQJ58S5goQyjmwRw", "review_count": 2, "categories": [{"alias": "canteen", "title": "Canteen"}, {"alias": "german", "title": "German"}], "rating": 4.0, "coordinates": {"latitude": 53.59007, "longitude": 9.98518}, "transactions": [], "location": {"address1": "K\u00fcmmellstr. 5-7", "address2": "", "address3": "", "city": "Hamburg", "zip_code": "20249", "country": "DE", "state": "HH", "display_address": ["K\u00fcmmellstr. 5-7", "20249 Hamburg", "Germany"]}, "phone": "+4940428040", "display_phone": "+49 40 428040", "distance": 4325.845660066711}, {"id": "6fnFEqNSW0vrs038WwWy0w", "alias": "lufthansa-sportverein-e-v-hamburg-hamburg", "name": "LSV-Clubhaus", "image_url": "https://s3-media1.fl.yelpcdn.com/bphoto/MjK-sXN20yFLhBg6styLxA/o.jpg", "is_closed": false, "url": "https://www.yelp.com/biz/lufthansa-sportverein-e-v-hamburg-hamburg?adjust_creative=hBJOknVQJ58S5goQyjmwRw&utm_campaign=yelp_api_v3&utm_medium=api_v3_business_search&utm_source=hBJOknVQJ58S5goQyjmwRw", "review_count": 2, "categories": [{"alias": "international", "title": "International"}], "rating": 3.0, "coordinates": {"latitude": 53.6169, "longitude": 9.97566}, "transactions": [], "location": {"address1": "Borsteler Chaussee 330", "address2": null, "address3": null, "city": "Hamburg", "zip_code": "22453", "country": "DE", "state": "HH", "display_address": ["Borsteler Chaussee 330", "22453 Hamburg", "Germany"]}, "phone": "+494057006766", "display_phone": "+49 40 57006766", "distance": 1282.3948122318243}, {"id": "XLyU_7BUrvymMxDwBdiMyg", "alias": "mcdonalds-hamburg-24", "name": "McDonald's", "image_url": "https://s3-media2.fl.yelpcdn.com/bphoto/cJRyNjFs8fFKUmwTkpVNrg/o.jpg", "is_closed": false, "url": "https://www.yelp.com/biz/mcdonalds-hamburg-24?adjust_creative=hBJOknVQJ58S5goQyjmwRw&utm_campaign=yelp_api_v3&utm_medium=api_v3_business_search&utm_source=hBJOknVQJ58S5goQyjmwRw", "review_count": 6, "categories": [{"alias": "hotdogs", "title": "Fast Food"}, {"alias": "burgers", "title": "Burgers"}], "rating": 2.0, "coordinates": {"latitude": 53.6218, "longitude": 9.9523}, "transactions": [], "location": {"address1": "Tibarg 41", "address2": "", "address3": null, "city": "Hamburg", "zip_code": "22459", "country": "DE", "state": "HH", "display_address": ["Tibarg 41", "22459 Hamburg", "Germany"]}, "phone": "+494058951943", "display_phone": "+49 40 58951943", "distance": 1349.0664648586624}, {"id": "gKzynGB6ECQi0-zLK9DSGA", "alias": "galerieka-hamburg", "name": "Galerieka", "image_url": "https://s3-media1.fl.yelpcdn.com/bphoto/V1R2Xy2pvedeNtApXMVZSA/o.jpg", "is_closed": false, "url": "https://www.yelp.com/biz/galerieka-hamburg?adjust_creative=hBJOknVQJ58S5goQyjmwRw&utm_campaign=yelp_api_v3&utm_medium=api_v3_business_search&utm_source=hBJOknVQJ58S5goQyjmwRw", "review_count": 2, "categories": [{"alias": "cafes", "title": "Cafes"}, {"alias": "galleries", "title": "Art Galleries"}], "rating": 4.5, "coordinates": {"latitude": 53.5924025257496, "longitude": 9.99243725091219}, "transactions": [], "location": {"address1": "Ludolfstr. 60", "address2": "", "address3": "", "city": "Hamburg", "zip_code": "20249", "country": "DE", "state": "HH", "display_address": ["Ludolfstr. 60", "20249 Hamburg", "Germany"]}, "phone": "+4915221973968", "display_phone": "+49 1522 1973968", "distance": 4219.206399544961}, {"id": "kmbaYR6fMOy-NJpRlj_Z5g", "alias": "st\u00e4\u00e4bchens-hamburg", "name": "St\u00e4\u00e4bchens", "image_url": "https://s3-media2.fl.yelpcdn.com/bphoto/UG9_YqUI87qifvgKzNTnbg/o.jpg", "is_closed": false, "url": "https://www.yelp.com/biz/st%C3%A4%C3%A4bchens-hamburg?adjust_creative=hBJOknVQJ58S5goQyjmwRw&utm_campaign=yelp_api_v3&utm_medium=api_v3_business_search&utm_source=hBJOknVQJ58S5goQyjmwRw", "review_count": 9, "categories": [{"alias": "cafes", "title": "Cafes"}, {"alias": "breakfast_brunch", "title": "Breakfast & Brunch"}], "rating": 4.5, "coordinates": {"latitude": 53.58813, "longitude": 9.98635}, "transactions": [], "price": "\u20ac\u20ac", "location": {"address1": "Woldsenweg 1", "address2": "", "address3": null, "city": "Hamburg", "zip_code": "20249", "country": "DE", "state": "HH", "display_address": ["Woldsenweg 1", "20249 Hamburg", "Germany"]}, "phone": "+494050034567", "display_phone": "+49 40 50034567", "distance": 4538.66496616329}, {"id": "F4o21bYF9t71tEQkiJZpVA", "alias": "livia-hamburg-3", "name": "Livia", "image_url": "", "is_closed": false, "url": "https://www.yelp.com/biz/livia-hamburg-3?adjust_creative=hBJOknVQJ58S5goQyjmwRw&utm_campaign=yelp_api_v3&utm_medium=api_v3_business_search&utm_source=hBJOknVQJ58S5goQyjmwRw", "review_count": 3, "categories": [{"alias": "international", "title": "International"}], "rating": 2.5, "coordinates": {"latitude": 53.6298, "longitude": 9.95693}, "transactions": [], "price": "\u20ac\u20ac", "location": {"address1": "Rebhuhnweg 24", "address2": null, "address3": null, "city": "Hamburg", "zip_code": "22459", "country": "DE", "state": "HH", "display_address": ["Rebhuhnweg 24", "22459 Hamburg", "Germany"]}, "phone": "+49405522781", "display_phone": "+49 40 5522781", "distance": 883.975533675341}, {"id": "NEWo5xypRjZQIObbNfJXjQ", "alias": "ellenas-back-bistro-hamburg", "name": "Ellena's Back-Bistro", "image_url": "https://s3-media4.fl.yelpcdn.com/bphoto/JEdWc8oLkYQKXPcGgZT_gw/o.jpg", "is_closed": false, "url": "https://www.yelp.com/biz/ellenas-back-bistro-hamburg?adjust_creative=hBJOknVQJ58S5goQyjmwRw&utm_campaign=yelp_api_v3&utm_medium=api_v3_business_search&utm_source=hBJOknVQJ58S5goQyjmwRw", "review_count": 21, "categories": [{"alias": "brasseries", "title": "Brasseries"}, {"alias": "breakfast_brunch", "title": "Breakfast & Brunch"}, {"alias": "bakeries", "title": "Bakeries"}], "rating": 3.5, "coordinates": {"latitude": 53.59428, "longitude": 9.97579}, "transactions": [], "price": "\u20ac", "location": {"address1": "Geschwister-Scholl-Str. 155", "address2": "", "address3": "", "city": "Hamburg", "zip_code": "20251", "country": "DE", "state": "HH", "display_address": ["Geschwister-Scholl-Str. 155", "20251 Hamburg", "Germany"]}, "phone": "+494051310099", "display_phone": "+49 40 51310099", "distance": 3769.2883902093326}, {"id": "TVs86zKCbLE2JujseFuHAQ", "alias": "smileys-hamburg-9", "name": "Smiley's", "image_url": "https://s3-media4.fl.yelpcdn.com/bphoto/EC1Rrfn5jdm9gE-UDI2xVw/o.jpg", "is_closed": false, "url": "https://www.yelp.com/biz/smileys-hamburg-9?adjust_creative=hBJOknVQJ58S5goQyjmwRw&utm_campaign=yelp_api_v3&utm_medium=api_v3_business_search&utm_source=hBJOknVQJ58S5goQyjmwRw", "review_count": 43, "categories": [{"alias": "pizza", "title": "Pizza"}], "rating": 3.0, "coordinates": {"latitude": 53.585, "longitude": 9.96948}, "transactions": [], "price": "\u20ac\u20ac", "location": {"address1": "Hoheluftchaussee 118", "address2": null, "address3": null, "city": "Hamburg", "zip_code": "20253", "country": "DE", "state": "HH", "display_address": ["Hoheluftchaussee 118", "20253 Hamburg", "Germany"]}, "phone": "+49404806900", "display_phone": "+49 40 4806900", "distance": 4773.236370549569}, {"id": "sCPSeN2dV1xhvK9kNCF00g", "alias": "bio-imbiss-metzgerei-dreymann-hamburg-2", "name": "Bio Imbiss Metzgerei Dreymann", "image_url": "https://s3-media3.fl.yelpcdn.com/bphoto/JSQ8B3wDazItEsH42A-O1g/o.jpg", "is_closed": false, "url": "https://www.yelp.com/biz/bio-imbiss-metzgerei-dreymann-hamburg-2?adjust_creative=hBJOknVQJ58S5goQyjmwRw&utm_campaign=yelp_api_v3&utm_medium=api_v3_business_search&utm_source=hBJOknVQJ58S5goQyjmwRw", "review_count": 2, "categories": [{"alias": "foodstands", "title": "Food Stands"}], "rating": 5.0, "coordinates": {"latitude": 53.5904397989848, "longitude": 9.98642574547728}, "transactions": [], "price": "\u20ac\u20ac\u20ac", "location": {"address1": "\u00d6ko-Wochenmarkt", "address2": "Marie-Jonas-Platz", "address3": null, "city": "Hamburg", "zip_code": "20249", "country": "DE", "state": "HH", "display_address": ["\u00d6ko-Wochenmarkt", "Marie-Jonas-Platz", "20249 Hamburg", "Germany"]}, "phone": "", "display_phone": "", "distance": 4307.505546575731}, {"id": "HZMyK16lEgXppYOxwW8JnA", "alias": "ristorante-franco-hamburg", "name": "Ristorante Franco", "image_url": "https://s3-media3.fl.yelpcdn.com/bphoto/tzFBEc9y1ZIH3hn1UePvdQ/o.jpg", "is_closed": false, "url": "https://www.yelp.com/biz/ristorante-franco-hamburg?adjust_creative=hBJOknVQJ58S5goQyjmwRw&utm_campaign=yelp_api_v3&utm_medium=api_v3_business_search&utm_source=hBJOknVQJ58S5goQyjmwRw", "review_count": 36, "categories": [{"alias": "italian", "title": "Italian"}], "rating": 3.5, "coordinates": {"latitude": 53.5898, "longitude": 9.9872}, "transactions": [], "price": "\u20ac\u20ac\u20ac", "location": {"address1": "Eppendorfer Landstr. 74", "address2": null, "address3": null, "city": "Hamburg", "zip_code": "20249", "country": "DE", "state": "HH", "display_address": ["Eppendorfer Landstr. 74", "20249 Hamburg", "Germany"]}, "phone": "+4940476948", "display_phone": "+49 40 476948", "distance": 4389.345582814722}, {"id": "bw1ZyNis-QiZQZ3cfEA5cg", "alias": "kochgenuss-zwei-norderstedt", "name": "Kochgenuss Zwei", "image_url": "https://s3-media4.fl.yelpcdn.com/bphoto/Md8ruGAdoriSvFt-G1EMKw/o.jpg", "is_closed": false, "url": "https://www.yelp.com/biz/kochgenuss-zwei-norderstedt?adjust_creative=hBJOknVQJ58S5goQyjmwRw&utm_campaign=yelp_api_v3&utm_medium=api_v3_business_search&utm_source=hBJOknVQJ58S5goQyjmwRw", "review_count": 1, "categories": [{"alias": "breakfast_brunch", "title": "Breakfast & Brunch"}], "rating": 3.0, "coordinates": {"latitude": 53.6582099, "longitude": 9.98279}, "transactions": [], "price": "\u20ac", "location": {"address1": "Gutenbergring 69 C", "address2": "", "address3": null, "city": "Norderstedt", "zip_code": "22848", "country": "DE", "state": "SH", "display_address": ["Gutenbergring 69 C", "22848 Norderstedt", "Germany"]}, "phone": "+494030982002", "display_phone": "+49 40 30982002", "distance": 3465.3079225144147}, {"id": "NHeTdAOKPSm1KBkMj9Owmg", "alias": "mendelssohns-hamburg", "name": "Mendelssohn's", "image_url": "https://s3-media3.fl.yelpcdn.com/bphoto/Ds6HOv4_oS3kbOqkxtpkMw/o.jpg", "is_closed": false, "url": "https://www.yelp.com/biz/mendelssohns-hamburg?adjust_creative=hBJOknVQJ58S5goQyjmwRw&utm_campaign=yelp_api_v3&utm_medium=api_v3_business_search&utm_source=hBJOknVQJ58S5goQyjmwRw", "review_count": 7, "categories": [{"alias": "german", "title": "German"}], "rating": 3.5, "coordinates": {"latitude": 53.5959, "longitude": 9.9493}, "transactions": [], "price": "\u20ac\u20ac\u20ac", "location": {"address1": "Julius - Vosseler - Str. 40", "address2": null, "address3": null, "city": "Hamburg", "zip_code": "22527", "country": "DE", "state": "HH", "display_address": ["Julius - Vosseler - Str. 40", "22527 Hamburg", "Germany"]}, "phone": "+494040133100", "display_phone": "+49 40 40133100", "distance": 3812.9421233969983}, {"id": "cv2Yqjfo9ExCKdG47i8CKw", "alias": "mcdonalds-hamburg-46", "name": "McDonald's", "image_url": "https://s3-media4.fl.yelpcdn.com/bphoto/hDCAuMU49n9VJ-hZMkclQg/o.jpg", "is_closed": false, "url": "https://www.yelp.com/biz/mcdonalds-hamburg-46?adjust_creative=hBJOknVQJ58S5goQyjmwRw&utm_campaign=yelp_api_v3&utm_medium=api_v3_business_search&utm_source=hBJOknVQJ58S5goQyjmwRw", "review_count": 18, "categories": [{"alias": "hotdogs", "title": "Fast Food"}, {"alias": "burgers", "title": "Burgers"}], "rating": 2.5, "coordinates": {"latitude": 53.60214, "longitude": 9.96197}, "transactions": [], "price": "\u20ac\u20ac", "location": {"address1": "Kollaustr. 25", "address2": null, "address3": null, "city": "Hamburg", "zip_code": "22529", "country": "DE", "state": "HH", "display_address": ["Kollaustr. 25", "22529 Hamburg", "Germany"]}, "phone": "+4940584814", "display_phone": "+49 40 584814", "distance": 2913.1589869382587}, {"id": "GDfyfj0Cq20shDfxogBIog", "alias": "uke-kasino-hamburg", "name": "UKE Kasino", "image_url": "", "is_closed": false, "url": "https://www.yelp.com/biz/uke-kasino-hamburg?adjust_creative=hBJOknVQJ58S5goQyjmwRw&utm_campaign=yelp_api_v3&utm_medium=api_v3_business_search&utm_source=hBJOknVQJ58S5goQyjmwRw", "review_count": 2, "categories": [{"alias": "canteen", "title": "Canteen"}], "rating": 2.5, "coordinates": {"latitude": 53.5913076350732, "longitude": 9.97446515447519}, "transactions": [], "price": "\u20ac", "location": {"address1": "Martinistr. 52", "address2": "Geb\u00e4ude N19, 3. / 4. OG", "address3": "", "city": "Hamburg", "zip_code": "20246", "country": "DE", "state": "HH", "display_address": ["Martinistr. 52", "Geb\u00e4ude N19, 3. / 4. OG", "20246 Hamburg", "Germany"]}, "phone": "+4940741055645", "display_phone": "+49 40 741055645", "distance": 4082.5984400979974}, {"id": "8OBV73xlONSiLAhwH_gk-g", "alias": "smileys-hamburg-15", "name": "Smiley's", "image_url": "", "is_closed": false, "url": "https://www.yelp.com/biz/smileys-hamburg-15?adjust_creative=hBJOknVQJ58S5goQyjmwRw&utm_campaign=yelp_api_v3&utm_medium=api_v3_business_search&utm_source=hBJOknVQJ58S5goQyjmwRw", "review_count": 18, "categories": [{"alias": "pizza", "title": "Pizza"}], "rating": 3.0, "coordinates": {"latitude": 53.61, "longitude": 9.97426}, "transactions": [], "price": "\u20ac\u20ac", "location": {"address1": "Borsteler Chaussee 197", "address2": null, "address3": null, "city": "Hamburg", "zip_code": "22453", "country": "DE", "state": "HH", "display_address": ["Borsteler Chaussee 197", "22453 Hamburg", "Germany"]}, "phone": "+4940516563", "display_phone": "+49 40 516563", "distance": 2013.3569400451668}, {"id": "a3NwmecwsGa--y7hK3Mh9g", "alias": "forum-bistro-hamburg", "name": "Forum Bistro", "image_url": "", "is_closed": false, "url": "https://www.yelp.com/biz/forum-bistro-hamburg?adjust_creative=hBJOknVQJ58S5goQyjmwRw&utm_campaign=yelp_api_v3&utm_medium=api_v3_business_search&utm_source=hBJOknVQJ58S5goQyjmwRw", "review_count": 1, "categories": [{"alias": "bistros", "title": "Bistros"}], "rating": 4.0, "coordinates": {"latitude": 53.5913082, "longitude": 9.9581828}, "transactions": [], "location": {"address1": "Betriebskantine Dello", "address2": "Nedderfeld 91", "address3": null, "city": "Hamburg", "zip_code": "22529", "country": "DE", "state": "HH", "display_address": ["Betriebskantine Dello", "Nedderfeld 91", "22529 Hamburg", "Germany"]}, "phone": "+494047122761", "display_phone": "+49 40 47122761", "distance": 4145.130941650617}, {"id": "a4ly03J9eiSKQjG6ithjZA", "alias": "imbi\u00df-nedderfeld-hamburg", "name": "Imbi\u00df Nedderfeld", "image_url": "", "is_closed": false, "url": "https://www.yelp.com/biz/imbi%C3%9F-nedderfeld-hamburg?adjust_creative=hBJOknVQJ58S5goQyjmwRw&utm_campaign=yelp_api_v3&utm_medium=api_v3_business_search&utm_source=hBJOknVQJ58S5goQyjmwRw", "review_count": 1, "categories": [{"alias": "hotdogs", "title": "Fast Food"}], "rating": 2.0, "coordinates": {"latitude": 53.6036, "longitude": 9.96666}, "transactions": [], "location": {"address1": "Nedderfeld 15", "address2": null, "address3": null, "city": "Hamburg", "zip_code": "22529", "country": "DE", "state": "HH", "display_address": ["Nedderfeld 15", "22529 Hamburg", "Germany"]}, "phone": "+494055779529", "display_phone": "+49 40 55779529", "distance": 2713.6418372336652}, {"id": "-3sW6WK3k8T-uTmHilGeHA", "alias": "karl-g\u00fcnter-und-marie-hamburg", "name": "Karl, G\u00fcnter und Marie", "image_url": "https://s3-media1.fl.yelpcdn.com/bphoto/X0ogIaCffCI1b7-4EJkWig/o.jpg", "is_closed": false, "url": "https://www.yelp.com/biz/karl-g%C3%BCnter-und-marie-hamburg?adjust_creative=hBJOknVQJ58S5goQyjmwRw&utm_campaign=yelp_api_v3&utm_medium=api_v3_business_search&utm_source=hBJOknVQJ58S5goQyjmwRw", "review_count": 1, "categories": [{"alias": "cafes", "title": "Cafes"}, {"alias": "breakfast_brunch", "title": "Breakfast & Brunch"}], "rating": 5.0, "coordinates": {"latitude": 53.5933236366725, "longitude": 9.98708566558261}, "transactions": [], "location": {"address1": "Erikastr. 47", "address2": "", "address3": null, "city": "Hamburg", "zip_code": "20251", "country": "DE", "state": "HH", "display_address": ["Erikastr. 47", "20251 Hamburg", "Germany"]}, "phone": "+491728536261", "display_phone": "+49 172 8536261", "distance": 4010.0602841893806}, {"id": "Cot32yYrteOfDI7BevuStw", "alias": "taverna-omiros-hamburg-3", "name": "Taverna Omiros", "image_url": "", "is_closed": false, "url": "https://www.yelp.com/biz/taverna-omiros-hamburg-3?adjust_creative=hBJOknVQJ58S5goQyjmwRw&utm_campaign=yelp_api_v3&utm_medium=api_v3_business_search&utm_source=hBJOknVQJ58S5goQyjmwRw", "review_count": 4, "categories": [{"alias": "greek", "title": "Greek"}], "rating": 1.5, "coordinates": {"latitude": 53.5925299, "longitude": 9.94628}, "transactions": [], "location": {"address1": "Julius-Vosseler-Str. 77", "address2": "", "address3": null, "city": "Hamburg", "zip_code": "22527", "country": "DE", "state": "HH", "display_address": ["Julius-Vosseler-Str. 77", "22527 Hamburg", "Germany"]}, "phone": "+49405402824", "display_phone": "+49 40 5402824", "distance": 4231.649174854374}, {"id": "qOD9K_mvNFtx_k8y_30Ayg", "alias": "poletto-winebar-hamburg", "name": "Poletto Winebar", "image_url": "https://s3-media1.fl.yelpcdn.com/bphoto/Su_sowWfcgmL1RDFXki3EQ/o.jpg", "is_closed": false, "url": "https://www.yelp.com/biz/poletto-winebar-hamburg?adjust_creative=hBJOknVQJ58S5goQyjmwRw&utm_campaign=yelp_api_v3&utm_medium=api_v3_business_search&utm_source=hBJOknVQJ58S5goQyjmwRw", "review_count": 95, "categories": [{"alias": "wine_bars", "title": "Wine Bars"}, {"alias": "mediterranean", "title": "Mediterranean"}], "rating": 3.5, "coordinates": {"latitude": 53.5851, "longitude": 9.98084}, "transactions": [], "price": "\u20ac\u20ac\u20ac", "location": {"address1": "Eppendorfer Weg 287", "address2": null, "address3": null, "city": "Hamburg", "zip_code": "20251", "country": "DE", "state": "HH", "display_address": ["Eppendorfer Weg 287", "20251 Hamburg", "Germany"]}, "phone": "+494038644700", "display_phone": "+49 40 38644700", "distance": 4807.426505228107}, {"id": "GwdYNoPeI8YuZFv9TjGD4w", "alias": "fleischerei-g\u00fcnther-hamburg", "name": "Fleischerei G\u00fcnther", "image_url": "", "is_closed": false, "url": "https://www.yelp.com/biz/fleischerei-g%C3%BCnther-hamburg?adjust_creative=hBJOknVQJ58S5goQyjmwRw&utm_campaign=yelp_api_v3&utm_medium=api_v3_business_search&utm_source=hBJOknVQJ58S5goQyjmwRw", "review_count": 1, "categories": [{"alias": "meats", "title": "Meat Shops"}, {"alias": "german", "title": "German"}], "rating": 5.0, "coordinates": {"latitude": 53.61015, "longitude": 9.9724}, "transactions": [], "location": {"address1": "Borsteler Bogen 1", "address2": "", "address3": null, "city": "Hamburg", "zip_code": "22453", "country": "DE", "state": "HH", "display_address": ["Borsteler Bogen 1", "22453 Hamburg", "Germany"]}, "phone": "+494057146144", "display_phone": "+49 40 57146144", "distance": 1970.1485029312582}, {"id": "oOYUVgeJRWyq_T2newShnQ", "alias": "imbiss-hamburg-3", "name": "Imbiss", "image_url": "", "is_closed": false, "url": "https://www.yelp.com/biz/imbiss-hamburg-3?adjust_creative=hBJOknVQJ58S5goQyjmwRw&utm_campaign=yelp_api_v3&utm_medium=api_v3_business_search&utm_source=hBJOknVQJ58S5goQyjmwRw", "review_count": 4, "categories": [{"alias": "foodstands", "title": "Food Stands"}], "rating": 3.0, "coordinates": {"latitude": 53.591429, "longitude": 9.975404}, "transactions": [], "location": {"address1": "Universit\u00e4tsklinikum Eppendorf", "address2": "Martinistr. 52", "address3": "", "city": "Hamburg", "zip_code": "20251", "country": "DE", "state": "HH", "display_address": ["Universit\u00e4tsklinikum Eppendorf", "Martinistr. 52", "20251 Hamburg", "Germany"]}, "phone": "+4940741050753", "display_phone": "+49 40 741050753", "distance": 4074.133312863853}, {"id": "MiFbCdqKkKr2uMbGWvnQfg", "alias": "dominos-hamburg-18", "name": "Domino's", "image_url": "", "is_closed": false, "url": "https://www.yelp.com/biz/dominos-hamburg-18?adjust_creative=hBJOknVQJ58S5goQyjmwRw&utm_campaign=yelp_api_v3&utm_medium=api_v3_business_search&utm_source=hBJOknVQJ58S5goQyjmwRw", "review_count": 1, "categories": [{"alias": "pizza", "title": "Pizza"}], "rating": 2.0, "coordinates": {"latitude": 53.63612, "longitude": 9.9446999}, "transactions": [], "location": {"address1": "Quedlinburger Weg 78", "address2": "", "address3": null, "city": "Hamburg", "zip_code": "22455", "country": "DE", "state": "HH", "display_address": ["Quedlinburger Weg 78", "22455 Hamburg", "Germany"]}, "phone": "+49405558810", "display_phone": "+49 40 5558810", "distance": 1897.4443131789228}, {"id": "rvjYhKGxhimg2ooWEpMINQ", "alias": "selcuk-imbiss-hamburg", "name": "Selcuk Imbiss", "image_url": "https://s3-media4.fl.yelpcdn.com/bphoto/3XMB03EAI16iwf693LSf8w/o.jpg", "is_closed": false, "url": "https://www.yelp.com/biz/selcuk-imbiss-hamburg?adjust_creative=hBJOknVQJ58S5goQyjmwRw&utm_campaign=yelp_api_v3&utm_medium=api_v3_business_search&utm_source=hBJOknVQJ58S5goQyjmwRw", "review_count": 21, "categories": [{"alias": "kebab", "title": "Kebab"}, {"alias": "hotdogs", "title": "Fast Food"}], "rating": 3.0, "coordinates": {"latitude": 53.5928612705664, "longitude": 9.98866478055513}, "transactions": [], "price": "\u20ac\u20ac", "location": {"address1": "Eppendorfer Marktplatz", "address2": "", "address3": "", "city": "Hamburg", "zip_code": "20251", "country": "DE", "state": "HH", "display_address": ["Eppendorfer Marktplatz", "20251 Hamburg", "Germany"]}, "phone": "", "display_phone": "", "distance": 4089.637010516221}, {"id": "-654h7dYALvwI5_hP_33Qw", "alias": "ndr-studiok\u00fcche-hamburg", "name": "NDR Studiok\u00fcche", "image_url": "", "is_closed": false, "url": "https://www.yelp.com/biz/ndr-studiok%C3%BCche-hamburg?adjust_creative=hBJOknVQJ58S5goQyjmwRw&utm_campaign=yelp_api_v3&utm_medium=api_v3_business_search&utm_source=hBJOknVQJ58S5goQyjmwRw", "review_count": 3, "categories": [{"alias": "canteen", "title": "Canteen"}], "rating": 4.0, "coordinates": {"latitude": 53.5966, "longitude": 9.946149}, "transactions": [], "location": {"address1": "Hugh-Greene-Weg 1", "address2": null, "address3": null, "city": "Hamburg", "zip_code": "22529", "country": "DE", "state": "HH", "display_address": ["Hugh-Greene-Weg 1", "22529 Hamburg", "Germany"]}, "phone": "+494041567103", "display_phone": "+49 40 41567103", "distance": 3820.9813577100026}, {"id": "q2FT7udMd3rOozorZjPNUQ", "alias": "konditorei-lindtner-hamburg", "name": "Konditorei Lindtner", "image_url": "https://s3-media4.fl.yelpcdn.com/bphoto/7jagGPIPb1oqQywVRGEMkQ/o.jpg", "is_closed": false, "url": "https://www.yelp.com/biz/konditorei-lindtner-hamburg?adjust_creative=hBJOknVQJ58S5goQyjmwRw&utm_campaign=yelp_api_v3&utm_medium=api_v3_business_search&utm_source=hBJOknVQJ58S5goQyjmwRw", "review_count": 75, "categories": [{"alias": "cafes", "title": "Cafes"}, {"alias": "cakeshop", "title": "Patisserie/Cake Shop"}], "rating": 4.0, "coordinates": {"latitude": 53.591162, "longitude": 9.988049}, "transactions": [], "price": "\u20ac\u20ac\u20ac", "location": {"address1": "Eppendorfer Landstr. 88", "address2": null, "address3": null, "city": "Hamburg", "zip_code": "20249", "country": "DE", "state": "HH", "display_address": ["Eppendorfer Landstr. 88", "20249 Hamburg", "Germany"]}, "phone": "+49404806000", "display_phone": "+49 40 4806000", "distance": 4255.541436380773}, {"id": "Y8Jr2fD6UkhQakAF1o16Eg", "alias": "call-a-pizza-hamburg-4", "name": "Call a Pizza", "image_url": "", "is_closed": false, "url": "https://www.yelp.com/biz/call-a-pizza-hamburg-4?adjust_creative=hBJOknVQJ58S5goQyjmwRw&utm_campaign=yelp_api_v3&utm_medium=api_v3_business_search&utm_source=hBJOknVQJ58S5goQyjmwRw", "review_count": 6, "categories": [{"alias": "pizza", "title": "Pizza"}], "rating": 4.0, "coordinates": {"latitude": 53.59924, "longitude": 9.97144}, "transactions": [], "location": {"address1": "Offakamp 3", "address2": "", "address3": "", "city": "Hamburg", "zip_code": "22529", "country": "DE", "state": "HH", "display_address": ["Offakamp 3", "22529 Hamburg", "Germany"]}, "phone": "+494041918686", "display_phone": "+49 40 41918686", "distance": 3193.1972812357817}, {"id": "YMu9EG5Vn0fOR1-C2iuBgA", "alias": "die-pizza-profis-norderstedt", "name": "Die Pizza Profis", "image_url": "https://s3-media1.fl.yelpcdn.com/bphoto/HlNnqfVK3i0CRPBY-SCpOg/o.jpg", "is_closed": false, "url": "https://www.yelp.com/biz/die-pizza-profis-norderstedt?adjust_creative=hBJOknVQJ58S5goQyjmwRw&utm_campaign=yelp_api_v3&utm_medium=api_v3_business_search&utm_source=hBJOknVQJ58S5goQyjmwRw", "review_count": 4, "categories": [{"alias": "italian", "title": "Italian"}, {"alias": "pizza", "title": "Pizza"}], "rating": 3.0, "coordinates": {"latitude": 53.661525, "longitude": 9.984811}, "transactions": [], "price": "\u20ac", "location": {"address1": "Gutenbergring 30a", "address2": null, "address3": null, "city": "Norderstedt", "zip_code": "22848", "country": "DE", "state": "SH", "display_address": ["Gutenbergring 30a", "22848 Norderstedt", "Germany"]}, "phone": "+494060924092", "display_phone": "+49 40 60924092", "distance": 3862.2013089646066}, {"id": "6908ia1tKc6KDwTnKyeN5w", "alias": "heavenly-cr\u00eapes-und-vin-hamburg", "name": "Heavenly Cr\u00eapes & Vin", "image_url": "https://s3-media4.fl.yelpcdn.com/bphoto/OER-KpXQznL4xbysAGSR0A/o.jpg", "is_closed": false, "url": "https://www.yelp.com/biz/heavenly-cr%C3%AApes-und-vin-hamburg?adjust_creative=hBJOknVQJ58S5goQyjmwRw&utm_campaign=yelp_api_v3&utm_medium=api_v3_business_search&utm_source=hBJOknVQJ58S5goQyjmwRw", "review_count": 4, "categories": [{"alias": "creperies", "title": "Creperies"}, {"alias": "breakfast_brunch", "title": "Breakfast & Brunch"}], "rating": 4.5, "coordinates": {"latitude": 53.584876, "longitude": 9.980264}, "transactions": [], "location": {"address1": "Eppendorfer Weg 281", "address2": "", "address3": null, "city": "Hamburg", "zip_code": "20251", "country": "DE", "state": "HH", "display_address": ["Eppendorfer Weg 281", "20251 Hamburg", "Germany"]}, "phone": "+494039895313", "display_phone": "+49 40 39895313", "distance": 4829.758322572936}, {"id": "LYzLKGQ4I3BrOIk-nnk4OQ", "alias": "yoko-sushi-hamburg-4", "name": "Yoko Sushi", "image_url": "https://s3-media3.fl.yelpcdn.com/bphoto/WMHvVuXgXAMb1wOWcNLYIQ/o.jpg", "is_closed": false, "url": "https://www.yelp.com/biz/yoko-sushi-hamburg-4?adjust_creative=hBJOknVQJ58S5goQyjmwRw&utm_campaign=yelp_api_v3&utm_medium=api_v3_business_search&utm_source=hBJOknVQJ58S5goQyjmwRw", "review_count": 7, "categories": [{"alias": "sushi", "title": "Sushi Bars"}], "rating": 3.5, "coordinates": {"latitude": 53.593023, "longitude": 9.991811}, "transactions": [], "price": "\u20ac\u20ac", "location": {"address1": "Ludolfstr. 41", "address2": "", "address3": "", "city": "Hamburg", "zip_code": "20249", "country": "DE", "state": "HH", "display_address": ["Ludolfstr. 41", "20249 Hamburg", "Germany"]}, "phone": "+494054803750", "display_phone": "+49 40 54803750", "distance": 4155.49428726639}, {"id": "OJFgAmO_wKCAmT5C9PLyvg", "alias": "soul-kebab-hamburg-5", "name": "Soul Kebab", "image_url": "https://s3-media4.fl.yelpcdn.com/bphoto/OUZ-885TIy0sCl2wIpAFNQ/o.jpg", "is_closed": false, "url": "https://www.yelp.com/biz/soul-kebab-hamburg-5?adjust_creative=hBJOknVQJ58S5goQyjmwRw&utm_campaign=yelp_api_v3&utm_medium=api_v3_business_search&utm_source=hBJOknVQJ58S5goQyjmwRw", "review_count": 10, "categories": [{"alias": "kebab", "title": "Kebab"}], "rating": 3.0, "coordinates": {"latitude": 53.600032, "longitude": 9.994829}, "transactions": [], "price": "\u20ac", "location": {"address1": "Lattenkamp 33", "address2": "", "address3": null, "city": "Hamburg", "zip_code": "22299", "country": "DE", "state": "HH", "display_address": ["Lattenkamp 33", "22299 Hamburg", "Germany"]}, "phone": "+494050099955", "display_phone": "+49 40 50099955", "distance": 3508.8092033338175}, {"id": "svS1byPUt9YZp_091LOkFg", "alias": "caf\u00e9-isekai-hamburg-4", "name": "Caf\u00e9 Isekai", "image_url": "https://s3-media2.fl.yelpcdn.com/bphoto/TU7f5ZlG7HnxloTevbN4Xg/o.jpg", "is_closed": false, "url": "https://www.yelp.com/biz/caf%C3%A9-isekai-hamburg-4?adjust_creative=hBJOknVQJ58S5goQyjmwRw&utm_campaign=yelp_api_v3&utm_medium=api_v3_business_search&utm_source=hBJOknVQJ58S5goQyjmwRw", "review_count": 18, "categories": [{"alias": "cafes", "title": "Cafes"}, {"alias": "breakfast_brunch", "title": "Breakfast & Brunch"}], "rating": 3.0, "coordinates": {"latitude": 53.5856, "longitude": 9.99313}, "transactions": [], "price": "\u20ac\u20ac\u20ac\u20ac", "location": {"address1": "Isekai \u00d6 13", "address2": null, "address3": "Supper Club", "city": "Hamburg", "zip_code": "20249", "country": "DE", "state": "HH", "display_address": ["Isekai \u00d6 13", "Supper Club", "20249 Hamburg", "Germany"]}, "phone": "+4940473461", "display_phone": "+49 40 473461", "distance": 4948.48225147254}, {"id": "hpTK3eTvltKy4WmjwQC3fQ", "alias": "pizza-max-hamburg-11", "name": "Pizza Max", "image_url": "https://s3-media1.fl.yelpcdn.com/bphoto/Von6GhVuXMMOKxMZ4qNXdQ/o.jpg", "is_closed": false, "url": "https://www.yelp.com/biz/pizza-max-hamburg-11?adjust_creative=hBJOknVQJ58S5goQyjmwRw&utm_campaign=yelp_api_v3&utm_medium=api_v3_business_search&utm_source=hBJOknVQJ58S5goQyjmwRw", "review_count": 11, "categories": [{"alias": "pizza", "title": "Pizza"}], "rating": 3.0, "coordinates": {"latitude": 53.5968208, "longitude": 9.9802103}, "transactions": [], "location": {"address1": "Lokstedter Weg 45", "address2": "", "address3": "", "city": "Hamburg", "zip_code": "20251", "country": "DE", "state": "HH", "display_address": ["Lokstedter Weg 45", "20251 Hamburg", "Germany"]}, "phone": "+494046778400", "display_phone": "+49 40 46778400", "distance": 3529.997680800689}, {"id": "jcOFRJkeu8v2VIvLuM0inQ", "alias": "dat-backhus-hamburg-25", "name": "Dat Backhus", "image_url": "https://s3-media3.fl.yelpcdn.com/bphoto/rMOdLrKADCDFa3lD2oxFXQ/o.jpg", "is_closed": false, "url": "https://www.yelp.com/biz/dat-backhus-hamburg-25?adjust_creative=hBJOknVQJ58S5goQyjmwRw&utm_campaign=yelp_api_v3&utm_medium=api_v3_business_search&utm_source=hBJOknVQJ58S5goQyjmwRw", "review_count": 5, "categories": [{"alias": "bakeries", "title": "Bakeries"}, {"alias": "cafes", "title": "Cafes"}], "rating": 3.5, "coordinates": {"latitude": 53.59050937742, "longitude": 9.985628359248}, "transactions": [], "price": "\u20ac\u20ac", "location": {"address1": "K\u00fcmmelstr. 4-8", "address2": "", "address3": "", "city": "Hamburg", "zip_code": "20249", "country": "DE", "state": "HH", "display_address": ["K\u00fcmmelstr. 4-8", "20249 Hamburg", "Germany"]}, "phone": "+494030031791", "display_phone": "+49 40 30031791", "distance": 4287.0308939338565}, {"id": "fk7f9-3Py2JV7gu-i0NuvA", "alias": "caf\u00e9-osterfeld-hamburg", "name": "Caf\u00e9 Osterfeld", "image_url": "https://s3-media2.fl.yelpcdn.com/bphoto/Km6Pee63MnzGau9oNqYVeQ/o.jpg", "is_closed": false, "url": "https://www.yelp.com/biz/caf%C3%A9-osterfeld-hamburg?adjust_creative=hBJOknVQJ58S5goQyjmwRw&utm_campaign=yelp_api_v3&utm_medium=api_v3_business_search&utm_source=hBJOknVQJ58S5goQyjmwRw", "review_count": 2, "categories": [{"alias": "cafes", "title": "Cafes"}, {"alias": "coffee", "title": "Coffee & Tea"}], "rating": 3.0, "coordinates": {"latitude": 53.5892, "longitude": 9.97361}, "transactions": [], "price": "\u20ac", "location": {"address1": "Martinistr. 52", "address2": null, "address3": null, "city": "Hamburg", "zip_code": "20251", "country": "DE", "state": "HH", "display_address": ["Martinistr. 52", "20251 Hamburg", "Germany"]}, "phone": "", "display_phone": "", "distance": 4312.849166334039}, {"id": "-elq51BCymx47gNc-G32Gg", "alias": "caffe-dallucci-hamburg", "name": "Caffe Dallucci", "image_url": "https://s3-media3.fl.yelpcdn.com/bphoto/dQKdZBA7GhVsVxQODgAPSQ/o.jpg", "is_closed": false, "url": "https://www.yelp.com/biz/caffe-dallucci-hamburg?adjust_creative=hBJOknVQJ58S5goQyjmwRw&utm_campaign=yelp_api_v3&utm_medium=api_v3_business_search&utm_source=hBJOknVQJ58S5goQyjmwRw", "review_count": 7, "categories": [{"alias": "cafes", "title": "Cafes"}, {"alias": "coffee", "title": "Coffee & Tea"}], "rating": 2.0, "coordinates": {"latitude": 53.589768248746, "longitude": 9.97600781710793}, "transactions": [], "location": {"address1": "Martinistr. 52", "address2": "", "address3": "", "city": "Hamburg", "zip_code": "20251", "country": "DE", "state": "HH", "display_address": ["Martinistr. 52", "20251 Hamburg", "Germany"]}, "phone": "", "display_phone": "", "distance": 4261.658474417781}, {"id": "kFl6020WAvx2THHeCpaaPQ", "alias": "caff\u00e9-dalluci-hamburg", "name": "Caff\u00e9 Dalluci", "image_url": "", "is_closed": false, "url": "https://www.yelp.com/biz/caff%C3%A9-dalluci-hamburg?adjust_creative=hBJOknVQJ58S5goQyjmwRw&utm_campaign=yelp_api_v3&utm_medium=api_v3_business_search&utm_source=hBJOknVQJ58S5goQyjmwRw", "review_count": 1, "categories": [{"alias": "cafes", "title": "Cafes"}], "rating": 3.0, "coordinates": {"latitude": 53.5892, "longitude": 9.9719}, "transactions": [], "location": {"address1": "Martinistr. 52", "address2": "", "address3": null, "city": "Hamburg", "zip_code": "20246", "country": "DE", "state": "HH", "display_address": ["Martinistr. 52", "20246 Hamburg", "Germany"]}, "phone": "", "display_phone": "", "distance": 4308.019716049777}, {"id": "1a_GGr_GrY2KbqbgWM0IpA", "alias": "schanzenb\u00e4ckerei-hamburg-48", "name": "Schanzenb\u00e4ckerei", "image_url": "https://s3-media3.fl.yelpcdn.com/bphoto/Pk_Bxoxlc1wmxFQ_W7xeow/o.jpg", "is_closed": false, "url": "https://www.yelp.com/biz/schanzenb%C3%A4ckerei-hamburg-48?adjust_creative=hBJOknVQJ58S5goQyjmwRw&utm_campaign=yelp_api_v3&utm_medium=api_v3_business_search&utm_source=hBJOknVQJ58S5goQyjmwRw", "review_count": 3, "categories": [{"alias": "bakeries", "title": "Bakeries"}, {"alias": "cafes", "title": "Cafes"}], "rating": 3.0, "coordinates": {"latitude": 53.60141, "longitude": 9.97655}, "transactions": [], "price": "\u20ac\u20ac", "location": {"address1": "Nedderfeld 70", "address2": null, "address3": null, "city": "Hamburg", "zip_code": "22529", "country": "DE", "state": "HH", "display_address": ["Nedderfeld 70", "22529 Hamburg", "Germany"]}, "phone": "+494046095915", "display_phone": "+49 40 46095915", "distance": 2980.31695859543}, {"id": "-ir-9ESOXvGocSqLj6y7gA", "alias": "mutterland-hamburg-7", "name": "Mutterland", "image_url": "https://s3-media3.fl.yelpcdn.com/bphoto/mZsYyMFL_EUo4-Prb-rZrg/o.jpg", "is_closed": false, "url": "https://www.yelp.com/biz/mutterland-hamburg-7?adjust_creative=hBJOknVQJ58S5goQyjmwRw&utm_campaign=yelp_api_v3&utm_medium=api_v3_business_search&utm_source=hBJOknVQJ58S5goQyjmwRw", "review_count": 46, "categories": [{"alias": "delicatessen", "title": "Delicatessen"}, {"alias": "cafes", "title": "Cafes"}, {"alias": "breakfast_brunch", "title": "Breakfast & Brunch"}], "rating": 3.5, "coordinates": {"latitude": 53.58551, "longitude": 9.98138}, "transactions": [], "price": "\u20ac\u20ac\u20ac", "location": {"address1": "Lenhartzstr. 1", "address2": "", "address3": "", "city": "Hamburg", "zip_code": "20249", "country": "DE", "state": "HH", "display_address": ["Lenhartzstr. 1", "20249 Hamburg", "Germany"]}, "phone": "+494054803170", "display_phone": "+49 40 54803170", "distance": 4773.126182579863}]