[{"id": "sPVuIokwJuuOouU4ikYlXQ", "alias": "da-lui-gro\u00dfhansdorf", "name": "Da Lui", "image_url": "https://s3-media4.fl.yelpcdn.com/bphoto/JpJVDiIliCQrQmL2sICjBw/o.jpg", "is_closed": false, "url": "https://www.yelp.com/biz/da-lui-gro%C3%9Fhansdorf?adjust_creative=hBJOknVQJ58S5goQyjmwRw&utm_campaign=yelp_api_v3&utm_medium=api_v3_business_search&utm_source=hBJOknVQJ58S5goQyjmwRw", "review_count": 6, "categories": [{"alias": "italian", "title": "Italian"}, {"alias": "pizza", "title": "Pizza"}], "rating": 4.5, "coordinates": {"latitude": 53.65245, "longitude": 10.25994}, "transactions": [], "price": "\u20ac\u20ac", "location": {"address1": "Ahrensfelder Weg 10", "address2": "", "address3": "", "city": "Gro\u00dfhansdorf", "zip_code": "22927", "country": "DE", "state": "SH", "display_address": ["Ahrensfelder Weg 10", "22927 Gro\u00dfhansdorf", "Germany"]}, "phone": "+4941028034179", "display_phone": "+49 4102 8034179", "distance": 3231.3761675656137}, {"id": "DPHWqly-0ZTcQ_ZKXgnoJA", "alias": "christos-stapelfelder-hof-stapelfeld", "name": "Christos Stapelfelder Hof", "image_url": "https://s3-media2.fl.yelpcdn.com/bphoto/7AqDlyB7Vz__T7qEoF9oZg/o.jpg", "is_closed": false, "url": "https://www.yelp.com/biz/christos-stapelfelder-hof-stapelfeld?adjust_creative=hBJOknVQJ58S5goQyjmwRw&utm_campaign=yelp_api_v3&utm_medium=api_v3_business_search&utm_source=hBJOknVQJ58S5goQyjmwRw", "review_count": 7, "categories": [{"alias": "greek", "title": "Greek"}], "rating": 4.5, "coordinates": {"latitude": 53.60503, "longitude": 10.22139}, "transactions": [], "price": "\u20ac\u20ac", "location": {"address1": "Reinbeker Str. 1", "address2": "", "address3": null, "city": "Stapelfeld", "zip_code": "22145", "country": "DE", "state": "SH", "display_address": ["Reinbeker Str. 1", "22145 Stapelfeld", "Germany"]}, "phone": "+49407355350", "display_phone": "+49 40 7355350", "distance": 2644.9869151937505}, {"id": "wOnyNMuOUVPtUm3Qm9owBQ", "alias": "oma-in-braak-braak", "name": "Oma in Braak", "image_url": "https://s3-media2.fl.yelpcdn.com/bphoto/3YBoeZ7hc4XPIU3ruYn7kQ/o.jpg", "is_closed": false, "url": "https://www.yelp.com/biz/oma-in-braak-braak?adjust_creative=hBJOknVQJ58S5goQyjmwRw&utm_campaign=yelp_api_v3&utm_medium=api_v3_business_search&utm_source=hBJOknVQJ58S5goQyjmwRw", "review_count": 1, "categories": [{"alias": "bakeries", "title": "Bakeries"}, {"alias": "cafes", "title": "Cafes"}], "rating": 5.0, "coordinates": {"latitude": 53.6151399, "longitude": 10.24123}, "transactions": [], "price": "\u20ac", "location": {"address1": "Ihlendiek 55", "address2": null, "address3": null, "city": "Braak", "zip_code": "22145", "country": "DE", "state": "SH", "display_address": ["Ihlendiek 55", "22145 Braak", "Germany"]}, "phone": "+49406779005", "display_phone": "+49 40 6779005", "distance": 1095.7189197840164}, {"id": "PJxZY6nLTG2hjTUhOFhT4g", "alias": "hotel-zur-windm\u00fchle-stapelfeld", "name": "Hotel zur Windm\u00fchle", "image_url": "https://s3-media3.fl.yelpcdn.com/bphoto/Cp80W94PL_uPIIdnSFVWzw/o.jpg", "is_closed": false, "url": "https://www.yelp.com/biz/hotel-zur-windm%C3%BChle-stapelfeld?adjust_creative=hBJOknVQJ58S5goQyjmwRw&utm_campaign=yelp_api_v3&utm_medium=api_v3_business_search&utm_source=hBJOknVQJ58S5goQyjmwRw", "review_count": 9, "categories": [{"alias": "hotels", "title": "Hotels"}, {"alias": "german", "title": "German"}], "rating": 2.5, "coordinates": {"latitude": 53.6086, "longitude": 10.2359}, "transactions": [], "price": "\u20ac\u20ac", "location": {"address1": "Hauptstr. 99", "address2": null, "address3": null, "city": "Stapelfeld", "zip_code": "22145", "country": "DE", "state": "SH", "display_address": ["Hauptstr. 99", "22145 Stapelfeld", "Germany"]}, "phone": "+4940675070", "display_phone": "+49 40 675070", "distance": 1913.2469044394015}, {"id": "ePi8qRlsS0yIj-vusvLwyw", "alias": "zum-griechen-ahrensburg", "name": "Zum Griechen", "image_url": "https://s3-media2.fl.yelpcdn.com/bphoto/0iWuNO5GwTcWCmPWnTvOSA/o.jpg", "is_closed": false, "url": "https://www.yelp.com/biz/zum-griechen-ahrensburg?adjust_creative=hBJOknVQJ58S5goQyjmwRw&utm_campaign=yelp_api_v3&utm_medium=api_v3_business_search&utm_source=hBJOknVQJ58S5goQyjmwRw", "review_count": 35, "categories": [{"alias": "greek", "title": "Greek"}], "rating": 4.0, "coordinates": {"latitude": 53.665075, "longitude": 10.220437}, "transactions": [], "price": "\u20ac\u20ac", "location": {"address1": "Ohlendamm 1", "address2": "", "address3": "", "city": "Ahrensburg", "zip_code": "22926", "country": "DE", "state": "SH", "display_address": ["Ohlendamm 1", "22926 Ahrensburg", "Germany"]}, "phone": "+4941021404", "display_phone": "+49 4102 1404", "distance": 4634.1231970417575}, {"id": "nNHDS5YgtsSiSPk-berUqg", "alias": "back-drive-braaker-m\u00fchle-braak", "name": "Back Drive Braaker M\u00fchle", "image_url": "https://s3-media2.fl.yelpcdn.com/bphoto/DJeDEFHaSFa5-ddvcifdCg/o.jpg", "is_closed": false, "url": "https://www.yelp.com/biz/back-drive-braaker-m%C3%BChle-braak?adjust_creative=hBJOknVQJ58S5goQyjmwRw&utm_campaign=yelp_api_v3&utm_medium=api_v3_business_search&utm_source=hBJOknVQJ58S5goQyjmwRw", "review_count": 9, "categories": [{"alias": "cafes", "title": "Cafes"}, {"alias": "breakfast_brunch", "title": "Breakfast & Brunch"}, {"alias": "bakeries", "title": "Bakeries"}], "rating": 3.0, "coordinates": {"latitude": 53.618016, "longitude": 10.240096}, "transactions": [], "price": "\u20ac", "location": {"address1": "Braaker Bogen 33", "address2": null, "address3": "", "city": "Braak", "zip_code": "22145", "country": "DE", "state": "SH", "display_address": ["Braaker Bogen 33", "22145 Braak", "Germany"]}, "phone": "+494018024177", "display_phone": "+49 40 18024177", "distance": 832.6575180028858}, {"id": "xLilx-iD9unLXTOgGRa5_w", "alias": "bierstein-ahrensburg", "name": "Bierstein", "image_url": "https://s3-media1.fl.yelpcdn.com/bphoto/-05QMTtkK7DmqfDGdwFlhg/o.jpg", "is_closed": false, "url": "https://www.yelp.com/biz/bierstein-ahrensburg?adjust_creative=hBJOknVQJ58S5goQyjmwRw&utm_campaign=yelp_api_v3&utm_medium=api_v3_business_search&utm_source=hBJOknVQJ58S5goQyjmwRw", "review_count": 1, "categories": [{"alias": "restaurants", "title": "Restaurants"}, {"alias": "musicvenues", "title": "Music Venues"}], "rating": 4.0, "coordinates": {"latitude": 53.6408144411685, "longitude": 10.2171700833979}, "transactions": [], "location": {"address1": "D\u00e4nenweg 10", "address2": "", "address3": null, "city": "Ahrensburg", "zip_code": "22926", "country": "DE", "state": "SH", "display_address": ["D\u00e4nenweg 10", "22926 Ahrensburg", "Germany"]}, "phone": "+491712447081", "display_phone": "+49 171 2447081", "distance": 2372.933315544083}, {"id": "u3ub5f0MS4qY67Q8XF9ZoA", "alias": "sodemanns-fisch-kutter-nr-1-hamburg", "name": "Sodemann's Fisch-Kutter Nr. 1", "image_url": "https://s3-media3.fl.yelpcdn.com/bphoto/BlysP6fVPaL0eEjKvEbByw/o.jpg", "is_closed": false, "url": "https://www.yelp.com/biz/sodemanns-fisch-kutter-nr-1-hamburg?adjust_creative=hBJOknVQJ58S5goQyjmwRw&utm_campaign=yelp_api_v3&utm_medium=api_v3_business_search&utm_source=hBJOknVQJ58S5goQyjmwRw", "review_count": 3, "categories": [{"alias": "foodtrucks", "title": "Food Trucks"}, {"alias": "fischbroetchen", "title": "Fischbroetchen"}], "rating": 5.0, "coordinates": {"latitude": 53.5537490844727, "longitude": 9.99182987213135}, "transactions": [], "price": "\u20ac\u20ac", "location": {"address1": "", "address2": null, "address3": "", "city": "Hamburg", "zip_code": "", "country": "DE", "state": "HH", "display_address": ["Hamburg", "Germany"]}, "phone": "+491773606663", "display_phone": "+49 177 3606663", "distance": 18360.400025064144}, {"id": "eoT1lSiZE9eIGbiHAKvEXg", "alias": "dat-backhus-gro\u00dfhansdorf", "name": "Dat Backhus", "image_url": "https://s3-media1.fl.yelpcdn.com/bphoto/XIaqQL0Npo2ZuoVYnpvjWQ/o.jpg", "is_closed": false, "url": "https://www.yelp.com/biz/dat-backhus-gro%C3%9Fhansdorf?adjust_creative=hBJOknVQJ58S5goQyjmwRw&utm_campaign=yelp_api_v3&utm_medium=api_v3_business_search&utm_source=hBJOknVQJ58S5goQyjmwRw", "review_count": 2, "categories": [{"alias": "cafes", "title": "Cafes"}], "rating": 4.0, "coordinates": {"latitude": 53.6531030812629, "longitude": 10.2620005980134}, "transactions": [], "price": "\u20ac", "location": {"address1": "Ahrensfelder Weg 1", "address2": "", "address3": null, "city": "Gro\u00dfhansdorf", "zip_code": "22927", "country": "DE", "state": "SH", "display_address": ["Ahrensfelder Weg 1", "22927 Gro\u00dfhansdorf", "Germany"]}, "phone": "+4941028247030", "display_phone": "+49 4102 8247030", "distance": 3347.548593712806}, {"id": "70tzSXq2-oHDCniqEun9gQ", "alias": "restaurante-peerstall-cavallino-ahrensburg", "name": "Restaurante Peerstall Cavallino", "image_url": "https://s3-media2.fl.yelpcdn.com/bphoto/e4y1EphxfhtSuCboPaGd1A/o.jpg", "is_closed": false, "url": "https://www.yelp.com/biz/restaurante-peerstall-cavallino-ahrensburg?adjust_creative=hBJOknVQJ58S5goQyjmwRw&utm_campaign=yelp_api_v3&utm_medium=api_v3_business_search&utm_source=hBJOknVQJ58S5goQyjmwRw", "review_count": 8, "categories": [{"alias": "italian", "title": "Italian"}], "rating": 3.5, "coordinates": {"latitude": 53.64305, "longitude": 10.24192}, "transactions": [], "price": "\u20ac\u20ac", "location": {"address1": "Querweg 1", "address2": null, "address3": null, "city": "Ahrensburg", "zip_code": "22926", "country": "DE", "state": "SH", "display_address": ["Querweg 1", "22926 Ahrensburg", "Germany"]}, "phone": "+49410263700", "display_phone": "+49 4102 63700", "distance": 2044.7354843237763}, {"id": "xSZO3bg3cyXdB3cEAblykQ", "alias": "la-casetta-ahrensburg", "name": "La Casetta", "image_url": "https://s3-media4.fl.yelpcdn.com/bphoto/LljVDlDhmpcwSsRQeyK1XA/o.jpg", "is_closed": false, "url": "https://www.yelp.com/biz/la-casetta-ahrensburg?adjust_creative=hBJOknVQJ58S5goQyjmwRw&utm_campaign=yelp_api_v3&utm_medium=api_v3_business_search&utm_source=hBJOknVQJ58S5goQyjmwRw", "review_count": 4, "categories": [{"alias": "italian", "title": "Italian"}, {"alias": "venues", "title": "Venues & Event Spaces"}], "rating": 4.0, "coordinates": {"latitude": 53.6670299, "longitude": 10.22166}, "transactions": [], "location": {"address1": "Rantzaustr. 136", "address2": null, "address3": "", "city": "Ahrensburg", "zip_code": "22926", "country": "DE", "state": "SH", "display_address": ["Rantzaustr. 136", "22926 Ahrensburg", "Germany"]}, "phone": "+494102205573", "display_phone": "+49 4102 205573", "distance": 4818.652756885297}, {"id": "APvIA_7ssxgC0atmQEFMcg", "alias": "burgerkultour-food-truck-hamburg-2", "name": "BurgerKultour Food Truck", "image_url": "https://s3-media4.fl.yelpcdn.com/bphoto/KoAuwalMnlAO8139MmdYBQ/o.jpg", "is_closed": false, "url": "https://www.yelp.com/biz/burgerkultour-food-truck-hamburg-2?adjust_creative=hBJOknVQJ58S5goQyjmwRw&utm_campaign=yelp_api_v3&utm_medium=api_v3_business_search&utm_source=hBJOknVQJ58S5goQyjmwRw", "review_count": 3, "categories": [{"alias": "foodtrucks", "title": "Food Trucks"}, {"alias": "burgers", "title": "Burgers"}], "rating": 4.5, "coordinates": {"latitude": 53.57154, "longitude": 9.95575}, "transactions": [], "price": "\u20ac\u20ac", "location": {"address1": "", "address2": "", "address3": "", "city": "Hamburg", "zip_code": "20259", "country": "DE", "state": "HH", "display_address": ["20259 Hamburg", "Germany"]}, "phone": "+4917626055122", "display_phone": "+49 176 26055122", "distance": 19802.01229608871}, {"id": "QuEmoW_Y7Vqhh1qWPreNog", "alias": "fr\u00fchst\u00fccks-stube-ahrensburg", "name": "Fr\u00fchst\u00fccks-Stube", "image_url": "", "is_closed": false, "url": "https://www.yelp.com/biz/fr%C3%BChst%C3%BCcks-stube-ahrensburg?adjust_creative=hBJOknVQJ58S5goQyjmwRw&utm_campaign=yelp_api_v3&utm_medium=api_v3_business_search&utm_source=hBJOknVQJ58S5goQyjmwRw", "review_count": 4, "categories": [{"alias": "cafes", "title": "Cafes"}, {"alias": "coffee", "title": "Coffee & Tea"}], "rating": 5.0, "coordinates": {"latitude": 53.66487, "longitude": 10.22024}, "transactions": [], "location": {"address1": "Waldemar-Bonselsweg 168", "address2": null, "address3": null, "city": "Ahrensburg", "zip_code": "22926", "country": "DE", "state": "SH", "display_address": ["Waldemar-Bonselsweg 168", "22926 Ahrensburg", "Germany"]}, "phone": "+49410230295", "display_phone": "+49 4102 30295", "distance": 4617.714253597299}, {"id": "iSws6BKVmcB6RTBkKY-XVw", "alias": "restaurant-pomodoro-ahrensburg", "name": "Restaurant pomodoro", "image_url": "", "is_closed": false, "url": "https://www.yelp.com/biz/restaurant-pomodoro-ahrensburg?adjust_creative=hBJOknVQJ58S5goQyjmwRw&utm_campaign=yelp_api_v3&utm_medium=api_v3_business_search&utm_source=hBJOknVQJ58S5goQyjmwRw", "review_count": 1, "categories": [{"alias": "italian", "title": "Italian"}], "rating": 5.0, "coordinates": {"latitude": 53.64002, "longitude": 10.21673}, "transactions": [], "location": {"address1": "D\u00e4nenweg 2", "address2": "", "address3": null, "city": "Ahrensburg", "zip_code": "22926", "country": "DE", "state": "SH", "display_address": ["D\u00e4nenweg 2", "22926 Ahrensburg", "Germany"]}, "phone": "+4941029830677", "display_phone": "+49 4102 9830677", "distance": 2309.053603150316}, {"id": "qXJD8Oep_OSBlV0AM00eRg", "alias": "gastst\u00e4tte-braaker-krug-braak", "name": "Gastst\u00e4tte Braaker Krug", "image_url": "https://s3-media3.fl.yelpcdn.com/bphoto/dtO6y6MWBi6ddDH2mXB0uw/o.jpg", "is_closed": false, "url": "https://www.yelp.com/biz/gastst%C3%A4tte-braaker-krug-braak?adjust_creative=hBJOknVQJ58S5goQyjmwRw&utm_campaign=yelp_api_v3&utm_medium=api_v3_business_search&utm_source=hBJOknVQJ58S5goQyjmwRw", "review_count": 8, "categories": [{"alias": "restaurants", "title": "Restaurants"}], "rating": 3.5, "coordinates": {"latitude": 53.616215, "longitude": 10.240216}, "transactions": [], "price": "\u20ac", "location": {"address1": "Am Sp\u00f6tzen 1", "address2": null, "address3": null, "city": "Braak", "zip_code": "22145", "country": "DE", "state": "SH", "display_address": ["Am Sp\u00f6tzen 1", "22145 Braak", "Germany"]}, "phone": "+49406759540", "display_phone": "+49 40 6759540", "distance": 1031.721505172788}, {"id": "otXAU9fFRpqLYMZYoEgrXQ", "alias": "mcdonalds-ahrensburg", "name": "McDonald's", "image_url": "https://s3-media3.fl.yelpcdn.com/bphoto/oN01eTrfJbmbPw2ErphhjQ/o.jpg", "is_closed": false, "url": "https://www.yelp.com/biz/mcdonalds-ahrensburg?adjust_creative=hBJOknVQJ58S5goQyjmwRw&utm_campaign=yelp_api_v3&utm_medium=api_v3_business_search&utm_source=hBJOknVQJ58S5goQyjmwRw", "review_count": 12, "categories": [{"alias": "hotdogs", "title": "Fast Food"}, {"alias": "burgers", "title": "Burgers"}], "rating": 3.0, "coordinates": {"latitude": 53.6635599, "longitude": 10.2212099}, "transactions": [], "price": "\u20ac\u20ac", "location": {"address1": "Hamburger Str. 159", "address2": null, "address3": null, "city": "Ahrensburg", "zip_code": "22926", "country": "DE", "state": "SH", "display_address": ["Hamburger Str. 159", "22926 Ahrensburg", "Germany"]}, "phone": "+494102821707", "display_phone": "+49 4102 821707", "distance": 4454.743947033414}, {"id": "9WImPAkgJMIdbyb0lAa2tg", "alias": "tunicis-restaurant-dubrovnik-ahrensburg-2", "name": "Tunici's Restaurant Dubrovnik", "image_url": "", "is_closed": false, "url": "https://www.yelp.com/biz/tunicis-restaurant-dubrovnik-ahrensburg-2?adjust_creative=hBJOknVQJ58S5goQyjmwRw&utm_campaign=yelp_api_v3&utm_medium=api_v3_business_search&utm_source=hBJOknVQJ58S5goQyjmwRw", "review_count": 11, "categories": [{"alias": "serbocroatian", "title": "Serbo Croatian"}], "rating": 3.5, "coordinates": {"latitude": 53.66187, "longitude": 10.24325}, "transactions": [], "location": {"address1": "Ahrensfelder Weg 52", "address2": "", "address3": "", "city": "Ahrensburg", "zip_code": "22926", "country": "DE", "state": "SH", "display_address": ["Ahrensfelder Weg 52", "22926 Ahrensburg", "Germany"]}, "phone": "+49410251211", "display_phone": "+49 4102 51211", "distance": 4054.7515158738656}, {"id": "tKyHGeLv00xm-NtJGra3Kg", "alias": "eis-cafe-chocolat-ahrensburg", "name": "Eis Cafe Chocolat", "image_url": "https://s3-media1.fl.yelpcdn.com/bphoto/wqmYbDRV1BIpTlJFWnLSmg/o.jpg", "is_closed": false, "url": "https://www.yelp.com/biz/eis-cafe-chocolat-ahrensburg?adjust_creative=hBJOknVQJ58S5goQyjmwRw&utm_campaign=yelp_api_v3&utm_medium=api_v3_business_search&utm_source=hBJOknVQJ58S5goQyjmwRw", "review_count": 3, "categories": [{"alias": "cafes", "title": "Cafes"}, {"alias": "coffee", "title": "Coffee & Tea"}], "rating": 4.5, "coordinates": {"latitude": 53.664, "longitude": 10.2206}, "transactions": [], "location": {"address1": "Waldemar-Bonsels-Weg", "address2": null, "address3": null, "city": "Ahrensburg", "zip_code": "22926", "country": "DE", "state": "SH", "display_address": ["Waldemar-Bonsels-Weg", "22926 Ahrensburg", "Germany"]}, "phone": "", "display_phone": "", "distance": 4518.409186630071}, {"id": "cGIKCcR0wZszz8VldC2-7g", "alias": "currywerk-hamburg", "name": "curryWERK", "image_url": "https://s3-media4.fl.yelpcdn.com/bphoto/j_ZPQAB6JrAru84VDuLiRA/o.jpg", "is_closed": false, "url": "https://www.yelp.com/biz/currywerk-hamburg?adjust_creative=hBJOknVQJ58S5goQyjmwRw&utm_campaign=yelp_api_v3&utm_medium=api_v3_business_search&utm_source=hBJOknVQJ58S5goQyjmwRw", "review_count": 1, "categories": [{"alias": "foodtrucks", "title": "Food Trucks"}, {"alias": "currysausage", "title": "Curry Sausage"}], "rating": 4.0, "coordinates": {"latitude": 53.5498886108398, "longitude": 9.94732189178467}, "transactions": [], "price": "\u20ac\u20ac", "location": {"address1": "", "address2": "", "address3": "", "city": "Hamburg", "zip_code": "22767", "country": "DE", "state": "HH", "display_address": ["22767 Hamburg", "Germany"]}, "phone": "+4917632443433", "display_phone": "+49 176 32443433", "distance": 21520.303444565794}]