[{"id": "GOkAbpc01-TQFeMJ1m33vA", "alias": "la-terrazza-hamburg", "name": "La Terrazza", "image_url": "https://s3-media3.fl.yelpcdn.com/bphoto/NjoxAhgl6EcwmgOmk1KgSw/o.jpg", "is_closed": false, "url": "https://www.yelp.com/biz/la-terrazza-hamburg?adjust_creative=hBJOknVQJ58S5goQyjmwRw&utm_campaign=yelp_api_v3&utm_medium=api_v3_business_search&utm_source=hBJOknVQJ58S5goQyjmwRw", "review_count": 34, "categories": [{"alias": "italian", "title": "Italian"}], "rating": 4.5, "coordinates": {"latitude": 53.63217, "longitude": 9.95583}, "transactions": [], "price": "\u20ac\u20ac", "location": {"address1": "Adlerhorst 18", "address2": "", "address3": "", "city": "Hamburg", "zip_code": "22459", "country": "DE", "state": "HH", "display_address": ["Adlerhorst 18", "22459 Hamburg", "Germany"]}, "phone": "+494056009241", "display_phone": "+49 40 56009241", "distance": 1160.6409496959352}, {"id": "v7pzQnz0d0xs8fFyLXFP5g", "alias": "joks-steakhouse-hamburg", "name": "Jok's Steakhouse", "image_url": "https://s3-media2.fl.yelpcdn.com/bphoto/7P1RhkDr4svJE6oEe69NsA/o.jpg", "is_closed": false, "url": "https://www.yelp.com/biz/joks-steakhouse-hamburg?adjust_creative=hBJOknVQJ58S5goQyjmwRw&utm_campaign=yelp_api_v3&utm_medium=api_v3_business_search&utm_source=hBJOknVQJ58S5goQyjmwRw", "review_count": 71, "categories": [{"alias": "steak", "title": "Steakhouses"}], "rating": 4.0, "coordinates": {"latitude": 53.63533, "longitude": 9.91884}, "transactions": [], "price": "\u20ac\u20ac", "location": {"address1": "Frohmestr. 11", "address2": null, "address3": null, "city": "Hamburg", "zip_code": "22457", "country": "DE", "state": "HH", "display_address": ["Frohmestr. 11", "22457 Hamburg", "Germany"]}, "phone": "+49405594459", "display_phone": "+49 40 5594459", "distance": 1560.4950277637768}, {"id": "risFWghqY9UAzmemif3e4w", "alias": "gasthaus-pilio-hamburg", "name": "Gasthaus Pilio", "image_url": "https://s3-media2.fl.yelpcdn.com/bphoto/8tzSJl0BAGX0nHvIpuQCtA/o.jpg", "is_closed": false, "url": "https://www.yelp.com/biz/gasthaus-pilio-hamburg?adjust_creative=hBJOknVQJ58S5goQyjmwRw&utm_campaign=yelp_api_v3&utm_medium=api_v3_business_search&utm_source=hBJOknVQJ58S5goQyjmwRw", "review_count": 45, "categories": [{"alias": "greek", "title": "Greek"}], "rating": 4.5, "coordinates": {"latitude": 53.6215299206977, "longitude": 9.95179004967213}, "transactions": [], "price": "\u20ac\u20ac", "location": {"address1": "Tibarg 33 a", "address2": "", "address3": "", "city": "Hamburg", "zip_code": "22459", "country": "DE", "state": "HH", "display_address": ["Tibarg 33 a", "22459 Hamburg", "Germany"]}, "phone": "+4940582214", "display_phone": "+49 40 582214", "distance": 1085.4800032654143}, {"id": "qUJfOZZ4S69Amwf8J8SS8w", "alias": "osteria-da-vino-hamburg", "name": "Osteria da Vino", "image_url": "https://s3-media3.fl.yelpcdn.com/bphoto/p7gn9gWX4XVKALvT-dZGOA/o.jpg", "is_closed": false, "url": "https://www.yelp.com/biz/osteria-da-vino-hamburg?adjust_creative=hBJOknVQJ58S5goQyjmwRw&utm_campaign=yelp_api_v3&utm_medium=api_v3_business_search&utm_source=hBJOknVQJ58S5goQyjmwRw", "review_count": 25, "categories": [{"alias": "italian", "title": "Italian"}], "rating": 4.0, "coordinates": {"latitude": 53.6289366, "longitude": 9.92505}, "transactions": [], "price": "\u20ac\u20ac", "location": {"address1": "Heidlohstr. 20", "address2": null, "address3": null, "city": "Hamburg", "zip_code": "22459", "country": "DE", "state": "HH", "display_address": ["Heidlohstr. 20", "22459 Hamburg", "Germany"]}, "phone": "+49405592696", "display_phone": "+49 40 5592696", "distance": 971.1098702451616}, {"id": "_xp9F0Qmo8G0KIyIPKFiPw", "alias": "schweizer-haus-hamburg", "name": "Schweizer Haus", "image_url": "https://s3-media3.fl.yelpcdn.com/bphoto/36KLcJCajRwv7DgCthCanw/o.jpg", "is_closed": false, "url": "https://www.yelp.com/biz/schweizer-haus-hamburg?adjust_creative=hBJOknVQJ58S5goQyjmwRw&utm_campaign=yelp_api_v3&utm_medium=api_v3_business_search&utm_source=hBJOknVQJ58S5goQyjmwRw", "review_count": 7, "categories": [{"alias": "international", "title": "International"}, {"alias": "burgers", "title": "Burgers"}, {"alias": "sportsbars", "title": "Sports Bars"}], "rating": 3.5, "coordinates": {"latitude": 53.6257731, "longitude": 9.9460834}, "transactions": [], "price": "\u20ac\u20ac", "location": {"address1": "Hadermannsweg 57", "address2": null, "address3": null, "city": "Hamburg", "zip_code": "22459", "country": "DE", "state": "HH", "display_address": ["Hadermannsweg 57", "22459 Hamburg", "Germany"]}, "phone": "+494030717656", "display_phone": "+49 40 30717656", "distance": 496.9455934315381}, {"id": "T94FaXaga2Uu1m7FsYA18w", "alias": "alexandros-hamburg-4", "name": "Alexandros", "image_url": "https://s3-media2.fl.yelpcdn.com/bphoto/JEYmnGmf2-uGarBY3blCWQ/o.jpg", "is_closed": false, "url": "https://www.yelp.com/biz/alexandros-hamburg-4?adjust_creative=hBJOknVQJ58S5goQyjmwRw&utm_campaign=yelp_api_v3&utm_medium=api_v3_business_search&utm_source=hBJOknVQJ58S5goQyjmwRw", "review_count": 4, "categories": [{"alias": "greek", "title": "Greek"}], "rating": 4.0, "coordinates": {"latitude": 53.629672, "longitude": 9.942439}, "transactions": [], "location": {"address1": "Wendlohstr. 90", "address2": "", "address3": null, "city": "Hamburg", "zip_code": "22459", "country": "DE", "state": "HH", "display_address": ["Wendlohstr. 90", "22459 Hamburg", "Germany"]}, "phone": "+494065917806", "display_phone": "+49 40 65917806", "distance": 245.26127355864097}, {"id": "Gc3mUnsxH94Qald5kFMNhQ", "alias": "die-kleine-fischerstube-hamburg", "name": "Die kleine Fischerstube", "image_url": "https://s3-media3.fl.yelpcdn.com/bphoto/AWGJePl3L95hF-1WK98fyw/o.jpg", "is_closed": false, "url": "https://www.yelp.com/biz/die-kleine-fischerstube-hamburg?adjust_creative=hBJOknVQJ58S5goQyjmwRw&utm_campaign=yelp_api_v3&utm_medium=api_v3_business_search&utm_source=hBJOknVQJ58S5goQyjmwRw", "review_count": 31, "categories": [{"alias": "seafood", "title": "Seafood"}, {"alias": "german", "title": "German"}], "rating": 4.0, "coordinates": {"latitude": 53.62115, "longitude": 9.9519}, "transactions": [], "price": "\u20ac\u20ac", "location": {"address1": "Tibarg 27", "address2": "", "address3": "", "city": "Hamburg", "zip_code": "22459", "country": "DE", "state": "HH", "display_address": ["Tibarg 27", "22459 Hamburg", "Germany"]}, "phone": "+494058954720", "display_phone": "+49 40 58954720", "distance": 1112.9783639300226}, {"id": "P4DcAjOedAFJFulOC9zoCA", "alias": "adyton-hamburg", "name": "Adyton", "image_url": "https://s3-media3.fl.yelpcdn.com/bphoto/jsdX5nPCSjWgCGZ4SfsA_g/o.jpg", "is_closed": false, "url": "https://www.yelp.com/biz/adyton-hamburg?adjust_creative=hBJOknVQJ58S5goQyjmwRw&utm_campaign=yelp_api_v3&utm_medium=api_v3_business_search&utm_source=hBJOknVQJ58S5goQyjmwRw", "review_count": 4, "categories": [{"alias": "international", "title": "International"}], "rating": 4.5, "coordinates": {"latitude": 53.6435, "longitude": 9.96095}, "transactions": [], "price": "\u20ac\u20ac", "location": {"address1": "Sachsenweg 78", "address2": null, "address3": null, "city": "Hamburg", "zip_code": "22455", "country": "DE", "state": "HH", "display_address": ["Sachsenweg 78", "22455 Hamburg", "Germany"]}, "phone": "+494055421621", "display_phone": "+49 40 55421621", "distance": 2205.891653855572}, {"id": "naHSQVdkPYV8NTottebzRg", "alias": "trattoria-pirandello-hamburg", "name": "Trattoria Pirandello", "image_url": "https://s3-media3.fl.yelpcdn.com/bphoto/QtSQ9XL27EOBwI068uFkjA/o.jpg", "is_closed": false, "url": "https://www.yelp.com/biz/trattoria-pirandello-hamburg?adjust_creative=hBJOknVQJ58S5goQyjmwRw&utm_campaign=yelp_api_v3&utm_medium=api_v3_business_search&utm_source=hBJOknVQJ58S5goQyjmwRw", "review_count": 19, "categories": [{"alias": "pizza", "title": "Pizza"}, {"alias": "italian", "title": "Italian"}], "rating": 4.0, "coordinates": {"latitude": 53.64031, "longitude": 9.94794}, "transactions": [], "price": "\u20ac\u20ac", "location": {"address1": "Nordalbingerweg 17", "address2": "", "address3": "", "city": "Hamburg", "zip_code": "22455", "country": "DE", "state": "HH", "display_address": ["Nordalbingerweg 17", "22455 Hamburg", "Germany"]}, "phone": "+494055598570", "display_phone": "+49 40 55598570", "distance": 1454.9422533714644}, {"id": "OZ9aIUijZbgLn9GyN1QChQ", "alias": "mai-bistro-hamburg", "name": "Mai Bistro", "image_url": "https://s3-media4.fl.yelpcdn.com/bphoto/N69n8eUT8CYBKsZdF4omDA/o.jpg", "is_closed": false, "url": "https://www.yelp.com/biz/mai-bistro-hamburg?adjust_creative=hBJOknVQJ58S5goQyjmwRw&utm_campaign=yelp_api_v3&utm_medium=api_v3_business_search&utm_source=hBJOknVQJ58S5goQyjmwRw", "review_count": 4, "categories": [{"alias": "vietnamese", "title": "Vietnamese"}, {"alias": "chinese", "title": "Chinese"}], "rating": 5.0, "coordinates": {"latitude": 53.6406600758964, "longitude": 9.9473499879241}, "transactions": [], "price": "\u20ac\u20ac", "location": {"address1": "Rudolf-Klug-Weg 9", "address2": "", "address3": null, "city": "Hamburg", "zip_code": "22455", "country": "DE", "state": "HH", "display_address": ["Rudolf-Klug-Weg 9", "22455 Hamburg", "Germany"]}, "phone": "+494055599544", "display_phone": "+49 40 55599544", "distance": 1477.4428348444778}, {"id": "Hi-T7r5zZCVZAykf7L3uDA", "alias": "humboldt-hamburg", "name": "Humboldt", "image_url": "https://s3-media3.fl.yelpcdn.com/bphoto/-1U0b4EpB_XIBOvwOr2uyQ/o.jpg", "is_closed": false, "url": "https://www.yelp.com/biz/humboldt-hamburg?adjust_creative=hBJOknVQJ58S5goQyjmwRw&utm_campaign=yelp_api_v3&utm_medium=api_v3_business_search&utm_source=hBJOknVQJ58S5goQyjmwRw", "review_count": 32, "categories": [{"alias": "german", "title": "German"}, {"alias": "tradamerican", "title": "American (Traditional)"}, {"alias": "sportsbars", "title": "Sports Bars"}], "rating": 3.0, "coordinates": {"latitude": 53.6208699066105, "longitude": 9.95290316641331}, "transactions": [], "price": "\u20ac", "location": {"address1": "Tibarg 40", "address2": "", "address3": "", "city": "Hamburg", "zip_code": "22459", "country": "DE", "state": "HH", "display_address": ["Tibarg 40", "22459 Hamburg", "Germany"]}, "phone": "+494058951933", "display_phone": "+49 40 58951933", "distance": 1189.2182470002763}, {"id": "zWNZhZXMLbLageqZ-Rkqxg", "alias": "victors-hamburg", "name": "Victors", "image_url": "https://s3-media3.fl.yelpcdn.com/bphoto/47zIgP1Sn9fdoZH8L3GNCg/o.jpg", "is_closed": false, "url": "https://www.yelp.com/biz/victors-hamburg?adjust_creative=hBJOknVQJ58S5goQyjmwRw&utm_campaign=yelp_api_v3&utm_medium=api_v3_business_search&utm_source=hBJOknVQJ58S5goQyjmwRw", "review_count": 6, "categories": [{"alias": "bars", "title": "Bars"}, {"alias": "german", "title": "German"}], "rating": 3.5, "coordinates": {"latitude": 53.6364, "longitude": 9.94439}, "transactions": [], "price": "\u20ac\u20ac", "location": {"address1": "Quedlinburger Weg 84", "address2": null, "address3": null, "city": "Hamburg", "zip_code": "22455", "country": "DE", "state": "HH", "display_address": ["Quedlinburger Weg 84", "22455 Hamburg", "Germany"]}, "phone": "+49405517422", "display_phone": "+49 40 5517422", "distance": 965.8601268492988}, {"id": "l2DXqPaUw7G8PHpXfONO0w", "alias": "osteria-liguria-hamburg", "name": "Osteria Liguria", "image_url": "https://s3-media1.fl.yelpcdn.com/bphoto/eyVloBLtkH9d9G2XyXv3Jg/o.jpg", "is_closed": false, "url": "https://www.yelp.com/biz/osteria-liguria-hamburg?adjust_creative=hBJOknVQJ58S5goQyjmwRw&utm_campaign=yelp_api_v3&utm_medium=api_v3_business_search&utm_source=hBJOknVQJ58S5goQyjmwRw", "review_count": 64, "categories": [{"alias": "italian", "title": "Italian"}], "rating": 4.5, "coordinates": {"latitude": 53.60974, "longitude": 9.9581}, "transactions": [], "price": "\u20ac\u20ac", "location": {"address1": "Kollaustr. 125", "address2": "", "address3": null, "city": "Hamburg", "zip_code": "22453", "country": "DE", "state": "HH", "display_address": ["Kollaustr. 125", "22453 Hamburg", "Germany"]}, "phone": "+4940582569", "display_phone": "+49 40 582569", "distance": 2380.7542877769733}, {"id": "o2T6iyuombynllX-qGb-AQ", "alias": "hellas-hamburg-2", "name": "Hellas", "image_url": "https://s3-media3.fl.yelpcdn.com/bphoto/w2DIGy_eKDVLfLWp_HTF0A/o.jpg", "is_closed": false, "url": "https://www.yelp.com/biz/hellas-hamburg-2?adjust_creative=hBJOknVQJ58S5goQyjmwRw&utm_campaign=yelp_api_v3&utm_medium=api_v3_business_search&utm_source=hBJOknVQJ58S5goQyjmwRw", "review_count": 28, "categories": [{"alias": "greek", "title": "Greek"}], "rating": 4.5, "coordinates": {"latitude": 53.6333, "longitude": 9.91477}, "transactions": [], "price": "\u20ac\u20ac", "location": {"address1": "Riekbornweg 16", "address2": null, "address3": null, "city": "Hamburg", "zip_code": "22457", "country": "DE", "state": "HH", "display_address": ["Riekbornweg 16", "22457 Hamburg", "Germany"]}, "phone": "+494097078235", "display_phone": "+49 40 97078235", "distance": 1741.3120522106874}, {"id": "_LLuKQ0DAn9zgE4D9Mpc9Q", "alias": "taverna-santorini-hamburg-2", "name": "Taverna Santorini", "image_url": "https://s3-media1.fl.yelpcdn.com/bphoto/0ciNadd3zAnDi-YdsFJ_7w/o.jpg", "is_closed": false, "url": "https://www.yelp.com/biz/taverna-santorini-hamburg-2?adjust_creative=hBJOknVQJ58S5goQyjmwRw&utm_campaign=yelp_api_v3&utm_medium=api_v3_business_search&utm_source=hBJOknVQJ58S5goQyjmwRw", "review_count": 9, "categories": [{"alias": "greek", "title": "Greek"}], "rating": 4.0, "coordinates": {"latitude": 53.6226, "longitude": 9.950964}, "transactions": [], "price": "\u20ac", "location": {"address1": "Wendlohstr. 13", "address2": "", "address3": "", "city": "Hamburg", "zip_code": "22459", "country": "DE", "state": "HH", "display_address": ["Wendlohstr. 13", "22459 Hamburg", "Germany"]}, "phone": "+494022628444", "display_phone": "+49 40 22628444", "distance": 981.3212226200704}, {"id": "8LAxLlweKVtus23DrB4Rcg", "alias": "china-restaurant-ho-schnelsen-hamburg-3", "name": "China-Restaurant Ho Schnelsen", "image_url": "https://s3-media3.fl.yelpcdn.com/bphoto/4qydCYSzwz_4WE6qo_Qj5A/o.jpg", "is_closed": false, "url": "https://www.yelp.com/biz/china-restaurant-ho-schnelsen-hamburg-3?adjust_creative=hBJOknVQJ58S5goQyjmwRw&utm_campaign=yelp_api_v3&utm_medium=api_v3_business_search&utm_source=hBJOknVQJ58S5goQyjmwRw", "review_count": 29, "categories": [{"alias": "chinese", "title": "Chinese"}], "rating": 4.5, "coordinates": {"latitude": 53.6358, "longitude": 9.91842}, "transactions": [], "price": "\u20ac\u20ac", "location": {"address1": "Frohmestr. 7", "address2": null, "address3": null, "city": "Hamburg", "zip_code": "22457", "country": "DE", "state": "HH", "display_address": ["Frohmestr. 7", "22457 Hamburg", "Germany"]}, "phone": "+49405504454", "display_phone": "+49 40 5504454", "distance": 1640.9490264732528}, {"id": "N4FRaSViYY5GMzVIm5bMag", "alias": "waldcafe-restaurant-corell-hamburg", "name": "Waldcafe Restaurant Corell", "image_url": "https://s3-media3.fl.yelpcdn.com/bphoto/7r7cFFhZjmvt6tuCXpE8yg/o.jpg", "is_closed": false, "url": "https://www.yelp.com/biz/waldcafe-restaurant-corell-hamburg?adjust_creative=hBJOknVQJ58S5goQyjmwRw&utm_campaign=yelp_api_v3&utm_medium=api_v3_business_search&utm_source=hBJOknVQJ58S5goQyjmwRw", "review_count": 59, "categories": [{"alias": "northerngerman", "title": "Northern German"}], "rating": 4.0, "coordinates": {"latitude": 53.61578, "longitude": 9.93239}, "transactions": [], "price": "\u20ac\u20ac", "location": {"address1": "Niendorfer Gehege 50", "address2": null, "address3": null, "city": "Hamburg", "zip_code": "22453", "country": "DE", "state": "HH", "display_address": ["Niendorfer Gehege 50", "22453 Hamburg", "Germany"]}, "phone": "+4940585378", "display_phone": "+49 40 585378", "distance": 1467.3763084652244}, {"id": "BQdrXWu6EZznHBDNu3C3aA", "alias": "qur-thai-drei-jai-hamburg", "name": "Qur Thai drei Jai", "image_url": "https://s3-media1.fl.yelpcdn.com/bphoto/qEn2kdcFTkh16Ue7jtdSqg/o.jpg", "is_closed": false, "url": "https://www.yelp.com/biz/qur-thai-drei-jai-hamburg?adjust_creative=hBJOknVQJ58S5goQyjmwRw&utm_campaign=yelp_api_v3&utm_medium=api_v3_business_search&utm_source=hBJOknVQJ58S5goQyjmwRw", "review_count": 4, "categories": [{"alias": "thai", "title": "Thai"}], "rating": 4.0, "coordinates": {"latitude": 53.63584, "longitude": 9.91656}, "transactions": [], "location": {"address1": "Oldesloer Str. 33", "address2": "", "address3": null, "city": "Hamburg", "zip_code": "22457", "country": "DE", "state": "HH", "display_address": ["Oldesloer Str. 33", "22457 Hamburg", "Germany"]}, "phone": "+4957148736", "display_phone": "+49 571 48736", "distance": 1752.273723972972}, {"id": "-bCIbK-xOJr00C2VumngNQ", "alias": "kuchenstund-hamburg", "name": "Kuchenstund", "image_url": "https://s3-media1.fl.yelpcdn.com/bphoto/CYNNVtUJd0reG7q2JRC6iw/o.jpg", "is_closed": false, "url": "https://www.yelp.com/biz/kuchenstund-hamburg?adjust_creative=hBJOknVQJ58S5goQyjmwRw&utm_campaign=yelp_api_v3&utm_medium=api_v3_business_search&utm_source=hBJOknVQJ58S5goQyjmwRw", "review_count": 5, "categories": [{"alias": "cafes", "title": "Cafes"}], "rating": 5.0, "coordinates": {"latitude": 53.61837, "longitude": 9.95103}, "transactions": [], "price": "\u20ac\u20ac", "location": {"address1": "Tibarg 16", "address2": null, "address3": "", "city": "Hamburg", "zip_code": "22459", "country": "DE", "state": "HH", "display_address": ["Tibarg 16", "22459 Hamburg", "Germany"]}, "phone": "+494055446935", "display_phone": "+49 40 55446935", "distance": 1322.2355219936437}, {"id": "8aXDddyawgyuOjePAnnFzw", "alias": "eat-und-sweet-hamburg-2", "name": "Eat & Sweet", "image_url": "https://s3-media1.fl.yelpcdn.com/bphoto/V0Czc5wP9N5Gxy09GCloVg/o.jpg", "is_closed": false, "url": "https://www.yelp.com/biz/eat-und-sweet-hamburg-2?adjust_creative=hBJOknVQJ58S5goQyjmwRw&utm_campaign=yelp_api_v3&utm_medium=api_v3_business_search&utm_source=hBJOknVQJ58S5goQyjmwRw", "review_count": 5, "categories": [{"alias": "cakeshop", "title": "Patisserie/Cake Shop"}, {"alias": "cupcakes", "title": "Cupcakes"}, {"alias": "cafes", "title": "Cafes"}], "rating": 4.5, "coordinates": {"latitude": 53.6192272707374, "longitude": 9.95103437301634}, "transactions": [], "price": "\u20ac\u20ac", "location": {"address1": "Tibarg 5", "address2": "", "address3": "", "city": "Hamburg", "zip_code": "22459", "country": "DE", "state": "HH", "display_address": ["Tibarg 5", "22459 Hamburg", "Germany"]}, "phone": "+494030724615", "display_phone": "+49 40 30724615", "distance": 1242.952619575956}, {"id": "uVY8wKq8_WhBb9I6YCUnjA", "alias": "ebertklause-hamburg", "name": "Ebertklause", "image_url": "", "is_closed": false, "url": "https://www.yelp.com/biz/ebertklause-hamburg?adjust_creative=hBJOknVQJ58S5goQyjmwRw&utm_campaign=yelp_api_v3&utm_medium=api_v3_business_search&utm_source=hBJOknVQJ58S5goQyjmwRw", "review_count": 2, "categories": [{"alias": "gastropubs", "title": "Gastropubs"}], "rating": 3.0, "coordinates": {"latitude": 53.622, "longitude": 9.94195}, "transactions": [], "location": {"address1": "Friedrich-Ebert-Str. 44", "address2": null, "address3": null, "city": "Hamburg", "zip_code": "22459", "country": "DE", "state": "HH", "display_address": ["Friedrich-Ebert-Str. 44", "22459 Hamburg", "Germany"]}, "phone": "+4940588414", "display_phone": "+49 40 588414", "distance": 701.3403379826931}, {"id": "Yx93qjHYxkF_PYlJRHamag", "alias": "restaurant-porto-marina-hamburg", "name": "Restaurant Porto Marina", "image_url": "https://s3-media4.fl.yelpcdn.com/bphoto/g0FzunYqZ68FqNhZArCJ4Q/o.jpg", "is_closed": false, "url": "https://www.yelp.com/biz/restaurant-porto-marina-hamburg?adjust_creative=hBJOknVQJ58S5goQyjmwRw&utm_campaign=yelp_api_v3&utm_medium=api_v3_business_search&utm_source=hBJOknVQJ58S5goQyjmwRw", "review_count": 30, "categories": [{"alias": "greek", "title": "Greek"}], "rating": 3.5, "coordinates": {"latitude": 53.6223, "longitude": 9.95297}, "transactions": [], "price": "\u20ac\u20ac", "location": {"address1": "Tibarg 52", "address2": null, "address3": null, "city": "Hamburg", "zip_code": "22459", "country": "DE", "state": "HH", "display_address": ["Tibarg 52", "22459 Hamburg", "Germany"]}, "phone": "+494018886007", "display_phone": "+49 40 18886007", "distance": 1090.4706753429966}, {"id": "AUrulavZJ2ubI9F_qPuRqQ", "alias": "el-greco-hamburg-9", "name": "El Greco", "image_url": "https://s3-media1.fl.yelpcdn.com/bphoto/SsGRcPsTc1fSEItU0X86ng/o.jpg", "is_closed": false, "url": "https://www.yelp.com/biz/el-greco-hamburg-9?adjust_creative=hBJOknVQJ58S5goQyjmwRw&utm_campaign=yelp_api_v3&utm_medium=api_v3_business_search&utm_source=hBJOknVQJ58S5goQyjmwRw", "review_count": 12, "categories": [{"alias": "greek", "title": "Greek"}], "rating": 3.5, "coordinates": {"latitude": 53.6345116, "longitude": 9.9540963}, "transactions": [], "price": "\u20ac\u20ac", "location": {"address1": "Paul-Sorge-Str. 142 A", "address2": "", "address3": null, "city": "Hamburg", "zip_code": "22455", "country": "DE", "state": "HH", "display_address": ["Paul-Sorge-Str. 142 A", "22455 Hamburg", "Germany"]}, "phone": "+49405514557", "display_phone": "+49 40 5514557", "distance": 1181.6409393949743}, {"id": "mXOmODvz3JjJKtPoU4Pe7w", "alias": "the-eatalian-hamburg", "name": "The Eatalian", "image_url": "https://s3-media3.fl.yelpcdn.com/bphoto/6QFKlQaeGgrjXND0aKY30Q/o.jpg", "is_closed": false, "url": "https://www.yelp.com/biz/the-eatalian-hamburg?adjust_creative=hBJOknVQJ58S5goQyjmwRw&utm_campaign=yelp_api_v3&utm_medium=api_v3_business_search&utm_source=hBJOknVQJ58S5goQyjmwRw", "review_count": 4, "categories": [{"alias": "italian", "title": "Italian"}, {"alias": "coffee", "title": "Coffee & Tea"}], "rating": 4.0, "coordinates": {"latitude": 53.6210037, "longitude": 9.9522173}, "transactions": [], "price": "\u20ac\u20ac", "location": {"address1": "Tibarg Center", "address2": "Tibarg 41", "address3": "", "city": "Hamburg", "zip_code": "22459", "country": "DE", "state": "HH", "display_address": ["Tibarg Center", "Tibarg 41", "22459 Hamburg", "Germany"]}, "phone": "", "display_phone": "", "distance": 1146.1740472804001}, {"id": "CMexeUkqwebafGSYBmWAsQ", "alias": "han-yang-hamburg", "name": "Han Yang", "image_url": "https://s3-media2.fl.yelpcdn.com/bphoto/GS9RRZxKWrrcSFe34Foy6A/o.jpg", "is_closed": false, "url": "https://www.yelp.com/biz/han-yang-hamburg?adjust_creative=hBJOknVQJ58S5goQyjmwRw&utm_campaign=yelp_api_v3&utm_medium=api_v3_business_search&utm_source=hBJOknVQJ58S5goQyjmwRw", "review_count": 10, "categories": [{"alias": "chinese", "title": "Chinese"}], "rating": 4.0, "coordinates": {"latitude": 53.6220355885043, "longitude": 9.95360252628155}, "transactions": [], "price": "\u20ac\u20ac\u20ac", "location": {"address1": "Zum Markt 1", "address2": "", "address3": "", "city": "Hamburg", "zip_code": "22459", "country": "DE", "state": "HH", "display_address": ["Zum Markt 1", "22459 Hamburg", "Germany"]}, "phone": "+49405523715", "display_phone": "+49 40 5523715", "distance": 1141.4875855559867}, {"id": "Dz59pZ2DIT0jAMfgy005SQ", "alias": "makalu-kitchen-hamburg", "name": "Makalu Kitchen", "image_url": "https://s3-media1.fl.yelpcdn.com/bphoto/wXmB_Me-urUFCV75wbKfuw/o.jpg", "is_closed": false, "url": "https://www.yelp.com/biz/makalu-kitchen-hamburg?adjust_creative=hBJOknVQJ58S5goQyjmwRw&utm_campaign=yelp_api_v3&utm_medium=api_v3_business_search&utm_source=hBJOknVQJ58S5goQyjmwRw", "review_count": 5, "categories": [{"alias": "sushi", "title": "Sushi Bars"}, {"alias": "panasian", "title": "Pan Asian"}], "rating": 5.0, "coordinates": {"latitude": 53.5898899, "longitude": 9.91967}, "transactions": [], "price": "\u20ac\u20ac", "location": {"address1": "Randstr. 111", "address2": "", "address3": null, "city": "Hamburg", "zip_code": "22525", "country": "DE", "state": "HH", "display_address": ["Randstr. 111", "22525 Hamburg", "Germany"]}, "phone": "+494056194442", "display_phone": "+49 40 56194442", "distance": 4451.8807072007185}, {"id": "PsOaokJm0WbY0mOFMNDYvA", "alias": "innerluck-hamburg", "name": "innerluck", "image_url": "https://s3-media2.fl.yelpcdn.com/bphoto/HfNvgVE55qzkqkiHFjfe3g/o.jpg", "is_closed": false, "url": "https://www.yelp.com/biz/innerluck-hamburg?adjust_creative=hBJOknVQJ58S5goQyjmwRw&utm_campaign=yelp_api_v3&utm_medium=api_v3_business_search&utm_source=hBJOknVQJ58S5goQyjmwRw", "review_count": 1, "categories": [{"alias": "vegan", "title": "Vegan"}], "rating": 5.0, "coordinates": {"latitude": 53.59029, "longitude": 9.94291}, "transactions": [], "price": "\u20ac\u20ac", "location": {"address1": "Hagenbeckstr. 124 a", "address2": "", "address3": "Sportwerk", "city": "Hamburg", "zip_code": "22527", "country": "DE", "state": "HH", "display_address": ["Hagenbeckstr. 124 a", "Sportwerk", "22527 Hamburg", "Germany"]}, "phone": "+494052389370", "display_phone": "+49 40 52389370", "distance": 4178.8830439972535}, {"id": "6AuelNJx_-5xGBtFfFwm1A", "alias": "haltestelle-zur-wurst-hamburg", "name": "Haltestelle zur Wurst", "image_url": "https://s3-media3.fl.yelpcdn.com/bphoto/NYWaVA6Iqx7Ghxf14NCNoA/o.jpg", "is_closed": false, "url": "https://www.yelp.com/biz/haltestelle-zur-wurst-hamburg?adjust_creative=hBJOknVQJ58S5goQyjmwRw&utm_campaign=yelp_api_v3&utm_medium=api_v3_business_search&utm_source=hBJOknVQJ58S5goQyjmwRw", "review_count": 10, "categories": [{"alias": "hotdogs", "title": "Fast Food"}], "rating": 5.0, "coordinates": {"latitude": 53.6106927961091, "longitude": 9.95697327770995}, "transactions": [], "price": "\u20ac", "location": {"address1": "St.-Pauli-Trainingsgel\u00e4nde", "address2": "Kollaustr. 137", "address3": null, "city": "Hamburg", "zip_code": "22453", "country": "DE", "state": "HH", "display_address": ["St.-Pauli-Trainingsgel\u00e4nde", "Kollaustr. 137", "22453 Hamburg", "Germany"]}, "phone": "+4915115374253", "display_phone": "+49 1511 5374253", "distance": 2251.747412970596}, {"id": "9iU4GLxDHx0fdrS9BKkH2g", "alias": "restaurant-charmant-hamburg", "name": "Restaurant Charmant", "image_url": "https://s3-media4.fl.yelpcdn.com/bphoto/YM5hDRybtZNargM8lqhLTA/o.jpg", "is_closed": false, "url": "https://www.yelp.com/biz/restaurant-charmant-hamburg?adjust_creative=hBJOknVQJ58S5goQyjmwRw&utm_campaign=yelp_api_v3&utm_medium=api_v3_business_search&utm_source=hBJOknVQJ58S5goQyjmwRw", "review_count": 56, "categories": [{"alias": "international", "title": "International"}], "rating": 4.5, "coordinates": {"latitude": 53.596683, "longitude": 9.932584}, "transactions": [], "price": "\u20ac\u20ac\u20ac", "location": {"address1": "Basselweg 102", "address2": "", "address3": null, "city": "Hamburg", "zip_code": "22527", "country": "DE", "state": "HH", "display_address": ["Basselweg 102", "22527 Hamburg", "Germany"]}, "phone": "+494054007071", "display_phone": "+49 40 54007071", "distance": 3532.368765249931}, {"id": "8y2vyVt15hK8-hPj1j6qsg", "alias": "das-bistro-im-nnz-premium-hamburg", "name": "Das Bistro im Nnz Premium", "image_url": "https://s3-media2.fl.yelpcdn.com/bphoto/QXDWKufYjdNnO17JEqDKgw/o.jpg", "is_closed": false, "url": "https://www.yelp.com/biz/das-bistro-im-nnz-premium-hamburg?adjust_creative=hBJOknVQJ58S5goQyjmwRw&utm_campaign=yelp_api_v3&utm_medium=api_v3_business_search&utm_source=hBJOknVQJ58S5goQyjmwRw", "review_count": 9, "categories": [{"alias": "bistros", "title": "Bistros"}], "rating": 4.0, "coordinates": {"latitude": 53.6413, "longitude": 9.94809}, "transactions": [], "price": "\u20ac\u20ac", "location": {"address1": "Ernst-Mittelbach-Ring 49", "address2": null, "address3": null, "city": "Hamburg", "zip_code": "22455", "country": "DE", "state": "HH", "display_address": ["Ernst-Mittelbach-Ring 49", "22455 Hamburg", "Germany"]}, "phone": "+494022600137", "display_phone": "+49 40 22600137", "distance": 1561.1086793323318}, {"id": "Cp5yywYa6MZNPv0QhAzy0g", "alias": "ponzu-hamburg", "name": "PONZU", "image_url": "https://s3-media4.fl.yelpcdn.com/bphoto/edtOpObgHbGPOvvrgPgSdw/o.jpg", "is_closed": false, "url": "https://www.yelp.com/biz/ponzu-hamburg?adjust_creative=hBJOknVQJ58S5goQyjmwRw&utm_campaign=yelp_api_v3&utm_medium=api_v3_business_search&utm_source=hBJOknVQJ58S5goQyjmwRw", "review_count": 2, "categories": [{"alias": "sushi", "title": "Sushi Bars"}, {"alias": "panasian", "title": "Pan Asian"}], "rating": 5.0, "coordinates": {"latitude": 53.6182, "longitude": 9.95068}, "transactions": [], "location": {"address1": "Tibarg 16", "address2": "", "address3": null, "city": "Hamburg", "zip_code": "22459", "country": "DE", "state": "HH", "display_address": ["Tibarg 16", "22459 Hamburg", "Germany"]}, "phone": "+494081972461", "display_phone": "+49 40 81972461", "distance": 1321.6579809345042}, {"id": "WvsUfGyc2KAAcQj64wyvlA", "alias": "asia-quick-hamburg-10", "name": "Asia Quick", "image_url": "https://s3-media3.fl.yelpcdn.com/bphoto/L_o4jFyDJPbIIw-FGlYFhw/o.jpg", "is_closed": false, "url": "https://www.yelp.com/biz/asia-quick-hamburg-10?adjust_creative=hBJOknVQJ58S5goQyjmwRw&utm_campaign=yelp_api_v3&utm_medium=api_v3_business_search&utm_source=hBJOknVQJ58S5goQyjmwRw", "review_count": 26, "categories": [{"alias": "panasian", "title": "Pan Asian"}], "rating": 4.0, "coordinates": {"latitude": 53.62021, "longitude": 9.95231}, "transactions": [], "price": "\u20ac", "location": {"address1": "Tibarg 34", "address2": "", "address3": "", "city": "Hamburg", "zip_code": "22459", "country": "DE", "state": "HH", "display_address": ["Tibarg 34", "22459 Hamburg", "Germany"]}, "phone": "+494087507993", "display_phone": "+49 40 87507993", "distance": 1185.9484581438219}, {"id": "4yIsT-7h9V8UdhBeRka-yA", "alias": "restaurant-dubrovnik-hamburg-10", "name": "Restaurant Dubrovnik", "image_url": "https://s3-media1.fl.yelpcdn.com/bphoto/88k35qKYNLbtMpg_44iU1A/o.jpg", "is_closed": false, "url": "https://www.yelp.com/biz/restaurant-dubrovnik-hamburg-10?adjust_creative=hBJOknVQJ58S5goQyjmwRw&utm_campaign=yelp_api_v3&utm_medium=api_v3_business_search&utm_source=hBJOknVQJ58S5goQyjmwRw", "review_count": 24, "categories": [{"alias": "serbocroatian", "title": "Serbo Croatian"}, {"alias": "bowling", "title": "Bowling"}], "rating": 4.5, "coordinates": {"latitude": 53.591581, "longitude": 9.929407}, "transactions": [], "price": "\u20ac\u20ac", "location": {"address1": "Kieler Str. 407", "address2": null, "address3": null, "city": "Hamburg", "zip_code": "22525", "country": "DE", "state": "HH", "display_address": ["Kieler Str. 407", "22525 Hamburg", "Germany"]}, "phone": "+494052014130", "display_phone": "+49 40 52014130", "distance": 4124.675099538703}, {"id": "6bHEN20g1Ck6vqC2PZguDg", "alias": "cafe-artig-niendorf", "name": "Cafe Artig", "image_url": "https://s3-media1.fl.yelpcdn.com/bphoto/7ax_5A2wXgmym8Y7W8xHsg/o.jpg", "is_closed": false, "url": "https://www.yelp.com/biz/cafe-artig-niendorf?adjust_creative=hBJOknVQJ58S5goQyjmwRw&utm_campaign=yelp_api_v3&utm_medium=api_v3_business_search&utm_source=hBJOknVQJ58S5goQyjmwRw", "review_count": 4, "categories": [{"alias": "cafes", "title": "Cafes"}], "rating": 4.5, "coordinates": {"latitude": 53.627179, "longitude": 9.944794}, "transactions": [], "price": "\u20ac\u20ac", "location": {"address1": "Graf-Anton-Weg 27", "address2": "", "address3": "", "city": "Niendorf", "zip_code": "22459", "country": "DE", "state": "HH", "display_address": ["Graf-Anton-Weg 27", "22459 Niendorf", "Germany"]}, "phone": "+494057205314", "display_phone": "+49 40 57205314", "distance": 354.05837186603196}, {"id": "rZsV7d1gofjY-9_ZIzLnhg", "alias": "cantina-cuatro-hamburg", "name": "cantina cuatro", "image_url": "https://s3-media3.fl.yelpcdn.com/bphoto/EKMkeIJktDm0w3eV1j7tHw/o.jpg", "is_closed": false, "url": "https://www.yelp.com/biz/cantina-cuatro-hamburg?adjust_creative=hBJOknVQJ58S5goQyjmwRw&utm_campaign=yelp_api_v3&utm_medium=api_v3_business_search&utm_source=hBJOknVQJ58S5goQyjmwRw", "review_count": 2, "categories": [{"alias": "canteen", "title": "Canteen"}], "rating": 4.0, "coordinates": {"latitude": 53.6031, "longitude": 9.96201}, "transactions": [], "location": {"address1": "Audi Zentrum", "address2": "Kollaustr. 41-63", "address3": null, "city": "Hamburg", "zip_code": "22529", "country": "DE", "state": "HH", "display_address": ["Audi Zentrum", "Kollaustr. 41-63", "22529 Hamburg", "Germany"]}, "phone": "", "display_phone": "", "distance": 3151.3350411643246}, {"id": "8UdqNGq1zI2UZy2VY_oy8A", "alias": "schippels-kebab-hamburg", "name": "Schippels Kebab", "image_url": "https://s3-media3.fl.yelpcdn.com/bphoto/ErX83aTkQpIlSPmxmnaWiA/o.jpg", "is_closed": false, "url": "https://www.yelp.com/biz/schippels-kebab-hamburg?adjust_creative=hBJOknVQJ58S5goQyjmwRw&utm_campaign=yelp_api_v3&utm_medium=api_v3_business_search&utm_source=hBJOknVQJ58S5goQyjmwRw", "review_count": 2, "categories": [{"alias": "kebab", "title": "Kebab"}], "rating": 3.0, "coordinates": {"latitude": 53.6343213226088, "longitude": 9.95346829073646}, "transactions": [], "location": {"address1": "Paul-Sorge-Str. 142 B", "address2": "", "address3": null, "city": "Hamburg", "zip_code": "22455", "country": "DE", "state": "HH", "display_address": ["Paul-Sorge-Str. 142 B", "22455 Hamburg", "Germany"]}, "phone": "+494055505880", "display_phone": "+49 40 55505880", "distance": 1135.8184776759904}, {"id": "ssulrzin1OWnuGnuKKOa-A", "alias": "il-porcino-restaurant-hamburg", "name": "Il Porcino Restaurant", "image_url": "https://s3-media3.fl.yelpcdn.com/bphoto/zHyT4wWqwYmkK-b9_xsXrA/o.jpg", "is_closed": false, "url": "https://www.yelp.com/biz/il-porcino-restaurant-hamburg?adjust_creative=hBJOknVQJ58S5goQyjmwRw&utm_campaign=yelp_api_v3&utm_medium=api_v3_business_search&utm_source=hBJOknVQJ58S5goQyjmwRw", "review_count": 34, "categories": [{"alias": "italian", "title": "Italian"}], "rating": 3.5, "coordinates": {"latitude": 53.62286, "longitude": 9.9511299}, "transactions": [], "price": "\u20ac\u20ac", "location": {"address1": "Wendlohstr. 6", "address2": "", "address3": "", "city": "Hamburg", "zip_code": "22459", "country": "DE", "state": "HH", "display_address": ["Wendlohstr. 6", "22459 Hamburg", "Germany"]}, "phone": "+494058955944", "display_phone": "+49 40 58955944", "distance": 959.783808290349}, {"id": "Aqo370d_LdrQ-Odh5bg0mA", "alias": "chalon-hamburg-3", "name": "Chalon", "image_url": "https://s3-media3.fl.yelpcdn.com/bphoto/J_dUq8UFVPnkOcorSEzzeQ/o.jpg", "is_closed": false, "url": "https://www.yelp.com/biz/chalon-hamburg-3?adjust_creative=hBJOknVQJ58S5goQyjmwRw&utm_campaign=yelp_api_v3&utm_medium=api_v3_business_search&utm_source=hBJOknVQJ58S5goQyjmwRw", "review_count": 25, "categories": [{"alias": "mongolian", "title": "Mongolian"}, {"alias": "sushi", "title": "Sushi Bars"}, {"alias": "panasian", "title": "Pan Asian"}], "rating": 4.0, "coordinates": {"latitude": 53.63139, "longitude": 9.9552}, "transactions": [], "price": "\u20ac\u20ac", "location": {"address1": "Adlerhorst 8", "address2": "", "address3": "", "city": "Hamburg", "zip_code": "22459", "country": "DE", "state": "HH", "display_address": ["Adlerhorst 8", "22459 Hamburg", "Germany"]}, "phone": "+494089804966", "display_phone": "+49 40 89804966", "distance": 1100.4181557312343}, {"id": "mURl_v8Ir4AMxfDs8VVizg", "alias": "mein-fischladen-hamburg", "name": "Mein Fischladen", "image_url": "https://s3-media3.fl.yelpcdn.com/bphoto/m7cHAyH7CZnWLvahD-D9qw/o.jpg", "is_closed": false, "url": "https://www.yelp.com/biz/mein-fischladen-hamburg?adjust_creative=hBJOknVQJ58S5goQyjmwRw&utm_campaign=yelp_api_v3&utm_medium=api_v3_business_search&utm_source=hBJOknVQJ58S5goQyjmwRw", "review_count": 10, "categories": [{"alias": "seafood", "title": "Seafood"}, {"alias": "fishmonger", "title": "Fishmonger"}], "rating": 4.5, "coordinates": {"latitude": 53.640307, "longitude": 9.947865}, "transactions": [], "price": "\u20ac", "location": {"address1": "Nordalbinger Weg 17", "address2": "", "address3": "", "city": "Hamburg", "zip_code": "22455", "country": "DE", "state": "HH", "display_address": ["Nordalbinger Weg 17", "22455 Hamburg", "Germany"]}, "phone": "+49405525337", "display_phone": "+49 40 5525337", "distance": 1452.7975597888849}, {"id": "lPaVZ6RCliJS2cS4j-fLcA", "alias": "papillon-hamburg", "name": "Papillon", "image_url": "https://s3-media3.fl.yelpcdn.com/bphoto/W2LUYq10kBaFbiYcz3c9Bw/o.jpg", "is_closed": false, "url": "https://www.yelp.com/biz/papillon-hamburg?adjust_creative=hBJOknVQJ58S5goQyjmwRw&utm_campaign=yelp_api_v3&utm_medium=api_v3_business_search&utm_source=hBJOknVQJ58S5goQyjmwRw", "review_count": 7, "categories": [{"alias": "international", "title": "International"}], "rating": 4.5, "coordinates": {"latitude": 53.6062, "longitude": 9.95523}, "transactions": [], "price": "\u20ac\u20ac\u20ac", "location": {"address1": "Niendorfer Str. 59", "address2": null, "address3": null, "city": "Hamburg", "zip_code": "22529", "country": "DE", "state": "HH", "display_address": ["Niendorfer Str. 59", "22529 Hamburg", "Germany"]}, "phone": "+4940584440", "display_phone": "+49 40 584440", "distance": 2648.2060470767865}, {"id": "vp3fB4wycmUs-5otOTvjwg", "alias": "tibarg-kebap-haus-hamburg", "name": "Tibarg Kebap Haus", "image_url": "https://s3-media2.fl.yelpcdn.com/bphoto/srQylN-aEVRKiE2qZtT9oA/o.jpg", "is_closed": false, "url": "https://www.yelp.com/biz/tibarg-kebap-haus-hamburg?adjust_creative=hBJOknVQJ58S5goQyjmwRw&utm_campaign=yelp_api_v3&utm_medium=api_v3_business_search&utm_source=hBJOknVQJ58S5goQyjmwRw", "review_count": 29, "categories": [{"alias": "kebab", "title": "Kebab"}, {"alias": "turkish", "title": "Turkish"}], "rating": 3.5, "coordinates": {"latitude": 53.6199833755157, "longitude": 9.95198987424374}, "transactions": [], "price": "\u20ac\u20ac", "location": {"address1": "Tibarg 32a", "address2": "", "address3": "", "city": "Hamburg", "zip_code": "22459", "country": "DE", "state": "HH", "display_address": ["Tibarg 32a", "22459 Hamburg", "Germany"]}, "phone": "+4915734315204", "display_phone": "+49 1573 4315204", "distance": 1217.7216771950505}, {"id": "vImYVDX2a0kYn92XZpOa6g", "alias": "zum-zeppelin-hamburg-3", "name": "Zum Zeppelin", "image_url": "https://s3-media2.fl.yelpcdn.com/bphoto/RXga_Eqzb-_AFkA-Grgi3A/o.jpg", "is_closed": false, "url": "https://www.yelp.com/biz/zum-zeppelin-hamburg-3?adjust_creative=hBJOknVQJ58S5goQyjmwRw&utm_campaign=yelp_api_v3&utm_medium=api_v3_business_search&utm_source=hBJOknVQJ58S5goQyjmwRw", "review_count": 4, "categories": [{"alias": "german", "title": "German"}], "rating": 4.0, "coordinates": {"latitude": 53.62855, "longitude": 9.93248}, "transactions": [], "price": "\u20ac\u20ac\u20ac", "location": {"address1": "Frohmestr. 123-125", "address2": null, "address3": null, "city": "Hamburg", "zip_code": "22459", "country": "DE", "state": "HH", "display_address": ["Frohmestr. 123-125", "22459 Hamburg", "Germany"]}, "phone": "+4940559060", "display_phone": "+49 40 559060", "distance": 475.66174939072}, {"id": "Y8zQgmCxi9HrPWncKLU8Gg", "alias": "kleines-hofcaf\u00e9-hamburg-3", "name": "Kleines Hofcaf\u00e9", "image_url": "", "is_closed": false, "url": "https://www.yelp.com/biz/kleines-hofcaf%C3%A9-hamburg-3?adjust_creative=hBJOknVQJ58S5goQyjmwRw&utm_campaign=yelp_api_v3&utm_medium=api_v3_business_search&utm_source=hBJOknVQJ58S5goQyjmwRw", "review_count": 1, "categories": [{"alias": "cafes", "title": "Cafes"}], "rating": 5.0, "coordinates": {"latitude": 53.601, "longitude": 9.9556799}, "transactions": [], "location": {"address1": "Grelckstr. 19", "address2": "", "address3": null, "city": "Hamburg", "zip_code": "22529", "country": "DE", "state": "HH", "display_address": ["Grelckstr. 19", "22529 Hamburg", "Germany"]}, "phone": "+494058955595", "display_phone": "+49 40 58955595", "distance": 3199.7926445219755}, {"id": "BNhgwuvCDpYl1P9VZqxUXQ", "alias": "tao-hamburg", "name": "TAO", "image_url": "https://s3-media3.fl.yelpcdn.com/bphoto/A-jJ7kuxIvQZq5vgpku80Q/o.jpg", "is_closed": false, "url": "https://www.yelp.com/biz/tao-hamburg?adjust_creative=hBJOknVQJ58S5goQyjmwRw&utm_campaign=yelp_api_v3&utm_medium=api_v3_business_search&utm_source=hBJOknVQJ58S5goQyjmwRw", "review_count": 37, "categories": [{"alias": "chinese", "title": "Chinese"}], "rating": 3.5, "coordinates": {"latitude": 53.5923654, "longitude": 9.9340022}, "transactions": [], "price": "\u20ac\u20ac", "location": {"address1": "Basselweg 73", "address2": "", "address3": "", "city": "Hamburg", "zip_code": "22527", "country": "DE", "state": "HH", "display_address": ["Basselweg 73", "22527 Hamburg", "Germany"]}, "phone": "+494057004318", "display_phone": "+49 40 57004318", "distance": 3998.78810725933}, {"id": "YD_wj0hSNT71phTuYzXNtw", "alias": "gastst\u00e4tte-am-sportplatzring-hamburg", "name": "Gastst\u00e4tte Am Sportplatzring", "image_url": "https://s3-media3.fl.yelpcdn.com/bphoto/R-faClwu-N204bhwNAY1Dw/o.jpg", "is_closed": false, "url": "https://www.yelp.com/biz/gastst%C3%A4tte-am-sportplatzring-hamburg?adjust_creative=hBJOknVQJ58S5goQyjmwRw&utm_campaign=yelp_api_v3&utm_medium=api_v3_business_search&utm_source=hBJOknVQJ58S5goQyjmwRw", "review_count": 4, "categories": [{"alias": "german", "title": "German"}], "rating": 4.0, "coordinates": {"latitude": 53.5990653, "longitude": 9.930842}, "transactions": [], "price": "\u20ac", "location": {"address1": "Sportplatzring 47", "address2": "", "address3": null, "city": "Hamburg", "zip_code": "22527", "country": "DE", "state": "HH", "display_address": ["Sportplatzring 47", "22527 Hamburg", "Germany"]}, "phone": "+4954765470", "display_phone": "+49 5476 5470", "distance": 3288.5277272459844}, {"id": "FieMzM-1Zvj3Ngdq1-A8nA", "alias": "hunger-und-durst-hamburg", "name": "Hunger & Durst", "image_url": "https://s3-media1.fl.yelpcdn.com/bphoto/mlSPKn6dFKdLHd3xdjC3Mw/o.jpg", "is_closed": false, "url": "https://www.yelp.com/biz/hunger-und-durst-hamburg?adjust_creative=hBJOknVQJ58S5goQyjmwRw&utm_campaign=yelp_api_v3&utm_medium=api_v3_business_search&utm_source=hBJOknVQJ58S5goQyjmwRw", "review_count": 3, "categories": [{"alias": "drugstores", "title": "Drugstores"}, {"alias": "bistros", "title": "Bistros"}, {"alias": "pubs", "title": "Pubs"}], "rating": 4.5, "coordinates": {"latitude": 53.5898, "longitude": 9.91892}, "transactions": [], "location": {"address1": "Volksparkstr. 81", "address2": null, "address3": null, "city": "Hamburg", "zip_code": "22525", "country": "DE", "state": "HH", "display_address": ["Volksparkstr. 81", "22525 Hamburg", "Germany"]}, "phone": "+494054763736", "display_phone": "+49 40 54763736", "distance": 4481.4629190017395}, {"id": "80eTRYVDuR5XxRO-ytB3rA", "alias": "apollon-hamburg-2", "name": "Apollon", "image_url": "https://s3-media4.fl.yelpcdn.com/bphoto/W3VUqrNgb-u0B-cYtM5hBA/o.jpg", "is_closed": false, "url": "https://www.yelp.com/biz/apollon-hamburg-2?adjust_creative=hBJOknVQJ58S5goQyjmwRw&utm_campaign=yelp_api_v3&utm_medium=api_v3_business_search&utm_source=hBJOknVQJ58S5goQyjmwRw", "review_count": 9, "categories": [{"alias": "greek", "title": "Greek"}], "rating": 3.5, "coordinates": {"latitude": 53.5994664555587, "longitude": 9.92218751460314}, "transactions": [], "price": "\u20ac\u20ac", "location": {"address1": "Nienredder 1", "address2": "", "address3": "", "city": "Hamburg", "zip_code": "22527", "country": "DE", "state": "HH", "display_address": ["Nienredder 1", "22527 Hamburg", "Germany"]}, "phone": "+49405408436", "display_phone": "+49 40 5408436", "distance": 3394.442765171737}, {"id": "sQoFZTalSmNHgg1-CEIflA", "alias": "kebap-lounge-hamburg-4", "name": "Kebap Lounge", "image_url": "https://s3-media4.fl.yelpcdn.com/bphoto/JlmadagWNFOKeUpYWiQPtg/o.jpg", "is_closed": false, "url": "https://www.yelp.com/biz/kebap-lounge-hamburg-4?adjust_creative=hBJOknVQJ58S5goQyjmwRw&utm_campaign=yelp_api_v3&utm_medium=api_v3_business_search&utm_source=hBJOknVQJ58S5goQyjmwRw", "review_count": 5, "categories": [{"alias": "hotdogs", "title": "Fast Food"}], "rating": 4.0, "coordinates": {"latitude": 53.593205868544, "longitude": 9.9436808992142}, "transactions": [], "price": "\u20ac", "location": {"address1": "Koppelstr. 45", "address2": "", "address3": null, "city": "Hamburg", "zip_code": "22529", "country": "DE", "state": "HH", "display_address": ["Koppelstr. 45", "22529 Hamburg", "Germany"]}, "phone": "+494046965881", "display_phone": "+49 40 46965881", "distance": 3896.276167108767}, {"id": "iCMzNrvQrwbejyoXFU5vUg", "alias": "welcome-india-hamburg-3", "name": "Welcome India", "image_url": "https://s3-media1.fl.yelpcdn.com/bphoto/u1z_6BYtvpuWRO9bte4IAA/o.jpg", "is_closed": false, "url": "https://www.yelp.com/biz/welcome-india-hamburg-3?adjust_creative=hBJOknVQJ58S5goQyjmwRw&utm_campaign=yelp_api_v3&utm_medium=api_v3_business_search&utm_source=hBJOknVQJ58S5goQyjmwRw", "review_count": 10, "categories": [{"alias": "indpak", "title": "Indian"}], "rating": 3.5, "coordinates": {"latitude": 53.6118852411481, "longitude": 9.95571292137109}, "transactions": [], "price": "\u20ac\u20ac", "location": {"address1": "Kollaustr. 144", "address2": null, "address3": "", "city": "Hamburg", "zip_code": "22453", "country": "DE", "state": "HH", "display_address": ["Kollaustr. 144", "22453 Hamburg", "Germany"]}, "phone": "+494046646789", "display_phone": "+49 40 46646789", "distance": 2095.320186935469}, {"id": "SA79tJbyfNW3IZ5garwgqg", "alias": "il-tramonto-mustafa-uludag-hamburg-2", "name": "Il Tramonto Mustafa Uludag", "image_url": "https://s3-media4.fl.yelpcdn.com/bphoto/hIKfoIMf4stfcHHpwYI5gQ/o.jpg", "is_closed": false, "url": "https://www.yelp.com/biz/il-tramonto-mustafa-uludag-hamburg-2?adjust_creative=hBJOknVQJ58S5goQyjmwRw&utm_campaign=yelp_api_v3&utm_medium=api_v3_business_search&utm_source=hBJOknVQJ58S5goQyjmwRw", "review_count": 37, "categories": [{"alias": "italian", "title": "Italian"}], "rating": 4.0, "coordinates": {"latitude": 53.6005175, "longitude": 9.9565587}, "transactions": [], "price": "\u20ac\u20ac\u20ac", "location": {"address1": "Grelckstr. 13", "address2": null, "address3": null, "city": "Hamburg", "zip_code": "22529", "country": "DE", "state": "HH", "display_address": ["Grelckstr. 13", "22529 Hamburg", "Germany"]}, "phone": "+494054007509", "display_phone": "+49 40 54007509", "distance": 3268.9788255952217}, {"id": "MoF9HI02-FmfK0EMCB8nvw", "alias": "restaurant-augila-hamburg-2", "name": "Restaurant Augila", "image_url": "https://s3-media1.fl.yelpcdn.com/bphoto/yye2wX-z9rl6vCT_eE1AOQ/o.jpg", "is_closed": false, "url": "https://www.yelp.com/biz/restaurant-augila-hamburg-2?adjust_creative=hBJOknVQJ58S5goQyjmwRw&utm_campaign=yelp_api_v3&utm_medium=api_v3_business_search&utm_source=hBJOknVQJ58S5goQyjmwRw", "review_count": 19, "categories": [{"alias": "german", "title": "German"}], "rating": 3.0, "coordinates": {"latitude": 53.593553, "longitude": 9.9400189}, "transactions": [], "price": "\u20ac\u20ac\u20ac", "location": {"address1": "Lindner Park-Hotel", "address2": "Hagenbeckstr. 150", "address3": null, "city": "Hamburg", "zip_code": "22527", "country": "DE", "state": "HH", "display_address": ["Lindner Park-Hotel", "Hagenbeckstr. 150", "22527 Hamburg", "Germany"]}, "phone": "+4940800808380", "display_phone": "+49 40 800808380", "distance": 3848.9551751180693}, {"id": "l3AIfDd2egtIEhIw2EZA4g", "alias": "mio-hamburg-3", "name": "Mio", "image_url": "", "is_closed": false, "url": "https://www.yelp.com/biz/mio-hamburg-3?adjust_creative=hBJOknVQJ58S5goQyjmwRw&utm_campaign=yelp_api_v3&utm_medium=api_v3_business_search&utm_source=hBJOknVQJ58S5goQyjmwRw", "review_count": 1, "categories": [{"alias": "icecream", "title": "Ice Cream & Frozen Yogurt"}, {"alias": "italian", "title": "Italian"}, {"alias": "breakfast_brunch", "title": "Breakfast & Brunch"}], "rating": 4.0, "coordinates": {"latitude": 53.6203291, "longitude": 9.9520887}, "transactions": [], "location": {"address1": "Tibarg 34", "address2": "", "address3": null, "city": "Hamburg", "zip_code": "22459", "country": "DE", "state": "HH", "display_address": ["Tibarg 34", "22459 Hamburg", "Germany"]}, "phone": "", "display_phone": "", "distance": 1193.71006148786}, {"id": "v9ZEwpx6nakbsvaJrFp-Bw", "alias": "fischhaus-timm-hamburg", "name": "Fischhaus Timm", "image_url": "https://s3-media2.fl.yelpcdn.com/bphoto/f62XnNQgC3zmAAJZA6vFPA/o.jpg", "is_closed": false, "url": "https://www.yelp.com/biz/fischhaus-timm-hamburg?adjust_creative=hBJOknVQJ58S5goQyjmwRw&utm_campaign=yelp_api_v3&utm_medium=api_v3_business_search&utm_source=hBJOknVQJ58S5goQyjmwRw", "review_count": 3, "categories": [{"alias": "seafood", "title": "Seafood"}, {"alias": "fishnchips", "title": "Fish & Chips"}], "rating": 3.5, "coordinates": {"latitude": 53.6352, "longitude": 9.917}, "transactions": [], "location": {"address1": "Gli\u00dfmannweg 11", "address2": null, "address3": null, "city": "Hamburg", "zip_code": "22457", "country": "DE", "state": "HH", "display_address": ["Gli\u00dfmannweg 11", "22457 Hamburg", "Germany"]}, "phone": "+49405592213", "display_phone": "+49 40 5592213", "distance": 1689.8801077298037}, {"id": "TP-8Q2Gpwaxv3Twa_Ke0EA", "alias": "mai-mai-hamburg-3", "name": "Mai Mai", "image_url": "https://s3-media2.fl.yelpcdn.com/bphoto/3-EQexMOeavPWD7I7O292w/o.jpg", "is_closed": false, "url": "https://www.yelp.com/biz/mai-mai-hamburg-3?adjust_creative=hBJOknVQJ58S5goQyjmwRw&utm_campaign=yelp_api_v3&utm_medium=api_v3_business_search&utm_source=hBJOknVQJ58S5goQyjmwRw", "review_count": 5, "categories": [{"alias": "panasian", "title": "Pan Asian"}], "rating": 2.0, "coordinates": {"latitude": 53.62216, "longitude": 9.9523}, "transactions": [], "price": "\u20ac\u20ac", "location": {"address1": "Tibarg 41", "address2": "", "address3": "", "city": "Hamburg", "zip_code": "22459", "country": "DE", "state": "HH", "display_address": ["Tibarg 41", "22459 Hamburg", "Germany"]}, "phone": "", "display_phone": "", "distance": 1037.579699043174}, {"id": "jFvtF_WCsb2IAlkOYzL0Bg", "alias": "landhaus-kaminski-norderstedt", "name": "Landhaus Kaminski", "image_url": "", "is_closed": false, "url": "https://www.yelp.com/biz/landhaus-kaminski-norderstedt?adjust_creative=hBJOknVQJ58S5goQyjmwRw&utm_campaign=yelp_api_v3&utm_medium=api_v3_business_search&utm_source=hBJOknVQJ58S5goQyjmwRw", "review_count": 4, "categories": [{"alias": "german", "title": "German"}], "rating": 5.0, "coordinates": {"latitude": 53.6583450958209, "longitude": 9.95852675288916}, "transactions": [], "location": {"address1": "Ohechaussee 442", "address2": "", "address3": null, "city": "Norderstedt", "zip_code": "22848", "country": "DE", "state": "SH", "display_address": ["Ohechaussee 442", "22848 Norderstedt", "Germany"]}, "phone": "+494018881703", "display_phone": "+49 40 18881703", "distance": 3577.3167681001582}, {"id": "XPjnWZ9ddKKn2w_T_pdNww", "alias": "ristorante-la-costa-smeralda-hamburg", "name": "Ristorante La Costa Smeralda", "image_url": "https://s3-media1.fl.yelpcdn.com/bphoto/plMHtB6o48u_Z8rmcJQj1A/o.jpg", "is_closed": false, "url": "https://www.yelp.com/biz/ristorante-la-costa-smeralda-hamburg?adjust_creative=hBJOknVQJ58S5goQyjmwRw&utm_campaign=yelp_api_v3&utm_medium=api_v3_business_search&utm_source=hBJOknVQJ58S5goQyjmwRw", "review_count": 12, "categories": [{"alias": "italian", "title": "Italian"}], "rating": 3.0, "coordinates": {"latitude": 53.6339, "longitude": 9.91975}, "transactions": [], "price": "\u20ac\u20ac", "location": {"address1": "Frohmestr. 29", "address2": null, "address3": null, "city": "Hamburg", "zip_code": "22457", "country": "DE", "state": "HH", "display_address": ["Frohmestr. 29", "22457 Hamburg", "Germany"]}, "phone": "+49405591041", "display_phone": "+49 40 5591041", "distance": 1462.9335191720584}, {"id": "U9QJwMx3RNOPy7Ce0xn4fA", "alias": "brimborium-hamburg-2", "name": "Brimborium", "image_url": "https://s3-media2.fl.yelpcdn.com/bphoto/ccorPrrGnaj__ntjefe2Ww/o.jpg", "is_closed": false, "url": "https://www.yelp.com/biz/brimborium-hamburg-2?adjust_creative=hBJOknVQJ58S5goQyjmwRw&utm_campaign=yelp_api_v3&utm_medium=api_v3_business_search&utm_source=hBJOknVQJ58S5goQyjmwRw", "review_count": 6, "categories": [{"alias": "international", "title": "International"}], "rating": 3.5, "coordinates": {"latitude": 53.6289, "longitude": 9.93144}, "transactions": [], "location": {"address1": "Frohmestr. 110", "address2": null, "address3": null, "city": "Hamburg", "zip_code": "22459", "country": "DE", "state": "HH", "display_address": ["Frohmestr. 110", "22459 Hamburg", "Germany"]}, "phone": "+49405590621535", "display_phone": "+49 40 5590621535", "distance": 552.0223565029244}, {"id": "563I0YNmkeOoaH2WXqJymQ", "alias": "grill-stop-hamburg-hamburg", "name": "Grill Stop Hamburg", "image_url": "https://s3-media3.fl.yelpcdn.com/bphoto/VlBYayXXEelJyPQbvMThJQ/o.jpg", "is_closed": false, "url": "https://www.yelp.com/biz/grill-stop-hamburg-hamburg?adjust_creative=hBJOknVQJ58S5goQyjmwRw&utm_campaign=yelp_api_v3&utm_medium=api_v3_business_search&utm_source=hBJOknVQJ58S5goQyjmwRw", "review_count": 2, "categories": [{"alias": "foodstands", "title": "Food Stands"}], "rating": 3.5, "coordinates": {"latitude": 53.632113, "longitude": 9.922267}, "transactions": [], "price": "\u20ac", "location": {"address1": "Frohmestr. 53", "address2": null, "address3": null, "city": "Hamburg", "zip_code": "22457", "country": "DE", "state": "HH", "display_address": ["Frohmestr. 53", "22457 Hamburg", "Germany"]}, "phone": "+49405507225", "display_phone": "+49 40 5507225", "distance": 1229.9495552693033}, {"id": "-rEgwMosGsxFEgwwIEYSyg", "alias": "croque-point-niendorf-nord-hamburg", "name": "Croque Point Niendorf Nord", "image_url": "", "is_closed": false, "url": "https://www.yelp.com/biz/croque-point-niendorf-nord-hamburg?adjust_creative=hBJOknVQJ58S5goQyjmwRw&utm_campaign=yelp_api_v3&utm_medium=api_v3_business_search&utm_source=hBJOknVQJ58S5goQyjmwRw", "review_count": 9, "categories": [{"alias": "sandwiches", "title": "Sandwiches"}], "rating": 4.5, "coordinates": {"latitude": 53.64031, "longitude": 9.94794}, "transactions": [], "price": "\u20ac\u20ac", "location": {"address1": "Nordalbingerweg 17 b", "address2": null, "address3": null, "city": "Hamburg", "zip_code": "22455", "country": "DE", "state": "HH", "display_address": ["Nordalbingerweg 17 b", "22455 Hamburg", "Germany"]}, "phone": "+494057128880", "display_phone": "+49 40 57128880", "distance": 1454.9422533714644}, {"id": "h6XSC8n7UsQ5pEeI6N871w", "alias": "hallo-pizza-hamburg-14", "name": "Hallo Pizza!", "image_url": "https://s3-media3.fl.yelpcdn.com/bphoto/rPETS0HqHtwEcK_oVYi7dA/o.jpg", "is_closed": false, "url": "https://www.yelp.com/biz/hallo-pizza-hamburg-14?adjust_creative=hBJOknVQJ58S5goQyjmwRw&utm_campaign=yelp_api_v3&utm_medium=api_v3_business_search&utm_source=hBJOknVQJ58S5goQyjmwRw", "review_count": 2, "categories": [{"alias": "pizza", "title": "Pizza"}], "rating": 5.0, "coordinates": {"latitude": 53.6303085, "longitude": 9.9266974}, "transactions": [], "price": "\u20ac", "location": {"address1": "Frohmestr. 86", "address2": null, "address3": null, "city": "Hamburg", "zip_code": "22459", "country": "DE", "state": "HH", "display_address": ["Frohmestr. 86", "22459 Hamburg", "Germany"]}, "phone": "+494059354300", "display_phone": "+49 40 59354300", "distance": 891.0919924431204}, {"id": "aeUdh5cEwbXG9_HIi16qcg", "alias": "mr-fresh-hamburg", "name": "Mr. Fresh", "image_url": "https://s3-media2.fl.yelpcdn.com/bphoto/lLnY1KY0usrvrFYqL-PQPg/o.jpg", "is_closed": false, "url": "https://www.yelp.com/biz/mr-fresh-hamburg?adjust_creative=hBJOknVQJ58S5goQyjmwRw&utm_campaign=yelp_api_v3&utm_medium=api_v3_business_search&utm_source=hBJOknVQJ58S5goQyjmwRw", "review_count": 13, "categories": [{"alias": "salad", "title": "Salad"}, {"alias": "creperies", "title": "Creperies"}], "rating": 4.0, "coordinates": {"latitude": 53.6316, "longitude": 9.92009}, "transactions": [], "price": "\u20ac\u20ac", "location": {"address1": "W\u00e4hlingsallee 11", "address2": null, "address3": null, "city": "Hamburg", "zip_code": "22459", "country": "DE", "state": "HH", "display_address": ["W\u00e4hlingsallee 11", "22459 Hamburg", "Germany"]}, "phone": "+49405583400", "display_phone": "+49 40 5583400", "distance": 1349.471165053615}, {"id": "wj-N07PFGwQ607YmZtNxGw", "alias": "thai-quick-hamburg-2", "name": "Thai Quick", "image_url": "https://s3-media3.fl.yelpcdn.com/bphoto/iFjE4N7rLc9w8DA-K1QgWw/o.jpg", "is_closed": false, "url": "https://www.yelp.com/biz/thai-quick-hamburg-2?adjust_creative=hBJOknVQJ58S5goQyjmwRw&utm_campaign=yelp_api_v3&utm_medium=api_v3_business_search&utm_source=hBJOknVQJ58S5goQyjmwRw", "review_count": 13, "categories": [{"alias": "hotdogs", "title": "Fast Food"}, {"alias": "panasian", "title": "Pan Asian"}], "rating": 2.5, "coordinates": {"latitude": 53.5932503965521, "longitude": 9.9448683144501}, "transactions": [], "price": "\u20ac\u20ac", "location": {"address1": "Koppelstr. 49 a", "address2": "", "address3": null, "city": "Hamburg", "zip_code": "22529", "country": "DE", "state": "HH", "display_address": ["Koppelstr. 49 a", "22529 Hamburg", "Germany"]}, "phone": "+4940566611", "display_phone": "+49 40 566611", "distance": 3897.379830872478}, {"id": "9CZvK4co5_so_9xr5rXHcQ", "alias": "smileys-hamburg-18", "name": "Smiley's", "image_url": "https://s3-media3.fl.yelpcdn.com/bphoto/T9oi5VJODeof-L62efwJRw/o.jpg", "is_closed": false, "url": "https://www.yelp.com/biz/smileys-hamburg-18?adjust_creative=hBJOknVQJ58S5goQyjmwRw&utm_campaign=yelp_api_v3&utm_medium=api_v3_business_search&utm_source=hBJOknVQJ58S5goQyjmwRw", "review_count": 13, "categories": [{"alias": "pizza", "title": "Pizza"}], "rating": 4.0, "coordinates": {"latitude": 53.6336, "longitude": 9.95305}, "transactions": [], "price": "\u20ac\u20ac", "location": {"address1": "Paul-Sorge-Str. 140", "address2": null, "address3": null, "city": "Hamburg", "zip_code": "22455", "country": "DE", "state": "HH", "display_address": ["Paul-Sorge-Str. 140", "22455 Hamburg", "Germany"]}, "phone": "+494055540050", "display_phone": "+49 40 55540050", "distance": 1066.5414630469163}, {"id": "6P64TboUCvYM3Td9Yczouw", "alias": "schnellimbi\u00df-hamburg", "name": "Schnellimbi\u00df", "image_url": "https://s3-media3.fl.yelpcdn.com/bphoto/tLVym6QJSh6g-J4MIe3xew/o.jpg", "is_closed": false, "url": "https://www.yelp.com/biz/schnellimbi%C3%9F-hamburg?adjust_creative=hBJOknVQJ58S5goQyjmwRw&utm_campaign=yelp_api_v3&utm_medium=api_v3_business_search&utm_source=hBJOknVQJ58S5goQyjmwRw", "review_count": 3, "categories": [{"alias": "hotdogs", "title": "Fast Food"}], "rating": 2.5, "coordinates": {"latitude": 53.64043, "longitude": 9.94832}, "transactions": [], "price": "\u20ac\u20ac", "location": {"address1": "Nordalbingerweg 19", "address2": null, "address3": null, "city": "Hamburg", "zip_code": "22455", "country": "DE", "state": "HH", "display_address": ["Nordalbingerweg 19", "22455 Hamburg", "Germany"]}, "phone": "+494057144523", "display_phone": "+49 40 57144523", "distance": 1476.7708741580832}, {"id": "fwdDE_9CO6RJ9uFQKa6nUQ", "alias": "schnelsener-kebap-house-hamburg", "name": "Schnelsener Kebap House", "image_url": "", "is_closed": false, "url": "https://www.yelp.com/biz/schnelsener-kebap-house-hamburg?adjust_creative=hBJOknVQJ58S5goQyjmwRw&utm_campaign=yelp_api_v3&utm_medium=api_v3_business_search&utm_source=hBJOknVQJ58S5goQyjmwRw", "review_count": 9, "categories": [{"alias": "kebab", "title": "Kebab"}], "rating": 4.5, "coordinates": {"latitude": 53.6362, "longitude": 9.91752}, "transactions": [], "price": "\u20ac", "location": {"address1": "Oldesloer Str. 41", "address2": null, "address3": null, "city": "Hamburg", "zip_code": "22457", "country": "DE", "state": "HH", "display_address": ["Oldesloer Str. 41", "22457 Hamburg", "Germany"]}, "phone": "+494055009130", "display_phone": "+49 40 55009130", "distance": 1714.7515476278763}, {"id": "UHFzAT1P_l6FNvvP-zGbaQ", "alias": "burger-lounge-hamburg-2", "name": "Burger Lounge", "image_url": "https://s3-media2.fl.yelpcdn.com/bphoto/eT4tR2zZv-vCoezxgM5CQw/o.jpg", "is_closed": false, "url": "https://www.yelp.com/biz/burger-lounge-hamburg-2?adjust_creative=hBJOknVQJ58S5goQyjmwRw&utm_campaign=yelp_api_v3&utm_medium=api_v3_business_search&utm_source=hBJOknVQJ58S5goQyjmwRw", "review_count": 75, "categories": [{"alias": "burgers", "title": "Burgers"}], "rating": 3.0, "coordinates": {"latitude": 53.60008, "longitude": 9.91687}, "transactions": [], "price": "\u20ac\u20ac", "location": {"address1": "Kielerstr. 566", "address2": "", "address3": "", "city": "Hamburg", "zip_code": "22525", "country": "DE", "state": "HH", "display_address": ["Kielerstr. 566", "22525 Hamburg", "Germany"]}, "phone": "+49408515554", "display_phone": "+49 40 8515554", "distance": 3465.5159387105664}, {"id": "0bRB2Dk1RuO_XYvigryCrw", "alias": "hamaliya-pizzaservice-hamburg", "name": "Hamaliya Pizzaservice", "image_url": "", "is_closed": false, "url": "https://www.yelp.com/biz/hamaliya-pizzaservice-hamburg?adjust_creative=hBJOknVQJ58S5goQyjmwRw&utm_campaign=yelp_api_v3&utm_medium=api_v3_business_search&utm_source=hBJOknVQJ58S5goQyjmwRw", "review_count": 3, "categories": [{"alias": "pizza", "title": "Pizza"}], "rating": 3.5, "coordinates": {"latitude": 53.63412, "longitude": 9.91615}, "transactions": [], "location": {"address1": "Riekbornweg 2", "address2": "", "address3": "", "city": "Hamburg", "zip_code": "22457", "country": "DE", "state": "HH", "display_address": ["Riekbornweg 2", "22457 Hamburg", "Germany"]}, "phone": "+494055505719", "display_phone": "+49 40 55505719", "distance": 1692.29859433407}, {"id": "19uXg_TsMdYHg19MZptw-g", "alias": "lingtons-restaurant-hamburg", "name": "Lingtons Restaurant", "image_url": "https://s3-media2.fl.yelpcdn.com/bphoto/sVLbYqoDxV7R8JNwWsKSFA/o.jpg", "is_closed": false, "url": "https://www.yelp.com/biz/lingtons-restaurant-hamburg?adjust_creative=hBJOknVQJ58S5goQyjmwRw&utm_campaign=yelp_api_v3&utm_medium=api_v3_business_search&utm_source=hBJOknVQJ58S5goQyjmwRw", "review_count": 1, "categories": [{"alias": "restaurants", "title": "Restaurants"}], "rating": 1.0, "coordinates": {"latitude": 53.6434, "longitude": 9.96049}, "transactions": [], "price": "\u20ac\u20ac", "location": {"address1": "Sachsenweg 85", "address2": null, "address3": null, "city": "Hamburg", "zip_code": "22455", "country": "DE", "state": "HH", "display_address": ["Sachsenweg 85", "22455 Hamburg", "Germany"]}, "phone": "+49405518220", "display_phone": "+49 40 5518220", "distance": 2178.116581914399}, {"id": "1N0RoHYpRany3cen0il2VA", "alias": "restaurant-omyros-hamburg", "name": "Restaurant Omyros", "image_url": "https://s3-media1.fl.yelpcdn.com/bphoto/2uhIyQIgkOb82pZmUEMzwg/o.jpg", "is_closed": false, "url": "https://www.yelp.com/biz/restaurant-omyros-hamburg?adjust_creative=hBJOknVQJ58S5goQyjmwRw&utm_campaign=yelp_api_v3&utm_medium=api_v3_business_search&utm_source=hBJOknVQJ58S5goQyjmwRw", "review_count": 11, "categories": [{"alias": "greek", "title": "Greek"}, {"alias": "international", "title": "International"}], "rating": 3.0, "coordinates": {"latitude": 53.6318, "longitude": 9.92008}, "transactions": [], "price": "\u20ac\u20ac", "location": {"address1": "W\u00e4hlingsallee 8", "address2": null, "address3": null, "city": "Hamburg", "zip_code": "22459", "country": "DE", "state": "HH", "display_address": ["W\u00e4hlingsallee 8", "22459 Hamburg", "Germany"]}, "phone": "+494067044630", "display_phone": "+49 40 67044630", "distance": 1356.5562031650636}, {"id": "pdCpaunO_IsJx9egvbp4vg", "alias": "asia-pfanne-hamburg", "name": "Asia Pfanne", "image_url": "https://s3-media2.fl.yelpcdn.com/bphoto/4Dr3ceAn6V1xIJvsGkT15w/o.jpg", "is_closed": false, "url": "https://www.yelp.com/biz/asia-pfanne-hamburg?adjust_creative=hBJOknVQJ58S5goQyjmwRw&utm_campaign=yelp_api_v3&utm_medium=api_v3_business_search&utm_source=hBJOknVQJ58S5goQyjmwRw", "review_count": 1, "categories": [{"alias": "panasian", "title": "Pan Asian"}], "rating": 3.0, "coordinates": {"latitude": 53.632113, "longitude": 9.922267}, "transactions": [], "location": {"address1": "Frohmestr. 53", "address2": "", "address3": "", "city": "Hamburg", "zip_code": "22457", "country": "DE", "state": "HH", "display_address": ["Frohmestr. 53", "22457 Hamburg", "Germany"]}, "phone": "+49405507225", "display_phone": "+49 40 5507225", "distance": 1229.9495552693033}, {"id": "f8Iq441eBFQ2H6l44iUYNA", "alias": "call-a-pizza-hamburg-5", "name": "Call a Pizza", "image_url": "https://s3-media4.fl.yelpcdn.com/bphoto/VKKfI_x3McuKKuUSy6MW1Q/o.jpg", "is_closed": false, "url": "https://www.yelp.com/biz/call-a-pizza-hamburg-5?adjust_creative=hBJOknVQJ58S5goQyjmwRw&utm_campaign=yelp_api_v3&utm_medium=api_v3_business_search&utm_source=hBJOknVQJ58S5goQyjmwRw", "review_count": 15, "categories": [{"alias": "pizza", "title": "Pizza"}], "rating": 3.5, "coordinates": {"latitude": 53.63051, "longitude": 9.92599}, "transactions": [], "price": "\u20ac\u20ac", "location": {"address1": "Frohmestr. 78D", "address2": "", "address3": null, "city": "Hamburg", "zip_code": "22459", "country": "DE", "state": "HH", "display_address": ["Frohmestr. 78D", "22459 Hamburg", "Germany"]}, "phone": "+49405592047", "display_phone": "+49 40 5592047", "distance": 941.1276565901496}, {"id": "uQiQ8Fbo5zZDNDg3ULH49A", "alias": "flamingo-lodge-hamburg", "name": "Flamingo-Lodge", "image_url": "https://s3-media2.fl.yelpcdn.com/bphoto/JkdiCjaPpyKEa7T-3ScnwQ/o.jpg", "is_closed": false, "url": "https://www.yelp.com/biz/flamingo-lodge-hamburg?adjust_creative=hBJOknVQJ58S5goQyjmwRw&utm_campaign=yelp_api_v3&utm_medium=api_v3_business_search&utm_source=hBJOknVQJ58S5goQyjmwRw", "review_count": 2, "categories": [{"alias": "german", "title": "German"}], "rating": 3.0, "coordinates": {"latitude": 53.5951806096062, "longitude": 9.93523386576099}, "transactions": [], "location": {"address1": "Lokstedter Grenzstr. 2", "address2": null, "address3": null, "city": "Hamburg", "zip_code": "22527", "country": "DE", "state": "HH", "display_address": ["Lokstedter Grenzstr. 2", "22527 Hamburg", "Germany"]}, "phone": "+4940530033318", "display_phone": "+49 40 530033318", "distance": 3679.8407442375565}, {"id": "nv04Ara6tQAcf0aSTsEslg", "alias": "tien-asia-hamburg", "name": "Tien-Asia", "image_url": "", "is_closed": false, "url": "https://www.yelp.com/biz/tien-asia-hamburg?adjust_creative=hBJOknVQJ58S5goQyjmwRw&utm_campaign=yelp_api_v3&utm_medium=api_v3_business_search&utm_source=hBJOknVQJ58S5goQyjmwRw", "review_count": 6, "categories": [{"alias": "panasian", "title": "Pan Asian"}], "rating": 3.5, "coordinates": {"latitude": 53.63525, "longitude": 9.94297}, "transactions": [], "price": "\u20ac\u20ac", "location": {"address1": "Gottschalkweg 2", "address2": "", "address3": "", "city": "Hamburg", "zip_code": "22453", "country": "DE", "state": "HH", "display_address": ["Gottschalkweg 2", "22453 Hamburg", "Germany"]}, "phone": "+494057261664", "display_phone": "+49 40 57261664", "distance": 815.5650380419385}, {"id": "XLyU_7BUrvymMxDwBdiMyg", "alias": "mcdonalds-hamburg-24", "name": "McDonald's", "image_url": "https://s3-media2.fl.yelpcdn.com/bphoto/cJRyNjFs8fFKUmwTkpVNrg/o.jpg", "is_closed": false, "url": "https://www.yelp.com/biz/mcdonalds-hamburg-24?adjust_creative=hBJOknVQJ58S5goQyjmwRw&utm_campaign=yelp_api_v3&utm_medium=api_v3_business_search&utm_source=hBJOknVQJ58S5goQyjmwRw", "review_count": 6, "categories": [{"alias": "hotdogs", "title": "Fast Food"}, {"alias": "burgers", "title": "Burgers"}], "rating": 2.0, "coordinates": {"latitude": 53.6218, "longitude": 9.9523}, "transactions": [], "location": {"address1": "Tibarg 41", "address2": "", "address3": null, "city": "Hamburg", "zip_code": "22459", "country": "DE", "state": "HH", "display_address": ["Tibarg 41", "22459 Hamburg", "Germany"]}, "phone": "+494058951943", "display_phone": "+49 40 58951943", "distance": 1090.6443268913802}, {"id": "GIQaAyM7xLRK7mAcm9u5hw", "alias": "poseidonstuben-hamburg", "name": "Poseidonstuben", "image_url": "https://s3-media3.fl.yelpcdn.com/bphoto/XWtK8mFPiuMTIWjt4ugO-A/o.jpg", "is_closed": false, "url": "https://www.yelp.com/biz/poseidonstuben-hamburg?adjust_creative=hBJOknVQJ58S5goQyjmwRw&utm_campaign=yelp_api_v3&utm_medium=api_v3_business_search&utm_source=hBJOknVQJ58S5goQyjmwRw", "review_count": 2, "categories": [{"alias": "german", "title": "German"}], "rating": 3.0, "coordinates": {"latitude": 53.6022, "longitude": 9.91722}, "transactions": [], "location": {"address1": "Olloweg 51", "address2": null, "address3": null, "city": "Hamburg", "zip_code": "22527", "country": "DE", "state": "HH", "display_address": ["Olloweg 51", "22527 Hamburg", "Germany"]}, "phone": "+49405704551", "display_phone": "+49 40 5704551", "distance": 3246.490245891994}, {"id": "NHeTdAOKPSm1KBkMj9Owmg", "alias": "mendelssohns-hamburg", "name": "Mendelssohn's", "image_url": "https://s3-media3.fl.yelpcdn.com/bphoto/Ds6HOv4_oS3kbOqkxtpkMw/o.jpg", "is_closed": false, "url": "https://www.yelp.com/biz/mendelssohns-hamburg?adjust_creative=hBJOknVQJ58S5goQyjmwRw&utm_campaign=yelp_api_v3&utm_medium=api_v3_business_search&utm_source=hBJOknVQJ58S5goQyjmwRw", "review_count": 7, "categories": [{"alias": "german", "title": "German"}], "rating": 3.5, "coordinates": {"latitude": 53.5959, "longitude": 9.9493}, "transactions": [], "price": "\u20ac\u20ac\u20ac", "location": {"address1": "Julius - Vosseler - Str. 40", "address2": null, "address3": null, "city": "Hamburg", "zip_code": "22527", "country": "DE", "state": "HH", "display_address": ["Julius - Vosseler - Str. 40", "22527 Hamburg", "Germany"]}, "phone": "+494040133100", "display_phone": "+49 40 40133100", "distance": 3643.1624028222946}, {"id": "F4o21bYF9t71tEQkiJZpVA", "alias": "livia-hamburg-3", "name": "Livia", "image_url": "", "is_closed": false, "url": "https://www.yelp.com/biz/livia-hamburg-3?adjust_creative=hBJOknVQJ58S5goQyjmwRw&utm_campaign=yelp_api_v3&utm_medium=api_v3_business_search&utm_source=hBJOknVQJ58S5goQyjmwRw", "review_count": 3, "categories": [{"alias": "international", "title": "International"}], "rating": 2.5, "coordinates": {"latitude": 53.6298, "longitude": 9.95693}, "transactions": [], "price": "\u20ac\u20ac", "location": {"address1": "Rebhuhnweg 24", "address2": null, "address3": null, "city": "Hamburg", "zip_code": "22459", "country": "DE", "state": "HH", "display_address": ["Rebhuhnweg 24", "22459 Hamburg", "Germany"]}, "phone": "+49405522781", "display_phone": "+49 40 5522781", "distance": 1149.2724899714324}, {"id": "KayjcGzyocTlDonXgRLl6w", "alias": "shuttle-imbiss-hamburg", "name": "Shuttle Imbiss", "image_url": "https://s3-media3.fl.yelpcdn.com/bphoto/bwYb5yyzu9sSlyBwRk9F9Q/o.jpg", "is_closed": false, "url": "https://www.yelp.com/biz/shuttle-imbiss-hamburg?adjust_creative=hBJOknVQJ58S5goQyjmwRw&utm_campaign=yelp_api_v3&utm_medium=api_v3_business_search&utm_source=hBJOknVQJ58S5goQyjmwRw", "review_count": 4, "categories": [{"alias": "foodstands", "title": "Food Stands"}], "rating": 4.5, "coordinates": {"latitude": 53.5901120455389, "longitude": 9.91830674981713}, "transactions": [], "price": "\u20ac", "location": {"address1": "Volksparkstr. 62", "address2": "", "address3": "", "city": "Hamburg", "zip_code": "22525", "country": "DE", "state": "HH", "display_address": ["Volksparkstr. 62", "22525 Hamburg", "Germany"]}, "phone": "", "display_phone": "", "distance": 4461.088083686688}, {"id": "cv2Yqjfo9ExCKdG47i8CKw", "alias": "mcdonalds-hamburg-46", "name": "McDonald's", "image_url": "https://s3-media4.fl.yelpcdn.com/bphoto/hDCAuMU49n9VJ-hZMkclQg/o.jpg", "is_closed": false, "url": "https://www.yelp.com/biz/mcdonalds-hamburg-46?adjust_creative=hBJOknVQJ58S5goQyjmwRw&utm_campaign=yelp_api_v3&utm_medium=api_v3_business_search&utm_source=hBJOknVQJ58S5goQyjmwRw", "review_count": 18, "categories": [{"alias": "hotdogs", "title": "Fast Food"}, {"alias": "burgers", "title": "Burgers"}], "rating": 2.5, "coordinates": {"latitude": 53.60214, "longitude": 9.96197}, "transactions": [], "price": "\u20ac\u20ac", "location": {"address1": "Kollaustr. 25", "address2": null, "address3": null, "city": "Hamburg", "zip_code": "22529", "country": "DE", "state": "HH", "display_address": ["Kollaustr. 25", "22529 Hamburg", "Germany"]}, "phone": "+4940584814", "display_phone": "+49 40 584814", "distance": 3240.5654369046356}, {"id": "fTQyh9kb6XbWJEygoWC5LQ", "alias": "bennys-hamburg-2", "name": "Bennys", "image_url": "", "is_closed": false, "url": "https://www.yelp.com/biz/bennys-hamburg-2?adjust_creative=hBJOknVQJ58S5goQyjmwRw&utm_campaign=yelp_api_v3&utm_medium=api_v3_business_search&utm_source=hBJOknVQJ58S5goQyjmwRw", "review_count": 3, "categories": [{"alias": "restaurants", "title": "Restaurants"}], "rating": 1.0, "coordinates": {"latitude": 53.6528179, "longitude": 9.9200587}, "transactions": [], "location": {"address1": "K\u00f6nigskinderweg 200", "address2": "", "address3": null, "city": "Hamburg", "zip_code": "22457", "country": "DE", "state": "HH", "display_address": ["K\u00f6nigskinderweg 200", "22457 Hamburg", "Germany"]}, "phone": "+49405598790", "display_phone": "+49 40 5598790", "distance": 3032.026518685375}, {"id": "MiFbCdqKkKr2uMbGWvnQfg", "alias": "dominos-hamburg-18", "name": "Domino's", "image_url": "", "is_closed": false, "url": "https://www.yelp.com/biz/dominos-hamburg-18?adjust_creative=hBJOknVQJ58S5goQyjmwRw&utm_campaign=yelp_api_v3&utm_medium=api_v3_business_search&utm_source=hBJOknVQJ58S5goQyjmwRw", "review_count": 1, "categories": [{"alias": "pizza", "title": "Pizza"}], "rating": 2.0, "coordinates": {"latitude": 53.63612, "longitude": 9.9446999}, "transactions": [], "location": {"address1": "Quedlinburger Weg 78", "address2": "", "address3": null, "city": "Hamburg", "zip_code": "22455", "country": "DE", "state": "HH", "display_address": ["Quedlinburger Weg 78", "22455 Hamburg", "Germany"]}, "phone": "+49405558810", "display_phone": "+49 40 5558810", "distance": 953.9881878366625}, {"id": "a3NwmecwsGa--y7hK3Mh9g", "alias": "forum-bistro-hamburg", "name": "Forum Bistro", "image_url": "", "is_closed": false, "url": "https://www.yelp.com/biz/forum-bistro-hamburg?adjust_creative=hBJOknVQJ58S5goQyjmwRw&utm_campaign=yelp_api_v3&utm_medium=api_v3_business_search&utm_source=hBJOknVQJ58S5goQyjmwRw", "review_count": 1, "categories": [{"alias": "bistros", "title": "Bistros"}], "rating": 4.0, "coordinates": {"latitude": 53.5913082, "longitude": 9.9581828}, "transactions": [], "location": {"address1": "Betriebskantine Dello", "address2": "Nedderfeld 91", "address3": null, "city": "Hamburg", "zip_code": "22529", "country": "DE", "state": "HH", "display_address": ["Betriebskantine Dello", "Nedderfeld 91", "22529 Hamburg", "Germany"]}, "phone": "+494047122761", "display_phone": "+49 40 47122761", "distance": 4275.669981305475}, {"id": "Cot32yYrteOfDI7BevuStw", "alias": "taverna-omiros-hamburg-3", "name": "Taverna Omiros", "image_url": "", "is_closed": false, "url": "https://www.yelp.com/biz/taverna-omiros-hamburg-3?adjust_creative=hBJOknVQJ58S5goQyjmwRw&utm_campaign=yelp_api_v3&utm_medium=api_v3_business_search&utm_source=hBJOknVQJ58S5goQyjmwRw", "review_count": 4, "categories": [{"alias": "greek", "title": "Greek"}], "rating": 1.5, "coordinates": {"latitude": 53.5925299, "longitude": 9.94628}, "transactions": [], "location": {"address1": "Julius-Vosseler-Str. 77", "address2": "", "address3": null, "city": "Hamburg", "zip_code": "22527", "country": "DE", "state": "HH", "display_address": ["Julius-Vosseler-Str. 77", "22527 Hamburg", "Germany"]}, "phone": "+49405402824", "display_phone": "+49 40 5402824", "distance": 3987.0700210779105}, {"id": "JID6EE8t-BxYpzBxCzxuIw", "alias": "mensa-stellingen-informatikum-hamburg-2", "name": "Mensa Stellingen - Informatikum", "image_url": "https://s3-media2.fl.yelpcdn.com/bphoto/bw38lwJPDxOe0db-MQSVmQ/o.jpg", "is_closed": false, "url": "https://www.yelp.com/biz/mensa-stellingen-informatikum-hamburg-2?adjust_creative=hBJOknVQJ58S5goQyjmwRw&utm_campaign=yelp_api_v3&utm_medium=api_v3_business_search&utm_source=hBJOknVQJ58S5goQyjmwRw", "review_count": 6, "categories": [{"alias": "cafeteria", "title": "Cafeteria"}, {"alias": "food", "title": "Food"}], "rating": 1.5, "coordinates": {"latitude": 53.59935, "longitude": 9.93191}, "transactions": [], "price": "\u20ac", "location": {"address1": "Vogt-K\u00f6lln-Str. 30", "address2": "", "address3": "", "city": "Hamburg", "zip_code": "22527", "country": "DE", "state": "HH", "display_address": ["Vogt-K\u00f6lln-Str. 30", "22527 Hamburg", "Germany"]}, "phone": "", "display_phone": "", "distance": 3245.4557616350166}, {"id": "-654h7dYALvwI5_hP_33Qw", "alias": "ndr-studiok\u00fcche-hamburg", "name": "NDR Studiok\u00fcche", "image_url": "", "is_closed": false, "url": "https://www.yelp.com/biz/ndr-studiok%C3%BCche-hamburg?adjust_creative=hBJOknVQJ58S5goQyjmwRw&utm_campaign=yelp_api_v3&utm_medium=api_v3_business_search&utm_source=hBJOknVQJ58S5goQyjmwRw", "review_count": 3, "categories": [{"alias": "canteen", "title": "Canteen"}], "rating": 4.0, "coordinates": {"latitude": 53.5966, "longitude": 9.946149}, "transactions": [], "location": {"address1": "Hugh-Greene-Weg 1", "address2": null, "address3": null, "city": "Hamburg", "zip_code": "22529", "country": "DE", "state": "HH", "display_address": ["Hugh-Greene-Weg 1", "22529 Hamburg", "Germany"]}, "phone": "+494041567103", "display_phone": "+49 40 41567103", "distance": 3535.6226807071625}, {"id": "gLx6Vz_0Tht17upmrAVfbQ", "alias": "xxl-croque-hamburg", "name": "XXL Croque", "image_url": "https://s3-media1.fl.yelpcdn.com/bphoto/WI-0DoqAWwvayUaAfxUu6Q/o.jpg", "is_closed": false, "url": "https://www.yelp.com/biz/xxl-croque-hamburg?adjust_creative=hBJOknVQJ58S5goQyjmwRw&utm_campaign=yelp_api_v3&utm_medium=api_v3_business_search&utm_source=hBJOknVQJ58S5goQyjmwRw", "review_count": 2, "categories": [{"alias": "sandwiches", "title": "Sandwiches"}], "rating": 2.0, "coordinates": {"latitude": 53.63412, "longitude": 9.91615}, "transactions": [], "price": "\u20ac\u20ac", "location": {"address1": "Riekbornweg 2", "address2": "", "address3": "", "city": "Hamburg", "zip_code": "22457", "country": "DE", "state": "HH", "display_address": ["Riekbornweg 2", "22457 Hamburg", "Germany"]}, "phone": "+494055505880", "display_phone": "+49 40 55505880", "distance": 1692.29859433407}, {"id": "WqzFrz31DdIPcPmpvZiIBA", "alias": "himalaya-asia-hamburg", "name": "Himalaya Asia", "image_url": "https://s3-media3.fl.yelpcdn.com/bphoto/XonJKCD1BJqwUZdAo1SPGQ/o.jpg", "is_closed": false, "url": "https://www.yelp.com/biz/himalaya-asia-hamburg?adjust_creative=hBJOknVQJ58S5goQyjmwRw&utm_campaign=yelp_api_v3&utm_medium=api_v3_business_search&utm_source=hBJOknVQJ58S5goQyjmwRw", "review_count": 12, "categories": [{"alias": "panasian", "title": "Pan Asian"}], "rating": 2.5, "coordinates": {"latitude": 53.5999922, "longitude": 9.9160509}, "transactions": [], "price": "\u20ac", "location": {"address1": "Kieler Str. 565", "address2": null, "address3": null, "city": "Hamburg", "zip_code": "22525", "country": "DE", "state": "HH", "display_address": ["Kieler Str. 565", "22525 Hamburg", "Germany"]}, "phone": "+494057129484", "display_phone": "+49 40 57129484", "distance": 3500.375572379635}, {"id": "wtbypjRP06EwKojZkx5sIg", "alias": "db-servicestore-hamburg", "name": "DB ServiceStore", "image_url": "https://s3-media1.fl.yelpcdn.com/bphoto/uXDF4g6rdmekfiSHtI7yDQ/o.jpg", "is_closed": false, "url": "https://www.yelp.com/biz/db-servicestore-hamburg?adjust_creative=hBJOknVQJ58S5goQyjmwRw&utm_campaign=yelp_api_v3&utm_medium=api_v3_business_search&utm_source=hBJOknVQJ58S5goQyjmwRw", "review_count": 2, "categories": [{"alias": "foodstands", "title": "Food Stands"}, {"alias": "mags", "title": "Newspapers & Magazines"}, {"alias": "tobaccoshops", "title": "Tobacco Shops"}], "rating": 2.5, "coordinates": {"latitude": 53.5899929971211, "longitude": 9.9184100961593}, "transactions": [], "price": "\u20ac", "location": {"address1": "Volksparkstr. 79", "address2": "", "address3": "", "city": "Hamburg", "zip_code": "22525", "country": "DE", "state": "HH", "display_address": ["Volksparkstr. 79", "22525 Hamburg", "Germany"]}, "phone": "", "display_phone": "", "distance": 4471.498853434117}]