[{"id": "E73qYJmztAibJOEQ26C6yw", "alias": "quanto-basta-pinneberg", "name": "Quanto Basta", "image_url": "https://s3-media2.fl.yelpcdn.com/bphoto/pga5AFzbxJRUxsTI0Tqt5Q/o.jpg", "is_closed": false, "url": "https://www.yelp.com/biz/quanto-basta-pinneberg?adjust_creative=hBJOknVQJ58S5goQyjmwRw&utm_campaign=yelp_api_v3&utm_medium=api_v3_business_search&utm_source=hBJOknVQJ58S5goQyjmwRw", "review_count": 26, "categories": [{"alias": "italian", "title": "Italian"}, {"alias": "pizza", "title": "Pizza"}], "rating": 4.5, "coordinates": {"latitude": 53.6525091359192, "longitude": 9.8083545640111}, "transactions": [], "price": "\u20ac\u20ac", "location": {"address1": "Fahltsweide 10", "address2": "", "address3": "", "city": "Pinneberg", "zip_code": "25421", "country": "DE", "state": "SH", "display_address": ["Fahltsweide 10", "25421 Pinneberg", "Germany"]}, "phone": "+4941018451823", "display_phone": "+49 4101 8451823", "distance": 2897.083017828606}, {"id": "OSbYFIQGe6doSpUZSLX10g", "alias": "goldsch\u00e4tzchen-prisdorf", "name": "Goldsch\u00e4tzchen", "image_url": "https://s3-media1.fl.yelpcdn.com/bphoto/VBwvezW9jAStVQtmRWVivw/o.jpg", "is_closed": false, "url": "https://www.yelp.com/biz/goldsch%C3%A4tzchen-prisdorf?adjust_creative=hBJOknVQJ58S5goQyjmwRw&utm_campaign=yelp_api_v3&utm_medium=api_v3_business_search&utm_source=hBJOknVQJ58S5goQyjmwRw", "review_count": 3, "categories": [{"alias": "german", "title": "German"}], "rating": 5.0, "coordinates": {"latitude": 53.6686267276072, "longitude": 9.76542465889531}, "transactions": [], "location": {"address1": "Peiner Hof 7", "address2": "", "address3": null, "city": "Prisdorf", "zip_code": "25497", "country": "DE", "state": "SH", "display_address": ["Peiner Hof 7", "25497 Prisdorf", "Germany"]}, "phone": "+4941016010921", "display_phone": "+49 4101 6010921", "distance": 4634.700738265487}, {"id": "AYlMFGMmNAzgiUYPjwZeLw", "alias": "kochlounge-pinneberg", "name": "Kochlounge", "image_url": "https://s3-media4.fl.yelpcdn.com/bphoto/qYWSkH2Y6C02kzXCU17hXQ/o.jpg", "is_closed": false, "url": "https://www.yelp.com/biz/kochlounge-pinneberg?adjust_creative=hBJOknVQJ58S5goQyjmwRw&utm_campaign=yelp_api_v3&utm_medium=api_v3_business_search&utm_source=hBJOknVQJ58S5goQyjmwRw", "review_count": 39, "categories": [{"alias": "international", "title": "International"}], "rating": 4.5, "coordinates": {"latitude": 53.6444199, "longitude": 9.81111}, "transactions": [], "price": "\u20ac\u20ac", "location": {"address1": "Diesterwegstr. 33 b", "address2": "", "address3": "", "city": "Pinneberg", "zip_code": "25421", "country": "DE", "state": "SH", "display_address": ["Diesterwegstr. 33 b", "25421 Pinneberg", "Germany"]}, "phone": "+4941018590070", "display_phone": "+49 4101 8590070", "distance": 2229.8096716428627}, {"id": "xoYtmD10hAEbWQELxbM07A", "alias": "taverna-kronos-pinneberg", "name": "Taverna Kronos", "image_url": "https://s3-media2.fl.yelpcdn.com/bphoto/xJhlVCch-MO-Kx0QQStnTA/o.jpg", "is_closed": false, "url": "https://www.yelp.com/biz/taverna-kronos-pinneberg?adjust_creative=hBJOknVQJ58S5goQyjmwRw&utm_campaign=yelp_api_v3&utm_medium=api_v3_business_search&utm_source=hBJOknVQJ58S5goQyjmwRw", "review_count": 39, "categories": [{"alias": "greek", "title": "Greek"}], "rating": 4.0, "coordinates": {"latitude": 53.651193, "longitude": 9.791275}, "transactions": [], "price": "\u20ac\u20ac", "location": {"address1": "Oeltingsallee 37", "address2": null, "address3": null, "city": "Pinneberg", "zip_code": "25421", "country": "DE", "state": "SH", "display_address": ["Oeltingsallee 37", "25421 Pinneberg", "Germany"]}, "phone": "+494101691955", "display_phone": "+49 4101 691955", "distance": 2445.733444191284}, {"id": "Bg01nWnHGhbYOREOZ4DmDQ", "alias": "rolin-pinneberg", "name": "Rolin", "image_url": "https://s3-media1.fl.yelpcdn.com/bphoto/_9EY5XeZ0orqLTCRrukesw/o.jpg", "is_closed": false, "url": "https://www.yelp.com/biz/rolin-pinneberg?adjust_creative=hBJOknVQJ58S5goQyjmwRw&utm_campaign=yelp_api_v3&utm_medium=api_v3_business_search&utm_source=hBJOknVQJ58S5goQyjmwRw", "review_count": 18, "categories": [{"alias": "german", "title": "German"}, {"alias": "international", "title": "International"}], "rating": 4.5, "coordinates": {"latitude": 53.65764, "longitude": 9.80629}, "transactions": [], "price": "\u20ac\u20ac\u20ac", "location": {"address1": "Fahltskamp 48", "address2": "", "address3": null, "city": "Pinneberg", "zip_code": "25421", "country": "DE", "state": "SH", "display_address": ["Fahltskamp 48", "25421 Pinneberg", "Germany"]}, "phone": "+4941015330", "display_phone": "+49 4101 5330", "distance": 3366.170456948811}, {"id": "_A6BcvxlkXRBadQURbgmGQ", "alias": "tai-pan-pinneberg", "name": "Tai Pan", "image_url": "https://s3-media1.fl.yelpcdn.com/bphoto/uIz64VESyC7FUTocfvHoGg/o.jpg", "is_closed": false, "url": "https://www.yelp.com/biz/tai-pan-pinneberg?adjust_creative=hBJOknVQJ58S5goQyjmwRw&utm_campaign=yelp_api_v3&utm_medium=api_v3_business_search&utm_source=hBJOknVQJ58S5goQyjmwRw", "review_count": 5, "categories": [{"alias": "conveyorsushi", "title": "Conveyor Belt Sushi"}], "rating": 4.0, "coordinates": {"latitude": 53.6575019113409, "longitude": 9.78281015609283}, "transactions": [], "price": "\u20ac\u20ac", "location": {"address1": "M\u00fchlenstr. 52", "address2": "", "address3": "", "city": "Pinneberg", "zip_code": "25421", "country": "DE", "state": "SH", "display_address": ["M\u00fchlenstr. 52", "25421 Pinneberg", "Germany"]}, "phone": "+4941018148459", "display_phone": "+49 4101 8148459", "distance": 3163.010228808313}, {"id": "lZYgspqCJtr9jMHfwUwd2w", "alias": "prontos-pizza-service-pinneberg", "name": "Prontos Pizza Service", "image_url": "https://s3-media3.fl.yelpcdn.com/bphoto/nUAwxRyUn4naqNTNJfx5eA/o.jpg", "is_closed": false, "url": "https://www.yelp.com/biz/prontos-pizza-service-pinneberg?adjust_creative=hBJOknVQJ58S5goQyjmwRw&utm_campaign=yelp_api_v3&utm_medium=api_v3_business_search&utm_source=hBJOknVQJ58S5goQyjmwRw", "review_count": 2, "categories": [{"alias": "italian", "title": "Italian"}, {"alias": "pizza", "title": "Pizza"}], "rating": 2.5, "coordinates": {"latitude": 53.65746, "longitude": 9.77643}, "transactions": [], "price": "\u20ac\u20ac", "location": {"address1": "M\u00fchlenstr. 97a", "address2": null, "address3": null, "city": "Pinneberg", "zip_code": "25421", "country": "DE", "state": "SH", "display_address": ["M\u00fchlenstr. 97a", "25421 Pinneberg", "Germany"]}, "phone": "+494101512151", "display_phone": "+49 4101 512151", "distance": 3235.5838988988194}, {"id": "RIUl6F41gpILcr1SaGTYHw", "alias": "lodge-restaurant-und-bar-pinneberg", "name": "Lodge Restaurant & Bar", "image_url": "https://s3-media3.fl.yelpcdn.com/bphoto/nsKdh5Lwlxdva2Oz0h-rTQ/o.jpg", "is_closed": false, "url": "https://www.yelp.com/biz/lodge-restaurant-und-bar-pinneberg?adjust_creative=hBJOknVQJ58S5goQyjmwRw&utm_campaign=yelp_api_v3&utm_medium=api_v3_business_search&utm_source=hBJOknVQJ58S5goQyjmwRw", "review_count": 8, "categories": [{"alias": "german", "title": "German"}], "rating": 4.5, "coordinates": {"latitude": 53.6592, "longitude": 9.7702}, "transactions": [], "price": "\u20ac\u20ac", "location": {"address1": "M\u00fchlenstr.  140", "address2": null, "address3": null, "city": "Pinneberg", "zip_code": "25421", "country": "DE", "state": "SH", "display_address": ["M\u00fchlenstr.  140", "25421 Pinneberg", "Germany"]}, "phone": "+4941017891858", "display_phone": "+49 4101 7891858", "distance": 3541.635012428175}, {"id": "Jt8deUD57YvyPNC2hXZRYA", "alias": "lust-auf-sizilien-pinneberg", "name": "Lust auf Sizilien", "image_url": "https://s3-media1.fl.yelpcdn.com/bphoto/AlEtE0aTwQJRB0kvM4E17A/o.jpg", "is_closed": false, "url": "https://www.yelp.com/biz/lust-auf-sizilien-pinneberg?adjust_creative=hBJOknVQJ58S5goQyjmwRw&utm_campaign=yelp_api_v3&utm_medium=api_v3_business_search&utm_source=hBJOknVQJ58S5goQyjmwRw", "review_count": 1, "categories": [{"alias": "italian", "title": "Italian"}], "rating": 4.0, "coordinates": {"latitude": 53.63796, "longitude": 9.78689}, "transactions": [], "location": {"address1": "Vo\u00dfbarg 12", "address2": "", "address3": "", "city": "Pinneberg", "zip_code": "25421", "country": "DE", "state": "SH", "display_address": ["Vo\u00dfbarg 12", "25421 Pinneberg", "Germany"]}, "phone": "+49410165251", "display_phone": "+49 4101 65251", "distance": 977.6126513287751}, {"id": "m8fgrFZE9-H67Usnscoh5A", "alias": "the-kebab-house-pinneberg", "name": "The Kebab House", "image_url": "https://s3-media3.fl.yelpcdn.com/bphoto/CR2T0GA1ebztfk6xgOdNuA/o.jpg", "is_closed": false, "url": "https://www.yelp.com/biz/the-kebab-house-pinneberg?adjust_creative=hBJOknVQJ58S5goQyjmwRw&utm_campaign=yelp_api_v3&utm_medium=api_v3_business_search&utm_source=hBJOknVQJ58S5goQyjmwRw", "review_count": 2, "categories": [{"alias": "turkish", "title": "Turkish"}, {"alias": "kebab", "title": "Kebab"}], "rating": 4.5, "coordinates": {"latitude": 53.6611817, "longitude": 9.801872}, "transactions": [], "price": "\u20ac", "location": {"address1": "Damm 3", "address2": "", "address3": "", "city": "Pinneberg", "zip_code": "25421", "country": "DE", "state": "SH", "display_address": ["Damm 3", "25421 Pinneberg", "Germany"]}, "phone": "+4941018189703", "display_phone": "+49 4101 8189703", "distance": 3657.794408892324}, {"id": "_u9aihwL89_GWcMIVehpTQ", "alias": "meusels-landdrostei-pinneberg", "name": "Meusel's Landdrostei", "image_url": "https://s3-media1.fl.yelpcdn.com/bphoto/ZAEvWaKqy2JIDTgVcEY3Rw/o.jpg", "is_closed": false, "url": "https://www.yelp.com/biz/meusels-landdrostei-pinneberg?adjust_creative=hBJOknVQJ58S5goQyjmwRw&utm_campaign=yelp_api_v3&utm_medium=api_v3_business_search&utm_source=hBJOknVQJ58S5goQyjmwRw", "review_count": 7, "categories": [{"alias": "german", "title": "German"}], "rating": 3.5, "coordinates": {"latitude": 53.660968, "longitude": 9.796627}, "transactions": [], "price": "\u20ac\u20ac\u20ac", "location": {"address1": "Dingst\u00e4tte 23", "address2": "", "address3": "", "city": "Pinneberg", "zip_code": "25421", "country": "DE", "state": "SH", "display_address": ["Dingst\u00e4tte 23", "25421 Pinneberg", "Germany"]}, "phone": "+4941018527777", "display_phone": "+49 4101 8527777", "distance": 3564.256558805455}, {"id": "laRi4ONmG2scKeNW4nIsSw", "alias": "gazi-antep-pinneberg", "name": "Gazi Antep", "image_url": "https://s3-media2.fl.yelpcdn.com/bphoto/6FMvUdUDqVsQxE5owpqy0w/o.jpg", "is_closed": false, "url": "https://www.yelp.com/biz/gazi-antep-pinneberg?adjust_creative=hBJOknVQJ58S5goQyjmwRw&utm_campaign=yelp_api_v3&utm_medium=api_v3_business_search&utm_source=hBJOknVQJ58S5goQyjmwRw", "review_count": 3, "categories": [{"alias": "kebab", "title": "Kebab"}, {"alias": "turkish", "title": "Turkish"}], "rating": 4.5, "coordinates": {"latitude": 53.66098, "longitude": 9.7944099}, "transactions": [], "price": "\u20ac", "location": {"address1": "R\u00fcbekamp 8", "address2": null, "address3": null, "city": "Pinneberg", "zip_code": "25421", "country": "DE", "state": "SH", "display_address": ["R\u00fcbekamp 8", "25421 Pinneberg", "Germany"]}, "phone": "+4941017759321", "display_phone": "+49 4101 7759321", "distance": 3550.2739996029322}, {"id": "GoPSa1AAu2iHtpl-QbQgPA", "alias": "canton-pinneberg", "name": "Canton", "image_url": "https://s3-media1.fl.yelpcdn.com/bphoto/vRVQOyN3urUhUEbI_SmXdg/o.jpg", "is_closed": false, "url": "https://www.yelp.com/biz/canton-pinneberg?adjust_creative=hBJOknVQJ58S5goQyjmwRw&utm_campaign=yelp_api_v3&utm_medium=api_v3_business_search&utm_source=hBJOknVQJ58S5goQyjmwRw", "review_count": 20, "categories": [{"alias": "chinese", "title": "Chinese"}], "rating": 4.5, "coordinates": {"latitude": 53.6571954, "longitude": 9.8080748}, "transactions": [], "price": "\u20ac\u20ac", "location": {"address1": "Fahltskamp 65 A", "address2": null, "address3": null, "city": "Pinneberg", "zip_code": "25421", "country": "DE", "state": "SH", "display_address": ["Fahltskamp 65 A", "25421 Pinneberg", "Germany"]}, "phone": "+49410123136", "display_phone": "+49 4101 23136", "distance": 3363.174339624856}, {"id": "Ih663KsFk7rYP68-y4OiMQ", "alias": "elena-pinneberg", "name": "Elena", "image_url": "https://s3-media4.fl.yelpcdn.com/bphoto/un667ClqQS1Afh8t32LqYA/o.jpg", "is_closed": false, "url": "https://www.yelp.com/biz/elena-pinneberg?adjust_creative=hBJOknVQJ58S5goQyjmwRw&utm_campaign=yelp_api_v3&utm_medium=api_v3_business_search&utm_source=hBJOknVQJ58S5goQyjmwRw", "review_count": 27, "categories": [{"alias": "greek", "title": "Greek"}], "rating": 4.0, "coordinates": {"latitude": 53.6605, "longitude": 9.80122}, "transactions": [], "price": "\u20ac\u20ac", "location": {"address1": "Fahltskamp 11", "address2": null, "address3": null, "city": "Pinneberg", "zip_code": "25421", "country": "DE", "state": "SH", "display_address": ["Fahltskamp 11", "25421 Pinneberg", "Germany"]}, "phone": "+49410122437", "display_phone": "+49 4101 22437", "distance": 3573.2789300298946}, {"id": "Y0lrpByrOYfQG_m_-6hWQg", "alias": "raj-mahal-pinneberg", "name": "Raj Mahal", "image_url": "https://s3-media2.fl.yelpcdn.com/bphoto/jcnU2mHIU2m7pPDjPWTwwQ/o.jpg", "is_closed": false, "url": "https://www.yelp.com/biz/raj-mahal-pinneberg?adjust_creative=hBJOknVQJ58S5goQyjmwRw&utm_campaign=yelp_api_v3&utm_medium=api_v3_business_search&utm_source=hBJOknVQJ58S5goQyjmwRw", "review_count": 1, "categories": [{"alias": "indpak", "title": "Indian"}], "rating": 4.0, "coordinates": {"latitude": 53.6607, "longitude": 9.79888}, "transactions": [], "location": {"address1": "Lindenstr. 35", "address2": null, "address3": "", "city": "Pinneberg", "zip_code": "25421", "country": "DE", "state": "SH", "display_address": ["Lindenstr. 35", "25421 Pinneberg", "Germany"]}, "phone": "+4941015858440", "display_phone": "+49 4101 5858440", "distance": 3563.91298290693}, {"id": "DX9R3hI8K5YhB1ed3KIxxw", "alias": "imbiss-am-rathaus-pinneberg", "name": "Imbiss am Rathaus", "image_url": "https://s3-media1.fl.yelpcdn.com/bphoto/7Tce-TlNvg2j9Rze2WkqpA/o.jpg", "is_closed": false, "url": "https://www.yelp.com/biz/imbiss-am-rathaus-pinneberg?adjust_creative=hBJOknVQJ58S5goQyjmwRw&utm_campaign=yelp_api_v3&utm_medium=api_v3_business_search&utm_source=hBJOknVQJ58S5goQyjmwRw", "review_count": 1, "categories": [{"alias": "foodstands", "title": "Food Stands"}], "rating": 5.0, "coordinates": {"latitude": 53.6618799, "longitude": 9.79851}, "transactions": [], "location": {"address1": "Am Rathaus", "address2": "", "address3": "", "city": "Pinneberg", "zip_code": "25421", "country": "DE", "state": "SH", "display_address": ["Am Rathaus", "25421 Pinneberg", "Germany"]}, "phone": "", "display_phone": "", "distance": 3686.254162583133}, {"id": "GfG8sQNKdaNkqs2nJBF_0g", "alias": "gastst\u00e4tte-pony-waldsch\u00e4nke-hamburg", "name": "Gastst\u00e4tte Pony-Waldsch\u00e4nke", "image_url": "https://s3-media1.fl.yelpcdn.com/bphoto/o73WXVCYlQLq985rmNk-EQ/o.jpg", "is_closed": false, "url": "https://www.yelp.com/biz/gastst%C3%A4tte-pony-waldsch%C3%A4nke-hamburg?adjust_creative=hBJOknVQJ58S5goQyjmwRw&utm_campaign=yelp_api_v3&utm_medium=api_v3_business_search&utm_source=hBJOknVQJ58S5goQyjmwRw", "review_count": 42, "categories": [{"alias": "german", "title": "German"}], "rating": 4.0, "coordinates": {"latitude": 53.60464, "longitude": 9.7698}, "transactions": [], "price": "\u20ac\u20ac", "location": {"address1": "Babenwischenweg 28", "address2": null, "address3": null, "city": "Hamburg", "zip_code": "22559", "country": "DE", "state": "HH", "display_address": ["Babenwischenweg 28", "22559 Hamburg", "Germany"]}, "phone": "+4940812353", "display_phone": "+49 40 812353", "distance": 3006.6763428552185}, {"id": "qnv7-qVcxx7XkVTxUlHkpg", "alias": "restaurant-lumberjack-pinneberg", "name": "Restaurant Lumberjack", "image_url": "https://s3-media4.fl.yelpcdn.com/bphoto/-4P-9Qs84nrQ9jcx3WF01g/o.jpg", "is_closed": false, "url": "https://www.yelp.com/biz/restaurant-lumberjack-pinneberg?adjust_creative=hBJOknVQJ58S5goQyjmwRw&utm_campaign=yelp_api_v3&utm_medium=api_v3_business_search&utm_source=hBJOknVQJ58S5goQyjmwRw", "review_count": 40, "categories": [{"alias": "tradamerican", "title": "American (Traditional)"}, {"alias": "international", "title": "International"}], "rating": 3.5, "coordinates": {"latitude": 53.6613, "longitude": 9.78748}, "transactions": [], "price": "\u20ac\u20ac", "location": {"address1": "Am Hafen 3", "address2": null, "address3": null, "city": "Pinneberg", "zip_code": "25421", "country": "DE", "state": "SH", "display_address": ["Am Hafen 3", "25421 Pinneberg", "Germany"]}, "phone": "+494101207493", "display_phone": "+49 4101 207493", "distance": 3563.504562356642}, {"id": "INE-ibfUNq2l170_4Qb_Bg", "alias": "pino-pinneberg", "name": "Pino", "image_url": "https://s3-media3.fl.yelpcdn.com/bphoto/3UJ4CShqrqYOVD14b8x7jA/o.jpg", "is_closed": false, "url": "https://www.yelp.com/biz/pino-pinneberg?adjust_creative=hBJOknVQJ58S5goQyjmwRw&utm_campaign=yelp_api_v3&utm_medium=api_v3_business_search&utm_source=hBJOknVQJ58S5goQyjmwRw", "review_count": 1, "categories": [{"alias": "cafes", "title": "Cafes"}, {"alias": "italian", "title": "Italian"}, {"alias": "german", "title": "German"}], "rating": 5.0, "coordinates": {"latitude": 53.658699, "longitude": 9.8000803}, "transactions": [], "price": "\u20ac", "location": {"address1": "Bahnhofstr. 12", "address2": "", "address3": "", "city": "Pinneberg", "zip_code": "25421", "country": "DE", "state": "SH", "display_address": ["Bahnhofstr. 12", "25421 Pinneberg", "Germany"]}, "phone": "+4941018528021", "display_phone": "+49 4101 8528021", "distance": 3354.062274989938}, {"id": "kKdTjgFwLxDJ534fx7IhwA", "alias": "thessaloniki-pinneberg", "name": "Thessaloniki", "image_url": "https://s3-media1.fl.yelpcdn.com/bphoto/jyi-PILen60wkXYj_ri_YQ/o.jpg", "is_closed": false, "url": "https://www.yelp.com/biz/thessaloniki-pinneberg?adjust_creative=hBJOknVQJ58S5goQyjmwRw&utm_campaign=yelp_api_v3&utm_medium=api_v3_business_search&utm_source=hBJOknVQJ58S5goQyjmwRw", "review_count": 27, "categories": [{"alias": "greek", "title": "Greek"}], "rating": 4.0, "coordinates": {"latitude": 53.65222, "longitude": 9.77595}, "transactions": [], "price": "\u20ac\u20ac", "location": {"address1": "Wedeler Weg 79", "address2": null, "address3": null, "city": "Pinneberg", "zip_code": "25421", "country": "DE", "state": "SH", "display_address": ["Wedeler Weg 79", "25421 Pinneberg", "Germany"]}, "phone": "+49410122550", "display_phone": "+49 4101 22550", "distance": 2684.352647490648}, {"id": "payrQ1kXJvdTW6I0AB9kmw", "alias": "remise-pinneberg", "name": "Remise", "image_url": "https://s3-media3.fl.yelpcdn.com/bphoto/G9eDea-6MdhgmDlb_wqV1A/o.jpg", "is_closed": false, "url": "https://www.yelp.com/biz/remise-pinneberg?adjust_creative=hBJOknVQJ58S5goQyjmwRw&utm_campaign=yelp_api_v3&utm_medium=api_v3_business_search&utm_source=hBJOknVQJ58S5goQyjmwRw", "review_count": 17, "categories": [{"alias": "cafes", "title": "Cafes"}, {"alias": "wine_bars", "title": "Wine Bars"}, {"alias": "beergarden", "title": "Beer Garden"}], "rating": 4.0, "coordinates": {"latitude": 53.6612520105675, "longitude": 9.79583731904904}, "transactions": [], "price": "\u20ac\u20ac", "location": {"address1": "Dingst\u00e4tte 27", "address2": "", "address3": "", "city": "Pinneberg", "zip_code": "25421", "country": "DE", "state": "SH", "display_address": ["Dingst\u00e4tte 27", "25421 Pinneberg", "Germany"]}, "phone": "+4941018191626", "display_phone": "+49 4101 8191626", "distance": 3590.025525337286}, {"id": "JIOOvJSi-epopuYqVN-dBA", "alias": "asia-quick-pinneberg", "name": "Asia Quick", "image_url": "https://s3-media3.fl.yelpcdn.com/bphoto/PyFCGrM_MpSPOfP1iJa4ZA/o.jpg", "is_closed": false, "url": "https://www.yelp.com/biz/asia-quick-pinneberg?adjust_creative=hBJOknVQJ58S5goQyjmwRw&utm_campaign=yelp_api_v3&utm_medium=api_v3_business_search&utm_source=hBJOknVQJ58S5goQyjmwRw", "review_count": 3, "categories": [{"alias": "panasian", "title": "Pan Asian"}], "rating": 4.5, "coordinates": {"latitude": 53.666428, "longitude": 9.793357}, "transactions": [], "location": {"address1": "Elmshorner Str. 45", "address2": "", "address3": "", "city": "Pinneberg", "zip_code": "25421", "country": "DE", "state": "SH", "display_address": ["Elmshorner Str. 45", "25421 Pinneberg", "Germany"]}, "phone": "+4941018048578", "display_phone": "+49 4101 8048578", "distance": 4143.229268683444}, {"id": "5-ykuAlII1rAM_EAlnyMRw", "alias": "restaurant-dubrovnik-pinneberg", "name": "Restaurant Dubrovnik,", "image_url": "https://s3-media2.fl.yelpcdn.com/bphoto/FIp-R26Rb2I9lYi6rhQ9hg/o.jpg", "is_closed": false, "url": "https://www.yelp.com/biz/restaurant-dubrovnik-pinneberg?adjust_creative=hBJOknVQJ58S5goQyjmwRw&utm_campaign=yelp_api_v3&utm_medium=api_v3_business_search&utm_source=hBJOknVQJ58S5goQyjmwRw", "review_count": 13, "categories": [{"alias": "international", "title": "International"}, {"alias": "serbocroatian", "title": "Serbo Croatian"}], "rating": 3.5, "coordinates": {"latitude": 53.6413, "longitude": 9.79151}, "transactions": [], "price": "\u20ac", "location": {"address1": "An der Raa 7", "address2": null, "address3": null, "city": "Pinneberg", "zip_code": "25421", "country": "DE", "state": "SH", "display_address": ["An der Raa 7", "25421 Pinneberg", "Germany"]}, "phone": "+494101804590", "display_phone": "+49 4101 804590", "distance": 1353.3505437306883}, {"id": "CD1DgcV3lkEB9U517XjJkQ", "alias": "grill-treff-pinneberg-2", "name": "Grill Treff", "image_url": "https://s3-media3.fl.yelpcdn.com/bphoto/Tavt5wOLYbakCYTQ2VLMTQ/o.jpg", "is_closed": false, "url": "https://www.yelp.com/biz/grill-treff-pinneberg-2?adjust_creative=hBJOknVQJ58S5goQyjmwRw&utm_campaign=yelp_api_v3&utm_medium=api_v3_business_search&utm_source=hBJOknVQJ58S5goQyjmwRw", "review_count": 1, "categories": [{"alias": "pizza", "title": "Pizza"}, {"alias": "cafes", "title": "Cafes"}], "rating": 5.0, "coordinates": {"latitude": 53.65604, "longitude": 9.79766}, "transactions": [], "location": {"address1": "Bahnhofstr. 3a", "address2": "", "address3": "", "city": "Pinneberg", "zip_code": "25421", "country": "DE", "state": "SH", "display_address": ["Bahnhofstr. 3a", "25421 Pinneberg", "Germany"]}, "phone": "+4941017891900", "display_phone": "+49 4101 7891900", "distance": 3053.6328996702096}, {"id": "aZx3exGMvA_X2whL2Mzrnw", "alias": "rancho-grande-pinneberg", "name": "Rancho Grande", "image_url": "https://s3-media2.fl.yelpcdn.com/bphoto/5DKAIMJ1zXeXinG5JEJEag/o.jpg", "is_closed": false, "url": "https://www.yelp.com/biz/rancho-grande-pinneberg?adjust_creative=hBJOknVQJ58S5goQyjmwRw&utm_campaign=yelp_api_v3&utm_medium=api_v3_business_search&utm_source=hBJOknVQJ58S5goQyjmwRw", "review_count": 17, "categories": [{"alias": "steak", "title": "Steakhouses"}, {"alias": "burgers", "title": "Burgers"}, {"alias": "tradamerican", "title": "American (Traditional)"}], "rating": 3.0, "coordinates": {"latitude": 53.66242, "longitude": 9.8054}, "transactions": [], "price": "\u20ac\u20ac", "location": {"address1": "Hindenburgdamm 67-69", "address2": null, "address3": null, "city": "Pinneberg", "zip_code": "25421", "country": "DE", "state": "SH", "display_address": ["Hindenburgdamm 67-69", "25421 Pinneberg", "Germany"]}, "phone": "+494101590441", "display_phone": "+49 4101 590441", "distance": 3841.145507397891}, {"id": "bK6tKtwrh5Du_TobQU91FQ", "alias": "etna-pinneberg", "name": "Etna", "image_url": "https://s3-media3.fl.yelpcdn.com/bphoto/ah5sCeu_U-3mu7sH-QlMdA/o.jpg", "is_closed": false, "url": "https://www.yelp.com/biz/etna-pinneberg?adjust_creative=hBJOknVQJ58S5goQyjmwRw&utm_campaign=yelp_api_v3&utm_medium=api_v3_business_search&utm_source=hBJOknVQJ58S5goQyjmwRw", "review_count": 19, "categories": [{"alias": "italian", "title": "Italian"}], "rating": 4.0, "coordinates": {"latitude": 53.6604, "longitude": 9.80329}, "transactions": [], "price": "\u20ac\u20ac", "location": {"address1": "Damm 39", "address2": null, "address3": null, "city": "Pinneberg", "zip_code": "25421", "country": "DE", "state": "SH", "display_address": ["Damm 39", "25421 Pinneberg", "Germany"]}, "phone": "+49410124296", "display_phone": "+49 4101 24296", "distance": 3596.9703950085604}, {"id": "3VmiUMHCKYy2i2wVekMBzA", "alias": "onkel-klauss-imbiss-pinneberg", "name": "Onkel Klaus's Imbiss", "image_url": "https://s3-media2.fl.yelpcdn.com/bphoto/TWynOkwLK84BmaFZLgi5xA/o.jpg", "is_closed": false, "url": "https://www.yelp.com/biz/onkel-klauss-imbiss-pinneberg?adjust_creative=hBJOknVQJ58S5goQyjmwRw&utm_campaign=yelp_api_v3&utm_medium=api_v3_business_search&utm_source=hBJOknVQJ58S5goQyjmwRw", "review_count": 1, "categories": [{"alias": "currysausage", "title": "Curry Sausage"}], "rating": 4.0, "coordinates": {"latitude": 53.6459, "longitude": 9.77067}, "transactions": [], "price": "\u20ac", "location": {"address1": "Westring 6", "address2": null, "address3": null, "city": "Pinneberg", "zip_code": "25421", "country": "DE", "state": "SH", "display_address": ["Westring 6", "25421 Pinneberg", "Germany"]}, "phone": "", "display_phone": "", "distance": 2193.0390038442706}, {"id": "SCayfikdUB5O7g27MpLE1Q", "alias": "eiscaf\u00e9-valentina-pinneberg", "name": "Eiscaf\u00e9 Valentina", "image_url": "https://s3-media4.fl.yelpcdn.com/bphoto/ZT2_0At2ViEtZEt2CoSscQ/o.jpg", "is_closed": false, "url": "https://www.yelp.com/biz/eiscaf%C3%A9-valentina-pinneberg?adjust_creative=hBJOknVQJ58S5goQyjmwRw&utm_campaign=yelp_api_v3&utm_medium=api_v3_business_search&utm_source=hBJOknVQJ58S5goQyjmwRw", "review_count": 1, "categories": [{"alias": "cafes", "title": "Cafes"}, {"alias": "icecream", "title": "Ice Cream & Frozen Yogurt"}], "rating": 5.0, "coordinates": {"latitude": 53.661187, "longitude": 9.798608}, "transactions": [], "location": {"address1": "Dingst\u00e4tte 14", "address2": "", "address3": "", "city": "Pinneberg", "zip_code": "25421", "country": "DE", "state": "SH", "display_address": ["Dingst\u00e4tte 14", "25421 Pinneberg", "Germany"]}, "phone": "+494101204650", "display_phone": "+49 4101 204650", "distance": 3614.4022947704743}, {"id": "IAzyYxK_dpE72v4OG2hHgQ", "alias": "mundfein-pizzawerkstatt-pinneberg", "name": "Mundfein Pizzawerkstatt", "image_url": "https://s3-media1.fl.yelpcdn.com/bphoto/Hp1hIbIW_T1bs3YpI-jO4g/o.jpg", "is_closed": false, "url": "https://www.yelp.com/biz/mundfein-pizzawerkstatt-pinneberg?adjust_creative=hBJOknVQJ58S5goQyjmwRw&utm_campaign=yelp_api_v3&utm_medium=api_v3_business_search&utm_source=hBJOknVQJ58S5goQyjmwRw", "review_count": 2, "categories": [{"alias": "pizza", "title": "Pizza"}], "rating": 5.0, "coordinates": {"latitude": 53.661718, "longitude": 9.800807}, "transactions": [], "price": "\u20ac\u20ac", "location": {"address1": "Friedrich-Ebert-Str. 3", "address2": "", "address3": "", "city": "Pinneberg", "zip_code": "25421", "country": "DE", "state": "SH", "display_address": ["Friedrich-Ebert-Str. 3", "25421 Pinneberg", "Germany"]}, "phone": "+494101515550", "display_phone": "+49 4101 515550", "distance": 3661.5564676969248}, {"id": "szsGwc_ySsKMAMMNIkVtDQ", "alias": "pastelaria-lusitana-pinneberg", "name": "Pastelaria Lusitana", "image_url": "https://s3-media1.fl.yelpcdn.com/bphoto/OcV6gOz8hb7x-XeuwR30bA/o.jpg", "is_closed": false, "url": "https://www.yelp.com/biz/pastelaria-lusitana-pinneberg?adjust_creative=hBJOknVQJ58S5goQyjmwRw&utm_campaign=yelp_api_v3&utm_medium=api_v3_business_search&utm_source=hBJOknVQJ58S5goQyjmwRw", "review_count": 1, "categories": [{"alias": "cafes", "title": "Cafes"}], "rating": 4.0, "coordinates": {"latitude": 53.6603088, "longitude": 9.8013296}, "transactions": [], "price": "\u20ac\u20ac", "location": {"address1": "Bahnhofstr. 38", "address2": "", "address3": "", "city": "Pinneberg", "zip_code": "25421", "country": "DE", "state": "SH", "display_address": ["Bahnhofstr. 38", "25421 Pinneberg", "Germany"]}, "phone": "+4941018145758", "display_phone": "+49 4101 8145758", "distance": 3545.134157476413}, {"id": "06FvQ2VjmhgOYNYm36KGwQ", "alias": "fischbistro-pinneberg", "name": "FischBistro", "image_url": "https://s3-media2.fl.yelpcdn.com/bphoto/OxGLI35HPU1cYrb9fER83Q/o.jpg", "is_closed": false, "url": "https://www.yelp.com/biz/fischbistro-pinneberg?adjust_creative=hBJOknVQJ58S5goQyjmwRw&utm_campaign=yelp_api_v3&utm_medium=api_v3_business_search&utm_source=hBJOknVQJ58S5goQyjmwRw", "review_count": 2, "categories": [{"alias": "fishnchips", "title": "Fish & Chips"}], "rating": 5.0, "coordinates": {"latitude": 53.6459, "longitude": 9.77089}, "transactions": [], "price": "\u20ac", "location": {"address1": "Westring 6", "address2": null, "address3": null, "city": "Pinneberg", "zip_code": "25421", "country": "DE", "state": "SH", "display_address": ["Westring 6", "25421 Pinneberg", "Germany"]}, "phone": "", "display_phone": "", "distance": 2185.289225893203}, {"id": "rXIWKEO83YvT42oIALdoGg", "alias": "niitaka-sushi-pinneberg", "name": "Niitaka Sushi", "image_url": "https://s3-media2.fl.yelpcdn.com/bphoto/n7CpWyZ7OgldzlpR5-d2QA/o.jpg", "is_closed": false, "url": "https://www.yelp.com/biz/niitaka-sushi-pinneberg?adjust_creative=hBJOknVQJ58S5goQyjmwRw&utm_campaign=yelp_api_v3&utm_medium=api_v3_business_search&utm_source=hBJOknVQJ58S5goQyjmwRw", "review_count": 10, "categories": [{"alias": "sushi", "title": "Sushi Bars"}], "rating": 4.0, "coordinates": {"latitude": 53.6603357, "longitude": 9.8017589}, "transactions": [], "price": "\u20ac\u20ac", "location": {"address1": "Fahltskamp 15", "address2": null, "address3": null, "city": "Pinneberg", "zip_code": "25421", "country": "DE", "state": "SH", "display_address": ["Fahltskamp 15", "25421 Pinneberg", "Germany"]}, "phone": "+4941015174044", "display_phone": "+49 4101 5174044", "distance": 3564.0493241006525}, {"id": "GTGk_aIkjff3JiG8y_3QZA", "alias": "pizzeria-rigoletto-pinneberg", "name": "Pizzeria Rigoletto", "image_url": "https://s3-media3.fl.yelpcdn.com/bphoto/6o9f4HajhpoicBQ4BlJMsA/o.jpg", "is_closed": false, "url": "https://www.yelp.com/biz/pizzeria-rigoletto-pinneberg?adjust_creative=hBJOknVQJ58S5goQyjmwRw&utm_campaign=yelp_api_v3&utm_medium=api_v3_business_search&utm_source=hBJOknVQJ58S5goQyjmwRw", "review_count": 23, "categories": [{"alias": "pizza", "title": "Pizza"}, {"alias": "italian", "title": "Italian"}], "rating": 3.5, "coordinates": {"latitude": 53.6607, "longitude": 9.79278}, "transactions": [], "price": "\u20ac\u20ac", "location": {"address1": "R\u00fcbekamp 25", "address2": null, "address3": null, "city": "Pinneberg", "zip_code": "25421", "country": "DE", "state": "SH", "display_address": ["R\u00fcbekamp 25", "25421 Pinneberg", "Germany"]}, "phone": "+494101209761", "display_phone": "+49 4101 209761", "distance": 3507.3670058356574}, {"id": "oD4o27AOLl-CTVCTa8ot_Q", "alias": "mondea-pinneberg", "name": "Mondea", "image_url": "https://s3-media4.fl.yelpcdn.com/bphoto/JXh0ak0bnRUnrWRJAuc51A/o.jpg", "is_closed": false, "url": "https://www.yelp.com/biz/mondea-pinneberg?adjust_creative=hBJOknVQJ58S5goQyjmwRw&utm_campaign=yelp_api_v3&utm_medium=api_v3_business_search&utm_source=hBJOknVQJ58S5goQyjmwRw", "review_count": 8, "categories": [{"alias": "greek", "title": "Greek"}], "rating": 4.0, "coordinates": {"latitude": 53.658638, "longitude": 9.778867}, "transactions": [], "location": {"address1": "M\u00fchlenstr. 70d", "address2": "", "address3": "", "city": "Pinneberg", "zip_code": "25421", "country": "DE", "state": "SH", "display_address": ["M\u00fchlenstr. 70d", "25421 Pinneberg", "Germany"]}, "phone": "+4941017808096", "display_phone": "+49 4101 7808096", "distance": 3326.5176502295944}, {"id": "ey-_-ZiGeHkFTKzSPPUgWw", "alias": "columbus-grill-mehran-molla-iafar-pinneberg", "name": "Columbus-Grill Mehran Molla- Iafar", "image_url": "https://s3-media4.fl.yelpcdn.com/bphoto/si2s81T7DLvktupmR9mKPQ/o.jpg", "is_closed": false, "url": "https://www.yelp.com/biz/columbus-grill-mehran-molla-iafar-pinneberg?adjust_creative=hBJOknVQJ58S5goQyjmwRw&utm_campaign=yelp_api_v3&utm_medium=api_v3_business_search&utm_source=hBJOknVQJ58S5goQyjmwRw", "review_count": 10, "categories": [{"alias": "hotdogs", "title": "Fast Food"}, {"alias": "fooddeliveryservices", "title": "Food Delivery Services"}, {"alias": "currysausage", "title": "Curry Sausage"}], "rating": 2.5, "coordinates": {"latitude": 53.6723, "longitude": 9.79362}, "transactions": [], "price": "\u20ac\u20ac\u20ac\u20ac", "location": {"address1": "Elmshorner Str. 115", "address2": null, "address3": null, "city": "Pinneberg", "zip_code": "25421", "country": "DE", "state": "SH", "display_address": ["Elmshorner Str. 115", "25421 Pinneberg", "Germany"]}, "phone": "+49410173488", "display_phone": "+49 4101 73488", "distance": 4797.758765520014}, {"id": "RA-KbWu9sBMSwX7UcyOP6A", "alias": "alexandros-pinneberg", "name": "Alexandros", "image_url": "https://s3-media1.fl.yelpcdn.com/bphoto/jGGsDjSxpN2R7zvQTJHOOg/o.jpg", "is_closed": false, "url": "https://www.yelp.com/biz/alexandros-pinneberg?adjust_creative=hBJOknVQJ58S5goQyjmwRw&utm_campaign=yelp_api_v3&utm_medium=api_v3_business_search&utm_source=hBJOknVQJ58S5goQyjmwRw", "review_count": 3, "categories": [{"alias": "greek", "title": "Greek"}], "rating": 4.0, "coordinates": {"latitude": 53.660375, "longitude": 9.799048}, "transactions": [], "price": "\u20ac\u20ac", "location": {"address1": "Lindenstr. 26", "address2": "", "address3": "", "city": "Pinneberg", "zip_code": "25421", "country": "DE", "state": "SH", "display_address": ["Lindenstr. 26", "25421 Pinneberg", "Germany"]}, "phone": "+4941018148604", "display_phone": "+49 4101 8148604", "distance": 3528.853073394045}, {"id": "mpeXLPb0mX0MKwEkpaNh1w", "alias": "korfu-pinneberg", "name": "Korfu", "image_url": "https://s3-media2.fl.yelpcdn.com/bphoto/06rKkh9dZAWmJkicszEcaw/o.jpg", "is_closed": false, "url": "https://www.yelp.com/biz/korfu-pinneberg?adjust_creative=hBJOknVQJ58S5goQyjmwRw&utm_campaign=yelp_api_v3&utm_medium=api_v3_business_search&utm_source=hBJOknVQJ58S5goQyjmwRw", "review_count": 21, "categories": [{"alias": "greek", "title": "Greek"}], "rating": 4.0, "coordinates": {"latitude": 53.6628, "longitude": 9.79258}, "transactions": [], "price": "\u20ac\u20ac", "location": {"address1": "Schauenburger Str. 3", "address2": null, "address3": null, "city": "Pinneberg", "zip_code": "25421", "country": "DE", "state": "SH", "display_address": ["Schauenburger Str. 3", "25421 Pinneberg", "Germany"]}, "phone": "+494101585280", "display_phone": "+49 4101 585280", "distance": 3739.2078579324248}, {"id": "KnYynrd2I5obxHFAy6uDEA", "alias": "arnoldis-pinneberg", "name": "Arnoldi's", "image_url": "https://s3-media2.fl.yelpcdn.com/bphoto/c-lxanj7XP-rux71pUTFCQ/o.jpg", "is_closed": false, "url": "https://www.yelp.com/biz/arnoldis-pinneberg?adjust_creative=hBJOknVQJ58S5goQyjmwRw&utm_campaign=yelp_api_v3&utm_medium=api_v3_business_search&utm_source=hBJOknVQJ58S5goQyjmwRw", "review_count": 1, "categories": [{"alias": "sandwiches", "title": "Sandwiches"}], "rating": 3.0, "coordinates": {"latitude": 53.66986, "longitude": 9.7945}, "transactions": [], "location": {"address1": "Elmshorner Str. 68 - 72", "address2": null, "address3": "", "city": "Pinneberg", "zip_code": "25421", "country": "DE", "state": "SH", "display_address": ["Elmshorner Str. 68 - 72", "25421 Pinneberg", "Germany"]}, "phone": "+4941015850051", "display_phone": "+49 4101 5850051", "distance": 4522.091613872541}, {"id": "2i6_mHWvgwwlV9zwCtvu7Q", "alias": "asia-pham-pinneberg-2", "name": "Asia Pham", "image_url": "https://s3-media2.fl.yelpcdn.com/bphoto/ysuj-XudB-zH6BhnqvS-CQ/o.jpg", "is_closed": false, "url": "https://www.yelp.com/biz/asia-pham-pinneberg-2?adjust_creative=hBJOknVQJ58S5goQyjmwRw&utm_campaign=yelp_api_v3&utm_medium=api_v3_business_search&utm_source=hBJOknVQJ58S5goQyjmwRw", "review_count": 6, "categories": [{"alias": "chinese", "title": "Chinese"}], "rating": 3.0, "coordinates": {"latitude": 53.6604881, "longitude": 9.8007669}, "transactions": [], "price": "\u20ac\u20ac", "location": {"address1": "Fahltskamp 8", "address2": "", "address3": "", "city": "Pinneberg", "zip_code": "25421", "country": "DE", "state": "SH", "display_address": ["Fahltskamp 8", "25421 Pinneberg", "Germany"]}, "phone": "+494101375065", "display_phone": "+49 4101 375065", "distance": 3566.291970985582}, {"id": "li2GIYTWIVO6OQsA6WmHGw", "alias": "reitstall-kl\u00f6vensteen-schenefeld", "name": "Reitstall Kl\u00f6vensteen", "image_url": "https://s3-media3.fl.yelpcdn.com/bphoto/OhJd34pnglhaC436A2ioAQ/o.jpg", "is_closed": false, "url": "https://www.yelp.com/biz/reitstall-kl%C3%B6vensteen-schenefeld?adjust_creative=hBJOknVQJ58S5goQyjmwRw&utm_campaign=yelp_api_v3&utm_medium=api_v3_business_search&utm_source=hBJOknVQJ58S5goQyjmwRw", "review_count": 24, "categories": [{"alias": "german", "title": "German"}], "rating": 3.5, "coordinates": {"latitude": 53.6056310252484, "longitude": 9.80153379364015}, "transactions": [], "price": "\u20ac\u20ac", "location": {"address1": "Uetersener Weg 100", "address2": null, "address3": null, "city": "Schenefeld", "zip_code": "22869", "country": "DE", "state": "SH", "display_address": ["Uetersener Weg 100", "22869 Schenefeld", "Germany"]}, "phone": "+49408306992", "display_phone": "+49 40 8306992", "distance": 2763.863156233753}, {"id": "OvQQASmSCJ8kDgP8_Z1hbQ", "alias": "mister-bratwurst-pinneberg", "name": "Mister Bratwurst", "image_url": "", "is_closed": false, "url": "https://www.yelp.com/biz/mister-bratwurst-pinneberg?adjust_creative=hBJOknVQJ58S5goQyjmwRw&utm_campaign=yelp_api_v3&utm_medium=api_v3_business_search&utm_source=hBJOknVQJ58S5goQyjmwRw", "review_count": 1, "categories": [{"alias": "hotdogs", "title": "Fast Food"}], "rating": 5.0, "coordinates": {"latitude": 53.6455, "longitude": 9.77062}, "transactions": [], "location": {"address1": "Westring", "address2": "", "address3": null, "city": "Pinneberg", "zip_code": "25421", "country": "DE", "state": "SH", "display_address": ["Westring", "25421 Pinneberg", "Germany"]}, "phone": "", "display_phone": "", "distance": 2157.4462400235507}, {"id": "3_XEkRIZ8C0kajtU6c4O7g", "alias": "croque-insel-pinneberg", "name": "Croque Insel", "image_url": "https://s3-media2.fl.yelpcdn.com/bphoto/mX5P_Xxpz-91pp8kbXfNLQ/o.jpg", "is_closed": false, "url": "https://www.yelp.com/biz/croque-insel-pinneberg?adjust_creative=hBJOknVQJ58S5goQyjmwRw&utm_campaign=yelp_api_v3&utm_medium=api_v3_business_search&utm_source=hBJOknVQJ58S5goQyjmwRw", "review_count": 22, "categories": [{"alias": "fooddeliveryservices", "title": "Food Delivery Services"}, {"alias": "sandwiches", "title": "Sandwiches"}], "rating": 4.0, "coordinates": {"latitude": 53.6578, "longitude": 9.78838}, "transactions": [], "price": "\u20ac\u20ac", "location": {"address1": "Saarlandstr. 18", "address2": null, "address3": null, "city": "Pinneberg", "zip_code": "25421", "country": "DE", "state": "SH", "display_address": ["Saarlandstr. 18", "25421 Pinneberg", "Germany"]}, "phone": "+49410128081", "display_phone": "+49 4101 28081", "distance": 3173.6735493642}, {"id": "4S1OTPzYs1VCdP1mtcsbCw", "alias": "die-pizza-profis-pinneberg", "name": "Die Pizza Profis", "image_url": "https://s3-media1.fl.yelpcdn.com/bphoto/jNrBTYsA9lrGCUYW5xESZQ/o.jpg", "is_closed": false, "url": "https://www.yelp.com/biz/die-pizza-profis-pinneberg?adjust_creative=hBJOknVQJ58S5goQyjmwRw&utm_campaign=yelp_api_v3&utm_medium=api_v3_business_search&utm_source=hBJOknVQJ58S5goQyjmwRw", "review_count": 3, "categories": [{"alias": "pizza", "title": "Pizza"}, {"alias": "italian", "title": "Italian"}], "rating": 3.5, "coordinates": {"latitude": 53.6584, "longitude": 9.78488}, "transactions": [], "price": "\u20ac\u20ac", "location": {"address1": "M\u00fchlenstr. 34", "address2": null, "address3": null, "city": "Pinneberg", "zip_code": "25421", "country": "DE", "state": "SH", "display_address": ["M\u00fchlenstr. 34", "25421 Pinneberg", "Germany"]}, "phone": "+494101525352", "display_phone": "+49 4101 525352", "distance": 3249.2619348108733}, {"id": "nmjpFpl65oMXQbgOkvsrfQ", "alias": "scheune-pinneberg", "name": "Scheune", "image_url": "https://s3-media2.fl.yelpcdn.com/bphoto/0iu_YrqndA6s3QoUQQtPNQ/o.jpg", "is_closed": false, "url": "https://www.yelp.com/biz/scheune-pinneberg?adjust_creative=hBJOknVQJ58S5goQyjmwRw&utm_campaign=yelp_api_v3&utm_medium=api_v3_business_search&utm_source=hBJOknVQJ58S5goQyjmwRw", "review_count": 49, "categories": [{"alias": "german", "title": "German"}], "rating": 2.0, "coordinates": {"latitude": 53.66229, "longitude": 9.79707}, "transactions": [], "price": "\u20ac\u20ac", "location": {"address1": "Bismarckstr. 8 a", "address2": "", "address3": "", "city": "Pinneberg", "zip_code": "25421", "country": "DE", "state": "SH", "display_address": ["Bismarckstr. 8 a", "25421 Pinneberg", "Germany"]}, "phone": "+494101378865", "display_phone": "+49 4101 378865", "distance": 3736.081476092379}, {"id": "APvIA_7ssxgC0atmQEFMcg", "alias": "burgerkultour-food-truck-hamburg-2", "name": "BurgerKultour Food Truck", "image_url": "https://s3-media4.fl.yelpcdn.com/bphoto/KoAuwalMnlAO8139MmdYBQ/o.jpg", "is_closed": false, "url": "https://www.yelp.com/biz/burgerkultour-food-truck-hamburg-2?adjust_creative=hBJOknVQJ58S5goQyjmwRw&utm_campaign=yelp_api_v3&utm_medium=api_v3_business_search&utm_source=hBJOknVQJ58S5goQyjmwRw", "review_count": 3, "categories": [{"alias": "foodtrucks", "title": "Food Trucks"}, {"alias": "burgers", "title": "Burgers"}], "rating": 4.5, "coordinates": {"latitude": 53.57154, "longitude": 9.95575}, "transactions": [], "price": "\u20ac\u20ac", "location": {"address1": "", "address2": "", "address3": "", "city": "Hamburg", "zip_code": "20259", "country": "DE", "state": "HH", "display_address": ["20259 Hamburg", "Germany"]}, "phone": "+4917626055122", "display_phone": "+49 176 26055122", "distance": 12832.656016755553}, {"id": "-LahiQEX8wp4XrR7iNIRig", "alias": "delal-d\u00f6ner-pinneberg", "name": "Delal D\u00f6ner", "image_url": "https://s3-media3.fl.yelpcdn.com/bphoto/rJZaq6js3x7LuYQGW7S69g/o.jpg", "is_closed": false, "url": "https://www.yelp.com/biz/delal-d%C3%B6ner-pinneberg?adjust_creative=hBJOknVQJ58S5goQyjmwRw&utm_campaign=yelp_api_v3&utm_medium=api_v3_business_search&utm_source=hBJOknVQJ58S5goQyjmwRw", "review_count": 3, "categories": [{"alias": "kebab", "title": "Kebab"}], "rating": 2.5, "coordinates": {"latitude": 53.66084, "longitude": 9.80024}, "transactions": [], "price": "\u20ac\u20ac", "location": {"address1": "Fahltskamp 1 A", "address2": null, "address3": null, "city": "Pinneberg", "zip_code": "25421", "country": "DE", "state": "SH", "display_address": ["Fahltskamp 1 A", "25421 Pinneberg", "Germany"]}, "phone": "+494101590822", "display_phone": "+49 4101 590822", "distance": 3600.5775109444016}, {"id": "9EcAW1Nhu9Mi9cnj9Tth_A", "alias": "d\u00f6ner-prinz-pinneberg", "name": "D\u00f6ner Prinz", "image_url": "https://s3-media2.fl.yelpcdn.com/bphoto/WQeMkRYB5-J0GS2SwqN2mQ/o.jpg", "is_closed": false, "url": "https://www.yelp.com/biz/d%C3%B6ner-prinz-pinneberg?adjust_creative=hBJOknVQJ58S5goQyjmwRw&utm_campaign=yelp_api_v3&utm_medium=api_v3_business_search&utm_source=hBJOknVQJ58S5goQyjmwRw", "review_count": 7, "categories": [{"alias": "turkish", "title": "Turkish"}, {"alias": "fooddeliveryservices", "title": "Food Delivery Services"}], "rating": 3.5, "coordinates": {"latitude": 53.661, "longitude": 9.79843}, "transactions": [], "price": "\u20ac\u20ac", "location": {"address1": "Dingst\u00e4tte 11", "address2": null, "address3": null, "city": "Pinneberg", "zip_code": "25421", "country": "DE", "state": "SH", "display_address": ["Dingst\u00e4tte 11", "25421 Pinneberg", "Germany"]}, "phone": "+4941013751145", "display_phone": "+49 4101 3751145", "distance": 3589.3845337095995}, {"id": "u3ub5f0MS4qY67Q8XF9ZoA", "alias": "sodemanns-fisch-kutter-nr-1-hamburg", "name": "Sodemann's Fisch-Kutter Nr. 1", "image_url": "https://s3-media3.fl.yelpcdn.com/bphoto/BlysP6fVPaL0eEjKvEbByw/o.jpg", "is_closed": false, "url": "https://www.yelp.com/biz/sodemanns-fisch-kutter-nr-1-hamburg?adjust_creative=hBJOknVQJ58S5goQyjmwRw&utm_campaign=yelp_api_v3&utm_medium=api_v3_business_search&utm_source=hBJOknVQJ58S5goQyjmwRw", "review_count": 3, "categories": [{"alias": "foodtrucks", "title": "Food Trucks"}, {"alias": "fischbroetchen", "title": "Fischbroetchen"}], "rating": 5.0, "coordinates": {"latitude": 53.5537490844727, "longitude": 9.99182987213135}, "transactions": [], "price": "\u20ac\u20ac", "location": {"address1": "", "address2": null, "address3": "", "city": "Hamburg", "zip_code": "", "country": "DE", "state": "HH", "display_address": ["Hamburg", "Germany"]}, "phone": "+491773606663", "display_phone": "+49 177 3606663", "distance": 16090.594865568537}, {"id": "n_Yio-a9VzssOtDbgezpRA", "alias": "subu-sushi-burrito-hamburg-3", "name": "Subu Sushi Burrito", "image_url": "https://s3-media3.fl.yelpcdn.com/bphoto/x2oh5mzvkzvrXjswE_MjXQ/o.jpg", "is_closed": false, "url": "https://www.yelp.com/biz/subu-sushi-burrito-hamburg-3?adjust_creative=hBJOknVQJ58S5goQyjmwRw&utm_campaign=yelp_api_v3&utm_medium=api_v3_business_search&utm_source=hBJOknVQJ58S5goQyjmwRw", "review_count": 3, "categories": [{"alias": "foodtrucks", "title": "Food Trucks"}, {"alias": "sushi", "title": "Sushi Bars"}], "rating": 5.0, "coordinates": {"latitude": 53.5526819869811, "longitude": 10.0010880455375}, "transactions": [], "price": "\u20ac", "location": {"address1": "", "address2": "", "address3": "", "city": "Hamburg", "zip_code": "", "country": "DE", "state": "HH", "display_address": ["Hamburg", "Germany"]}, "phone": "+4917670834316", "display_phone": "+49 176 70834316", "distance": 16410.9663962659}, {"id": "Ot2_EQ4AiHMrncYallz52w", "alias": "grillimbiss-athena-pinneberg", "name": "Grillimbiss Athena", "image_url": "https://s3-media2.fl.yelpcdn.com/bphoto/4Hem3oppXcUcjsh7R-D8mw/o.jpg", "is_closed": false, "url": "https://www.yelp.com/biz/grillimbiss-athena-pinneberg?adjust_creative=hBJOknVQJ58S5goQyjmwRw&utm_campaign=yelp_api_v3&utm_medium=api_v3_business_search&utm_source=hBJOknVQJ58S5goQyjmwRw", "review_count": 3, "categories": [{"alias": "food", "title": "Food"}, {"alias": "hotdogs", "title": "Fast Food"}], "rating": 2.5, "coordinates": {"latitude": 53.6442, "longitude": 9.81008}, "transactions": [], "location": {"address1": "Diesterwegstr. 33", "address2": null, "address3": null, "city": "Pinneberg", "zip_code": "25421", "country": "DE", "state": "SH", "display_address": ["Diesterwegstr. 33", "25421 Pinneberg", "Germany"]}, "phone": "+494101374937", "display_phone": "+49 4101 374937", "distance": 2186.3458523016866}, {"id": "8NKcar_w6jfbRg2QnlvIEg", "alias": "mcdonalds-pinneberg", "name": "McDonald's", "image_url": "https://s3-media3.fl.yelpcdn.com/bphoto/_GhTGtMSoZJKZPGHOUijww/o.jpg", "is_closed": false, "url": "https://www.yelp.com/biz/mcdonalds-pinneberg?adjust_creative=hBJOknVQJ58S5goQyjmwRw&utm_campaign=yelp_api_v3&utm_medium=api_v3_business_search&utm_source=hBJOknVQJ58S5goQyjmwRw", "review_count": 15, "categories": [{"alias": "hotdogs", "title": "Fast Food"}, {"alias": "burgers", "title": "Burgers"}], "rating": 3.0, "coordinates": {"latitude": 53.6640429757914, "longitude": 9.79389376938343}, "transactions": [], "price": "\u20ac", "location": {"address1": "Friedrich-Ebert-Str. 54", "address2": "", "address3": "", "city": "Pinneberg", "zip_code": "25421", "country": "DE", "state": "SH", "display_address": ["Friedrich-Ebert-Str. 54", "25421 Pinneberg", "Germany"]}, "phone": "+494101375320", "display_phone": "+49 4101 375320", "distance": 3884.0120261361762}, {"id": "SeodQIjOcsrznD7rwIB-Jw", "alias": "the-big-balmy-hamburg-2", "name": "The Big Balmy", "image_url": "https://s3-media2.fl.yelpcdn.com/bphoto/KWUCQvGDONs_iDxlKXzgvQ/o.jpg", "is_closed": false, "url": "https://www.yelp.com/biz/the-big-balmy-hamburg-2?adjust_creative=hBJOknVQJ58S5goQyjmwRw&utm_campaign=yelp_api_v3&utm_medium=api_v3_business_search&utm_source=hBJOknVQJ58S5goQyjmwRw", "review_count": 27, "categories": [{"alias": "burgers", "title": "Burgers"}, {"alias": "foodtrucks", "title": "Food Trucks"}], "rating": 3.5, "coordinates": {"latitude": 53.537786, "longitude": 10.028218}, "transactions": [], "price": "\u20ac\u20ac", "location": {"address1": "", "address2": null, "address3": null, "city": "Hamburg", "zip_code": "", "country": "DE", "state": "HH", "display_address": ["Hamburg", "Germany"]}, "phone": "+494069278630", "display_phone": "+49 40 69278630", "distance": 18809.697607803846}, {"id": "E6KVtWh7eCNjWWahwo2hLw", "alias": "smileys-pinneberg", "name": "Smiley's", "image_url": "https://s3-media2.fl.yelpcdn.com/bphoto/2QrjSXV0qxsqStoX6tBqfQ/o.jpg", "is_closed": false, "url": "https://www.yelp.com/biz/smileys-pinneberg?adjust_creative=hBJOknVQJ58S5goQyjmwRw&utm_campaign=yelp_api_v3&utm_medium=api_v3_business_search&utm_source=hBJOknVQJ58S5goQyjmwRw", "review_count": 1, "categories": [{"alias": "pizza", "title": "Pizza"}], "rating": 5.0, "coordinates": {"latitude": 53.66774052029, "longitude": 9.794312116843}, "transactions": [], "price": "\u20ac\u20ac", "location": {"address1": "Elmshorner Str. 46", "address2": "", "address3": null, "city": "Pinneberg", "zip_code": "25421", "country": "DE", "state": "SH", "display_address": ["Elmshorner Str. 46", "25421 Pinneberg", "Germany"]}, "phone": "+494101855777", "display_phone": "+49 4101 855777", "distance": 4295.97186539591}, {"id": "rghZCvTQvkVOmC-kVTrWxw", "alias": "meyo-pinneberg", "name": "Meyo", "image_url": "https://s3-media3.fl.yelpcdn.com/bphoto/iwE5W0ce_TNhAGb5lQfOrw/o.jpg", "is_closed": false, "url": "https://www.yelp.com/biz/meyo-pinneberg?adjust_creative=hBJOknVQJ58S5goQyjmwRw&utm_campaign=yelp_api_v3&utm_medium=api_v3_business_search&utm_source=hBJOknVQJ58S5goQyjmwRw", "review_count": 2, "categories": [{"alias": "pizza", "title": "Pizza"}, {"alias": "icecream", "title": "Ice Cream & Frozen Yogurt"}], "rating": 2.5, "coordinates": {"latitude": 53.6553244, "longitude": 9.7981383}, "transactions": [], "location": {"address1": "Bahnhofstr. 1", "address2": "", "address3": "", "city": "Pinneberg", "zip_code": "25421", "country": "DE", "state": "SH", "display_address": ["Bahnhofstr. 1", "25421 Pinneberg", "Germany"]}, "phone": "+494101511814", "display_phone": "+49 4101 511814", "distance": 2976.9687779527453}, {"id": "2jzIbZsfzca5drJYk7JwbQ", "alias": "the-bao-bros-hamburg-2", "name": "The Bao Bros", "image_url": "https://s3-media1.fl.yelpcdn.com/bphoto/vUMA4Y35x3UwZk6fMJfZRw/o.jpg", "is_closed": false, "url": "https://www.yelp.com/biz/the-bao-bros-hamburg-2?adjust_creative=hBJOknVQJ58S5goQyjmwRw&utm_campaign=yelp_api_v3&utm_medium=api_v3_business_search&utm_source=hBJOknVQJ58S5goQyjmwRw", "review_count": 2, "categories": [{"alias": "foodtrucks", "title": "Food Trucks"}, {"alias": "burgers", "title": "Burgers"}], "rating": 4.0, "coordinates": {"latitude": 53.5533409118652, "longitude": 9.99246978759766}, "transactions": [], "price": "\u20ac", "location": {"address1": "", "address2": "", "address3": "", "city": "Hamburg", "zip_code": "", "country": "DE", "state": "HH", "display_address": ["Hamburg", "Germany"]}, "phone": "+4915140700076", "display_phone": "+49 1514 0700076", "distance": 16090.589311502805}, {"id": "cGIKCcR0wZszz8VldC2-7g", "alias": "currywerk-hamburg", "name": "curryWERK", "image_url": "https://s3-media4.fl.yelpcdn.com/bphoto/j_ZPQAB6JrAru84VDuLiRA/o.jpg", "is_closed": false, "url": "https://www.yelp.com/biz/currywerk-hamburg?adjust_creative=hBJOknVQJ58S5goQyjmwRw&utm_campaign=yelp_api_v3&utm_medium=api_v3_business_search&utm_source=hBJOknVQJ58S5goQyjmwRw", "review_count": 1, "categories": [{"alias": "foodtrucks", "title": "Food Trucks"}, {"alias": "currysausage", "title": "Curry Sausage"}], "rating": 4.0, "coordinates": {"latitude": 53.5498886108398, "longitude": 9.94732189178467}, "transactions": [], "price": "\u20ac\u20ac", "location": {"address1": "", "address2": "", "address3": "", "city": "Hamburg", "zip_code": "22767", "country": "DE", "state": "HH", "display_address": ["22767 Hamburg", "Germany"]}, "phone": "+4917632443433", "display_phone": "+49 176 32443433", "distance": 13538.533538554304}]