[{"id": "v7pzQnz0d0xs8fFyLXFP5g", "alias": "joks-steakhouse-hamburg", "name": "Jok's Steakhouse", "image_url": "https://s3-media2.fl.yelpcdn.com/bphoto/7P1RhkDr4svJE6oEe69NsA/o.jpg", "is_closed": false, "url": "https://www.yelp.com/biz/joks-steakhouse-hamburg?adjust_creative=hBJOknVQJ58S5goQyjmwRw&utm_campaign=yelp_api_v3&utm_medium=api_v3_business_search&utm_source=hBJOknVQJ58S5goQyjmwRw", "review_count": 71, "categories": [{"alias": "steak", "title": "Steakhouses"}], "rating": 4.0, "coordinates": {"latitude": 53.63533, "longitude": 9.91884}, "transactions": [], "price": "\u20ac\u20ac", "location": {"address1": "Frohmestr. 11", "address2": null, "address3": null, "city": "Hamburg", "zip_code": "22457", "country": "DE", "state": "HH", "display_address": ["Frohmestr. 11", "22457 Hamburg", "Germany"]}, "phone": "+49405594459", "display_phone": "+49 40 5594459", "distance": 1026.451455979801}, {"id": "qUJfOZZ4S69Amwf8J8SS8w", "alias": "osteria-da-vino-hamburg", "name": "Osteria da Vino", "image_url": "https://s3-media3.fl.yelpcdn.com/bphoto/p7gn9gWX4XVKALvT-dZGOA/o.jpg", "is_closed": false, "url": "https://www.yelp.com/biz/osteria-da-vino-hamburg?adjust_creative=hBJOknVQJ58S5goQyjmwRw&utm_campaign=yelp_api_v3&utm_medium=api_v3_business_search&utm_source=hBJOknVQJ58S5goQyjmwRw", "review_count": 25, "categories": [{"alias": "italian", "title": "Italian"}], "rating": 4.0, "coordinates": {"latitude": 53.6289366, "longitude": 9.92505}, "transactions": [], "price": "\u20ac\u20ac", "location": {"address1": "Heidlohstr. 20", "address2": null, "address3": null, "city": "Hamburg", "zip_code": "22459", "country": "DE", "state": "HH", "display_address": ["Heidlohstr. 20", "22459 Hamburg", "Germany"]}, "phone": "+49405592696", "display_phone": "+49 40 5592696", "distance": 1028.3377995028575}, {"id": "8LAxLlweKVtus23DrB4Rcg", "alias": "china-restaurant-ho-schnelsen-hamburg-3", "name": "China-Restaurant Ho Schnelsen", "image_url": "https://s3-media3.fl.yelpcdn.com/bphoto/4qydCYSzwz_4WE6qo_Qj5A/o.jpg", "is_closed": false, "url": "https://www.yelp.com/biz/china-restaurant-ho-schnelsen-hamburg-3?adjust_creative=hBJOknVQJ58S5goQyjmwRw&utm_campaign=yelp_api_v3&utm_medium=api_v3_business_search&utm_source=hBJOknVQJ58S5goQyjmwRw", "review_count": 29, "categories": [{"alias": "chinese", "title": "Chinese"}], "rating": 4.5, "coordinates": {"latitude": 53.6358, "longitude": 9.91842}, "transactions": [], "price": "\u20ac\u20ac", "location": {"address1": "Frohmestr. 7", "address2": null, "address3": null, "city": "Hamburg", "zip_code": "22457", "country": "DE", "state": "HH", "display_address": ["Frohmestr. 7", "22457 Hamburg", "Germany"]}, "phone": "+49405504454", "display_phone": "+49 40 5504454", "distance": 1012.0850082789432}, {"id": "YRasnJiv7h-b4tRn0KNpYg", "alias": "osteria-da-vino-due-ellerbek-2", "name": "Osteria da vino due", "image_url": "https://s3-media1.fl.yelpcdn.com/bphoto/BiR08U4iMiR6srOZCVnVbw/o.jpg", "is_closed": false, "url": "https://www.yelp.com/biz/osteria-da-vino-due-ellerbek-2?adjust_creative=hBJOknVQJ58S5goQyjmwRw&utm_campaign=yelp_api_v3&utm_medium=api_v3_business_search&utm_source=hBJOknVQJ58S5goQyjmwRw", "review_count": 9, "categories": [{"alias": "italian", "title": "Italian"}], "rating": 4.5, "coordinates": {"latitude": 53.6383, "longitude": 9.89487}, "transactions": [], "price": "\u20ac\u20ac", "location": {"address1": "Pinneberger Str. 167", "address2": null, "address3": null, "city": "Ellerbek", "zip_code": "25474", "country": "DE", "state": "SH", "display_address": ["Pinneberger Str. 167", "25474 Ellerbek", "Germany"]}, "phone": "+4941015389474", "display_phone": "+49 4101 5389474", "distance": 1462.7824225819547}, {"id": "zKyHWJSARvZG1rKvKqRL6w", "alias": "athina-hamburg", "name": "Athina", "image_url": "https://s3-media1.fl.yelpcdn.com/bphoto/36so5xs6iI1wF8fSaA9ifA/o.jpg", "is_closed": false, "url": "https://www.yelp.com/biz/athina-hamburg?adjust_creative=hBJOknVQJ58S5goQyjmwRw&utm_campaign=yelp_api_v3&utm_medium=api_v3_business_search&utm_source=hBJOknVQJ58S5goQyjmwRw", "review_count": 18, "categories": [{"alias": "greek", "title": "Greek"}], "rating": 4.5, "coordinates": {"latitude": 53.62741, "longitude": 9.90948}, "transactions": [], "price": "\u20ac\u20ac", "location": {"address1": "Holsteiner Chaussee 211", "address2": null, "address3": null, "city": "Hamburg", "zip_code": "22457", "country": "DE", "state": "HH", "display_address": ["Holsteiner Chaussee 211", "22457 Hamburg", "Germany"]}, "phone": "+49405509376", "display_phone": "+49 40 5509376", "distance": 110.15443840294814}, {"id": "o2T6iyuombynllX-qGb-AQ", "alias": "hellas-hamburg-2", "name": "Hellas", "image_url": "https://s3-media3.fl.yelpcdn.com/bphoto/w2DIGy_eKDVLfLWp_HTF0A/o.jpg", "is_closed": false, "url": "https://www.yelp.com/biz/hellas-hamburg-2?adjust_creative=hBJOknVQJ58S5goQyjmwRw&utm_campaign=yelp_api_v3&utm_medium=api_v3_business_search&utm_source=hBJOknVQJ58S5goQyjmwRw", "review_count": 28, "categories": [{"alias": "greek", "title": "Greek"}], "rating": 4.5, "coordinates": {"latitude": 53.6333, "longitude": 9.91477}, "transactions": [], "price": "\u20ac\u20ac", "location": {"address1": "Riekbornweg 16", "address2": null, "address3": null, "city": "Hamburg", "zip_code": "22457", "country": "DE", "state": "HH", "display_address": ["Riekbornweg 16", "22457 Hamburg", "Germany"]}, "phone": "+494097078235", "display_phone": "+49 40 97078235", "distance": 646.8366793990422}, {"id": "zaR5yCUNiVbofbciH46tTQ", "alias": "montgomery-champs-hamburg-2", "name": "Montgomery Champs", "image_url": "https://s3-media1.fl.yelpcdn.com/bphoto/APKqvOnmSjrLokmzeQPwWw/o.jpg", "is_closed": false, "url": "https://www.yelp.com/biz/montgomery-champs-hamburg-2?adjust_creative=hBJOknVQJ58S5goQyjmwRw&utm_campaign=yelp_api_v3&utm_medium=api_v3_business_search&utm_source=hBJOknVQJ58S5goQyjmwRw", "review_count": 187, "categories": [{"alias": "bars", "title": "Bars"}, {"alias": "tradamerican", "title": "American (Traditional)"}], "rating": 3.5, "coordinates": {"latitude": 53.6475099, "longitude": 9.90794}, "transactions": [], "price": "\u20ac\u20ac", "location": {"address1": "Holsteiner Chaussee 402", "address2": null, "address3": null, "city": "Hamburg", "zip_code": "22457", "country": "DE", "state": "HH", "display_address": ["Holsteiner Chaussee 402", "22457 Hamburg", "Germany"]}, "phone": "+494055979x10", "display_phone": "+49 40 55979 ext. 10", "distance": 2128.3257475516316}, {"id": "hkQRtzqajHTR6AZsbr7IOg", "alias": "mi-pho-hamburg", "name": "Mi PHO", "image_url": "https://s3-media1.fl.yelpcdn.com/bphoto/psyZCrp0EecR0fjzImb-jA/o.jpg", "is_closed": false, "url": "https://www.yelp.com/biz/mi-pho-hamburg?adjust_creative=hBJOknVQJ58S5goQyjmwRw&utm_campaign=yelp_api_v3&utm_medium=api_v3_business_search&utm_source=hBJOknVQJ58S5goQyjmwRw", "review_count": 1, "categories": [{"alias": "vietnamese", "title": "Vietnamese"}], "rating": 5.0, "coordinates": {"latitude": 53.63248, "longitude": 9.90905}, "transactions": [], "location": {"address1": "Pinneberger Str. 9", "address2": null, "address3": "", "city": "Hamburg", "zip_code": "22457", "country": "DE", "state": "HH", "display_address": ["Pinneberger Str. 9", "22457 Hamburg", "Germany"]}, "phone": "+494066873124", "display_phone": "+49 40 66873124", "distance": 450.14469520969715}, {"id": "qAIUokSR7-diqB_3ecp_JQ", "alias": "taverna-kronos-hamburg", "name": "Taverna Kronos", "image_url": "https://s3-media3.fl.yelpcdn.com/bphoto/YcOLKxFk8Li3tGRPjV6V9A/o.jpg", "is_closed": false, "url": "https://www.yelp.com/biz/taverna-kronos-hamburg?adjust_creative=hBJOknVQJ58S5goQyjmwRw&utm_campaign=yelp_api_v3&utm_medium=api_v3_business_search&utm_source=hBJOknVQJ58S5goQyjmwRw", "review_count": 12, "categories": [{"alias": "mediterranean", "title": "Mediterranean"}, {"alias": "greek", "title": "Greek"}], "rating": 4.0, "coordinates": {"latitude": 53.624055, "longitude": 9.908812}, "transactions": [], "price": "\u20ac\u20ac", "location": {"address1": "Holsteiner Chaussee 177", "address2": null, "address3": "", "city": "Hamburg", "zip_code": "22457", "country": "DE", "state": "HH", "display_address": ["Holsteiner Chaussee 177", "22457 Hamburg", "Germany"]}, "phone": "+494055009337", "display_phone": "+49 40 55009337", "distance": 485.2240625788305}, {"id": "BQdrXWu6EZznHBDNu3C3aA", "alias": "qur-thai-drei-jai-hamburg", "name": "Qur Thai drei Jai", "image_url": "https://s3-media1.fl.yelpcdn.com/bphoto/qEn2kdcFTkh16Ue7jtdSqg/o.jpg", "is_closed": false, "url": "https://www.yelp.com/biz/qur-thai-drei-jai-hamburg?adjust_creative=hBJOknVQJ58S5goQyjmwRw&utm_campaign=yelp_api_v3&utm_medium=api_v3_business_search&utm_source=hBJOknVQJ58S5goQyjmwRw", "review_count": 4, "categories": [{"alias": "thai", "title": "Thai"}], "rating": 4.0, "coordinates": {"latitude": 53.63584, "longitude": 9.91656}, "transactions": [], "location": {"address1": "Oldesloer Str. 33", "address2": "", "address3": null, "city": "Hamburg", "zip_code": "22457", "country": "DE", "state": "HH", "display_address": ["Oldesloer Str. 33", "22457 Hamburg", "Germany"]}, "phone": "+4957148736", "display_phone": "+49 571 48736", "distance": 950.8605094651423}, {"id": "4yIsT-7h9V8UdhBeRka-yA", "alias": "restaurant-dubrovnik-hamburg-10", "name": "Restaurant Dubrovnik", "image_url": "https://s3-media1.fl.yelpcdn.com/bphoto/88k35qKYNLbtMpg_44iU1A/o.jpg", "is_closed": false, "url": "https://www.yelp.com/biz/restaurant-dubrovnik-hamburg-10?adjust_creative=hBJOknVQJ58S5goQyjmwRw&utm_campaign=yelp_api_v3&utm_medium=api_v3_business_search&utm_source=hBJOknVQJ58S5goQyjmwRw", "review_count": 24, "categories": [{"alias": "serbocroatian", "title": "Serbo Croatian"}, {"alias": "bowling", "title": "Bowling"}], "rating": 4.5, "coordinates": {"latitude": 53.591581, "longitude": 9.929407}, "transactions": [], "price": "\u20ac\u20ac", "location": {"address1": "Kieler Str. 407", "address2": null, "address3": null, "city": "Hamburg", "zip_code": "22525", "country": "DE", "state": "HH", "display_address": ["Kieler Str. 407", "22525 Hamburg", "Germany"]}, "phone": "+494052014130", "display_phone": "+49 40 52014130", "distance": 4299.997680986239}, {"id": "tEEGKkgP0IHjMxXlhZuV8g", "alias": "d\u00f6ner-pavillon-hamburg", "name": "D\u00f6ner Pavillon", "image_url": "https://s3-media1.fl.yelpcdn.com/bphoto/zymlHwZCyYFWuL_WKs6stw/o.jpg", "is_closed": false, "url": "https://www.yelp.com/biz/d%C3%B6ner-pavillon-hamburg?adjust_creative=hBJOknVQJ58S5goQyjmwRw&utm_campaign=yelp_api_v3&utm_medium=api_v3_business_search&utm_source=hBJOknVQJ58S5goQyjmwRw", "review_count": 16, "categories": [{"alias": "cafes", "title": "Cafes"}, {"alias": "kebab", "title": "Kebab"}, {"alias": "sportsbars", "title": "Sports Bars"}], "rating": 4.5, "coordinates": {"latitude": 53.6327876988814, "longitude": 9.91132510004275}, "transactions": [], "price": "\u20ac", "location": {"address1": "Oldesloer Str. 2", "address2": "", "address3": "", "city": "Hamburg", "zip_code": "22457", "country": "DE", "state": "HH", "display_address": ["Oldesloer Str. 2", "22457 Hamburg", "Germany"]}, "phone": "+494018107415", "display_phone": "+49 40 18107415", "distance": 502.74031137486895}, {"id": "XPjnWZ9ddKKn2w_T_pdNww", "alias": "ristorante-la-costa-smeralda-hamburg", "name": "Ristorante La Costa Smeralda", "image_url": "https://s3-media1.fl.yelpcdn.com/bphoto/plMHtB6o48u_Z8rmcJQj1A/o.jpg", "is_closed": false, "url": "https://www.yelp.com/biz/ristorante-la-costa-smeralda-hamburg?adjust_creative=hBJOknVQJ58S5goQyjmwRw&utm_campaign=yelp_api_v3&utm_medium=api_v3_business_search&utm_source=hBJOknVQJ58S5goQyjmwRw", "review_count": 12, "categories": [{"alias": "italian", "title": "Italian"}], "rating": 3.0, "coordinates": {"latitude": 53.6339, "longitude": 9.91975}, "transactions": [], "price": "\u20ac\u20ac", "location": {"address1": "Frohmestr. 29", "address2": null, "address3": null, "city": "Hamburg", "zip_code": "22457", "country": "DE", "state": "HH", "display_address": ["Frohmestr. 29", "22457 Hamburg", "Germany"]}, "phone": "+49405591041", "display_phone": "+49 40 5591041", "distance": 912.3472843581778}, {"id": "n-AURQpw5qG2Oow99UuPFw", "alias": "grando-sukredo-hamburg-5", "name": "Grando Sukredo", "image_url": "https://s3-media3.fl.yelpcdn.com/bphoto/YpW8gUEvHP1WhTo3qpdghA/o.jpg", "is_closed": false, "url": "https://www.yelp.com/biz/grando-sukredo-hamburg-5?adjust_creative=hBJOknVQJ58S5goQyjmwRw&utm_campaign=yelp_api_v3&utm_medium=api_v3_business_search&utm_source=hBJOknVQJ58S5goQyjmwRw", "review_count": 5, "categories": [{"alias": "steak", "title": "Steakhouses"}], "rating": 3.5, "coordinates": {"latitude": 53.6335867874537, "longitude": 9.90645425352155}, "transactions": [], "price": "\u20ac\u20ac", "location": {"address1": "Pinneberger Str. 28", "address2": "", "address3": "", "city": "Hamburg", "zip_code": "22457", "country": "DE", "state": "HH", "display_address": ["Pinneberger Str. 28", "22457 Hamburg", "Germany"]}, "phone": "+494054805430", "display_phone": "+49 40 54805430", "distance": 610.2348384642848}, {"id": "sjYZERZfg44QTFTtefyGzQ", "alias": "grill-imbiss-zur-bratkartoffel-hamburg", "name": "Grill Imbiss Zur Bratkartoffel", "image_url": "https://s3-media3.fl.yelpcdn.com/bphoto/K04pCVoERBJs2fSRkRXR0A/o.jpg", "is_closed": false, "url": "https://www.yelp.com/biz/grill-imbiss-zur-bratkartoffel-hamburg?adjust_creative=hBJOknVQJ58S5goQyjmwRw&utm_campaign=yelp_api_v3&utm_medium=api_v3_business_search&utm_source=hBJOknVQJ58S5goQyjmwRw", "review_count": 14, "categories": [{"alias": "currysausage", "title": "Curry Sausage"}, {"alias": "hotdogs", "title": "Fast Food"}], "rating": 4.5, "coordinates": {"latitude": 53.63296, "longitude": 9.90983}, "transactions": [], "price": "\u20ac", "location": {"address1": "Pinneberger Str. 2a", "address2": null, "address3": null, "city": "Hamburg", "zip_code": "22457", "country": "DE", "state": "HH", "display_address": ["Pinneberger Str. 2a", "22457 Hamburg", "Germany"]}, "phone": "+49405505801", "display_phone": "+49 40 5505801", "distance": 507.4980622458073}, {"id": "r15cYTTdWBpHc7bgEk7YLQ", "alias": "iss-gut-hamburg", "name": "Iss Gut", "image_url": "https://s3-media4.fl.yelpcdn.com/bphoto/A7l6Zm9SvU5sE9gH0Ob86w/o.jpg", "is_closed": false, "url": "https://www.yelp.com/biz/iss-gut-hamburg?adjust_creative=hBJOknVQJ58S5goQyjmwRw&utm_campaign=yelp_api_v3&utm_medium=api_v3_business_search&utm_source=hBJOknVQJ58S5goQyjmwRw", "review_count": 1, "categories": [{"alias": "indpak", "title": "Indian"}, {"alias": "international", "title": "International"}], "rating": 4.0, "coordinates": {"latitude": 53.590977, "longitude": 9.907776}, "transactions": [], "price": "\u20ac", "location": {"address1": "Ottensener Str. 86", "address2": null, "address3": null, "city": "Hamburg", "zip_code": "22525", "country": "DE", "state": "HH", "display_address": ["Ottensener Str. 86", "22525 Hamburg", "Germany"]}, "phone": "+494046634096", "display_phone": "+49 40 46634096", "distance": 4162.8349393112685}, {"id": "PaaxDcMwc1d3G-xo8DsSqQ", "alias": "a-vila-b\u00f6nningstedt", "name": "A Vila", "image_url": "https://s3-media2.fl.yelpcdn.com/bphoto/NecesgGDzoLQFnvY9kAFJg/o.jpg", "is_closed": false, "url": "https://www.yelp.com/biz/a-vila-b%C3%B6nningstedt?adjust_creative=hBJOknVQJ58S5goQyjmwRw&utm_campaign=yelp_api_v3&utm_medium=api_v3_business_search&utm_source=hBJOknVQJ58S5goQyjmwRw", "review_count": 1, "categories": [{"alias": "portuguese", "title": "Portuguese"}], "rating": 4.0, "coordinates": {"latitude": 53.66626, "longitude": 9.90408}, "transactions": [], "price": "\u20ac\u20ac", "location": {"address1": "Kieler Str. 108", "address2": "", "address3": null, "city": "B\u00f6nningstedt", "zip_code": "25474", "country": "DE", "state": "SH", "display_address": ["Kieler Str. 108", "25474 B\u00f6nningstedt", "Germany"]}, "phone": "+491627937275", "display_phone": "+49 162 7937275", "distance": 4221.80568017365}, {"id": "9iU4GLxDHx0fdrS9BKkH2g", "alias": "restaurant-charmant-hamburg", "name": "Restaurant Charmant", "image_url": "https://s3-media4.fl.yelpcdn.com/bphoto/YM5hDRybtZNargM8lqhLTA/o.jpg", "is_closed": false, "url": "https://www.yelp.com/biz/restaurant-charmant-hamburg?adjust_creative=hBJOknVQJ58S5goQyjmwRw&utm_campaign=yelp_api_v3&utm_medium=api_v3_business_search&utm_source=hBJOknVQJ58S5goQyjmwRw", "review_count": 56, "categories": [{"alias": "international", "title": "International"}], "rating": 4.5, "coordinates": {"latitude": 53.596683, "longitude": 9.932584}, "transactions": [], "price": "\u20ac\u20ac\u20ac", "location": {"address1": "Basselweg 102", "address2": "", "address3": null, "city": "Hamburg", "zip_code": "22527", "country": "DE", "state": "HH", "display_address": ["Basselweg 102", "22527 Hamburg", "Germany"]}, "phone": "+494054007071", "display_phone": "+49 40 54007071", "distance": 3842.019348571019}, {"id": "zdoi8QqUP5r4YBd22NJx5Q", "alias": "moin-moin-hamburg-2", "name": "Moin Moin", "image_url": "", "is_closed": false, "url": "https://www.yelp.com/biz/moin-moin-hamburg-2?adjust_creative=hBJOknVQJ58S5goQyjmwRw&utm_campaign=yelp_api_v3&utm_medium=api_v3_business_search&utm_source=hBJOknVQJ58S5goQyjmwRw", "review_count": 1, "categories": [{"alias": "currysausage", "title": "Curry Sausage"}], "rating": 5.0, "coordinates": {"latitude": 53.5945, "longitude": 9.9046}, "transactions": [], "price": "\u20ac", "location": {"address1": "Schnackenburgallee 200", "address2": null, "address3": null, "city": "Hamburg", "zip_code": "22525", "country": "DE", "state": "HH", "display_address": ["Schnackenburgallee 200", "22525 Hamburg", "Germany"]}, "phone": "+4940542895", "display_phone": "+49 40 542895", "distance": 3783.303223382675}, {"id": "N4FRaSViYY5GMzVIm5bMag", "alias": "waldcafe-restaurant-corell-hamburg", "name": "Waldcafe Restaurant Corell", "image_url": "https://s3-media3.fl.yelpcdn.com/bphoto/7r7cFFhZjmvt6tuCXpE8yg/o.jpg", "is_closed": false, "url": "https://www.yelp.com/biz/waldcafe-restaurant-corell-hamburg?adjust_creative=hBJOknVQJ58S5goQyjmwRw&utm_campaign=yelp_api_v3&utm_medium=api_v3_business_search&utm_source=hBJOknVQJ58S5goQyjmwRw", "review_count": 59, "categories": [{"alias": "northerngerman", "title": "Northern German"}], "rating": 4.0, "coordinates": {"latitude": 53.61578, "longitude": 9.93239}, "transactions": [], "price": "\u20ac\u20ac", "location": {"address1": "Niendorfer Gehege 50", "address2": null, "address3": null, "city": "Hamburg", "zip_code": "22453", "country": "DE", "state": "HH", "display_address": ["Niendorfer Gehege 50", "22453 Hamburg", "Germany"]}, "phone": "+4940585378", "display_phone": "+49 40 585378", "distance": 2051.5233708485334}, {"id": "-mN4eGrBTgb2vdMbx8EYTg", "alias": "restaurant-ausspann-hamburg", "name": "Restaurant Ausspann", "image_url": "https://s3-media4.fl.yelpcdn.com/bphoto/6a5UlFlWwnbYa6N7TU0-GQ/o.jpg", "is_closed": false, "url": "https://www.yelp.com/biz/restaurant-ausspann-hamburg?adjust_creative=hBJOknVQJ58S5goQyjmwRw&utm_campaign=yelp_api_v3&utm_medium=api_v3_business_search&utm_source=hBJOknVQJ58S5goQyjmwRw", "review_count": 5, "categories": [{"alias": "modern_european", "title": "Modern European"}, {"alias": "german", "title": "German"}], "rating": 4.5, "coordinates": {"latitude": 53.6507, "longitude": 9.90749}, "transactions": [], "location": {"address1": "Holsteiner Chaussee 428", "address2": null, "address3": null, "city": "Hamburg", "zip_code": "22457", "country": "DE", "state": "HH", "display_address": ["Holsteiner Chaussee 428", "22457 Hamburg", "Germany"]}, "phone": "+494055987010", "display_phone": "+49 40 55987010", "distance": 2483.044801324432}, {"id": "0EyKrwJO8JP_WDWCP005MQ", "alias": "fr\u00fchst\u00fccksladen-hamburg", "name": "Fr\u00fchst\u00fccksladen", "image_url": "https://s3-media1.fl.yelpcdn.com/bphoto/ChSkmGWkSxtfPe-yRMMBWQ/o.jpg", "is_closed": false, "url": "https://www.yelp.com/biz/fr%C3%BChst%C3%BCcksladen-hamburg?adjust_creative=hBJOknVQJ58S5goQyjmwRw&utm_campaign=yelp_api_v3&utm_medium=api_v3_business_search&utm_source=hBJOknVQJ58S5goQyjmwRw", "review_count": 4, "categories": [{"alias": "breakfast_brunch", "title": "Breakfast & Brunch"}], "rating": 5.0, "coordinates": {"latitude": 53.595812, "longitude": 9.903667}, "transactions": [], "price": "\u20ac", "location": {"address1": "Fangdieckstr. 20", "address2": "", "address3": "", "city": "Hamburg", "zip_code": "22547", "country": "DE", "state": "HH", "display_address": ["Fangdieckstr. 20", "22547 Hamburg", "Germany"]}, "phone": "+4940545624", "display_phone": "+49 40 545624", "distance": 3643.9289457747786}, {"id": "cwCtFenHJchTmZJoGXUq1g", "alias": "al-amir-hamburg-2", "name": "Al Amir", "image_url": "https://s3-media4.fl.yelpcdn.com/bphoto/wS6Zm0JlJnXAVBXtF--e0g/o.jpg", "is_closed": false, "url": "https://www.yelp.com/biz/al-amir-hamburg-2?adjust_creative=hBJOknVQJ58S5goQyjmwRw&utm_campaign=yelp_api_v3&utm_medium=api_v3_business_search&utm_source=hBJOknVQJ58S5goQyjmwRw", "review_count": 1, "categories": [{"alias": "falafel", "title": "Falafel"}, {"alias": "arabian", "title": "Arabian"}], "rating": 4.0, "coordinates": {"latitude": 53.6064816604014, "longitude": 9.90122202783823}, "transactions": [], "location": {"address1": "Elbgaustr. 34", "address2": "", "address3": null, "city": "Hamburg", "zip_code": "22523", "country": "DE", "state": "HH", "display_address": ["Elbgaustr. 34", "22523 Hamburg", "Germany"]}, "phone": "+494030722934", "display_phone": "+49 40 30722934", "distance": 2497.415023332388}, {"id": "YD_wj0hSNT71phTuYzXNtw", "alias": "gastst\u00e4tte-am-sportplatzring-hamburg", "name": "Gastst\u00e4tte Am Sportplatzring", "image_url": "https://s3-media3.fl.yelpcdn.com/bphoto/R-faClwu-N204bhwNAY1Dw/o.jpg", "is_closed": false, "url": "https://www.yelp.com/biz/gastst%C3%A4tte-am-sportplatzring-hamburg?adjust_creative=hBJOknVQJ58S5goQyjmwRw&utm_campaign=yelp_api_v3&utm_medium=api_v3_business_search&utm_source=hBJOknVQJ58S5goQyjmwRw", "review_count": 4, "categories": [{"alias": "german", "title": "German"}], "rating": 4.0, "coordinates": {"latitude": 53.5990653, "longitude": 9.930842}, "transactions": [], "price": "\u20ac", "location": {"address1": "Sportplatzring 47", "address2": "", "address3": null, "city": "Hamburg", "zip_code": "22527", "country": "DE", "state": "HH", "display_address": ["Sportplatzring 47", "22527 Hamburg", "Germany"]}, "phone": "+4954765470", "display_phone": "+49 5476 5470", "distance": 3553.254142726937}, {"id": "RIhcQWsdgvH44Pivzb8eBw", "alias": "namaste-hamburg-hamburg", "name": "Namaste Hamburg", "image_url": "https://s3-media2.fl.yelpcdn.com/bphoto/AGbdM8lLzIefzlBra5NOXA/o.jpg", "is_closed": false, "url": "https://www.yelp.com/biz/namaste-hamburg-hamburg?adjust_creative=hBJOknVQJ58S5goQyjmwRw&utm_campaign=yelp_api_v3&utm_medium=api_v3_business_search&utm_source=hBJOknVQJ58S5goQyjmwRw", "review_count": 3, "categories": [{"alias": "indpak", "title": "Indian"}], "rating": 3.0, "coordinates": {"latitude": 53.59066, "longitude": 9.90765}, "transactions": [], "price": "\u20ac", "location": {"address1": "Ottensener Str. 86", "address2": "", "address3": "", "city": "Hamburg", "zip_code": "22525", "country": "DE", "state": "HH", "display_address": ["Ottensener Str. 86", "22525 Hamburg", "Germany"]}, "phone": "+494046634096", "display_phone": "+49 40 46634096", "distance": 4192.990893300825}, {"id": "t2bfjk3lmkS4tJJnwkIdJg", "alias": "achillion-hamburg", "name": "Achillion", "image_url": "https://s3-media1.fl.yelpcdn.com/bphoto/3n7FSMvN_Ng2k3IULfhJzQ/o.jpg", "is_closed": false, "url": "https://www.yelp.com/biz/achillion-hamburg?adjust_creative=hBJOknVQJ58S5goQyjmwRw&utm_campaign=yelp_api_v3&utm_medium=api_v3_business_search&utm_source=hBJOknVQJ58S5goQyjmwRw", "review_count": 6, "categories": [{"alias": "greek", "title": "Greek"}], "rating": 4.5, "coordinates": {"latitude": 53.609, "longitude": 9.90392}, "transactions": [], "location": {"address1": "Pinneberger Chaussee  4", "address2": null, "address3": null, "city": "Hamburg", "zip_code": "22523", "country": "DE", "state": "HH", "display_address": ["Pinneberger Chaussee  4", "22523 Hamburg", "Germany"]}, "phone": "+494057260833", "display_phone": "+49 40 57260833", "distance": 2188.2115768059334}, {"id": "XUcJ8_4fM5UYeIvddit8Cw", "alias": "salat-paradies-hamburg", "name": "Salat Paradies", "image_url": "https://s3-media2.fl.yelpcdn.com/bphoto/20oszzjcj1Do5jfzrffP-g/o.jpg", "is_closed": false, "url": "https://www.yelp.com/biz/salat-paradies-hamburg?adjust_creative=hBJOknVQJ58S5goQyjmwRw&utm_campaign=yelp_api_v3&utm_medium=api_v3_business_search&utm_source=hBJOknVQJ58S5goQyjmwRw", "review_count": 6, "categories": [{"alias": "salad", "title": "Salad"}], "rating": 5.0, "coordinates": {"latitude": 53.60903, "longitude": 9.90259}, "transactions": [], "price": "\u20ac", "location": {"address1": "Pinneberger Chaussee 9", "address2": "", "address3": "", "city": "Hamburg", "zip_code": "22523", "country": "DE", "state": "HH", "display_address": ["Pinneberger Chaussee 9", "22523 Hamburg", "Germany"]}, "phone": "", "display_phone": "", "distance": 2201.348458368237}, {"id": "siT-6-1zcdDFGSsyXtgi9w", "alias": "schweinske-hamburg-30", "name": "Schweinske", "image_url": "https://s3-media1.fl.yelpcdn.com/bphoto/L9_gWi7d05Dd4xys2_gQmA/o.jpg", "is_closed": false, "url": "https://www.yelp.com/biz/schweinske-hamburg-30?adjust_creative=hBJOknVQJ58S5goQyjmwRw&utm_campaign=yelp_api_v3&utm_medium=api_v3_business_search&utm_source=hBJOknVQJ58S5goQyjmwRw", "review_count": 38, "categories": [{"alias": "german", "title": "German"}], "rating": 3.5, "coordinates": {"latitude": 53.60983, "longitude": 9.90431}, "transactions": [], "price": "\u20ac", "location": {"address1": "Nebenbahnstr. 3", "address2": "", "address3": "", "city": "Hamburg", "zip_code": "22523", "country": "DE", "state": "HH", "display_address": ["Nebenbahnstr. 3", "22523 Hamburg", "Germany"]}, "phone": "+494057260020", "display_phone": "+49 40 57260020", "distance": 2095.8816592190237}, {"id": "55JYOJRFeHW8qLzwwvLJFw", "alias": "asia-quick-hamburg-17", "name": "Asia Quick", "image_url": "https://s3-media4.fl.yelpcdn.com/bphoto/nNkM1dQccxuP9KotNtvyBw/o.jpg", "is_closed": false, "url": "https://www.yelp.com/biz/asia-quick-hamburg-17?adjust_creative=hBJOknVQJ58S5goQyjmwRw&utm_campaign=yelp_api_v3&utm_medium=api_v3_business_search&utm_source=hBJOknVQJ58S5goQyjmwRw", "review_count": 4, "categories": [{"alias": "panasian", "title": "Pan Asian"}], "rating": 4.0, "coordinates": {"latitude": 53.6031, "longitude": 9.91081}, "transactions": [], "price": "\u20ac", "location": {"address1": "Kieler Str. 641", "address2": "", "address3": null, "city": "Hamburg", "zip_code": "22527", "country": "DE", "state": "HH", "display_address": ["Kieler Str. 641", "22527 Hamburg", "Germany"]}, "phone": "+494059354469", "display_phone": "+49 40 59354469", "distance": 2817.918427408842}, {"id": "Dz59pZ2DIT0jAMfgy005SQ", "alias": "makalu-kitchen-hamburg", "name": "Makalu Kitchen", "image_url": "https://s3-media1.fl.yelpcdn.com/bphoto/wXmB_Me-urUFCV75wbKfuw/o.jpg", "is_closed": false, "url": "https://www.yelp.com/biz/makalu-kitchen-hamburg?adjust_creative=hBJOknVQJ58S5goQyjmwRw&utm_campaign=yelp_api_v3&utm_medium=api_v3_business_search&utm_source=hBJOknVQJ58S5goQyjmwRw", "review_count": 5, "categories": [{"alias": "sushi", "title": "Sushi Bars"}, {"alias": "panasian", "title": "Pan Asian"}], "rating": 5.0, "coordinates": {"latitude": 53.5898899, "longitude": 9.91967}, "transactions": [], "price": "\u20ac\u20ac", "location": {"address1": "Randstr. 111", "address2": "", "address3": null, "city": "Hamburg", "zip_code": "22525", "country": "DE", "state": "HH", "display_address": ["Randstr. 111", "22525 Hamburg", "Germany"]}, "phone": "+494056194442", "display_phone": "+49 40 56194442", "distance": 4322.26948610046}, {"id": "aeUdh5cEwbXG9_HIi16qcg", "alias": "mr-fresh-hamburg", "name": "Mr. Fresh", "image_url": "https://s3-media2.fl.yelpcdn.com/bphoto/lLnY1KY0usrvrFYqL-PQPg/o.jpg", "is_closed": false, "url": "https://www.yelp.com/biz/mr-fresh-hamburg?adjust_creative=hBJOknVQJ58S5goQyjmwRw&utm_campaign=yelp_api_v3&utm_medium=api_v3_business_search&utm_source=hBJOknVQJ58S5goQyjmwRw", "review_count": 13, "categories": [{"alias": "salad", "title": "Salad"}, {"alias": "creperies", "title": "Creperies"}], "rating": 4.0, "coordinates": {"latitude": 53.6316, "longitude": 9.92009}, "transactions": [], "price": "\u20ac\u20ac", "location": {"address1": "W\u00e4hlingsallee 11", "address2": null, "address3": null, "city": "Hamburg", "zip_code": "22459", "country": "DE", "state": "HH", "display_address": ["W\u00e4hlingsallee 11", "22459 Hamburg", "Germany"]}, "phone": "+49405583400", "display_phone": "+49 40 5583400", "distance": 784.7881539235648}, {"id": "vImYVDX2a0kYn92XZpOa6g", "alias": "zum-zeppelin-hamburg-3", "name": "Zum Zeppelin", "image_url": "https://s3-media2.fl.yelpcdn.com/bphoto/RXga_Eqzb-_AFkA-Grgi3A/o.jpg", "is_closed": false, "url": "https://www.yelp.com/biz/zum-zeppelin-hamburg-3?adjust_creative=hBJOknVQJ58S5goQyjmwRw&utm_campaign=yelp_api_v3&utm_medium=api_v3_business_search&utm_source=hBJOknVQJ58S5goQyjmwRw", "review_count": 4, "categories": [{"alias": "german", "title": "German"}], "rating": 4.0, "coordinates": {"latitude": 53.62855, "longitude": 9.93248}, "transactions": [], "price": "\u20ac\u20ac\u20ac", "location": {"address1": "Frohmestr. 123-125", "address2": null, "address3": null, "city": "Hamburg", "zip_code": "22459", "country": "DE", "state": "HH", "display_address": ["Frohmestr. 123-125", "22459 Hamburg", "Germany"]}, "phone": "+4940559060", "display_phone": "+49 40 559060", "distance": 1520.639563925177}, {"id": "y99Dx16-iQnGbYewdY2avQ", "alias": "cafesito-hamburg", "name": "Cafesito", "image_url": "https://s3-media2.fl.yelpcdn.com/bphoto/Vhj9HucNteaHZLfXDDpQZQ/o.jpg", "is_closed": false, "url": "https://www.yelp.com/biz/cafesito-hamburg?adjust_creative=hBJOknVQJ58S5goQyjmwRw&utm_campaign=yelp_api_v3&utm_medium=api_v3_business_search&utm_source=hBJOknVQJ58S5goQyjmwRw", "review_count": 7, "categories": [{"alias": "cafes", "title": "Cafes"}], "rating": 4.5, "coordinates": {"latitude": 53.6076505056097, "longitude": 9.90251942255149}, "transactions": [], "price": "\u20ac", "location": {"address1": "Ekenknick 7", "address2": "", "address3": "", "city": "Hamburg", "zip_code": "22523", "country": "DE", "state": "HH", "display_address": ["Ekenknick 7", "22523 Hamburg", "Germany"]}, "phone": "+494020226583", "display_phone": "+49 40 20226583", "distance": 2352.5547128386065}, {"id": "wCu4eQoOsWynAadvGCkfWA", "alias": "block-house-hamburg-16", "name": "Block House", "image_url": "https://s3-media2.fl.yelpcdn.com/bphoto/fFeTmLZ458Kle4uUO_iizg/o.jpg", "is_closed": false, "url": "https://www.yelp.com/biz/block-house-hamburg-16?adjust_creative=hBJOknVQJ58S5goQyjmwRw&utm_campaign=yelp_api_v3&utm_medium=api_v3_business_search&utm_source=hBJOknVQJ58S5goQyjmwRw", "review_count": 45, "categories": [{"alias": "steak", "title": "Steakhouses"}], "rating": 4.0, "coordinates": {"latitude": 53.6067964922858, "longitude": 9.90292561421343}, "transactions": [], "price": "\u20ac\u20ac\u20ac", "location": {"address1": "Alte Elbgaustr. 9", "address2": null, "address3": null, "city": "Hamburg", "zip_code": "22523", "country": "DE", "state": "HH", "display_address": ["Alte Elbgaustr. 9", "22523 Hamburg", "Germany"]}, "phone": "+49405703434", "display_phone": "+49 40 5703434", "distance": 2440.873086947826}, {"id": "Kstf0jpypvRgDTtwb2-i4Q", "alias": "gastst\u00e4tte-marathon-hamburg-2", "name": "Gastst\u00e4tte Marathon", "image_url": "https://s3-media3.fl.yelpcdn.com/bphoto/nKvIePm1Ek2iU7u_fJt-BA/o.jpg", "is_closed": false, "url": "https://www.yelp.com/biz/gastst%C3%A4tte-marathon-hamburg-2?adjust_creative=hBJOknVQJ58S5goQyjmwRw&utm_campaign=yelp_api_v3&utm_medium=api_v3_business_search&utm_source=hBJOknVQJ58S5goQyjmwRw", "review_count": 7, "categories": [{"alias": "greek", "title": "Greek"}], "rating": 3.0, "coordinates": {"latitude": 53.6473, "longitude": 9.90971}, "transactions": [], "price": "\u20ac\u20ac", "location": {"address1": "Roman-Zeller-Platz 2", "address2": null, "address3": null, "city": "Hamburg", "zip_code": "22457", "country": "DE", "state": "HH", "display_address": ["Roman-Zeller-Platz 2", "22457 Hamburg", "Germany"]}, "phone": "+49405583003", "display_phone": "+49 40 5583003", "distance": 2101.5643478242773}, {"id": "6wCuSmqX1oPUMp2jrFQUlA", "alias": "il-tesoro-hamburg", "name": "Il Tesoro", "image_url": "https://s3-media3.fl.yelpcdn.com/bphoto/wOM2tOtdTE55Qdz9uEZ-_w/o.jpg", "is_closed": false, "url": "https://www.yelp.com/biz/il-tesoro-hamburg?adjust_creative=hBJOknVQJ58S5goQyjmwRw&utm_campaign=yelp_api_v3&utm_medium=api_v3_business_search&utm_source=hBJOknVQJ58S5goQyjmwRw", "review_count": 36, "categories": [{"alias": "italian", "title": "Italian"}], "rating": 3.5, "coordinates": {"latitude": 53.607782, "longitude": 9.906191}, "transactions": [], "price": "\u20ac\u20ac", "location": {"address1": "Kieler Str. 702", "address2": "", "address3": null, "city": "Hamburg", "zip_code": "22527", "country": "DE", "state": "HH", "display_address": ["Kieler Str. 702", "22527 Hamburg", "Germany"]}, "phone": "+49405704330", "display_phone": "+49 40 5704330", "distance": 2302.9337440855265}, {"id": "1N0RoHYpRany3cen0il2VA", "alias": "restaurant-omyros-hamburg", "name": "Restaurant Omyros", "image_url": "https://s3-media1.fl.yelpcdn.com/bphoto/2uhIyQIgkOb82pZmUEMzwg/o.jpg", "is_closed": false, "url": "https://www.yelp.com/biz/restaurant-omyros-hamburg?adjust_creative=hBJOknVQJ58S5goQyjmwRw&utm_campaign=yelp_api_v3&utm_medium=api_v3_business_search&utm_source=hBJOknVQJ58S5goQyjmwRw", "review_count": 11, "categories": [{"alias": "greek", "title": "Greek"}, {"alias": "international", "title": "International"}], "rating": 3.0, "coordinates": {"latitude": 53.6318, "longitude": 9.92008}, "transactions": [], "price": "\u20ac\u20ac", "location": {"address1": "W\u00e4hlingsallee 8", "address2": null, "address3": null, "city": "Hamburg", "zip_code": "22459", "country": "DE", "state": "HH", "display_address": ["W\u00e4hlingsallee 8", "22459 Hamburg", "Germany"]}, "phone": "+494067044630", "display_phone": "+49 40 67044630", "distance": 794.5349156840643}, {"id": "zDTCnV42IWDiLU634mtuvw", "alias": "fisch-keyser-hamburg", "name": "Fisch Keyser", "image_url": "https://s3-media3.fl.yelpcdn.com/bphoto/FqasgwpXGPaetxfOzM2KLQ/o.jpg", "is_closed": false, "url": "https://www.yelp.com/biz/fisch-keyser-hamburg?adjust_creative=hBJOknVQJ58S5goQyjmwRw&utm_campaign=yelp_api_v3&utm_medium=api_v3_business_search&utm_source=hBJOknVQJ58S5goQyjmwRw", "review_count": 1, "categories": [{"alias": "seafood", "title": "Seafood"}, {"alias": "fishmonger", "title": "Fishmonger"}], "rating": 5.0, "coordinates": {"latitude": 53.6076, "longitude": 9.90247}, "transactions": [], "price": "\u20ac\u20ac\u20ac", "location": {"address1": "Ekenknick 7", "address2": null, "address3": null, "city": "Hamburg", "zip_code": "22523", "country": "DE", "state": "HH", "display_address": ["Ekenknick 7", "22523 Hamburg", "Germany"]}, "phone": "+49405709230", "display_phone": "+49 40 5709230", "distance": 2358.69990180258}, {"id": "fwdDE_9CO6RJ9uFQKa6nUQ", "alias": "schnelsener-kebap-house-hamburg", "name": "Schnelsener Kebap House", "image_url": "", "is_closed": false, "url": "https://www.yelp.com/biz/schnelsener-kebap-house-hamburg?adjust_creative=hBJOknVQJ58S5goQyjmwRw&utm_campaign=yelp_api_v3&utm_medium=api_v3_business_search&utm_source=hBJOknVQJ58S5goQyjmwRw", "review_count": 9, "categories": [{"alias": "kebab", "title": "Kebab"}], "rating": 4.5, "coordinates": {"latitude": 53.6362, "longitude": 9.91752}, "transactions": [], "price": "\u20ac", "location": {"address1": "Oldesloer Str. 41", "address2": null, "address3": null, "city": "Hamburg", "zip_code": "22457", "country": "DE", "state": "HH", "display_address": ["Oldesloer Str. 41", "22457 Hamburg", "Germany"]}, "phone": "+494055009130", "display_phone": "+49 40 55009130", "distance": 1016.3927811337998}, {"id": "xQ9m6F0tj5fb9bv2I4zcLA", "alias": "hofcaf\u00e9-ramcke-hamburg", "name": "Hofcaf\u00e9 Ramcke", "image_url": "https://s3-media1.fl.yelpcdn.com/bphoto/mPeKR8z7zqCu74Q39Ct39g/o.jpg", "is_closed": false, "url": "https://www.yelp.com/biz/hofcaf%C3%A9-ramcke-hamburg?adjust_creative=hBJOknVQJ58S5goQyjmwRw&utm_campaign=yelp_api_v3&utm_medium=api_v3_business_search&utm_source=hBJOknVQJ58S5goQyjmwRw", "review_count": 5, "categories": [{"alias": "cafes", "title": "Cafes"}], "rating": 4.0, "coordinates": {"latitude": 53.6023809449393, "longitude": 9.90948289632797}, "transactions": [], "price": "\u20ac", "location": {"address1": "Reichsbahnstr. 10", "address2": "", "address3": "", "city": "Hamburg", "zip_code": "22525", "country": "DE", "state": "HH", "display_address": ["Reichsbahnstr. 10", "22525 Hamburg", "Germany"]}, "phone": "+494043261980", "display_phone": "+49 40 43261980", "distance": 2893.255265357214}, {"id": "XFxWQHvOryVof0btQgmYvw", "alias": "metaxa-grill-hamburg", "name": "Metaxa Grill", "image_url": "https://s3-media1.fl.yelpcdn.com/bphoto/byTSbl9HgDlzLbs2QnUPYQ/o.jpg", "is_closed": false, "url": "https://www.yelp.com/biz/metaxa-grill-hamburg?adjust_creative=hBJOknVQJ58S5goQyjmwRw&utm_campaign=yelp_api_v3&utm_medium=api_v3_business_search&utm_source=hBJOknVQJ58S5goQyjmwRw", "review_count": 16, "categories": [{"alias": "greek", "title": "Greek"}], "rating": 3.5, "coordinates": {"latitude": 53.6122532485485, "longitude": 9.89839999595038}, "transactions": [], "price": "\u20ac\u20ac", "location": {"address1": "Pinneberger Chaussee 46", "address2": "", "address3": "", "city": "Hamburg", "zip_code": "22523", "country": "DE", "state": "HH", "display_address": ["Pinneberger Chaussee 46", "22523 Hamburg", "Germany"]}, "phone": "+4940579747", "display_phone": "+49 40 579747", "distance": 1938.5501642440965}, {"id": "L1dXoEQuJKUY-T8aWGmp3Q", "alias": "ess-bahn-hamburg", "name": "ESS-Bahn", "image_url": "https://s3-media1.fl.yelpcdn.com/bphoto/jGlgMnmbJsq9hAd_qHWLRQ/o.jpg", "is_closed": false, "url": "https://www.yelp.com/biz/ess-bahn-hamburg?adjust_creative=hBJOknVQJ58S5goQyjmwRw&utm_campaign=yelp_api_v3&utm_medium=api_v3_business_search&utm_source=hBJOknVQJ58S5goQyjmwRw", "review_count": 6, "categories": [{"alias": "kebab", "title": "Kebab"}, {"alias": "hotdogs", "title": "Fast Food"}], "rating": 3.5, "coordinates": {"latitude": 53.6035625910885, "longitude": 9.89310401951185}, "transactions": [], "price": "\u20ac", "location": {"address1": "Elbgaustr", "address2": null, "address3": null, "city": "Hamburg", "zip_code": "22523", "country": "DE", "state": "HH", "display_address": ["Elbgaustr", "22523 Hamburg", "Germany"]}, "phone": "", "display_phone": "", "distance": 2965.6041995564015}, {"id": "1mAxuvRfmAxDFnFi7_xNmQ", "alias": "montenegro-bei-sabina-b\u00f6nningstedt", "name": "Montenegro bei Sabina", "image_url": "https://s3-media3.fl.yelpcdn.com/bphoto/LtTQiS7DcXdoUTdaFMeAQw/o.jpg", "is_closed": false, "url": "https://www.yelp.com/biz/montenegro-bei-sabina-b%C3%B6nningstedt?adjust_creative=hBJOknVQJ58S5goQyjmwRw&utm_campaign=yelp_api_v3&utm_medium=api_v3_business_search&utm_source=hBJOknVQJ58S5goQyjmwRw", "review_count": 2, "categories": [{"alias": "mediterranean", "title": "Mediterranean"}], "rating": 3.0, "coordinates": {"latitude": 53.66233, "longitude": 9.89852}, "transactions": [], "price": "\u20ac\u20ac", "location": {"address1": "Rugenbergener Str. 50", "address2": "", "address3": "", "city": "B\u00f6nningstedt", "zip_code": "25474", "country": "DE", "state": "SH", "display_address": ["Rugenbergener Str. 50", "25474 B\u00f6nningstedt", "Germany"]}, "phone": "+494089804210", "display_phone": "+49 40 89804210", "distance": 3841.326157637834}, {"id": "80eTRYVDuR5XxRO-ytB3rA", "alias": "apollon-hamburg-2", "name": "Apollon", "image_url": "https://s3-media4.fl.yelpcdn.com/bphoto/W3VUqrNgb-u0B-cYtM5hBA/o.jpg", "is_closed": false, "url": "https://www.yelp.com/biz/apollon-hamburg-2?adjust_creative=hBJOknVQJ58S5goQyjmwRw&utm_campaign=yelp_api_v3&utm_medium=api_v3_business_search&utm_source=hBJOknVQJ58S5goQyjmwRw", "review_count": 9, "categories": [{"alias": "greek", "title": "Greek"}], "rating": 3.5, "coordinates": {"latitude": 53.5994664555587, "longitude": 9.92218751460314}, "transactions": [], "price": "\u20ac\u20ac", "location": {"address1": "Nienredder 1", "address2": "", "address3": "", "city": "Hamburg", "zip_code": "22527", "country": "DE", "state": "HH", "display_address": ["Nienredder 1", "22527 Hamburg", "Germany"]}, "phone": "+49405408436", "display_phone": "+49 40 5408436", "distance": 3324.712668103736}, {"id": "v9ZEwpx6nakbsvaJrFp-Bw", "alias": "fischhaus-timm-hamburg", "name": "Fischhaus Timm", "image_url": "https://s3-media2.fl.yelpcdn.com/bphoto/f62XnNQgC3zmAAJZA6vFPA/o.jpg", "is_closed": false, "url": "https://www.yelp.com/biz/fischhaus-timm-hamburg?adjust_creative=hBJOknVQJ58S5goQyjmwRw&utm_campaign=yelp_api_v3&utm_medium=api_v3_business_search&utm_source=hBJOknVQJ58S5goQyjmwRw", "review_count": 3, "categories": [{"alias": "seafood", "title": "Seafood"}, {"alias": "fishnchips", "title": "Fish & Chips"}], "rating": 3.5, "coordinates": {"latitude": 53.6352, "longitude": 9.917}, "transactions": [], "location": {"address1": "Gli\u00dfmannweg 11", "address2": null, "address3": null, "city": "Hamburg", "zip_code": "22457", "country": "DE", "state": "HH", "display_address": ["Gli\u00dfmannweg 11", "22457 Hamburg", "Germany"]}, "phone": "+49405592213", "display_phone": "+49 40 5592213", "distance": 904.0948783538043}, {"id": "U9QJwMx3RNOPy7Ce0xn4fA", "alias": "brimborium-hamburg-2", "name": "Brimborium", "image_url": "https://s3-media2.fl.yelpcdn.com/bphoto/ccorPrrGnaj__ntjefe2Ww/o.jpg", "is_closed": false, "url": "https://www.yelp.com/biz/brimborium-hamburg-2?adjust_creative=hBJOknVQJ58S5goQyjmwRw&utm_campaign=yelp_api_v3&utm_medium=api_v3_business_search&utm_source=hBJOknVQJ58S5goQyjmwRw", "review_count": 6, "categories": [{"alias": "international", "title": "International"}], "rating": 3.5, "coordinates": {"latitude": 53.6289, "longitude": 9.93144}, "transactions": [], "location": {"address1": "Frohmestr. 110", "address2": null, "address3": null, "city": "Hamburg", "zip_code": "22459", "country": "DE", "state": "HH", "display_address": ["Frohmestr. 110", "22459 Hamburg", "Germany"]}, "phone": "+49405590621535", "display_phone": "+49 40 5590621535", "distance": 1449.032889650896}, {"id": "BNhgwuvCDpYl1P9VZqxUXQ", "alias": "tao-hamburg", "name": "TAO", "image_url": "https://s3-media3.fl.yelpcdn.com/bphoto/A-jJ7kuxIvQZq5vgpku80Q/o.jpg", "is_closed": false, "url": "https://www.yelp.com/biz/tao-hamburg?adjust_creative=hBJOknVQJ58S5goQyjmwRw&utm_campaign=yelp_api_v3&utm_medium=api_v3_business_search&utm_source=hBJOknVQJ58S5goQyjmwRw", "review_count": 37, "categories": [{"alias": "chinese", "title": "Chinese"}], "rating": 3.5, "coordinates": {"latitude": 53.5923654, "longitude": 9.9340022}, "transactions": [], "price": "\u20ac\u20ac", "location": {"address1": "Basselweg 73", "address2": "", "address3": "", "city": "Hamburg", "zip_code": "22527", "country": "DE", "state": "HH", "display_address": ["Basselweg 73", "22527 Hamburg", "Germany"]}, "phone": "+494057004318", "display_phone": "+49 40 57004318", "distance": 4321.134015977726}, {"id": "FieMzM-1Zvj3Ngdq1-A8nA", "alias": "hunger-und-durst-hamburg", "name": "Hunger & Durst", "image_url": "https://s3-media1.fl.yelpcdn.com/bphoto/mlSPKn6dFKdLHd3xdjC3Mw/o.jpg", "is_closed": false, "url": "https://www.yelp.com/biz/hunger-und-durst-hamburg?adjust_creative=hBJOknVQJ58S5goQyjmwRw&utm_campaign=yelp_api_v3&utm_medium=api_v3_business_search&utm_source=hBJOknVQJ58S5goQyjmwRw", "review_count": 3, "categories": [{"alias": "drugstores", "title": "Drugstores"}, {"alias": "bistros", "title": "Bistros"}, {"alias": "pubs", "title": "Pubs"}], "rating": 4.5, "coordinates": {"latitude": 53.5898, "longitude": 9.91892}, "transactions": [], "location": {"address1": "Volksparkstr. 81", "address2": null, "address3": null, "city": "Hamburg", "zip_code": "22525", "country": "DE", "state": "HH", "display_address": ["Volksparkstr. 81", "22525 Hamburg", "Germany"]}, "phone": "+494054763736", "display_phone": "+49 40 54763736", "distance": 4337.123296774573}, {"id": "kIa0M8MDb9HJZ6SCIfLDMQ", "alias": "croque-cafe-hamburg", "name": "Croque-Cafe", "image_url": "https://s3-media2.fl.yelpcdn.com/bphoto/2AhwyNGoChzZUxXhLizfgw/o.jpg", "is_closed": false, "url": "https://www.yelp.com/biz/croque-cafe-hamburg?adjust_creative=hBJOknVQJ58S5goQyjmwRw&utm_campaign=yelp_api_v3&utm_medium=api_v3_business_search&utm_source=hBJOknVQJ58S5goQyjmwRw", "review_count": 6, "categories": [{"alias": "hotdogs", "title": "Fast Food"}, {"alias": "sandwiches", "title": "Sandwiches"}, {"alias": "pizza", "title": "Pizza"}], "rating": 4.0, "coordinates": {"latitude": 53.61059, "longitude": 9.89978}, "transactions": [], "location": {"address1": "Pinneberger Chaussee 21 b", "address2": "", "address3": "", "city": "Hamburg", "zip_code": "22523", "country": "DE", "state": "HH", "display_address": ["Pinneberger Chaussee 21 b", "22523 Hamburg", "Germany"]}, "phone": "+494057144915", "display_phone": "+49 40 57144915", "distance": 2089.260688475524}, {"id": "563I0YNmkeOoaH2WXqJymQ", "alias": "grill-stop-hamburg-hamburg", "name": "Grill Stop Hamburg", "image_url": "https://s3-media3.fl.yelpcdn.com/bphoto/VlBYayXXEelJyPQbvMThJQ/o.jpg", "is_closed": false, "url": "https://www.yelp.com/biz/grill-stop-hamburg-hamburg?adjust_creative=hBJOknVQJ58S5goQyjmwRw&utm_campaign=yelp_api_v3&utm_medium=api_v3_business_search&utm_source=hBJOknVQJ58S5goQyjmwRw", "review_count": 2, "categories": [{"alias": "foodstands", "title": "Food Stands"}], "rating": 3.5, "coordinates": {"latitude": 53.632113, "longitude": 9.922267}, "transactions": [], "price": "\u20ac", "location": {"address1": "Frohmestr. 53", "address2": null, "address3": null, "city": "Hamburg", "zip_code": "22457", "country": "DE", "state": "HH", "display_address": ["Frohmestr. 53", "22457 Hamburg", "Germany"]}, "phone": "+49405507225", "display_phone": "+49 40 5507225", "distance": 935.7571031260403}, {"id": "u3ub5f0MS4qY67Q8XF9ZoA", "alias": "sodemanns-fisch-kutter-nr-1-hamburg", "name": "Sodemann's Fisch-Kutter Nr. 1", "image_url": "https://s3-media3.fl.yelpcdn.com/bphoto/BlysP6fVPaL0eEjKvEbByw/o.jpg", "is_closed": false, "url": "https://www.yelp.com/biz/sodemanns-fisch-kutter-nr-1-hamburg?adjust_creative=hBJOknVQJ58S5goQyjmwRw&utm_campaign=yelp_api_v3&utm_medium=api_v3_business_search&utm_source=hBJOknVQJ58S5goQyjmwRw", "review_count": 3, "categories": [{"alias": "foodtrucks", "title": "Food Trucks"}, {"alias": "fischbroetchen", "title": "Fischbroetchen"}], "rating": 5.0, "coordinates": {"latitude": 53.5537490844727, "longitude": 9.99182987213135}, "transactions": [], "price": "\u20ac\u20ac", "location": {"address1": "", "address2": null, "address3": "", "city": "Hamburg", "zip_code": "", "country": "DE", "state": "HH", "display_address": ["Hamburg", "Germany"]}, "phone": "+491773606663", "display_phone": "+49 177 3606663", "distance": 10236.934627301636}, {"id": "h6XSC8n7UsQ5pEeI6N871w", "alias": "hallo-pizza-hamburg-14", "name": "Hallo Pizza!", "image_url": "https://s3-media3.fl.yelpcdn.com/bphoto/rPETS0HqHtwEcK_oVYi7dA/o.jpg", "is_closed": false, "url": "https://www.yelp.com/biz/hallo-pizza-hamburg-14?adjust_creative=hBJOknVQJ58S5goQyjmwRw&utm_campaign=yelp_api_v3&utm_medium=api_v3_business_search&utm_source=hBJOknVQJ58S5goQyjmwRw", "review_count": 2, "categories": [{"alias": "pizza", "title": "Pizza"}], "rating": 5.0, "coordinates": {"latitude": 53.6303085, "longitude": 9.9266974}, "transactions": [], "price": "\u20ac", "location": {"address1": "Frohmestr. 86", "address2": null, "address3": null, "city": "Hamburg", "zip_code": "22459", "country": "DE", "state": "HH", "display_address": ["Frohmestr. 86", "22459 Hamburg", "Germany"]}, "phone": "+494059354300", "display_phone": "+49 40 59354300", "distance": 1154.873084888112}, {"id": "RhjvmKthSzftkhOc2gtnyw", "alias": "grillpavillon-hamburg", "name": "Grillpavillon", "image_url": "https://s3-media2.fl.yelpcdn.com/bphoto/fIqQGlaCuHGp0kEKcPSydw/o.jpg", "is_closed": false, "url": "https://www.yelp.com/biz/grillpavillon-hamburg?adjust_creative=hBJOknVQJ58S5goQyjmwRw&utm_campaign=yelp_api_v3&utm_medium=api_v3_business_search&utm_source=hBJOknVQJ58S5goQyjmwRw", "review_count": 1, "categories": [{"alias": "currysausage", "title": "Curry Sausage"}], "rating": 5.0, "coordinates": {"latitude": 53.589098, "longitude": 9.904048}, "transactions": [], "location": {"address1": "Schnackenburgallee 119", "address2": null, "address3": null, "city": "Hamburg", "zip_code": "22525", "country": "DE", "state": "HH", "display_address": ["Schnackenburgallee 119", "22525 Hamburg", "Germany"]}, "phone": "+494054767826", "display_phone": "+49 40 54767826", "distance": 4384.924203795961}, {"id": "UHFzAT1P_l6FNvvP-zGbaQ", "alias": "burger-lounge-hamburg-2", "name": "Burger Lounge", "image_url": "https://s3-media2.fl.yelpcdn.com/bphoto/eT4tR2zZv-vCoezxgM5CQw/o.jpg", "is_closed": false, "url": "https://www.yelp.com/biz/burger-lounge-hamburg-2?adjust_creative=hBJOknVQJ58S5goQyjmwRw&utm_campaign=yelp_api_v3&utm_medium=api_v3_business_search&utm_source=hBJOknVQJ58S5goQyjmwRw", "review_count": 75, "categories": [{"alias": "burgers", "title": "Burgers"}], "rating": 3.0, "coordinates": {"latitude": 53.60008, "longitude": 9.91687}, "transactions": [], "price": "\u20ac\u20ac", "location": {"address1": "Kielerstr. 566", "address2": "", "address3": "", "city": "Hamburg", "zip_code": "22525", "country": "DE", "state": "HH", "display_address": ["Kielerstr. 566", "22525 Hamburg", "Germany"]}, "phone": "+49408515554", "display_phone": "+49 40 8515554", "distance": 3186.0922405729966}, {"id": "5b9LYo195qsUCPPLFapjkQ", "alias": "platinum-restaurant-hamburg", "name": "Platinum Restaurant", "image_url": "https://s3-media3.fl.yelpcdn.com/bphoto/amRCSZkKqQVCLf_zPpisJQ/o.jpg", "is_closed": false, "url": "https://www.yelp.com/biz/platinum-restaurant-hamburg?adjust_creative=hBJOknVQJ58S5goQyjmwRw&utm_campaign=yelp_api_v3&utm_medium=api_v3_business_search&utm_source=hBJOknVQJ58S5goQyjmwRw", "review_count": 1, "categories": [{"alias": "restaurants", "title": "Restaurants"}], "rating": 5.0, "coordinates": {"latitude": 53.5891, "longitude": 9.89967}, "transactions": [], "location": {"address1": "Barclaycard Arena", "address2": "Sylvesterallee 10", "address3": null, "city": "Hamburg", "zip_code": "22525", "country": "DE", "state": "HH", "display_address": ["Barclaycard Arena", "Sylvesterallee 10", "22525 Hamburg", "Germany"]}, "phone": "+494088163400", "display_phone": "+49 40 88163400", "distance": 4417.701357295426}, {"id": "F09QZ5eyYNif_4yxJ1R6xw", "alias": "restaurant-naxos-ellerbek", "name": "Restaurant Naxos", "image_url": "", "is_closed": false, "url": "https://www.yelp.com/biz/restaurant-naxos-ellerbek?adjust_creative=hBJOknVQJ58S5goQyjmwRw&utm_campaign=yelp_api_v3&utm_medium=api_v3_business_search&utm_source=hBJOknVQJ58S5goQyjmwRw", "review_count": 3, "categories": [{"alias": "restaurants", "title": "Restaurants"}], "rating": 4.5, "coordinates": {"latitude": 53.6486, "longitude": 9.89857}, "transactions": [], "price": "\u20ac\u20ac", "location": {"address1": "Tilsiter Str. 1", "address2": null, "address3": null, "city": "Ellerbek", "zip_code": "25474", "country": "DE", "state": "SH", "display_address": ["Tilsiter Str. 1", "25474 Ellerbek", "Germany"]}, "phone": "+49410132629", "display_phone": "+49 4101 32629", "distance": 2358.437087146063}, {"id": "srDNoRwedgyO-lKCy_f0Hw", "alias": "fanrestaurant-die-raute-hamburg", "name": "Fanrestaurant \"Die Raute\"", "image_url": "https://s3-media2.fl.yelpcdn.com/bphoto/YNhK984AVpY4-ZI_BKT2XA/o.jpg", "is_closed": false, "url": "https://www.yelp.com/biz/fanrestaurant-die-raute-hamburg?adjust_creative=hBJOknVQJ58S5goQyjmwRw&utm_campaign=yelp_api_v3&utm_medium=api_v3_business_search&utm_source=hBJOknVQJ58S5goQyjmwRw", "review_count": 26, "categories": [{"alias": "german", "title": "German"}], "rating": 3.0, "coordinates": {"latitude": 53.5877906072684, "longitude": 9.89975140370484}, "transactions": [], "price": "\u20ac\u20ac\u20ac", "location": {"address1": "Sylvesterallee 7", "address2": "Eingang Nord/Ost", "address3": "", "city": "Hamburg", "zip_code": "22525", "country": "DE", "state": "HH", "display_address": ["Sylvesterallee 7", "Eingang Nord/Ost", "22525 Hamburg", "Germany"]}, "phone": "+49404155x3350", "display_phone": "+49 40 4155 ext. 3350", "distance": 4561.0201872334965}, {"id": "f8Iq441eBFQ2H6l44iUYNA", "alias": "call-a-pizza-hamburg-5", "name": "Call a Pizza", "image_url": "https://s3-media4.fl.yelpcdn.com/bphoto/VKKfI_x3McuKKuUSy6MW1Q/o.jpg", "is_closed": false, "url": "https://www.yelp.com/biz/call-a-pizza-hamburg-5?adjust_creative=hBJOknVQJ58S5goQyjmwRw&utm_campaign=yelp_api_v3&utm_medium=api_v3_business_search&utm_source=hBJOknVQJ58S5goQyjmwRw", "review_count": 15, "categories": [{"alias": "pizza", "title": "Pizza"}], "rating": 3.5, "coordinates": {"latitude": 53.63051, "longitude": 9.92599}, "transactions": [], "price": "\u20ac\u20ac", "location": {"address1": "Frohmestr. 78D", "address2": "", "address3": null, "city": "Hamburg", "zip_code": "22459", "country": "DE", "state": "HH", "display_address": ["Frohmestr. 78D", "22459 Hamburg", "Germany"]}, "phone": "+49405592047", "display_phone": "+49 40 5592047", "distance": 1113.6151463848378}, {"id": "Vi6Cq54lDLlKrJ6a-o__kQ", "alias": "skylight-caf\u00e9-hamburg", "name": "Skylight Caf\u00e9", "image_url": "https://s3-media2.fl.yelpcdn.com/bphoto/IYka2zqb_aX4nW2G5CoEZg/o.jpg", "is_closed": false, "url": "https://www.yelp.com/biz/skylight-caf%C3%A9-hamburg?adjust_creative=hBJOknVQJ58S5goQyjmwRw&utm_campaign=yelp_api_v3&utm_medium=api_v3_business_search&utm_source=hBJOknVQJ58S5goQyjmwRw", "review_count": 2, "categories": [{"alias": "restaurants", "title": "Restaurants"}], "rating": 3.5, "coordinates": {"latitude": 53.5898, "longitude": 9.89875}, "transactions": [], "location": {"address1": "Barclaycard Arena", "address2": "Sylvesterallee 10", "address3": null, "city": "Hamburg", "zip_code": "22525", "country": "DE", "state": "HH", "display_address": ["Barclaycard Arena", "Sylvesterallee 10", "22525 Hamburg", "Germany"]}, "phone": "+494088163400", "display_phone": "+49 40 88163400", "distance": 4350.183266131487}, {"id": "1w_lWa-fLXN-3ghsDp09rw", "alias": "odysseus-hamburg-2", "name": "Odysseus", "image_url": "https://s3-media1.fl.yelpcdn.com/bphoto/387UO3-M0mSvzV3FSE8grQ/o.jpg", "is_closed": false, "url": "https://www.yelp.com/biz/odysseus-hamburg-2?adjust_creative=hBJOknVQJ58S5goQyjmwRw&utm_campaign=yelp_api_v3&utm_medium=api_v3_business_search&utm_source=hBJOknVQJ58S5goQyjmwRw", "review_count": 25, "categories": [{"alias": "greek", "title": "Greek"}], "rating": 4.0, "coordinates": {"latitude": 53.6069, "longitude": 9.903345}, "transactions": [], "price": "\u20ac\u20ac", "location": {"address1": "Alte Elbgaustr. 7", "address2": null, "address3": null, "city": "Hamburg", "zip_code": "22523", "country": "DE", "state": "HH", "display_address": ["Alte Elbgaustr. 7", "22523 Hamburg", "Germany"]}, "phone": "+494057260224", "display_phone": "+49 40 57260224", "distance": 2424.7761367414428}, {"id": "Ci897JLvU6ZQkLMXslVpOw", "alias": "welcome-india-hamburg-4", "name": "Welcome India", "image_url": "https://s3-media4.fl.yelpcdn.com/bphoto/2TPQa28fX1M6iq7T_d6oBA/o.jpg", "is_closed": false, "url": "https://www.yelp.com/biz/welcome-india-hamburg-4?adjust_creative=hBJOknVQJ58S5goQyjmwRw&utm_campaign=yelp_api_v3&utm_medium=api_v3_business_search&utm_source=hBJOknVQJ58S5goQyjmwRw", "review_count": 1, "categories": [{"alias": "indpak", "title": "Indian"}], "rating": 3.0, "coordinates": {"latitude": 53.61041, "longitude": 9.90013}, "transactions": [], "location": {"address1": "Pinneberger Chaussee 21", "address2": null, "address3": "", "city": "Hamburg", "zip_code": "22523", "country": "DE", "state": "HH", "display_address": ["Pinneberger Chaussee 21", "22523 Hamburg", "Germany"]}, "phone": "+494057002297", "display_phone": "+49 40 57002297", "distance": 2091.301095829338}, {"id": "GIQaAyM7xLRK7mAcm9u5hw", "alias": "poseidonstuben-hamburg", "name": "Poseidonstuben", "image_url": "https://s3-media3.fl.yelpcdn.com/bphoto/XWtK8mFPiuMTIWjt4ugO-A/o.jpg", "is_closed": false, "url": "https://www.yelp.com/biz/poseidonstuben-hamburg?adjust_creative=hBJOknVQJ58S5goQyjmwRw&utm_campaign=yelp_api_v3&utm_medium=api_v3_business_search&utm_source=hBJOknVQJ58S5goQyjmwRw", "review_count": 2, "categories": [{"alias": "german", "title": "German"}], "rating": 3.0, "coordinates": {"latitude": 53.6022, "longitude": 9.91722}, "transactions": [], "location": {"address1": "Olloweg 51", "address2": null, "address3": null, "city": "Hamburg", "zip_code": "22527", "country": "DE", "state": "HH", "display_address": ["Olloweg 51", "22527 Hamburg", "Germany"]}, "phone": "+49405704551", "display_phone": "+49 40 5704551", "distance": 2957.756598592882}, {"id": "5f6DmacuQB9Jh-gPT5fuww", "alias": "champ-hamburg", "name": "Champ", "image_url": "https://s3-media2.fl.yelpcdn.com/bphoto/0wOa7UKK0BqN1-ckTzdxMw/o.jpg", "is_closed": false, "url": "https://www.yelp.com/biz/champ-hamburg?adjust_creative=hBJOknVQJ58S5goQyjmwRw&utm_campaign=yelp_api_v3&utm_medium=api_v3_business_search&utm_source=hBJOknVQJ58S5goQyjmwRw", "review_count": 2, "categories": [{"alias": "burgers", "title": "Burgers"}, {"alias": "hotdogs", "title": "Fast Food"}, {"alias": "pizza", "title": "Pizza"}], "rating": 4.0, "coordinates": {"latitude": 53.60565, "longitude": 9.908563}, "transactions": [], "price": "\u20ac\u20ac", "location": {"address1": "Kieler Str. 685", "address2": null, "address3": "", "city": "Hamburg", "zip_code": "22527", "country": "DE", "state": "HH", "display_address": ["Kieler Str. 685", "22527 Hamburg", "Germany"]}, "phone": "+49405596266", "display_phone": "+49 40 5596266", "distance": 2531.0176405789543}, {"id": "7lu2vKgQn-ow3QMxg1FfZQ", "alias": "back-factory-hamburg-4", "name": "Back-Factory", "image_url": "https://s3-media4.fl.yelpcdn.com/bphoto/ytBTfkiu88IXlzcYFRxy_A/o.jpg", "is_closed": false, "url": "https://www.yelp.com/biz/back-factory-hamburg-4?adjust_creative=hBJOknVQJ58S5goQyjmwRw&utm_campaign=yelp_api_v3&utm_medium=api_v3_business_search&utm_source=hBJOknVQJ58S5goQyjmwRw", "review_count": 3, "categories": [{"alias": "bakeries", "title": "Bakeries"}, {"alias": "hotdogs", "title": "Fast Food"}], "rating": 4.5, "coordinates": {"latitude": 53.60338, "longitude": 9.89356}, "transactions": [], "price": "\u20ac", "location": {"address1": "Elbgaustr. 103", "address2": null, "address3": null, "city": "Hamburg", "zip_code": "22523", "country": "DE", "state": "HH", "display_address": ["Elbgaustr. 103", "22523 Hamburg", "Germany"]}, "phone": "+494038647150", "display_phone": "+49 40 38647150", "distance": 2976.175414945993}, {"id": "DsTRHxCt-xYMRBYR2_JkHQ", "alias": "hsv-rundgrill-hamburg", "name": "HSV Rundgrill", "image_url": "https://s3-media3.fl.yelpcdn.com/bphoto/t0r64w5qLLG-9ac2-5VMSA/o.jpg", "is_closed": false, "url": "https://www.yelp.com/biz/hsv-rundgrill-hamburg?adjust_creative=hBJOknVQJ58S5goQyjmwRw&utm_campaign=yelp_api_v3&utm_medium=api_v3_business_search&utm_source=hBJOknVQJ58S5goQyjmwRw", "review_count": 2, "categories": [{"alias": "foodstands", "title": "Food Stands"}], "rating": 5.0, "coordinates": {"latitude": 53.5909, "longitude": 9.90427}, "transactions": [], "price": "\u20ac", "location": {"address1": "Schnackenburgallee 151", "address2": null, "address3": null, "city": "Hamburg", "zip_code": "22525", "country": "DE", "state": "HH", "display_address": ["Schnackenburgallee 151", "22525 Hamburg", "Germany"]}, "phone": "", "display_phone": "", "distance": 4184.024326272912}, {"id": "zR-dbwR5pqF3-A9z48W-FA", "alias": "kings-d\u00f6ner-hamburg", "name": "King's D\u00f6ner", "image_url": "", "is_closed": false, "url": "https://www.yelp.com/biz/kings-d%C3%B6ner-hamburg?adjust_creative=hBJOknVQJ58S5goQyjmwRw&utm_campaign=yelp_api_v3&utm_medium=api_v3_business_search&utm_source=hBJOknVQJ58S5goQyjmwRw", "review_count": 2, "categories": [{"alias": "kebab", "title": "Kebab"}], "rating": 4.0, "coordinates": {"latitude": 53.6088, "longitude": 9.9017}, "transactions": [], "location": {"address1": "Lohkampstr. 11", "address2": null, "address3": null, "city": "Hamburg", "zip_code": "22523", "country": "DE", "state": "HH", "display_address": ["Lohkampstr. 11", "22523 Hamburg", "Germany"]}, "phone": "+49405709577", "display_phone": "+49 40 5709577", "distance": 2239.1000777216373}, {"id": "APvIA_7ssxgC0atmQEFMcg", "alias": "burgerkultour-food-truck-hamburg-2", "name": "BurgerKultour Food Truck", "image_url": "https://s3-media4.fl.yelpcdn.com/bphoto/KoAuwalMnlAO8139MmdYBQ/o.jpg", "is_closed": false, "url": "https://www.yelp.com/biz/burgerkultour-food-truck-hamburg-2?adjust_creative=hBJOknVQJ58S5goQyjmwRw&utm_campaign=yelp_api_v3&utm_medium=api_v3_business_search&utm_source=hBJOknVQJ58S5goQyjmwRw", "review_count": 3, "categories": [{"alias": "foodtrucks", "title": "Food Trucks"}, {"alias": "burgers", "title": "Burgers"}], "rating": 4.5, "coordinates": {"latitude": 53.57154, "longitude": 9.95575}, "transactions": [], "price": "\u20ac\u20ac", "location": {"address1": "", "address2": "", "address3": "", "city": "Hamburg", "zip_code": "20259", "country": "DE", "state": "HH", "display_address": ["20259 Hamburg", "Germany"]}, "phone": "+4917626055122", "display_phone": "+49 176 26055122", "distance": 7096.754125276117}, {"id": "pdCpaunO_IsJx9egvbp4vg", "alias": "asia-pfanne-hamburg", "name": "Asia Pfanne", "image_url": "https://s3-media2.fl.yelpcdn.com/bphoto/4Dr3ceAn6V1xIJvsGkT15w/o.jpg", "is_closed": false, "url": "https://www.yelp.com/biz/asia-pfanne-hamburg?adjust_creative=hBJOknVQJ58S5goQyjmwRw&utm_campaign=yelp_api_v3&utm_medium=api_v3_business_search&utm_source=hBJOknVQJ58S5goQyjmwRw", "review_count": 1, "categories": [{"alias": "panasian", "title": "Pan Asian"}], "rating": 3.0, "coordinates": {"latitude": 53.632113, "longitude": 9.922267}, "transactions": [], "location": {"address1": "Frohmestr. 53", "address2": "", "address3": "", "city": "Hamburg", "zip_code": "22457", "country": "DE", "state": "HH", "display_address": ["Frohmestr. 53", "22457 Hamburg", "Germany"]}, "phone": "+49405507225", "display_phone": "+49 40 5507225", "distance": 935.7571031260403}, {"id": "ytQgWTQXCQ-5chP6bV4muQ", "alias": "china-restaurant-kokker-goh-b\u00f6nningstedt", "name": "China - Restaurant Kokker Goh", "image_url": "https://s3-media2.fl.yelpcdn.com/bphoto/5GxBGqyQLPYcmmyn0mRyDA/o.jpg", "is_closed": false, "url": "https://www.yelp.com/biz/china-restaurant-kokker-goh-b%C3%B6nningstedt?adjust_creative=hBJOknVQJ58S5goQyjmwRw&utm_campaign=yelp_api_v3&utm_medium=api_v3_business_search&utm_source=hBJOknVQJ58S5goQyjmwRw", "review_count": 10, "categories": [{"alias": "chinese", "title": "Chinese"}, {"alias": "malaysian", "title": "Malaysian"}], "rating": 4.0, "coordinates": {"latitude": 53.6638, "longitude": 9.90585}, "transactions": [], "price": "\u20ac\u20ac", "location": {"address1": "Bahnhofstr. 2", "address2": null, "address3": null, "city": "B\u00f6nningstedt", "zip_code": "25474", "country": "DE", "state": "SH", "display_address": ["Bahnhofstr. 2", "25474 B\u00f6nningstedt", "Germany"]}, "phone": "+49405566848", "display_phone": "+49 40 5566848", "distance": 3943.494571507931}, {"id": "KayjcGzyocTlDonXgRLl6w", "alias": "shuttle-imbiss-hamburg", "name": "Shuttle Imbiss", "image_url": "https://s3-media3.fl.yelpcdn.com/bphoto/bwYb5yyzu9sSlyBwRk9F9Q/o.jpg", "is_closed": false, "url": "https://www.yelp.com/biz/shuttle-imbiss-hamburg?adjust_creative=hBJOknVQJ58S5goQyjmwRw&utm_campaign=yelp_api_v3&utm_medium=api_v3_business_search&utm_source=hBJOknVQJ58S5goQyjmwRw", "review_count": 4, "categories": [{"alias": "foodstands", "title": "Food Stands"}], "rating": 4.5, "coordinates": {"latitude": 53.5901120455389, "longitude": 9.91830674981713}, "transactions": [], "price": "\u20ac", "location": {"address1": "Volksparkstr. 62", "address2": "", "address3": "", "city": "Hamburg", "zip_code": "22525", "country": "DE", "state": "HH", "display_address": ["Volksparkstr. 62", "22525 Hamburg", "Germany"]}, "phone": "", "display_phone": "", "distance": 4297.119236139026}, {"id": "_SeEoymbbIQPXSjviHH8ug", "alias": "barthmann-hamburg-2", "name": "Barthmann", "image_url": "https://s3-media4.fl.yelpcdn.com/bphoto/Igpa83CmHWZV3l8f8_aZeg/o.jpg", "is_closed": false, "url": "https://www.yelp.com/biz/barthmann-hamburg-2?adjust_creative=hBJOknVQJ58S5goQyjmwRw&utm_campaign=yelp_api_v3&utm_medium=api_v3_business_search&utm_source=hBJOknVQJ58S5goQyjmwRw", "review_count": 1, "categories": [{"alias": "german", "title": "German"}], "rating": 5.0, "coordinates": {"latitude": 53.608907, "longitude": 9.903056}, "transactions": [], "price": "\u20ac\u20ac", "location": {"address1": "Pinneberger Chaussee 5 - 7", "address2": null, "address3": null, "city": "Hamburg", "zip_code": "22523", "country": "DE", "state": "HH", "display_address": ["Pinneberger Chaussee 5 - 7", "22523 Hamburg", "Germany"]}, "phone": "+494024181792", "display_phone": "+49 40 24181792", "distance": 2208.62983677476}, {"id": "2juVai0viKhrfhx8uL6UZA", "alias": "eidelstedter-treff-hamburg", "name": "Eidelstedter Treff", "image_url": "https://s3-media3.fl.yelpcdn.com/bphoto/f2Iaqz4q7c79-84-Os59UA/o.jpg", "is_closed": false, "url": "https://www.yelp.com/biz/eidelstedter-treff-hamburg?adjust_creative=hBJOknVQJ58S5goQyjmwRw&utm_campaign=yelp_api_v3&utm_medium=api_v3_business_search&utm_source=hBJOknVQJ58S5goQyjmwRw", "review_count": 1, "categories": [{"alias": "german", "title": "German"}, {"alias": "divebars", "title": "Dive Bars"}], "rating": 3.0, "coordinates": {"latitude": 53.6088, "longitude": 9.90519}, "transactions": [], "location": {"address1": "Holsteiner Chaussee  2", "address2": null, "address3": null, "city": "Hamburg", "zip_code": "22523", "country": "DE", "state": "HH", "display_address": ["Holsteiner Chaussee  2", "22523 Hamburg", "Germany"]}, "phone": "+494055449315", "display_phone": "+49 40 55449315", "distance": 2197.7904230431222}, {"id": "gVjVhpxnMK3Yla0w7WbprQ", "alias": "mcdonalds-hamburg-21", "name": "McDonald's", "image_url": "https://s3-media2.fl.yelpcdn.com/bphoto/lylUl8342dsGRGrWUlDi0Q/o.jpg", "is_closed": false, "url": "https://www.yelp.com/biz/mcdonalds-hamburg-21?adjust_creative=hBJOknVQJ58S5goQyjmwRw&utm_campaign=yelp_api_v3&utm_medium=api_v3_business_search&utm_source=hBJOknVQJ58S5goQyjmwRw", "review_count": 10, "categories": [{"alias": "hotdogs", "title": "Fast Food"}, {"alias": "burgers", "title": "Burgers"}], "rating": 2.0, "coordinates": {"latitude": 53.6181, "longitude": 9.90529}, "transactions": [], "price": "\u20ac\u20ac\u20ac", "location": {"address1": "H\u00f6rgensweg 10", "address2": null, "address3": null, "city": "Hamburg", "zip_code": "22523", "country": "DE", "state": "HH", "display_address": ["H\u00f6rgensweg 10", "22523 Hamburg", "Germany"]}, "phone": "+4940579204", "display_phone": "+49 40 579204", "distance": 1178.2577623083705}, {"id": "bLto2fbxF4Mn0J2e6NrElQ", "alias": "quick-imbiss-hamburg", "name": "Quick Imbiss", "image_url": "https://s3-media2.fl.yelpcdn.com/bphoto/7TxqeoxsfUqukMAh0iLiQg/o.jpg", "is_closed": false, "url": "https://www.yelp.com/biz/quick-imbiss-hamburg?adjust_creative=hBJOknVQJ58S5goQyjmwRw&utm_campaign=yelp_api_v3&utm_medium=api_v3_business_search&utm_source=hBJOknVQJ58S5goQyjmwRw", "review_count": 6, "categories": [{"alias": "foodstands", "title": "Food Stands"}], "rating": 3.0, "coordinates": {"latitude": 53.608484, "longitude": 9.903575}, "transactions": [], "price": "\u20ac\u20ac", "location": {"address1": "Eidelstedter Platz 9", "address2": "", "address3": "", "city": "Hamburg", "zip_code": "22523", "country": "DE", "state": "HH", "display_address": ["Eidelstedter Platz 9", "22523 Hamburg", "Germany"]}, "phone": "+49405705455", "display_phone": "+49 40 5705455", "distance": 2248.627446303054}, {"id": "0bRB2Dk1RuO_XYvigryCrw", "alias": "hamaliya-pizzaservice-hamburg", "name": "Hamaliya Pizzaservice", "image_url": "", "is_closed": false, "url": "https://www.yelp.com/biz/hamaliya-pizzaservice-hamburg?adjust_creative=hBJOknVQJ58S5goQyjmwRw&utm_campaign=yelp_api_v3&utm_medium=api_v3_business_search&utm_source=hBJOknVQJ58S5goQyjmwRw", "review_count": 3, "categories": [{"alias": "pizza", "title": "Pizza"}], "rating": 3.5, "coordinates": {"latitude": 53.63412, "longitude": 9.91615}, "transactions": [], "location": {"address1": "Riekbornweg 2", "address2": "", "address3": "", "city": "Hamburg", "zip_code": "22457", "country": "DE", "state": "HH", "display_address": ["Riekbornweg 2", "22457 Hamburg", "Germany"]}, "phone": "+494055505719", "display_phone": "+49 40 55505719", "distance": 775.3065272165198}, {"id": "ASfFYjn9SicRSavc1zrZPg", "alias": "hornbach-grill-hamburg", "name": "Hornbach Grill", "image_url": "https://s3-media4.fl.yelpcdn.com/bphoto/PkkwVnRH-lIuZSDEbDfuBQ/o.jpg", "is_closed": false, "url": "https://www.yelp.com/biz/hornbach-grill-hamburg?adjust_creative=hBJOknVQJ58S5goQyjmwRw&utm_campaign=yelp_api_v3&utm_medium=api_v3_business_search&utm_source=hBJOknVQJ58S5goQyjmwRw", "review_count": 1, "categories": [{"alias": "german", "title": "German"}], "rating": 4.0, "coordinates": {"latitude": 53.6145788717666, "longitude": 9.90395821630955}, "transactions": [], "location": {"address1": "Hornbach Baumarkt", "address2": "Hosteiner Chausee 49", "address3": "", "city": "Hamburg", "zip_code": "22523", "country": "DE", "state": "HH", "display_address": ["Hornbach Baumarkt", "Hosteiner Chausee 49", "22523 Hamburg", "Germany"]}, "phone": "+494025330180", "display_phone": "+49 40 25330180", "distance": 1579.4836976821732}, {"id": "10fRSTflbNh88ABddIesbA", "alias": "imbissbude-hamburg", "name": "Imbissbude", "image_url": "", "is_closed": false, "url": "https://www.yelp.com/biz/imbissbude-hamburg?adjust_creative=hBJOknVQJ58S5goQyjmwRw&utm_campaign=yelp_api_v3&utm_medium=api_v3_business_search&utm_source=hBJOknVQJ58S5goQyjmwRw", "review_count": 4, "categories": [{"alias": "hotdogs", "title": "Fast Food"}], "rating": 4.0, "coordinates": {"latitude": 53.5957, "longitude": 9.90559}, "transactions": [], "price": "\u20ac\u20ac", "location": {"address1": "Schnackenburgsallee 202", "address2": "", "address3": null, "city": "Hamburg", "zip_code": "22525", "country": "DE", "state": "HH", "display_address": ["Schnackenburgsallee 202", "22525 Hamburg", "Germany"]}, "phone": "", "display_phone": "", "distance": 3645.1907490179497}, {"id": "WqzFrz31DdIPcPmpvZiIBA", "alias": "himalaya-asia-hamburg", "name": "Himalaya Asia", "image_url": "https://s3-media3.fl.yelpcdn.com/bphoto/XonJKCD1BJqwUZdAo1SPGQ/o.jpg", "is_closed": false, "url": "https://www.yelp.com/biz/himalaya-asia-hamburg?adjust_creative=hBJOknVQJ58S5goQyjmwRw&utm_campaign=yelp_api_v3&utm_medium=api_v3_business_search&utm_source=hBJOknVQJ58S5goQyjmwRw", "review_count": 12, "categories": [{"alias": "panasian", "title": "Pan Asian"}], "rating": 2.5, "coordinates": {"latitude": 53.5999922, "longitude": 9.9160509}, "transactions": [], "price": "\u20ac", "location": {"address1": "Kieler Str. 565", "address2": null, "address3": null, "city": "Hamburg", "zip_code": "22525", "country": "DE", "state": "HH", "display_address": ["Kieler Str. 565", "22525 Hamburg", "Germany"]}, "phone": "+494057129484", "display_phone": "+49 40 57129484", "distance": 3188.45793620214}, {"id": "PRNi969cArwqNCpob8xw1w", "alias": "eisc\u00e1fe-kind-ellerbek-2", "name": "Eisc\u00e1fe Kind", "image_url": "", "is_closed": false, "url": "https://www.yelp.com/biz/eisc%C3%A1fe-kind-ellerbek-2?adjust_creative=hBJOknVQJ58S5goQyjmwRw&utm_campaign=yelp_api_v3&utm_medium=api_v3_business_search&utm_source=hBJOknVQJ58S5goQyjmwRw", "review_count": 4, "categories": [{"alias": "icecream", "title": "Ice Cream & Frozen Yogurt"}, {"alias": "restaurants", "title": "Restaurants"}], "rating": 4.0, "coordinates": {"latitude": 53.63892, "longitude": 9.89387}, "transactions": [], "price": "\u20ac", "location": {"address1": "Pinneberger Str. 157", "address2": null, "address3": null, "city": "Ellerbek", "zip_code": "25474", "country": "DE", "state": "SH", "display_address": ["Pinneberger Str. 157", "25474 Ellerbek", "Germany"]}, "phone": "+49410136239", "display_phone": "+49 4101 36239", "distance": 1558.4718311366898}, {"id": "JID6EE8t-BxYpzBxCzxuIw", "alias": "mensa-stellingen-informatikum-hamburg-2", "name": "Mensa Stellingen - Informatikum", "image_url": "https://s3-media2.fl.yelpcdn.com/bphoto/bw38lwJPDxOe0db-MQSVmQ/o.jpg", "is_closed": false, "url": "https://www.yelp.com/biz/mensa-stellingen-informatikum-hamburg-2?adjust_creative=hBJOknVQJ58S5goQyjmwRw&utm_campaign=yelp_api_v3&utm_medium=api_v3_business_search&utm_source=hBJOknVQJ58S5goQyjmwRw", "review_count": 6, "categories": [{"alias": "cafeteria", "title": "Cafeteria"}, {"alias": "food", "title": "Food"}], "rating": 1.5, "coordinates": {"latitude": 53.59935, "longitude": 9.93191}, "transactions": [], "price": "\u20ac", "location": {"address1": "Vogt-K\u00f6lln-Str. 30", "address2": "", "address3": "", "city": "Hamburg", "zip_code": "22527", "country": "DE", "state": "HH", "display_address": ["Vogt-K\u00f6lln-Str. 30", "22527 Hamburg", "Germany"]}, "phone": "", "display_phone": "", "distance": 3552.9661815184354}, {"id": "fTQyh9kb6XbWJEygoWC5LQ", "alias": "bennys-hamburg-2", "name": "Bennys", "image_url": "", "is_closed": false, "url": "https://www.yelp.com/biz/bennys-hamburg-2?adjust_creative=hBJOknVQJ58S5goQyjmwRw&utm_campaign=yelp_api_v3&utm_medium=api_v3_business_search&utm_source=hBJOknVQJ58S5goQyjmwRw", "review_count": 3, "categories": [{"alias": "restaurants", "title": "Restaurants"}], "rating": 1.0, "coordinates": {"latitude": 53.6528179, "longitude": 9.9200587}, "transactions": [], "location": {"address1": "K\u00f6nigskinderweg 200", "address2": "", "address3": null, "city": "Hamburg", "zip_code": "22457", "country": "DE", "state": "HH", "display_address": ["K\u00f6nigskinderweg 200", "22457 Hamburg", "Germany"]}, "phone": "+49405598790", "display_phone": "+49 40 5598790", "distance": 2803.1805893401793}, {"id": "gLx6Vz_0Tht17upmrAVfbQ", "alias": "xxl-croque-hamburg", "name": "XXL Croque", "image_url": "https://s3-media1.fl.yelpcdn.com/bphoto/WI-0DoqAWwvayUaAfxUu6Q/o.jpg", "is_closed": false, "url": "https://www.yelp.com/biz/xxl-croque-hamburg?adjust_creative=hBJOknVQJ58S5goQyjmwRw&utm_campaign=yelp_api_v3&utm_medium=api_v3_business_search&utm_source=hBJOknVQJ58S5goQyjmwRw", "review_count": 2, "categories": [{"alias": "sandwiches", "title": "Sandwiches"}], "rating": 2.0, "coordinates": {"latitude": 53.63412, "longitude": 9.91615}, "transactions": [], "price": "\u20ac\u20ac", "location": {"address1": "Riekbornweg 2", "address2": "", "address3": "", "city": "Hamburg", "zip_code": "22457", "country": "DE", "state": "HH", "display_address": ["Riekbornweg 2", "22457 Hamburg", "Germany"]}, "phone": "+494055505880", "display_phone": "+49 40 55505880", "distance": 775.3065272165198}, {"id": "SeodQIjOcsrznD7rwIB-Jw", "alias": "the-big-balmy-hamburg-2", "name": "The Big Balmy", "image_url": "https://s3-media2.fl.yelpcdn.com/bphoto/KWUCQvGDONs_iDxlKXzgvQ/o.jpg", "is_closed": false, "url": "https://www.yelp.com/biz/the-big-balmy-hamburg-2?adjust_creative=hBJOknVQJ58S5goQyjmwRw&utm_campaign=yelp_api_v3&utm_medium=api_v3_business_search&utm_source=hBJOknVQJ58S5goQyjmwRw", "review_count": 27, "categories": [{"alias": "burgers", "title": "Burgers"}, {"alias": "foodtrucks", "title": "Food Trucks"}], "rating": 3.5, "coordinates": {"latitude": 53.537786, "longitude": 10.028218}, "transactions": [], "price": "\u20ac\u20ac", "location": {"address1": "", "address2": null, "address3": null, "city": "Hamburg", "zip_code": "", "country": "DE", "state": "HH", "display_address": ["Hamburg", "Germany"]}, "phone": "+494069278630", "display_phone": "+49 40 69278630", "distance": 12765.474446171906}, {"id": "3if8K7vRrE-cIFnKiGg_nw", "alias": "cafe-bistro-alfi-b\u00f6nningstedt", "name": "Cafe Bistro Alfi", "image_url": "", "is_closed": false, "url": "https://www.yelp.com/biz/cafe-bistro-alfi-b%C3%B6nningstedt?adjust_creative=hBJOknVQJ58S5goQyjmwRw&utm_campaign=yelp_api_v3&utm_medium=api_v3_business_search&utm_source=hBJOknVQJ58S5goQyjmwRw", "review_count": 1, "categories": [{"alias": "cafes", "title": "Cafes"}, {"alias": "coffee", "title": "Coffee & Tea"}, {"alias": "german", "title": "German"}], "rating": 2.0, "coordinates": {"latitude": 53.6704, "longitude": 9.90271}, "transactions": [], "location": {"address1": "Kieler Str. 185", "address2": null, "address3": null, "city": "B\u00f6nningstedt", "zip_code": "25474", "country": "DE", "state": "SH", "display_address": ["Kieler Str. 185", "25474 B\u00f6nningstedt", "Germany"]}, "phone": "+494055693700", "display_phone": "+49 40 55693700", "distance": 4691.384951242049}, {"id": "c5OhJe-RTfgKH_EH94L6Cg", "alias": "city-pizza-und-d\u00f6ner-b\u00f6nningstedt", "name": "City Pizza und D\u00f6ner", "image_url": "https://s3-media1.fl.yelpcdn.com/bphoto/d68sANcKEDDblPHVwU4vRQ/o.jpg", "is_closed": false, "url": "https://www.yelp.com/biz/city-pizza-und-d%C3%B6ner-b%C3%B6nningstedt?adjust_creative=hBJOknVQJ58S5goQyjmwRw&utm_campaign=yelp_api_v3&utm_medium=api_v3_business_search&utm_source=hBJOknVQJ58S5goQyjmwRw", "review_count": 4, "categories": [{"alias": "hotdogs", "title": "Fast Food"}, {"alias": "kebab", "title": "Kebab"}], "rating": 3.0, "coordinates": {"latitude": 53.6653, "longitude": 9.90443}, "transactions": [], "price": "\u20ac", "location": {"address1": "Kielerstr. 109", "address2": null, "address3": null, "city": "B\u00f6nningstedt", "zip_code": "25474", "country": "DE", "state": "SH", "display_address": ["Kielerstr. 109", "25474 B\u00f6nningstedt", "Germany"]}, "phone": "+494097074666", "display_phone": "+49 40 97074666", "distance": 4116.502444658714}, {"id": "veek4OBOkG19MI_y4-kfcA", "alias": "r\u00fcya-restaurant-hamburg", "name": "R\u00fcya Restaurant", "image_url": "https://s3-media2.fl.yelpcdn.com/bphoto/-aQqEQcApNp2mRDDbL6l4Q/o.jpg", "is_closed": false, "url": "https://www.yelp.com/biz/r%C3%BCya-restaurant-hamburg?adjust_creative=hBJOknVQJ58S5goQyjmwRw&utm_campaign=yelp_api_v3&utm_medium=api_v3_business_search&utm_source=hBJOknVQJ58S5goQyjmwRw", "review_count": 3, "categories": [{"alias": "kebab", "title": "Kebab"}], "rating": 3.5, "coordinates": {"latitude": 53.6076, "longitude": 9.9025}, "transactions": [], "price": "\u20ac", "location": {"address1": "Ekenknick 5", "address2": null, "address3": null, "city": "Hamburg", "zip_code": "22523", "country": "DE", "state": "HH", "display_address": ["Ekenknick 5", "22523 Hamburg", "Germany"]}, "phone": "+4917657445616", "display_phone": "+49 176 57445616", "distance": 2358.312760324186}, {"id": "0bx1_ob51GPbGzPvBv8oTQ", "alias": "yak-asia-imbiss-hamburg-2", "name": "Yak Asia Imbiss", "image_url": "https://s3-media3.fl.yelpcdn.com/bphoto/kGHf_jVgeEF_MnvruU3yyA/o.jpg", "is_closed": false, "url": "https://www.yelp.com/biz/yak-asia-imbiss-hamburg-2?adjust_creative=hBJOknVQJ58S5goQyjmwRw&utm_campaign=yelp_api_v3&utm_medium=api_v3_business_search&utm_source=hBJOknVQJ58S5goQyjmwRw", "review_count": 18, "categories": [{"alias": "foodstands", "title": "Food Stands"}, {"alias": "panasian", "title": "Pan Asian"}], "rating": 2.5, "coordinates": {"latitude": 53.6067, "longitude": 9.90184}, "transactions": [], "price": "\u20ac\u20ac", "location": {"address1": "Elbgaustr. 28", "address2": null, "address3": null, "city": "Hamburg", "zip_code": "22523", "country": "DE", "state": "HH", "display_address": ["Elbgaustr. 28", "22523 Hamburg", "Germany"]}, "phone": "+494053206206", "display_phone": "+49 40 53206206", "distance": 2465.0713734639407}, {"id": "wtbypjRP06EwKojZkx5sIg", "alias": "db-servicestore-hamburg", "name": "DB ServiceStore", "image_url": "https://s3-media1.fl.yelpcdn.com/bphoto/uXDF4g6rdmekfiSHtI7yDQ/o.jpg", "is_closed": false, "url": "https://www.yelp.com/biz/db-servicestore-hamburg?adjust_creative=hBJOknVQJ58S5goQyjmwRw&utm_campaign=yelp_api_v3&utm_medium=api_v3_business_search&utm_source=hBJOknVQJ58S5goQyjmwRw", "review_count": 2, "categories": [{"alias": "foodstands", "title": "Food Stands"}, {"alias": "mags", "title": "Newspapers & Magazines"}, {"alias": "tobaccoshops", "title": "Tobacco Shops"}], "rating": 2.5, "coordinates": {"latitude": 53.5899929971211, "longitude": 9.9184100961593}, "transactions": [], "price": "\u20ac", "location": {"address1": "Volksparkstr. 79", "address2": "", "address3": "", "city": "Hamburg", "zip_code": "22525", "country": "DE", "state": "HH", "display_address": ["Volksparkstr. 79", "22525 Hamburg", "Germany"]}, "phone": "", "display_phone": "", "distance": 4311.161459037363}, {"id": "fNU2DnLXg9_k6bqsu0YoHQ", "alias": "nur-hier-hamburg-24", "name": "Nur Hier", "image_url": "https://s3-media1.fl.yelpcdn.com/bphoto/Q4m3Cxa12ZrcBvKBmoRR7w/o.jpg", "is_closed": false, "url": "https://www.yelp.com/biz/nur-hier-hamburg-24?adjust_creative=hBJOknVQJ58S5goQyjmwRw&utm_campaign=yelp_api_v3&utm_medium=api_v3_business_search&utm_source=hBJOknVQJ58S5goQyjmwRw", "review_count": 2, "categories": [{"alias": "bakeries", "title": "Bakeries"}, {"alias": "cafes", "title": "Cafes"}], "rating": 2.5, "coordinates": {"latitude": 53.608535, "longitude": 9.903662}, "transactions": [], "price": "\u20ac\u20ac\u20ac", "location": {"address1": "Eidelstedter Platz 9", "address2": "", "address3": null, "city": "Hamburg", "zip_code": "22523", "country": "DE", "state": "HH", "display_address": ["Eidelstedter Platz 9", "22523 Hamburg", "Germany"]}, "phone": "+49405707754", "display_phone": "+49 40 5707754", "distance": 2242.0529930205007}]