[{"id": "ELSgUz9uk7GUAYf3oVKVEA", "alias": "mediterran-rellingen", "name": "Mediterran", "image_url": "https://s3-media1.fl.yelpcdn.com/bphoto/RYt9YEiUqHKGRyWdOsvbKg/o.jpg", "is_closed": false, "url": "https://www.yelp.com/biz/mediterran-rellingen?adjust_creative=hBJOknVQJ58S5goQyjmwRw&utm_campaign=yelp_api_v3&utm_medium=api_v3_business_search&utm_source=hBJOknVQJ58S5goQyjmwRw", "review_count": 10, "categories": [{"alias": "mediterranean", "title": "Mediterranean"}, {"alias": "greek", "title": "Greek"}], "rating": 4.5, "coordinates": {"latitude": 53.6413, "longitude": 9.8707}, "transactions": [], "location": {"address1": "Kellerstr. 136", "address2": null, "address3": null, "city": "Rellingen", "zip_code": "25462", "country": "DE", "state": "SH", "display_address": ["Kellerstr. 136", "25462 Rellingen", "Germany"]}, "phone": "+4941017739088", "display_phone": "+49 4101 7739088", "distance": 1534.493514413168}, {"id": "yxaa2M8ksV3oE3e77J_cWg", "alias": "marathon-grill-rellingen", "name": "Marathon Grill", "image_url": "https://s3-media1.fl.yelpcdn.com/bphoto/MeQPAIYOymxpCLDbQWj7aw/o.jpg", "is_closed": false, "url": "https://www.yelp.com/biz/marathon-grill-rellingen?adjust_creative=hBJOknVQJ58S5goQyjmwRw&utm_campaign=yelp_api_v3&utm_medium=api_v3_business_search&utm_source=hBJOknVQJ58S5goQyjmwRw", "review_count": 13, "categories": [{"alias": "greek", "title": "Greek"}], "rating": 4.5, "coordinates": {"latitude": 53.6436, "longitude": 9.84214}, "transactions": [], "price": "\u20ac", "location": {"address1": "Hallstr. 55", "address2": null, "address3": null, "city": "Rellingen", "zip_code": "25462", "country": "DE", "state": "SH", "display_address": ["Hallstr. 55", "25462 Rellingen", "Germany"]}, "phone": "+49410125161", "display_phone": "+49 4101 25161", "distance": 595.7450188691352}, {"id": "_LUuKmNFXN6A4i20goDGUg", "alias": "ph\u00f6nix-halstenbek", "name": "Ph\u00f6nix", "image_url": "https://s3-media3.fl.yelpcdn.com/bphoto/SoEnGeDnEFAM1hsMO929BA/o.jpg", "is_closed": false, "url": "https://www.yelp.com/biz/ph%C3%B6nix-halstenbek?adjust_creative=hBJOknVQJ58S5goQyjmwRw&utm_campaign=yelp_api_v3&utm_medium=api_v3_business_search&utm_source=hBJOknVQJ58S5goQyjmwRw", "review_count": 28, "categories": [{"alias": "mongolian", "title": "Mongolian"}, {"alias": "chinese", "title": "Chinese"}], "rating": 4.0, "coordinates": {"latitude": 53.62784, "longitude": 9.86763}, "transactions": [], "price": "\u20ac\u20ac", "location": {"address1": "Seemoorweg 3", "address2": "", "address3": "", "city": "Halstenbek", "zip_code": "25469", "country": "DE", "state": "SH", "display_address": ["Seemoorweg 3", "25469 Halstenbek", "Germany"]}, "phone": "+4941017877168", "display_phone": "+49 4101 7877168", "distance": 2453.267872578228}, {"id": "rWwyt3dC3zZH-Nn0Ya3RNg", "alias": "dolce-vita-halstenbek-2", "name": "Dolce Vita", "image_url": "https://s3-media4.fl.yelpcdn.com/bphoto/A8H7s-BGOt6jWpDOAGNVhw/o.jpg", "is_closed": false, "url": "https://www.yelp.com/biz/dolce-vita-halstenbek-2?adjust_creative=hBJOknVQJ58S5goQyjmwRw&utm_campaign=yelp_api_v3&utm_medium=api_v3_business_search&utm_source=hBJOknVQJ58S5goQyjmwRw", "review_count": 30, "categories": [{"alias": "italian", "title": "Italian"}], "rating": 3.5, "coordinates": {"latitude": 53.6364, "longitude": 9.8408008}, "transactions": [], "price": "\u20ac\u20ac", "location": {"address1": "Poststr. 3", "address2": null, "address3": null, "city": "Halstenbek", "zip_code": "25469", "country": "DE", "state": "SH", "display_address": ["Poststr. 3", "25469 Halstenbek", "Germany"]}, "phone": "+494101585885", "display_phone": "+49 4101 585885", "distance": 1288.8225663087694}, {"id": "2O87KG8xApQAqTJ-x7PpvQ", "alias": "trattoria-rocco-halstenbek", "name": "Trattoria Rocco", "image_url": "https://s3-media2.fl.yelpcdn.com/bphoto/4NKMDZUKn_Zi3B8V4eTRCQ/o.jpg", "is_closed": false, "url": "https://www.yelp.com/biz/trattoria-rocco-halstenbek?adjust_creative=hBJOknVQJ58S5goQyjmwRw&utm_campaign=yelp_api_v3&utm_medium=api_v3_business_search&utm_source=hBJOknVQJ58S5goQyjmwRw", "review_count": 20, "categories": [{"alias": "italian", "title": "Italian"}], "rating": 3.5, "coordinates": {"latitude": 53.629337, "longitude": 9.835356}, "transactions": [], "price": "\u20ac\u20ac", "location": {"address1": "Dockenhudener Chaussee 20", "address2": null, "address3": null, "city": "Halstenbek", "zip_code": "25469", "country": "DE", "state": "SH", "display_address": ["Dockenhudener Chaussee 20", "25469 Halstenbek", "Germany"]}, "phone": "+4941017877107", "display_phone": "+49 4101 7877107", "distance": 2152.1963661923123}, {"id": "7a-Dyfunt-X_SJPspqXehw", "alias": "heinsens-ellerbek-2", "name": "Heinsen's", "image_url": "https://s3-media2.fl.yelpcdn.com/bphoto/0ZIo5c_ankkPINDYYFSOSg/o.jpg", "is_closed": false, "url": "https://www.yelp.com/biz/heinsens-ellerbek-2?adjust_creative=hBJOknVQJ58S5goQyjmwRw&utm_campaign=yelp_api_v3&utm_medium=api_v3_business_search&utm_source=hBJOknVQJ58S5goQyjmwRw", "review_count": 45, "categories": [{"alias": "beergarden", "title": "Beer Garden"}, {"alias": "german", "title": "German"}, {"alias": "cafes", "title": "Cafes"}], "rating": 4.0, "coordinates": {"latitude": 53.6574301268169, "longitude": 9.86982769226836}, "transactions": [], "price": "\u20ac\u20ac\u20ac", "location": {"address1": "Hauptstr. 1", "address2": "", "address3": null, "city": "Ellerbek", "zip_code": "25474", "country": "DE", "state": "SH", "display_address": ["Hauptstr. 1", "25474 Ellerbek", "Germany"]}, "phone": "+49410137770", "display_phone": "+49 4101 37770", "distance": 1791.8641445988753}, {"id": "tS5rfu-toQDYXhnNU5JBIg", "alias": "tennistreff-halstenbek", "name": "Tennistreff", "image_url": "", "is_closed": false, "url": "https://www.yelp.com/biz/tennistreff-halstenbek?adjust_creative=hBJOknVQJ58S5goQyjmwRw&utm_campaign=yelp_api_v3&utm_medium=api_v3_business_search&utm_source=hBJOknVQJ58S5goQyjmwRw", "review_count": 3, "categories": [{"alias": "tennis", "title": "Tennis"}, {"alias": "german", "title": "German"}], "rating": 4.5, "coordinates": {"latitude": 53.6398343, "longitude": 9.8347151}, "transactions": [], "location": {"address1": "Thesdorfer Weg 20", "address2": null, "address3": null, "city": "Halstenbek", "zip_code": "25469", "country": "DE", "state": "SH", "display_address": ["Thesdorfer Weg 20", "25469 Halstenbek", "Germany"]}, "phone": "+494101859424", "display_phone": "+49 4101 859424", "distance": 1239.2545942415838}, {"id": "OsNFTVOq1FNvKoX0qP4VYw", "alias": "asia-corner-rellingen", "name": "Asia Corner", "image_url": "https://s3-media2.fl.yelpcdn.com/bphoto/7M2nrMQMp_02G2extUal9w/o.jpg", "is_closed": false, "url": "https://www.yelp.com/biz/asia-corner-rellingen?adjust_creative=hBJOknVQJ58S5goQyjmwRw&utm_campaign=yelp_api_v3&utm_medium=api_v3_business_search&utm_source=hBJOknVQJ58S5goQyjmwRw", "review_count": 11, "categories": [{"alias": "panasian", "title": "Pan Asian"}], "rating": 4.5, "coordinates": {"latitude": 53.6313, "longitude": 9.87175}, "transactions": [], "price": "\u20ac", "location": {"address1": "Heidestr. 94-96", "address2": null, "address3": null, "city": "Rellingen", "zip_code": "25463", "country": "DE", "state": "SH", "display_address": ["Heidestr. 94-96", "25463 Rellingen", "Germany"]}, "phone": "+49410135615", "display_phone": "+49 4101 35615", "distance": 2270.6957778250458}, {"id": "22HCDMkVa8NXpWyMxyFuZQ", "alias": "rhodos-rellingen", "name": "Rhodos", "image_url": "https://s3-media2.fl.yelpcdn.com/bphoto/MnfZdj9yyseT-3KD1yygeA/o.jpg", "is_closed": false, "url": "https://www.yelp.com/biz/rhodos-rellingen?adjust_creative=hBJOknVQJ58S5goQyjmwRw&utm_campaign=yelp_api_v3&utm_medium=api_v3_business_search&utm_source=hBJOknVQJ58S5goQyjmwRw", "review_count": 12, "categories": [{"alias": "greek", "title": "Greek"}], "rating": 4.5, "coordinates": {"latitude": 53.6517, "longitude": 9.82941}, "transactions": [], "price": "\u20ac\u20ac", "location": {"address1": "Hauptstr. 22", "address2": null, "address3": null, "city": "Rellingen", "zip_code": "25462", "country": "DE", "state": "SH", "display_address": ["Hauptstr. 22", "25462 Rellingen", "Germany"]}, "phone": "+494101200993", "display_phone": "+49 4101 200993", "distance": 1422.680598107149}, {"id": "iJLghYawgo2EVAF9ZTUKcQ", "alias": "namaste-ji-halstenbek", "name": "Namaste Ji", "image_url": "https://s3-media2.fl.yelpcdn.com/bphoto/ARJwFj3mBrHNAAGpiMufvA/o.jpg", "is_closed": false, "url": "https://www.yelp.com/biz/namaste-ji-halstenbek?adjust_creative=hBJOknVQJ58S5goQyjmwRw&utm_campaign=yelp_api_v3&utm_medium=api_v3_business_search&utm_source=hBJOknVQJ58S5goQyjmwRw", "review_count": 21, "categories": [{"alias": "indpak", "title": "Indian"}], "rating": 4.0, "coordinates": {"latitude": 53.6114863, "longitude": 9.8675694}, "transactions": [], "price": "\u20ac\u20ac", "location": {"address1": "Heideweg 164", "address2": "", "address3": "", "city": "Halstenbek", "zip_code": "25469", "country": "DE", "state": "SH", "display_address": ["Heideweg 164", "25469 Halstenbek", "Germany"]}, "phone": "+4941018303486", "display_phone": "+49 4101 8303486", "distance": 4120.397939558064}, {"id": "X4QtPnSx5RXOGMUh1vDWeQ", "alias": "vereinsgastronomie-halstenbeker-sch\u00fctzenverein-halstenbek", "name": "Vereinsgastronomie Halstenbeker Sch\u00fctzenverein", "image_url": "https://s3-media2.fl.yelpcdn.com/bphoto/nNw69WMsIKt-oBa5KRHcug/o.jpg", "is_closed": false, "url": "https://www.yelp.com/biz/vereinsgastronomie-halstenbeker-sch%C3%BCtzenverein-halstenbek?adjust_creative=hBJOknVQJ58S5goQyjmwRw&utm_campaign=yelp_api_v3&utm_medium=api_v3_business_search&utm_source=hBJOknVQJ58S5goQyjmwRw", "review_count": 1, "categories": [{"alias": "gastropubs", "title": "Gastropubs"}], "rating": 4.0, "coordinates": {"latitude": 53.6289, "longitude": 9.84521}, "transactions": [], "location": {"address1": "Am Sch\u00fctzenplatz 24", "address2": null, "address3": null, "city": "Halstenbek", "zip_code": "25469", "country": "DE", "state": "SH", "display_address": ["Am Sch\u00fctzenplatz 24", "25469 Halstenbek", "Germany"]}, "phone": "+49410145979", "display_phone": "+49 4101 45979", "distance": 2011.3220525009162}, {"id": "zE311HJ18xCM1JuAPmiGJA", "alias": "restaurant-muckefuck-rellingen-2", "name": "Restaurant Muckefuck", "image_url": "https://s3-media2.fl.yelpcdn.com/bphoto/-orUgjKqSDR9_oUT0fHnAA/o.jpg", "is_closed": false, "url": "https://www.yelp.com/biz/restaurant-muckefuck-rellingen-2?adjust_creative=hBJOknVQJ58S5goQyjmwRw&utm_campaign=yelp_api_v3&utm_medium=api_v3_business_search&utm_source=hBJOknVQJ58S5goQyjmwRw", "review_count": 3, "categories": [{"alias": "hotdogs", "title": "Fast Food"}], "rating": 3.0, "coordinates": {"latitude": 53.650658, "longitude": 9.8296056}, "transactions": [], "price": "\u20ac", "location": {"address1": "Hauptstr. 39A", "address2": null, "address3": null, "city": "Rellingen", "zip_code": "25462", "country": "DE", "state": "SH", "display_address": ["Hauptstr. 39A", "25462 Rellingen", "Germany"]}, "phone": "+494101512610", "display_phone": "+49 4101 512610", "distance": 1370.4001349209786}, {"id": "yYGvyXSdjnBnY1OBjgYbRw", "alias": "taverna-nico-rellingen", "name": "Taverna Nico", "image_url": "https://s3-media1.fl.yelpcdn.com/bphoto/vnk9X84eX3HemCHw3yweAQ/o.jpg", "is_closed": false, "url": "https://www.yelp.com/biz/taverna-nico-rellingen?adjust_creative=hBJOknVQJ58S5goQyjmwRw&utm_campaign=yelp_api_v3&utm_medium=api_v3_business_search&utm_source=hBJOknVQJ58S5goQyjmwRw", "review_count": 11, "categories": [{"alias": "greek", "title": "Greek"}], "rating": 4.5, "coordinates": {"latitude": 53.6498891758998, "longitude": 9.8296494748688}, "transactions": [], "price": "\u20ac\u20ac", "location": {"address1": "Hauptstr. 37", "address2": null, "address3": null, "city": "Rellingen", "zip_code": "25462", "country": "DE", "state": "SH", "display_address": ["Hauptstr. 37", "25462 Rellingen", "Germany"]}, "phone": "+494101379384", "display_phone": "+49 4101 379384", "distance": 1343.443917941905}, {"id": "nvmgtLOXRu4Zfywx9SGyzQ", "alias": "china-restaurant-mr-hoh-schenefeld", "name": "China-Restaurant Mr. Hoh", "image_url": "https://s3-media4.fl.yelpcdn.com/bphoto/m0LVWBB8M4JP42aSBhQBKQ/o.jpg", "is_closed": false, "url": "https://www.yelp.com/biz/china-restaurant-mr-hoh-schenefeld?adjust_creative=hBJOknVQJ58S5goQyjmwRw&utm_campaign=yelp_api_v3&utm_medium=api_v3_business_search&utm_source=hBJOknVQJ58S5goQyjmwRw", "review_count": 31, "categories": [{"alias": "chinese", "title": "Chinese"}], "rating": 4.0, "coordinates": {"latitude": 53.60809, "longitude": 9.84038}, "transactions": [], "price": "\u20ac\u20ac", "location": {"address1": "Lornsenstr. 122", "address2": null, "address3": null, "city": "Schenefeld", "zip_code": "22869", "country": "DE", "state": "SH", "display_address": ["Lornsenstr. 122", "22869 Schenefeld", "Germany"]}, "phone": "+49408304990", "display_phone": "+49 40 8304990", "distance": 4340.082460278705}, {"id": "Qh8YXrTyRM8zojh7t5c1uw", "alias": "rio-grande-rellingen-3", "name": "Rio Grande", "image_url": "https://s3-media1.fl.yelpcdn.com/bphoto/C1xnkQ_fAHt8IXR6WjzcAg/o.jpg", "is_closed": false, "url": "https://www.yelp.com/biz/rio-grande-rellingen-3?adjust_creative=hBJOknVQJ58S5goQyjmwRw&utm_campaign=yelp_api_v3&utm_medium=api_v3_business_search&utm_source=hBJOknVQJ58S5goQyjmwRw", "review_count": 38, "categories": [{"alias": "steak", "title": "Steakhouses"}, {"alias": "argentine", "title": "Argentine"}], "rating": 3.5, "coordinates": {"latitude": 53.6500371, "longitude": 9.8307958}, "transactions": [], "price": "\u20ac\u20ac", "location": {"address1": "Schmiedestr. 2", "address2": null, "address3": null, "city": "Rellingen", "zip_code": "25462", "country": "DE", "state": "SH", "display_address": ["Schmiedestr. 2", "25462 Rellingen", "Germany"]}, "phone": "+494101599855", "display_phone": "+49 4101 599855", "distance": 1275.028767634057}, {"id": "KrElkJZG4z9o-Zq_6dld1w", "alias": "dritte-etage-halstenbek", "name": "dritte Etage", "image_url": "", "is_closed": false, "url": "https://www.yelp.com/biz/dritte-etage-halstenbek?adjust_creative=hBJOknVQJ58S5goQyjmwRw&utm_campaign=yelp_api_v3&utm_medium=api_v3_business_search&utm_source=hBJOknVQJ58S5goQyjmwRw", "review_count": 2, "categories": [{"alias": "restaurants", "title": "Restaurants"}], "rating": 4.5, "coordinates": {"latitude": 53.6311, "longitude": 9.86055}, "transactions": [], "price": "\u20ac\u20ac", "location": {"address1": "G\u00e4rtnerstr.  133-137", "address2": "Event GmbH", "address3": null, "city": "Halstenbek", "zip_code": "25469", "country": "DE", "state": "SH", "display_address": ["G\u00e4rtnerstr.  133-137", "Event GmbH", "25469 Halstenbek", "Germany"]}, "phone": "", "display_phone": "", "distance": 1897.1521371958338}, {"id": "GUrTjGeZPsfnFj9vYxZEAg", "alias": "taverna-naxos-hamburg", "name": "Taverna Naxos", "image_url": "https://s3-media4.fl.yelpcdn.com/bphoto/PdNpB6WagloBKcXoPFGL9w/o.jpg", "is_closed": false, "url": "https://www.yelp.com/biz/taverna-naxos-hamburg?adjust_creative=hBJOknVQJ58S5goQyjmwRw&utm_campaign=yelp_api_v3&utm_medium=api_v3_business_search&utm_source=hBJOknVQJ58S5goQyjmwRw", "review_count": 11, "categories": [{"alias": "greek", "title": "Greek"}], "rating": 4.0, "coordinates": {"latitude": 53.6064, "longitude": 9.8741}, "transactions": [], "price": "\u20ac\u20ac", "location": {"address1": "Franzosenkoppel 104", "address2": null, "address3": null, "city": "Hamburg", "zip_code": "22547", "country": "DE", "state": "HH", "display_address": ["Franzosenkoppel 104", "22547 Hamburg", "Germany"]}, "phone": "+494042903695", "display_phone": "+49 40 42903695", "distance": 4781.325264734941}, {"id": "YakI5g9afEFa3blR_bmDkw", "alias": "akropolis-grillimbi\u00df-halstenbek", "name": "Akropolis Grillimbi\u00df", "image_url": "https://s3-media3.fl.yelpcdn.com/bphoto/MWSRdjtPM1kiIFMvwhUFkw/o.jpg", "is_closed": false, "url": "https://www.yelp.com/biz/akropolis-grillimbi%C3%9F-halstenbek?adjust_creative=hBJOknVQJ58S5goQyjmwRw&utm_campaign=yelp_api_v3&utm_medium=api_v3_business_search&utm_source=hBJOknVQJ58S5goQyjmwRw", "review_count": 11, "categories": [{"alias": "greek", "title": "Greek"}], "rating": 4.5, "coordinates": {"latitude": 53.6152941320271, "longitude": 9.86543951083672}, "transactions": [], "price": "\u20ac", "location": {"address1": "Siebentunnelweg 2", "address2": "", "address3": "", "city": "Halstenbek", "zip_code": "25469", "country": "DE", "state": "SH", "display_address": ["Siebentunnelweg 2", "25469 Halstenbek", "Germany"]}, "phone": "+49410143135", "display_phone": "+49 4101 43135", "distance": 3662.2430500727255}, {"id": "u3ub5f0MS4qY67Q8XF9ZoA", "alias": "sodemanns-fisch-kutter-nr-1-hamburg", "name": "Sodemann's Fisch-Kutter Nr. 1", "image_url": "https://s3-media3.fl.yelpcdn.com/bphoto/BlysP6fVPaL0eEjKvEbByw/o.jpg", "is_closed": false, "url": "https://www.yelp.com/biz/sodemanns-fisch-kutter-nr-1-hamburg?adjust_creative=hBJOknVQJ58S5goQyjmwRw&utm_campaign=yelp_api_v3&utm_medium=api_v3_business_search&utm_source=hBJOknVQJ58S5goQyjmwRw", "review_count": 3, "categories": [{"alias": "foodtrucks", "title": "Food Trucks"}, {"alias": "fischbroetchen", "title": "Fischbroetchen"}], "rating": 5.0, "coordinates": {"latitude": 53.5537490844727, "longitude": 9.99182987213135}, "transactions": [], "price": "\u20ac\u20ac", "location": {"address1": "", "address2": null, "address3": "", "city": "Hamburg", "zip_code": "", "country": "DE", "state": "HH", "display_address": ["Hamburg", "Germany"]}, "phone": "+491773606663", "display_phone": "+49 177 3606663", "distance": 14283.218063926151}, {"id": "dC83gjyunrb-I_uULUkUCg", "alias": "g\u00f6rner-grillstation-halstenbek", "name": "G\u00f6rner Grillstation", "image_url": "https://s3-media2.fl.yelpcdn.com/bphoto/EJAlMYY4qje24I42XnruFQ/o.jpg", "is_closed": false, "url": "https://www.yelp.com/biz/g%C3%B6rner-grillstation-halstenbek?adjust_creative=hBJOknVQJ58S5goQyjmwRw&utm_campaign=yelp_api_v3&utm_medium=api_v3_business_search&utm_source=hBJOknVQJ58S5goQyjmwRw", "review_count": 10, "categories": [{"alias": "bbq", "title": "Barbeque"}, {"alias": "german", "title": "German"}], "rating": 3.0, "coordinates": {"latitude": 53.6364, "longitude": 9.8401}, "transactions": [], "price": "\u20ac\u20ac", "location": {"address1": "Hauptstr. 49", "address2": null, "address3": null, "city": "Halstenbek", "zip_code": "25469", "country": "DE", "state": "SH", "display_address": ["Hauptstr. 49", "25469 Halstenbek", "Germany"]}, "phone": "+49410141229", "display_phone": "+49 4101 41229", "distance": 1309.7145137137854}, {"id": "mLLCOcBXKw8HJRXXQO61Fw", "alias": "kebab-box-rellingen", "name": "Kebab Box", "image_url": "", "is_closed": false, "url": "https://www.yelp.com/biz/kebab-box-rellingen?adjust_creative=hBJOknVQJ58S5goQyjmwRw&utm_campaign=yelp_api_v3&utm_medium=api_v3_business_search&utm_source=hBJOknVQJ58S5goQyjmwRw", "review_count": 2, "categories": [{"alias": "hotdogs", "title": "Fast Food"}], "rating": 3.5, "coordinates": {"latitude": 53.6529, "longitude": 9.82928}, "transactions": [], "location": {"address1": "Hauptstr. 61", "address2": null, "address3": null, "city": "Rellingen", "zip_code": "25462", "country": "DE", "state": "SH", "display_address": ["Hauptstr. 61", "25462 Rellingen", "Germany"]}, "phone": "+494101511243", "display_phone": "+49 4101 511243", "distance": 1486.3377340065229}, {"id": "X14N6ogl5lNNLuFsvBzlzw", "alias": "restaurant-dubrovnik-schenefeld", "name": "Restaurant Dubrovnik", "image_url": "", "is_closed": false, "url": "https://www.yelp.com/biz/restaurant-dubrovnik-schenefeld?adjust_creative=hBJOknVQJ58S5goQyjmwRw&utm_campaign=yelp_api_v3&utm_medium=api_v3_business_search&utm_source=hBJOknVQJ58S5goQyjmwRw", "review_count": 9, "categories": [{"alias": "international", "title": "International"}, {"alias": "german", "title": "German"}, {"alias": "serbocroatian", "title": "Serbo Croatian"}], "rating": 4.5, "coordinates": {"latitude": 53.6081, "longitude": 9.83994}, "transactions": [], "price": "\u20ac\u20ac", "location": {"address1": "Lornsenstr. 111", "address2": null, "address3": null, "city": "Schenefeld", "zip_code": "22869", "country": "DE", "state": "SH", "display_address": ["Lornsenstr. 111", "22869 Schenefeld", "Germany"]}, "phone": "+49408391568", "display_phone": "+49 40 8391568", "distance": 4350.060381234054}, {"id": "V1GEbdrOLwCb5wgg4wPorg", "alias": "trattoria-da-matteo-rellingen", "name": "Trattoria da Matteo", "image_url": "", "is_closed": false, "url": "https://www.yelp.com/biz/trattoria-da-matteo-rellingen?adjust_creative=hBJOknVQJ58S5goQyjmwRw&utm_campaign=yelp_api_v3&utm_medium=api_v3_business_search&utm_source=hBJOknVQJ58S5goQyjmwRw", "review_count": 1, "categories": [{"alias": "italian", "title": "Italian"}], "rating": 3.0, "coordinates": {"latitude": 53.6517941, "longitude": 9.8302747}, "transactions": [], "location": {"address1": "Hauptstr. 62", "address2": "", "address3": null, "city": "Rellingen", "zip_code": "25462", "country": "DE", "state": "SH", "display_address": ["Hauptstr. 62", "25462 Rellingen", "Germany"]}, "phone": "+4941018536259", "display_phone": "+49 4101 8536259", "distance": 1374.347153267177}, {"id": "WYBXd9zggh3jHXshwOeMIQ", "alias": "rellinger-hof-rellingen-2", "name": "Rellinger Hof", "image_url": "https://s3-media4.fl.yelpcdn.com/bphoto/OIi6QFl9S4aIPEVO64s24Q/o.jpg", "is_closed": false, "url": "https://www.yelp.com/biz/rellinger-hof-rellingen-2?adjust_creative=hBJOknVQJ58S5goQyjmwRw&utm_campaign=yelp_api_v3&utm_medium=api_v3_business_search&utm_source=hBJOknVQJ58S5goQyjmwRw", "review_count": 1, "categories": [{"alias": "german", "title": "German"}], "rating": 2.0, "coordinates": {"latitude": 53.6492, "longitude": 9.82989}, "transactions": [], "location": {"address1": "Hauptstr. 31", "address2": null, "address3": null, "city": "Rellingen", "zip_code": "25462", "country": "DE", "state": "SH", "display_address": ["Hauptstr. 31", "25462 Rellingen", "Germany"]}, "phone": "+4941012130", "display_phone": "+49 4101 2130", "distance": 1310.5289155072755}, {"id": "eu0dPfxU2SX-4ZZX6GQPzw", "alias": "taverna-pegasus-schenefeld", "name": "Taverna Pegasus", "image_url": "https://s3-media2.fl.yelpcdn.com/bphoto/aHZEhsqs1fhiec1WMgNgFg/o.jpg", "is_closed": false, "url": "https://www.yelp.com/biz/taverna-pegasus-schenefeld?adjust_creative=hBJOknVQJ58S5goQyjmwRw&utm_campaign=yelp_api_v3&utm_medium=api_v3_business_search&utm_source=hBJOknVQJ58S5goQyjmwRw", "review_count": 18, "categories": [{"alias": "greek", "title": "Greek"}], "rating": 3.5, "coordinates": {"latitude": 53.608651, "longitude": 9.841422}, "transactions": [], "price": "\u20ac\u20ac", "location": {"address1": "Friedrich-Ebert-Allee 3 - 11", "address2": null, "address3": null, "city": "Schenefeld", "zip_code": "22869", "country": "DE", "state": "SH", "display_address": ["Friedrich-Ebert-Allee 3 - 11", "22869 Schenefeld", "Germany"]}, "phone": "+494084053737", "display_phone": "+49 40 84053737", "distance": 4276.364176943262}, {"id": "f4gHB43M98wZRy8taNLe7w", "alias": "gastst\u00e4tte-attika-halstenbek", "name": "Gastst\u00e4tte Attika", "image_url": "https://s3-media2.fl.yelpcdn.com/bphoto/99ktmmYxdCq_4weDu9ar7A/o.jpg", "is_closed": false, "url": "https://www.yelp.com/biz/gastst%C3%A4tte-attika-halstenbek?adjust_creative=hBJOknVQJ58S5goQyjmwRw&utm_campaign=yelp_api_v3&utm_medium=api_v3_business_search&utm_source=hBJOknVQJ58S5goQyjmwRw", "review_count": 18, "categories": [{"alias": "greek", "title": "Greek"}], "rating": 3.5, "coordinates": {"latitude": 53.63794, "longitude": 9.8424}, "transactions": [], "price": "\u20ac\u20ac", "location": {"address1": "B\u00e4ckerstr. 3", "address2": null, "address3": null, "city": "Halstenbek", "zip_code": "25469", "country": "DE", "state": "SH", "display_address": ["B\u00e4ckerstr. 3", "25469 Halstenbek", "Germany"]}, "phone": "+49410141331", "display_phone": "+49 4101 41331", "distance": 1075.6372141356064}, {"id": "z8o46mNLRqgkqKbuXQQ-Jg", "alias": "smileys-hamburg-3", "name": "Smiley's", "image_url": "https://s3-media4.fl.yelpcdn.com/bphoto/j5tSs1sC0Fdgv9AAe_Ko1A/o.jpg", "is_closed": false, "url": "https://www.yelp.com/biz/smileys-hamburg-3?adjust_creative=hBJOknVQJ58S5goQyjmwRw&utm_campaign=yelp_api_v3&utm_medium=api_v3_business_search&utm_source=hBJOknVQJ58S5goQyjmwRw", "review_count": 11, "categories": [{"alias": "pizza", "title": "Pizza"}], "rating": 2.5, "coordinates": {"latitude": 53.6054, "longitude": 9.87443}, "transactions": [], "price": "\u20ac\u20ac\u20ac\u20ac", "location": {"address1": "Franzosenkoppel 111", "address2": null, "address3": null, "city": "Hamburg", "zip_code": "22547", "country": "DE", "state": "HH", "display_address": ["Franzosenkoppel 111", "22547 Hamburg", "Germany"]}, "phone": "+49408400200", "display_phone": "+49 40 8400200", "distance": 4893.310943208544}, {"id": "Je39ss_26Nzi5FlwY9-i-A", "alias": "eiscaf\u00e9-arleccino-rellingen", "name": "Eiscaf\u00e9 Arleccino", "image_url": "", "is_closed": false, "url": "https://www.yelp.com/biz/eiscaf%C3%A9-arleccino-rellingen?adjust_creative=hBJOknVQJ58S5goQyjmwRw&utm_campaign=yelp_api_v3&utm_medium=api_v3_business_search&utm_source=hBJOknVQJ58S5goQyjmwRw", "review_count": 3, "categories": [{"alias": "restaurants", "title": "Restaurants"}], "rating": 2.5, "coordinates": {"latitude": 53.6535, "longitude": 9.82924}, "transactions": [], "price": "\u20ac\u20ac", "location": {"address1": "Hauptstr. 80", "address2": null, "address3": null, "city": "Rellingen", "zip_code": "25462", "country": "DE", "state": "SH", "display_address": ["Hauptstr. 80", "25462 Rellingen", "Germany"]}, "phone": "+494101200595", "display_phone": "+49 4101 200595", "distance": 1520.1396081494488}, {"id": "APvIA_7ssxgC0atmQEFMcg", "alias": "burgerkultour-food-truck-hamburg-2", "name": "BurgerKultour Food Truck", "image_url": "https://s3-media4.fl.yelpcdn.com/bphoto/KoAuwalMnlAO8139MmdYBQ/o.jpg", "is_closed": false, "url": "https://www.yelp.com/biz/burgerkultour-food-truck-hamburg-2?adjust_creative=hBJOknVQJ58S5goQyjmwRw&utm_campaign=yelp_api_v3&utm_medium=api_v3_business_search&utm_source=hBJOknVQJ58S5goQyjmwRw", "review_count": 3, "categories": [{"alias": "foodtrucks", "title": "Food Trucks"}, {"alias": "burgers", "title": "Burgers"}], "rating": 4.5, "coordinates": {"latitude": 53.57154, "longitude": 9.95575}, "transactions": [], "price": "\u20ac\u20ac", "location": {"address1": "", "address2": "", "address3": "", "city": "Hamburg", "zip_code": "20259", "country": "DE", "state": "HH", "display_address": ["20259 Hamburg", "Germany"]}, "phone": "+4917626055122", "display_phone": "+49 176 26055122", "distance": 10999.077002547734}, {"id": "n_Yio-a9VzssOtDbgezpRA", "alias": "subu-sushi-burrito-hamburg-3", "name": "Subu Sushi Burrito", "image_url": "https://s3-media3.fl.yelpcdn.com/bphoto/x2oh5mzvkzvrXjswE_MjXQ/o.jpg", "is_closed": false, "url": "https://www.yelp.com/biz/subu-sushi-burrito-hamburg-3?adjust_creative=hBJOknVQJ58S5goQyjmwRw&utm_campaign=yelp_api_v3&utm_medium=api_v3_business_search&utm_source=hBJOknVQJ58S5goQyjmwRw", "review_count": 3, "categories": [{"alias": "foodtrucks", "title": "Food Trucks"}, {"alias": "sushi", "title": "Sushi Bars"}], "rating": 5.0, "coordinates": {"latitude": 53.5526819869811, "longitude": 10.0010880455375}, "transactions": [], "price": "\u20ac", "location": {"address1": "", "address2": "", "address3": "", "city": "Hamburg", "zip_code": "", "country": "DE", "state": "HH", "display_address": ["Hamburg", "Germany"]}, "phone": "+4917670834316", "display_phone": "+49 176 70834316", "distance": 14484.586337421426}, {"id": "1scOX0fMV4UdmrlHxMlR0g", "alias": "baris-grill-haus-schenefeld", "name": "Baris Grill-Haus", "image_url": "", "is_closed": false, "url": "https://www.yelp.com/biz/baris-grill-haus-schenefeld?adjust_creative=hBJOknVQJ58S5goQyjmwRw&utm_campaign=yelp_api_v3&utm_medium=api_v3_business_search&utm_source=hBJOknVQJ58S5goQyjmwRw", "review_count": 2, "categories": [{"alias": "food", "title": "Food"}, {"alias": "mideastern", "title": "Middle Eastern"}, {"alias": "kebab", "title": "Kebab"}], "rating": 4.5, "coordinates": {"latitude": 53.6086, "longitude": 9.83903}, "transactions": [], "price": "\u20ac", "location": {"address1": "Lindenallee 8", "address2": null, "address3": null, "city": "Schenefeld", "zip_code": "22869", "country": "DE", "state": "SH", "display_address": ["Lindenallee 8", "22869 Schenefeld", "Germany"]}, "phone": "+494083929389", "display_phone": "+49 40 83929389", "distance": 4304.131723363714}, {"id": "2jzIbZsfzca5drJYk7JwbQ", "alias": "the-bao-bros-hamburg-2", "name": "The Bao Bros", "image_url": "https://s3-media1.fl.yelpcdn.com/bphoto/vUMA4Y35x3UwZk6fMJfZRw/o.jpg", "is_closed": false, "url": "https://www.yelp.com/biz/the-bao-bros-hamburg-2?adjust_creative=hBJOknVQJ58S5goQyjmwRw&utm_campaign=yelp_api_v3&utm_medium=api_v3_business_search&utm_source=hBJOknVQJ58S5goQyjmwRw", "review_count": 2, "categories": [{"alias": "foodtrucks", "title": "Food Trucks"}, {"alias": "burgers", "title": "Burgers"}], "rating": 4.0, "coordinates": {"latitude": 53.5533409118652, "longitude": 9.99246978759766}, "transactions": [], "price": "\u20ac", "location": {"address1": "", "address2": "", "address3": "", "city": "Hamburg", "zip_code": "", "country": "DE", "state": "HH", "display_address": ["Hamburg", "Germany"]}, "phone": "+4915140700076", "display_phone": "+49 1514 0700076", "distance": 14283.213664392404}, {"id": "MQuYGwEojN7fFPMXRePLhw", "alias": "friedrichs-am-reiterhof-schenefeld", "name": "Friedrichs - Am Reiterhof", "image_url": "", "is_closed": false, "url": "https://www.yelp.com/biz/friedrichs-am-reiterhof-schenefeld?adjust_creative=hBJOknVQJ58S5goQyjmwRw&utm_campaign=yelp_api_v3&utm_medium=api_v3_business_search&utm_source=hBJOknVQJ58S5goQyjmwRw", "review_count": 6, "categories": [{"alias": "german", "title": "German"}], "rating": 2.5, "coordinates": {"latitude": 53.6084, "longitude": 9.82596}, "transactions": [], "location": {"address1": "Lindenallee 98", "address2": null, "address3": null, "city": "Schenefeld", "zip_code": "22869", "country": "DE", "state": "SH", "display_address": ["Lindenallee 98", "22869 Schenefeld", "Germany"]}, "phone": "+494018981959", "display_phone": "+49 40 18981959", "distance": 4542.299556416491}, {"id": "px1s7sLcSCiYRSNvfNsx3w", "alias": "arnoldis-schenefeld", "name": "Arnoldis", "image_url": "https://s3-media3.fl.yelpcdn.com/bphoto/eF8tzsDXhVgqJjkYLy0mKQ/o.jpg", "is_closed": false, "url": "https://www.yelp.com/biz/arnoldis-schenefeld?adjust_creative=hBJOknVQJ58S5goQyjmwRw&utm_campaign=yelp_api_v3&utm_medium=api_v3_business_search&utm_source=hBJOknVQJ58S5goQyjmwRw", "review_count": 18, "categories": [{"alias": "sandwiches", "title": "Sandwiches"}, {"alias": "salad", "title": "Salad"}, {"alias": "pizza", "title": "Pizza"}], "rating": 4.0, "coordinates": {"latitude": 53.6081246, "longitude": 9.8400738}, "transactions": [], "price": "\u20ac\u20ac", "location": {"address1": "Lornsenstr. 111 d", "address2": null, "address3": null, "city": "Schenefeld", "zip_code": "22869", "country": "DE", "state": "SH", "display_address": ["Lornsenstr. 111 d", "22869 Schenefeld", "Germany"]}, "phone": "+494084058550", "display_phone": "+49 40 84058550", "distance": 4346.10059661873}, {"id": "cGIKCcR0wZszz8VldC2-7g", "alias": "currywerk-hamburg", "name": "curryWERK", "image_url": "https://s3-media4.fl.yelpcdn.com/bphoto/j_ZPQAB6JrAru84VDuLiRA/o.jpg", "is_closed": false, "url": "https://www.yelp.com/biz/currywerk-hamburg?adjust_creative=hBJOknVQJ58S5goQyjmwRw&utm_campaign=yelp_api_v3&utm_medium=api_v3_business_search&utm_source=hBJOknVQJ58S5goQyjmwRw", "review_count": 1, "categories": [{"alias": "foodtrucks", "title": "Food Trucks"}, {"alias": "currysausage", "title": "Curry Sausage"}], "rating": 4.0, "coordinates": {"latitude": 53.5498886108398, "longitude": 9.94732189178467}, "transactions": [], "price": "\u20ac\u20ac", "location": {"address1": "", "address2": "", "address3": "", "city": "Hamburg", "zip_code": "22767", "country": "DE", "state": "HH", "display_address": ["22767 Hamburg", "Germany"]}, "phone": "+4917632443433", "display_phone": "+49 176 32443433", "distance": 12507.574338803614}, {"id": "SeodQIjOcsrznD7rwIB-Jw", "alias": "the-big-balmy-hamburg-2", "name": "The Big Balmy", "image_url": "https://s3-media2.fl.yelpcdn.com/bphoto/KWUCQvGDONs_iDxlKXzgvQ/o.jpg", "is_closed": false, "url": "https://www.yelp.com/biz/the-big-balmy-hamburg-2?adjust_creative=hBJOknVQJ58S5goQyjmwRw&utm_campaign=yelp_api_v3&utm_medium=api_v3_business_search&utm_source=hBJOknVQJ58S5goQyjmwRw", "review_count": 27, "categories": [{"alias": "burgers", "title": "Burgers"}, {"alias": "foodtrucks", "title": "Food Trucks"}], "rating": 3.5, "coordinates": {"latitude": 53.537786, "longitude": 10.028218}, "transactions": [], "price": "\u20ac\u20ac", "location": {"address1": "", "address2": null, "address3": null, "city": "Hamburg", "zip_code": "", "country": "DE", "state": "HH", "display_address": ["Hamburg", "Germany"]}, "phone": "+494069278630", "display_phone": "+49 40 69278630", "distance": 16921.049442736003}]