[{"id": "QX604mZjK4BAUJhAXs5DYQ", "alias": "rio-grande-ahrensburg", "name": "Rio Grande", "image_url": "https://s3-media4.fl.yelpcdn.com/bphoto/MvZCsqphOAfbxVRfodhgFQ/o.jpg", "is_closed": false, "url": "https://www.yelp.com/biz/rio-grande-ahrensburg?adjust_creative=hBJOknVQJ58S5goQyjmwRw&utm_campaign=yelp_api_v3&utm_medium=api_v3_business_search&utm_source=hBJOknVQJ58S5goQyjmwRw", "review_count": 34, "categories": [{"alias": "steak", "title": "Steakhouses"}, {"alias": "international", "title": "International"}], "rating": 4.0, "coordinates": {"latitude": 53.65755, "longitude": 10.2114999}, "transactions": [], "price": "\u20ac\u20ac", "location": {"address1": "Hamburger Str. 190", "address2": "", "address3": "", "city": "Ahrensburg", "zip_code": "22926", "country": "DE", "state": "SH", "display_address": ["Hamburger Str. 190", "22926 Ahrensburg", "Germany"]}, "phone": "+494102465328", "display_phone": "+49 4102 465328", "distance": 1553.3396683788228}, {"id": "DPHWqly-0ZTcQ_ZKXgnoJA", "alias": "christos-stapelfelder-hof-stapelfeld", "name": "Christos Stapelfelder Hof", "image_url": "https://s3-media2.fl.yelpcdn.com/bphoto/7AqDlyB7Vz__T7qEoF9oZg/o.jpg", "is_closed": false, "url": "https://www.yelp.com/biz/christos-stapelfelder-hof-stapelfeld?adjust_creative=hBJOknVQJ58S5goQyjmwRw&utm_campaign=yelp_api_v3&utm_medium=api_v3_business_search&utm_source=hBJOknVQJ58S5goQyjmwRw", "review_count": 7, "categories": [{"alias": "greek", "title": "Greek"}], "rating": 4.5, "coordinates": {"latitude": 53.60503, "longitude": 10.22139}, "transactions": [], "price": "\u20ac\u20ac", "location": {"address1": "Reinbeker Str. 1", "address2": "", "address3": null, "city": "Stapelfeld", "zip_code": "22145", "country": "DE", "state": "SH", "display_address": ["Reinbeker Str. 1", "22145 Stapelfeld", "Germany"]}, "phone": "+49407355350", "display_phone": "+49 40 7355350", "distance": 4338.5626690378585}, {"id": "ePi8qRlsS0yIj-vusvLwyw", "alias": "zum-griechen-ahrensburg", "name": "Zum Griechen", "image_url": "https://s3-media2.fl.yelpcdn.com/bphoto/0iWuNO5GwTcWCmPWnTvOSA/o.jpg", "is_closed": false, "url": "https://www.yelp.com/biz/zum-griechen-ahrensburg?adjust_creative=hBJOknVQJ58S5goQyjmwRw&utm_campaign=yelp_api_v3&utm_medium=api_v3_business_search&utm_source=hBJOknVQJ58S5goQyjmwRw", "review_count": 35, "categories": [{"alias": "greek", "title": "Greek"}], "rating": 4.0, "coordinates": {"latitude": 53.665075, "longitude": 10.220437}, "transactions": [], "price": "\u20ac\u20ac", "location": {"address1": "Ohlendamm 1", "address2": "", "address3": "", "city": "Ahrensburg", "zip_code": "22926", "country": "DE", "state": "SH", "display_address": ["Ohlendamm 1", "22926 Ahrensburg", "Germany"]}, "phone": "+4941021404", "display_phone": "+49 4102 1404", "distance": 2434.409539506174}, {"id": "9BoptuqV6JKp816-hL0rxw", "alias": "kroatien-restaurant-mediterraneo-ahrensburg-4", "name": "Kroatien Restaurant Mediterraneo", "image_url": "https://s3-media1.fl.yelpcdn.com/bphoto/0l52YvMZbBZdSOww8rigOA/o.jpg", "is_closed": false, "url": "https://www.yelp.com/biz/kroatien-restaurant-mediterraneo-ahrensburg-4?adjust_creative=hBJOknVQJ58S5goQyjmwRw&utm_campaign=yelp_api_v3&utm_medium=api_v3_business_search&utm_source=hBJOknVQJ58S5goQyjmwRw", "review_count": 9, "categories": [{"alias": "bowling", "title": "Bowling"}, {"alias": "mediterranean", "title": "Mediterranean"}], "rating": 4.0, "coordinates": {"latitude": 53.6803176227514, "longitude": 10.2351419627666}, "transactions": [], "price": "\u20ac\u20ac\u20ac", "location": {"address1": "Reeshoop 48", "address2": null, "address3": "", "city": "Ahrensburg", "zip_code": "22926", "country": "DE", "state": "SH", "display_address": ["Reeshoop 48", "22926 Ahrensburg", "Germany"]}, "phone": "+4941024737184", "display_phone": "+49 4102 4737184", "distance": 4340.156273051379}, {"id": "4GkNM5czryu7wrLurCrnSA", "alias": "restaurant-strehl-ahrensburg-2", "name": "Restaurant Strehl", "image_url": "https://s3-media2.fl.yelpcdn.com/bphoto/opzw9-5TgccXmJ2ddbJA_A/o.jpg", "is_closed": false, "url": "https://www.yelp.com/biz/restaurant-strehl-ahrensburg-2?adjust_creative=hBJOknVQJ58S5goQyjmwRw&utm_campaign=yelp_api_v3&utm_medium=api_v3_business_search&utm_source=hBJOknVQJ58S5goQyjmwRw", "review_count": 13, "categories": [{"alias": "catering", "title": "Caterers"}, {"alias": "german", "title": "German"}], "rating": 3.5, "coordinates": {"latitude": 53.6804, "longitude": 10.235}, "transactions": [], "price": "\u20ac\u20ac", "location": {"address1": "Reeshoop 50", "address2": null, "address3": null, "city": "Ahrensburg", "zip_code": "22926", "country": "DE", "state": "SH", "display_address": ["Reeshoop 50", "22926 Ahrensburg", "Germany"]}, "phone": "+49410241261", "display_phone": "+49 4102 41261", "distance": 4345.532000932896}, {"id": "xLilx-iD9unLXTOgGRa5_w", "alias": "bierstein-ahrensburg", "name": "Bierstein", "image_url": "https://s3-media1.fl.yelpcdn.com/bphoto/-05QMTtkK7DmqfDGdwFlhg/o.jpg", "is_closed": false, "url": "https://www.yelp.com/biz/bierstein-ahrensburg?adjust_creative=hBJOknVQJ58S5goQyjmwRw&utm_campaign=yelp_api_v3&utm_medium=api_v3_business_search&utm_source=hBJOknVQJ58S5goQyjmwRw", "review_count": 1, "categories": [{"alias": "restaurants", "title": "Restaurants"}, {"alias": "musicvenues", "title": "Music Venues"}], "rating": 4.0, "coordinates": {"latitude": 53.6408144411685, "longitude": 10.2171700833979}, "transactions": [], "location": {"address1": "D\u00e4nenweg 10", "address2": "", "address3": null, "city": "Ahrensburg", "zip_code": "22926", "country": "DE", "state": "SH", "display_address": ["D\u00e4nenweg 10", "22926 Ahrensburg", "Germany"]}, "phone": "+491712447081", "display_phone": "+49 171 2447081", "distance": 450.5923178479769}, {"id": "xSZO3bg3cyXdB3cEAblykQ", "alias": "la-casetta-ahrensburg", "name": "La Casetta", "image_url": "https://s3-media4.fl.yelpcdn.com/bphoto/LljVDlDhmpcwSsRQeyK1XA/o.jpg", "is_closed": false, "url": "https://www.yelp.com/biz/la-casetta-ahrensburg?adjust_creative=hBJOknVQJ58S5goQyjmwRw&utm_campaign=yelp_api_v3&utm_medium=api_v3_business_search&utm_source=hBJOknVQJ58S5goQyjmwRw", "review_count": 4, "categories": [{"alias": "italian", "title": "Italian"}, {"alias": "venues", "title": "Venues & Event Spaces"}], "rating": 4.0, "coordinates": {"latitude": 53.6670299, "longitude": 10.22166}, "transactions": [], "location": {"address1": "Rantzaustr. 136", "address2": null, "address3": "", "city": "Ahrensburg", "zip_code": "22926", "country": "DE", "state": "SH", "display_address": ["Rantzaustr. 136", "22926 Ahrensburg", "Germany"]}, "phone": "+494102205573", "display_phone": "+49 4102 205573", "distance": 2665.212517548291}, {"id": "3emsLbdBi4PHclK8kuFhPg", "alias": "schlemmerst\u00fcbchen-ahrensburg", "name": "Schlemmerst\u00fcbchen", "image_url": "", "is_closed": false, "url": "https://www.yelp.com/biz/schlemmerst%C3%BCbchen-ahrensburg?adjust_creative=hBJOknVQJ58S5goQyjmwRw&utm_campaign=yelp_api_v3&utm_medium=api_v3_business_search&utm_source=hBJOknVQJ58S5goQyjmwRw", "review_count": 1, "categories": [{"alias": "foodstands", "title": "Food Stands"}], "rating": 5.0, "coordinates": {"latitude": 53.673183095609, "longitude": 10.2374708429222}, "transactions": [], "location": {"address1": "Rathausstr. 24", "address2": "", "address3": null, "city": "Ahrensburg", "zip_code": "22926", "country": "DE", "state": "SH", "display_address": ["Rathausstr. 24", "22926 Ahrensburg", "Germany"]}, "phone": "+4941021330", "display_phone": "+49 4102 1330", "distance": 3672.8211628345553}, {"id": "3dssdPg3sB9-IpZOh8s-1w", "alias": "hofladen-gut-wulfsdorf-ahrensburg", "name": "Hofladen Gut Wulfsdorf", "image_url": "https://s3-media1.fl.yelpcdn.com/bphoto/M0qSCGfCGzuo-VdDwiOtQg/o.jpg", "is_closed": false, "url": "https://www.yelp.com/biz/hofladen-gut-wulfsdorf-ahrensburg?adjust_creative=hBJOknVQJ58S5goQyjmwRw&utm_campaign=yelp_api_v3&utm_medium=api_v3_business_search&utm_source=hBJOknVQJ58S5goQyjmwRw", "review_count": 6, "categories": [{"alias": "organic_stores", "title": "Organic Stores"}, {"alias": "convenience", "title": "Convenience Stores"}, {"alias": "cafes", "title": "Cafes"}], "rating": 4.5, "coordinates": {"latitude": 53.6592, "longitude": 10.1925}, "transactions": [], "price": "\u20ac\u20ac", "location": {"address1": "Bornkampsweg 39", "address2": null, "address3": null, "city": "Ahrensburg", "zip_code": "22926", "country": "DE", "state": "SH", "display_address": ["Bornkampsweg 39", "22926 Ahrensburg", "Germany"]}, "phone": "+49410232587", "display_phone": "+49 4102 32587", "distance": 2164.7286750664416}, {"id": "PJxZY6nLTG2hjTUhOFhT4g", "alias": "hotel-zur-windm\u00fchle-stapelfeld", "name": "Hotel zur Windm\u00fchle", "image_url": "https://s3-media3.fl.yelpcdn.com/bphoto/Cp80W94PL_uPIIdnSFVWzw/o.jpg", "is_closed": false, "url": "https://www.yelp.com/biz/hotel-zur-windm%C3%BChle-stapelfeld?adjust_creative=hBJOknVQJ58S5goQyjmwRw&utm_campaign=yelp_api_v3&utm_medium=api_v3_business_search&utm_source=hBJOknVQJ58S5goQyjmwRw", "review_count": 9, "categories": [{"alias": "hotels", "title": "Hotels"}, {"alias": "german", "title": "German"}], "rating": 2.5, "coordinates": {"latitude": 53.6086, "longitude": 10.2359}, "transactions": [], "price": "\u20ac\u20ac", "location": {"address1": "Hauptstr. 99", "address2": null, "address3": null, "city": "Stapelfeld", "zip_code": "22145", "country": "DE", "state": "SH", "display_address": ["Hauptstr. 99", "22145 Stapelfeld", "Germany"]}, "phone": "+4940675070", "display_phone": "+49 40 675070", "distance": 4199.688547886331}, {"id": "iSws6BKVmcB6RTBkKY-XVw", "alias": "restaurant-pomodoro-ahrensburg", "name": "Restaurant pomodoro", "image_url": "", "is_closed": false, "url": "https://www.yelp.com/biz/restaurant-pomodoro-ahrensburg?adjust_creative=hBJOknVQJ58S5goQyjmwRw&utm_campaign=yelp_api_v3&utm_medium=api_v3_business_search&utm_source=hBJOknVQJ58S5goQyjmwRw", "review_count": 1, "categories": [{"alias": "italian", "title": "Italian"}], "rating": 5.0, "coordinates": {"latitude": 53.64002, "longitude": 10.21673}, "transactions": [], "location": {"address1": "D\u00e4nenweg 2", "address2": "", "address3": null, "city": "Ahrensburg", "zip_code": "22926", "country": "DE", "state": "SH", "display_address": ["D\u00e4nenweg 2", "22926 Ahrensburg", "Germany"]}, "phone": "+4941029830677", "display_phone": "+49 4102 9830677", "distance": 522.8330917381784}, {"id": "TAfqyQEh0__QlLylFOTaGw", "alias": "china-restaurant-yau-ahrensburg", "name": "China-Restaurant Yau", "image_url": "", "is_closed": false, "url": "https://www.yelp.com/biz/china-restaurant-yau-ahrensburg?adjust_creative=hBJOknVQJ58S5goQyjmwRw&utm_campaign=yelp_api_v3&utm_medium=api_v3_business_search&utm_source=hBJOknVQJ58S5goQyjmwRw", "review_count": 1, "categories": [{"alias": "chinese", "title": "Chinese"}], "rating": 5.0, "coordinates": {"latitude": 53.6757, "longitude": 10.2369}, "transactions": [], "price": "\u20ac\u20ac\u20ac", "location": {"address1": "Reeshoop 16", "address2": null, "address3": null, "city": "Ahrensburg", "zip_code": "22926", "country": "DE", "state": "SH", "display_address": ["Reeshoop 16", "22926 Ahrensburg", "Germany"]}, "phone": "+49410257800", "display_phone": "+49 4102 57800", "distance": 3908.97683907456}, {"id": "a9zTyvX_iY0jygqIfuqjJg", "alias": "d\u00f6ner-harem-ahrensburg", "name": "D\u00f6ner-Harem", "image_url": "https://s3-media2.fl.yelpcdn.com/bphoto/KoLUsGxu4aVGI6jLjjB02A/o.jpg", "is_closed": false, "url": "https://www.yelp.com/biz/d%C3%B6ner-harem-ahrensburg?adjust_creative=hBJOknVQJ58S5goQyjmwRw&utm_campaign=yelp_api_v3&utm_medium=api_v3_business_search&utm_source=hBJOknVQJ58S5goQyjmwRw", "review_count": 6, "categories": [{"alias": "kebab", "title": "Kebab"}], "rating": 3.0, "coordinates": {"latitude": 53.6729, "longitude": 10.2362}, "transactions": [], "price": "\u20ac\u20ac", "location": {"address1": "Manfred-Samusch-Str. 1", "address2": null, "address3": null, "city": "Ahrensburg", "zip_code": "22926", "country": "DE", "state": "SH", "display_address": ["Manfred-Samusch-Str. 1", "22926 Ahrensburg", "Germany"]}, "phone": "+49410253091", "display_phone": "+49 4102 53091", "distance": 3607.503835806623}, {"id": "X7fr91R--0fQuyBL7gaOEw", "alias": "rockefeller-ahrensburg", "name": "Rockefeller", "image_url": "https://s3-media3.fl.yelpcdn.com/bphoto/c90wOI-L3my0rGvBkfNmLg/o.jpg", "is_closed": false, "url": "https://www.yelp.com/biz/rockefeller-ahrensburg?adjust_creative=hBJOknVQJ58S5goQyjmwRw&utm_campaign=yelp_api_v3&utm_medium=api_v3_business_search&utm_source=hBJOknVQJ58S5goQyjmwRw", "review_count": 20, "categories": [{"alias": "international", "title": "International"}], "rating": 3.5, "coordinates": {"latitude": 53.669829751765, "longitude": 10.236160818777}, "transactions": [], "price": "\u20ac\u20ac", "location": {"address1": "Stormarnstr. 2", "address2": null, "address3": null, "city": "Ahrensburg", "zip_code": "22926", "country": "DE", "state": "SH", "display_address": ["Stormarnstr. 2", "22926 Ahrensburg", "Germany"]}, "phone": "+494102823483", "display_phone": "+49 4102 823483", "distance": 3302.3201985327723}, {"id": "2d5gxj1HG4Ze-tUDiYwwRQ", "alias": "holsteiner-backdiele-ahrensburg", "name": "Holsteiner Backdiele", "image_url": "https://s3-media2.fl.yelpcdn.com/bphoto/-wE8Dh0qNAUN_6BbPtSPXQ/o.jpg", "is_closed": false, "url": "https://www.yelp.com/biz/holsteiner-backdiele-ahrensburg?adjust_creative=hBJOknVQJ58S5goQyjmwRw&utm_campaign=yelp_api_v3&utm_medium=api_v3_business_search&utm_source=hBJOknVQJ58S5goQyjmwRw", "review_count": 1, "categories": [{"alias": "cafes", "title": "Cafes"}, {"alias": "coffee", "title": "Coffee & Tea"}], "rating": 4.0, "coordinates": {"latitude": 53.657, "longitude": 10.2112}, "transactions": [], "location": {"address1": "Hamburger Stra\u00dfe", "address2": null, "address3": null, "city": "Ahrensburg", "zip_code": "22926", "country": "DE", "state": "SH", "display_address": ["Hamburger Stra\u00dfe", "22926 Ahrensburg", "Germany"]}, "phone": "", "display_phone": "", "distance": 1481.5178040686071}, {"id": "9eBv6GtbwqA4gGBq85AqAA", "alias": "mcdonalds-hamburg-55", "name": "McDonald's", "image_url": "https://s3-media3.fl.yelpcdn.com/bphoto/JeDYo2mONIAZAIE6XTp7yw/o.jpg", "is_closed": false, "url": "https://www.yelp.com/biz/mcdonalds-hamburg-55?adjust_creative=hBJOknVQJ58S5goQyjmwRw&utm_campaign=yelp_api_v3&utm_medium=api_v3_business_search&utm_source=hBJOknVQJ58S5goQyjmwRw", "review_count": 18, "categories": [{"alias": "hotdogs", "title": "Fast Food"}, {"alias": "burgers", "title": "Burgers"}], "rating": 3.0, "coordinates": {"latitude": 53.60832, "longitude": 10.19007}, "transactions": [], "price": "\u20ac\u20ac", "location": {"address1": "Sieker Landstr. 126", "address2": null, "address3": null, "city": "Hamburg", "zip_code": "22143", "country": "DE", "state": "HH", "display_address": ["Sieker Landstr. 126", "22143 Hamburg", "Germany"]}, "phone": "+49406779502", "display_phone": "+49 40 6779502", "distance": 4205.070597730281}, {"id": "u3ub5f0MS4qY67Q8XF9ZoA", "alias": "sodemanns-fisch-kutter-nr-1-hamburg", "name": "Sodemann's Fisch-Kutter Nr. 1", "image_url": "https://s3-media3.fl.yelpcdn.com/bphoto/BlysP6fVPaL0eEjKvEbByw/o.jpg", "is_closed": false, "url": "https://www.yelp.com/biz/sodemanns-fisch-kutter-nr-1-hamburg?adjust_creative=hBJOknVQJ58S5goQyjmwRw&utm_campaign=yelp_api_v3&utm_medium=api_v3_business_search&utm_source=hBJOknVQJ58S5goQyjmwRw", "review_count": 3, "categories": [{"alias": "foodtrucks", "title": "Food Trucks"}, {"alias": "fischbroetchen", "title": "Fischbroetchen"}], "rating": 5.0, "coordinates": {"latitude": 53.5537490844727, "longitude": 9.99182987213135}, "transactions": [], "price": "\u20ac\u20ac", "location": {"address1": "", "address2": null, "address3": "", "city": "Hamburg", "zip_code": "", "country": "DE", "state": "HH", "display_address": ["Hamburg", "Germany"]}, "phone": "+491773606663", "display_phone": "+49 177 3606663", "distance": 17727.94382570111}, {"id": "aj5KdLaad35-HlAVQc-bCQ", "alias": "schweinske-ahrensburg", "name": "Schweinske", "image_url": "https://s3-media1.fl.yelpcdn.com/bphoto/5VHx6hmwYNum6iLPwqZZqg/o.jpg", "is_closed": false, "url": "https://www.yelp.com/biz/schweinske-ahrensburg?adjust_creative=hBJOknVQJ58S5goQyjmwRw&utm_campaign=yelp_api_v3&utm_medium=api_v3_business_search&utm_source=hBJOknVQJ58S5goQyjmwRw", "review_count": 28, "categories": [{"alias": "german", "title": "German"}], "rating": 3.0, "coordinates": {"latitude": 53.6695, "longitude": 10.2363}, "transactions": [], "price": "\u20ac\u20ac", "location": {"address1": "Bahnhofstr. 9", "address2": null, "address3": null, "city": "Ahrensburg", "zip_code": "22926", "country": "DE", "state": "SH", "display_address": ["Bahnhofstr. 9", "22926 Ahrensburg", "Germany"]}, "phone": "+494102208058", "display_phone": "+49 4102 208058", "distance": 3274.510267654182}, {"id": "QuEmoW_Y7Vqhh1qWPreNog", "alias": "fr\u00fchst\u00fccks-stube-ahrensburg", "name": "Fr\u00fchst\u00fccks-Stube", "image_url": "", "is_closed": false, "url": "https://www.yelp.com/biz/fr%C3%BChst%C3%BCcks-stube-ahrensburg?adjust_creative=hBJOknVQJ58S5goQyjmwRw&utm_campaign=yelp_api_v3&utm_medium=api_v3_business_search&utm_source=hBJOknVQJ58S5goQyjmwRw", "review_count": 4, "categories": [{"alias": "cafes", "title": "Cafes"}, {"alias": "coffee", "title": "Coffee & Tea"}], "rating": 5.0, "coordinates": {"latitude": 53.66487, "longitude": 10.22024}, "transactions": [], "location": {"address1": "Waldemar-Bonselsweg 168", "address2": null, "address3": null, "city": "Ahrensburg", "zip_code": "22926", "country": "DE", "state": "SH", "display_address": ["Waldemar-Bonselsweg 168", "22926 Ahrensburg", "Germany"]}, "phone": "+49410230295", "display_phone": "+49 4102 30295", "distance": 2411.2138986884943}, {"id": "_8hddWhYIY_DPFMc5yOolg", "alias": "restaurant-rhodos-ahrensburg", "name": "Restaurant Rhodos", "image_url": "https://s3-media2.fl.yelpcdn.com/bphoto/18xUk0FqqKs_o4qeeMDyXg/o.jpg", "is_closed": false, "url": "https://www.yelp.com/biz/restaurant-rhodos-ahrensburg?adjust_creative=hBJOknVQJ58S5goQyjmwRw&utm_campaign=yelp_api_v3&utm_medium=api_v3_business_search&utm_source=hBJOknVQJ58S5goQyjmwRw", "review_count": 26, "categories": [{"alias": "greek", "title": "Greek"}], "rating": 3.0, "coordinates": {"latitude": 53.660141, "longitude": 10.213659}, "transactions": [], "price": "\u20ac\u20ac", "location": {"address1": "Hamburger Str. 170", "address2": "", "address3": "", "city": "Ahrensburg", "zip_code": "22926", "country": "DE", "state": "SH", "display_address": ["Hamburger Str. 170", "22926 Ahrensburg", "Germany"]}, "phone": "+49410258979", "display_phone": "+49 4102 58979", "distance": 1834.6565894029238}, {"id": "tKyHGeLv00xm-NtJGra3Kg", "alias": "eis-cafe-chocolat-ahrensburg", "name": "Eis Cafe Chocolat", "image_url": "https://s3-media1.fl.yelpcdn.com/bphoto/wqmYbDRV1BIpTlJFWnLSmg/o.jpg", "is_closed": false, "url": "https://www.yelp.com/biz/eis-cafe-chocolat-ahrensburg?adjust_creative=hBJOknVQJ58S5goQyjmwRw&utm_campaign=yelp_api_v3&utm_medium=api_v3_business_search&utm_source=hBJOknVQJ58S5goQyjmwRw", "review_count": 3, "categories": [{"alias": "cafes", "title": "Cafes"}, {"alias": "coffee", "title": "Coffee & Tea"}], "rating": 4.5, "coordinates": {"latitude": 53.664, "longitude": 10.2206}, "transactions": [], "location": {"address1": "Waldemar-Bonsels-Weg", "address2": null, "address3": null, "city": "Ahrensburg", "zip_code": "22926", "country": "DE", "state": "SH", "display_address": ["Waldemar-Bonsels-Weg", "22926 Ahrensburg", "Germany"]}, "phone": "", "display_phone": "", "distance": 2322.2709998123146}, {"id": "CRVbrc10xodwSwr8o-L2lQ", "alias": "taverne-rigani-ahrensburg", "name": "Taverne Rigani", "image_url": "https://s3-media4.fl.yelpcdn.com/bphoto/bZCBUKdDDowz0A79g5J2qw/o.jpg", "is_closed": false, "url": "https://www.yelp.com/biz/taverne-rigani-ahrensburg?adjust_creative=hBJOknVQJ58S5goQyjmwRw&utm_campaign=yelp_api_v3&utm_medium=api_v3_business_search&utm_source=hBJOknVQJ58S5goQyjmwRw", "review_count": 9, "categories": [{"alias": "greek", "title": "Greek"}], "rating": 3.5, "coordinates": {"latitude": 53.6698029592347, "longitude": 10.2354253055572}, "transactions": [], "price": "\u20ac\u20ac\u20ac", "location": {"address1": "Stormarnstr. 15", "address2": null, "address3": null, "city": "Ahrensburg", "zip_code": "22926", "country": "DE", "state": "SH", "display_address": ["Stormarnstr. 15", "22926 Ahrensburg", "Germany"]}, "phone": "+494102666969", "display_phone": "+49 4102 666969", "distance": 3276.94000590705}, {"id": "d2mtc7YgETaFKEbli95msg", "alias": "bambusgarten-hamburg-3", "name": "Bambusgarten", "image_url": "https://s3-media4.fl.yelpcdn.com/bphoto/QBICO3wxOhAUOB0f56We9g/o.jpg", "is_closed": false, "url": "https://www.yelp.com/biz/bambusgarten-hamburg-3?adjust_creative=hBJOknVQJ58S5goQyjmwRw&utm_campaign=yelp_api_v3&utm_medium=api_v3_business_search&utm_source=hBJOknVQJ58S5goQyjmwRw", "review_count": 29, "categories": [{"alias": "cafes", "title": "Cafes"}], "rating": 2.5, "coordinates": {"latitude": 53.6444, "longitude": 10.19}, "transactions": [], "price": "\u20ac\u20ac", "location": {"address1": "Eulenkrugstr. 190", "address2": null, "address3": null, "city": "Hamburg", "zip_code": "22359", "country": "DE", "state": "HH", "display_address": ["Eulenkrugstr. 190", "22359 Hamburg", "Germany"]}, "phone": "+49405330449190", "display_phone": "+49 40 5330449190", "distance": 1476.0357023461565}, {"id": "YlY659TTaSuESJD36fDtYA", "alias": "asia-haus-ahrensburg", "name": "Asia Haus", "image_url": "", "is_closed": false, "url": "https://www.yelp.com/biz/asia-haus-ahrensburg?adjust_creative=hBJOknVQJ58S5goQyjmwRw&utm_campaign=yelp_api_v3&utm_medium=api_v3_business_search&utm_source=hBJOknVQJ58S5goQyjmwRw", "review_count": 5, "categories": [{"alias": "panasian", "title": "Pan Asian"}], "rating": 2.5, "coordinates": {"latitude": 53.6699598, "longitude": 10.2356106}, "transactions": [], "price": "\u20ac\u20ac", "location": {"address1": "Stormarnstr. 4", "address2": null, "address3": null, "city": "Ahrensburg", "zip_code": "22926", "country": "DE", "state": "SH", "display_address": ["Stormarnstr. 4", "22926 Ahrensburg", "Germany"]}, "phone": "+494102458830", "display_phone": "+49 4102 458830", "distance": 3298.0536192064137}, {"id": "7DT39R64fx3OxYm5ahIt9g", "alias": "eiscafe-la-volpe-ahrensburg", "name": "Eiscafe La Volpe", "image_url": "https://s3-media3.fl.yelpcdn.com/bphoto/OvND0RyZjqRIh-2o67kaog/o.jpg", "is_closed": false, "url": "https://www.yelp.com/biz/eiscafe-la-volpe-ahrensburg?adjust_creative=hBJOknVQJ58S5goQyjmwRw&utm_campaign=yelp_api_v3&utm_medium=api_v3_business_search&utm_source=hBJOknVQJ58S5goQyjmwRw", "review_count": 7, "categories": [{"alias": "icecream", "title": "Ice Cream & Frozen Yogurt"}, {"alias": "cafes", "title": "Cafes"}, {"alias": "coffee", "title": "Coffee & Tea"}], "rating": 5.0, "coordinates": {"latitude": 53.6732, "longitude": 10.2376}, "transactions": [], "price": "\u20ac\u20ac", "location": {"address1": "Rathausplatz 25", "address2": null, "address3": null, "city": "Ahrensburg", "zip_code": "22926", "country": "DE", "state": "SH", "display_address": ["Rathausplatz 25", "22926 Ahrensburg", "Germany"]}, "phone": "+49410250130", "display_phone": "+49 4102 50130", "distance": 3678.339352717406}, {"id": "otXAU9fFRpqLYMZYoEgrXQ", "alias": "mcdonalds-ahrensburg", "name": "McDonald's", "image_url": "https://s3-media3.fl.yelpcdn.com/bphoto/oN01eTrfJbmbPw2ErphhjQ/o.jpg", "is_closed": false, "url": "https://www.yelp.com/biz/mcdonalds-ahrensburg?adjust_creative=hBJOknVQJ58S5goQyjmwRw&utm_campaign=yelp_api_v3&utm_medium=api_v3_business_search&utm_source=hBJOknVQJ58S5goQyjmwRw", "review_count": 12, "categories": [{"alias": "hotdogs", "title": "Fast Food"}, {"alias": "burgers", "title": "Burgers"}], "rating": 3.0, "coordinates": {"latitude": 53.6635599, "longitude": 10.2212099}, "transactions": [], "price": "\u20ac\u20ac", "location": {"address1": "Hamburger Str. 159", "address2": null, "address3": null, "city": "Ahrensburg", "zip_code": "22926", "country": "DE", "state": "SH", "display_address": ["Hamburger Str. 159", "22926 Ahrensburg", "Germany"]}, "phone": "+494102821707", "display_phone": "+49 4102 821707", "distance": 2285.0727905706717}, {"id": "APvIA_7ssxgC0atmQEFMcg", "alias": "burgerkultour-food-truck-hamburg-2", "name": "BurgerKultour Food Truck", "image_url": "https://s3-media4.fl.yelpcdn.com/bphoto/KoAuwalMnlAO8139MmdYBQ/o.jpg", "is_closed": false, "url": "https://www.yelp.com/biz/burgerkultour-food-truck-hamburg-2?adjust_creative=hBJOknVQJ58S5goQyjmwRw&utm_campaign=yelp_api_v3&utm_medium=api_v3_business_search&utm_source=hBJOknVQJ58S5goQyjmwRw", "review_count": 3, "categories": [{"alias": "foodtrucks", "title": "Food Trucks"}, {"alias": "burgers", "title": "Burgers"}], "rating": 4.5, "coordinates": {"latitude": 53.57154, "longitude": 9.95575}, "transactions": [], "price": "\u20ac\u20ac", "location": {"address1": "", "address2": "", "address3": "", "city": "Hamburg", "zip_code": "20259", "country": "DE", "state": "HH", "display_address": ["20259 Hamburg", "Germany"]}, "phone": "+4917626055122", "display_phone": "+49 176 26055122", "distance": 18725.543600587553}, {"id": "CR51HLNSeD-eXFOhb2k42w", "alias": "smileys-ahrensburg", "name": "Smiley's", "image_url": "", "is_closed": false, "url": "https://www.yelp.com/biz/smileys-ahrensburg?adjust_creative=hBJOknVQJ58S5goQyjmwRw&utm_campaign=yelp_api_v3&utm_medium=api_v3_business_search&utm_source=hBJOknVQJ58S5goQyjmwRw", "review_count": 6, "categories": [{"alias": "pizza", "title": "Pizza"}], "rating": 4.0, "coordinates": {"latitude": 53.6703, "longitude": 10.2353}, "transactions": [], "price": "\u20ac\u20ac\u20ac", "location": {"address1": "Stormarnstr. 6", "address2": null, "address3": null, "city": "Ahrensburg", "zip_code": "22926", "country": "DE", "state": "SH", "display_address": ["Stormarnstr. 6", "22926 Ahrensburg", "Germany"]}, "phone": "+49410250519", "display_phone": "+49 4102 50519", "distance": 3322.233911565107}, {"id": "NIdJO-hwFoXefYWkIxenMA", "alias": "pizza-max-ahrensburg", "name": "Pizza Max", "image_url": "https://s3-media1.fl.yelpcdn.com/bphoto/A8hNCkw27N6kxu7EbFdLuw/o.jpg", "is_closed": false, "url": "https://www.yelp.com/biz/pizza-max-ahrensburg?adjust_creative=hBJOknVQJ58S5goQyjmwRw&utm_campaign=yelp_api_v3&utm_medium=api_v3_business_search&utm_source=hBJOknVQJ58S5goQyjmwRw", "review_count": 10, "categories": [{"alias": "pizza", "title": "Pizza"}], "rating": 3.5, "coordinates": {"latitude": 53.670595, "longitude": 10.234687}, "transactions": [], "price": "\u20ac\u20ac", "location": {"address1": "Hamburger Str. 37", "address2": "", "address3": "", "city": "Ahrensburg", "zip_code": "22926", "country": "DE", "state": "SH", "display_address": ["Hamburger Str. 37", "22926 Ahrensburg", "Germany"]}, "phone": "+494102888834", "display_phone": "+49 4102 888834", "distance": 3316.0132662568208}, {"id": "cGIKCcR0wZszz8VldC2-7g", "alias": "currywerk-hamburg", "name": "curryWERK", "image_url": "https://s3-media4.fl.yelpcdn.com/bphoto/j_ZPQAB6JrAru84VDuLiRA/o.jpg", "is_closed": false, "url": "https://www.yelp.com/biz/currywerk-hamburg?adjust_creative=hBJOknVQJ58S5goQyjmwRw&utm_campaign=yelp_api_v3&utm_medium=api_v3_business_search&utm_source=hBJOknVQJ58S5goQyjmwRw", "review_count": 1, "categories": [{"alias": "foodtrucks", "title": "Food Trucks"}, {"alias": "currysausage", "title": "Curry Sausage"}], "rating": 4.0, "coordinates": {"latitude": 53.5498886108398, "longitude": 9.94732189178467}, "transactions": [], "price": "\u20ac\u20ac", "location": {"address1": "", "address2": "", "address3": "", "city": "Hamburg", "zip_code": "22767", "country": "DE", "state": "HH", "display_address": ["22767 Hamburg", "Germany"]}, "phone": "+4917632443433", "display_phone": "+49 176 32443433", "distance": 20688.554957602875}]