[{"id": "sPVuIokwJuuOouU4ikYlXQ", "alias": "da-lui-gro\u00dfhansdorf", "name": "Da Lui", "image_url": "https://s3-media4.fl.yelpcdn.com/bphoto/JpJVDiIliCQrQmL2sICjBw/o.jpg", "is_closed": false, "url": "https://www.yelp.com/biz/da-lui-gro%C3%9Fhansdorf?adjust_creative=hBJOknVQJ58S5goQyjmwRw&utm_campaign=yelp_api_v3&utm_medium=api_v3_business_search&utm_source=hBJOknVQJ58S5goQyjmwRw", "review_count": 6, "categories": [{"alias": "italian", "title": "Italian"}, {"alias": "pizza", "title": "Pizza"}], "rating": 4.5, "coordinates": {"latitude": 53.65245, "longitude": 10.25994}, "transactions": [], "price": "\u20ac\u20ac", "location": {"address1": "Ahrensfelder Weg 10", "address2": "", "address3": "", "city": "Gro\u00dfhansdorf", "zip_code": "22927", "country": "DE", "state": "SH", "display_address": ["Ahrensfelder Weg 10", "22927 Gro\u00dfhansdorf", "Germany"]}, "phone": "+4941028034179", "display_phone": "+49 4102 8034179", "distance": 1530.525490300105}, {"id": "4beQdw054mnucH9AUEObBA", "alias": "le-marron-ahrensburg", "name": "Le Marron", "image_url": "https://s3-media3.fl.yelpcdn.com/bphoto/bxBPcQGBLS244zRkjdaDBw/o.jpg", "is_closed": false, "url": "https://www.yelp.com/biz/le-marron-ahrensburg?adjust_creative=hBJOknVQJ58S5goQyjmwRw&utm_campaign=yelp_api_v3&utm_medium=api_v3_business_search&utm_source=hBJOknVQJ58S5goQyjmwRw", "review_count": 5, "categories": [{"alias": "mediterranean", "title": "Mediterranean"}], "rating": 4.5, "coordinates": {"latitude": 53.6815649957513, "longitude": 10.242217643521}, "transactions": [], "price": "\u20ac\u20ac", "location": {"address1": "L\u00fcbecker Str. 10 a", "address2": null, "address3": null, "city": "Ahrensburg", "zip_code": "22926", "country": "DE", "state": "SH", "display_address": ["L\u00fcbecker Str. 10 a", "22926 Ahrensburg", "Germany"]}, "phone": "+494102230400", "display_phone": "+49 4102 230400", "distance": 4245.604229568888}, {"id": "jq6s0C9nD7I0yTDcYzgkfg", "alias": "berlin-millj\u00f6h-ahrensburg", "name": "Berlin Millj\u00f6h", "image_url": "https://s3-media2.fl.yelpcdn.com/bphoto/eVhwIEpASXhOwg4b8IFZMQ/o.jpg", "is_closed": false, "url": "https://www.yelp.com/biz/berlin-millj%C3%B6h-ahrensburg?adjust_creative=hBJOknVQJ58S5goQyjmwRw&utm_campaign=yelp_api_v3&utm_medium=api_v3_business_search&utm_source=hBJOknVQJ58S5goQyjmwRw", "review_count": 28, "categories": [{"alias": "german", "title": "German"}, {"alias": "beergarden", "title": "Beer Garden"}], "rating": 4.0, "coordinates": {"latitude": 53.6757848, "longitude": 10.2394167}, "transactions": [], "price": "\u20ac\u20ac", "location": {"address1": "Gro\u00dfe Str. 15a", "address2": null, "address3": null, "city": "Ahrensburg", "zip_code": "22926", "country": "DE", "state": "SH", "display_address": ["Gro\u00dfe Str. 15a", "22926 Ahrensburg", "Germany"]}, "phone": "+49410252919", "display_phone": "+49 4102 52919", "distance": 3608.9278261464196}, {"id": "4GkNM5czryu7wrLurCrnSA", "alias": "restaurant-strehl-ahrensburg-2", "name": "Restaurant Strehl", "image_url": "https://s3-media2.fl.yelpcdn.com/bphoto/opzw9-5TgccXmJ2ddbJA_A/o.jpg", "is_closed": false, "url": "https://www.yelp.com/biz/restaurant-strehl-ahrensburg-2?adjust_creative=hBJOknVQJ58S5goQyjmwRw&utm_campaign=yelp_api_v3&utm_medium=api_v3_business_search&utm_source=hBJOknVQJ58S5goQyjmwRw", "review_count": 13, "categories": [{"alias": "catering", "title": "Caterers"}, {"alias": "german", "title": "German"}], "rating": 3.5, "coordinates": {"latitude": 53.6804, "longitude": 10.235}, "transactions": [], "price": "\u20ac\u20ac", "location": {"address1": "Reeshoop 50", "address2": null, "address3": null, "city": "Ahrensburg", "zip_code": "22926", "country": "DE", "state": "SH", "display_address": ["Reeshoop 50", "22926 Ahrensburg", "Germany"]}, "phone": "+49410241261", "display_phone": "+49 4102 41261", "distance": 4146.392617272141}, {"id": "ePi8qRlsS0yIj-vusvLwyw", "alias": "zum-griechen-ahrensburg", "name": "Zum Griechen", "image_url": "https://s3-media2.fl.yelpcdn.com/bphoto/0iWuNO5GwTcWCmPWnTvOSA/o.jpg", "is_closed": false, "url": "https://www.yelp.com/biz/zum-griechen-ahrensburg?adjust_creative=hBJOknVQJ58S5goQyjmwRw&utm_campaign=yelp_api_v3&utm_medium=api_v3_business_search&utm_source=hBJOknVQJ58S5goQyjmwRw", "review_count": 35, "categories": [{"alias": "greek", "title": "Greek"}], "rating": 4.0, "coordinates": {"latitude": 53.665075, "longitude": 10.220437}, "transactions": [], "price": "\u20ac\u20ac", "location": {"address1": "Ohlendamm 1", "address2": "", "address3": "", "city": "Ahrensburg", "zip_code": "22926", "country": "DE", "state": "SH", "display_address": ["Ohlendamm 1", "22926 Ahrensburg", "Germany"]}, "phone": "+4941021404", "display_phone": "+49 4102 1404", "distance": 2819.0843111869804}, {"id": "GTC-Als8WldkK053ufr0Aw", "alias": "restaurant-bangkok-ahrensburg-3", "name": "Restaurant Bangkok", "image_url": "https://s3-media2.fl.yelpcdn.com/bphoto/S3Fa82IYr6sYKasiDS-2Ow/o.jpg", "is_closed": false, "url": "https://www.yelp.com/biz/restaurant-bangkok-ahrensburg-3?adjust_creative=hBJOknVQJ58S5goQyjmwRw&utm_campaign=yelp_api_v3&utm_medium=api_v3_business_search&utm_source=hBJOknVQJ58S5goQyjmwRw", "review_count": 25, "categories": [{"alias": "thai", "title": "Thai"}], "rating": 4.0, "coordinates": {"latitude": 53.673249, "longitude": 10.239954}, "transactions": [], "price": "\u20ac", "location": {"address1": "Lohe 2- 4", "address2": "", "address3": "", "city": "Ahrensburg", "zip_code": "22926", "country": "DE", "state": "SH", "display_address": ["Lohe 2- 4", "22926 Ahrensburg", "Germany"]}, "phone": "+494102x9810498", "display_phone": "+49 4102 ext. 9810498", "distance": 3325.4121784752315}, {"id": "f4QeydE1uJaPgmdO0zyr3w", "alias": "china-restaurant-huy-hoang-ahrensburg", "name": "China-Restaurant Huy-Hoang", "image_url": "https://s3-media2.fl.yelpcdn.com/bphoto/WMEMhl81BMPyjWDWQlqrzQ/o.jpg", "is_closed": false, "url": "https://www.yelp.com/biz/china-restaurant-huy-hoang-ahrensburg?adjust_creative=hBJOknVQJ58S5goQyjmwRw&utm_campaign=yelp_api_v3&utm_medium=api_v3_business_search&utm_source=hBJOknVQJ58S5goQyjmwRw", "review_count": 7, "categories": [{"alias": "chinese", "title": "Chinese"}], "rating": 4.5, "coordinates": {"latitude": 53.6735, "longitude": 10.2388}, "transactions": [], "price": "\u20ac\u20ac", "location": {"address1": "Rathausplatz 25", "address2": null, "address3": null, "city": "Ahrensburg", "zip_code": "22926", "country": "DE", "state": "SH", "display_address": ["Rathausplatz 25", "22926 Ahrensburg", "Germany"]}, "phone": "+49410259528", "display_phone": "+49 4102 59528", "distance": 3358.1256063150204}, {"id": "DPHWqly-0ZTcQ_ZKXgnoJA", "alias": "christos-stapelfelder-hof-stapelfeld", "name": "Christos Stapelfelder Hof", "image_url": "https://s3-media2.fl.yelpcdn.com/bphoto/7AqDlyB7Vz__T7qEoF9oZg/o.jpg", "is_closed": false, "url": "https://www.yelp.com/biz/christos-stapelfelder-hof-stapelfeld?adjust_creative=hBJOknVQJ58S5goQyjmwRw&utm_campaign=yelp_api_v3&utm_medium=api_v3_business_search&utm_source=hBJOknVQJ58S5goQyjmwRw", "review_count": 7, "categories": [{"alias": "greek", "title": "Greek"}], "rating": 4.5, "coordinates": {"latitude": 53.60503, "longitude": 10.22139}, "transactions": [], "price": "\u20ac\u20ac", "location": {"address1": "Reinbeker Str. 1", "address2": "", "address3": null, "city": "Stapelfeld", "zip_code": "22145", "country": "DE", "state": "SH", "display_address": ["Reinbeker Str. 1", "22145 Stapelfeld", "Germany"]}, "phone": "+49407355350", "display_phone": "+49 40 7355350", "distance": 4487.490551490416}, {"id": "wOnyNMuOUVPtUm3Qm9owBQ", "alias": "oma-in-braak-braak", "name": "Oma in Braak", "image_url": "https://s3-media2.fl.yelpcdn.com/bphoto/3YBoeZ7hc4XPIU3ruYn7kQ/o.jpg", "is_closed": false, "url": "https://www.yelp.com/biz/oma-in-braak-braak?adjust_creative=hBJOknVQJ58S5goQyjmwRw&utm_campaign=yelp_api_v3&utm_medium=api_v3_business_search&utm_source=hBJOknVQJ58S5goQyjmwRw", "review_count": 1, "categories": [{"alias": "bakeries", "title": "Bakeries"}, {"alias": "cafes", "title": "Cafes"}], "rating": 5.0, "coordinates": {"latitude": 53.6151399, "longitude": 10.24123}, "transactions": [], "price": "\u20ac", "location": {"address1": "Ihlendiek 55", "address2": null, "address3": null, "city": "Braak", "zip_code": "22145", "country": "DE", "state": "SH", "display_address": ["Ihlendiek 55", "22145 Braak", "Germany"]}, "phone": "+49406779005", "display_phone": "+49 40 6779005", "distance": 3091.2367429280534}, {"id": "7EC5erPOA8iTczH4xxoh9g", "alias": "restaurant-taj-mahal-ahrensburg", "name": "Restaurant Taj Mahal", "image_url": "https://s3-media4.fl.yelpcdn.com/bphoto/zdRNbF-TszZITApboKsIFw/o.jpg", "is_closed": false, "url": "https://www.yelp.com/biz/restaurant-taj-mahal-ahrensburg?adjust_creative=hBJOknVQJ58S5goQyjmwRw&utm_campaign=yelp_api_v3&utm_medium=api_v3_business_search&utm_source=hBJOknVQJ58S5goQyjmwRw", "review_count": 10, "categories": [{"alias": "indpak", "title": "Indian"}], "rating": 4.5, "coordinates": {"latitude": 53.675, "longitude": 10.2403}, "transactions": [], "price": "\u20ac\u20ac", "location": {"address1": "Gro\u00dfe Str. 15", "address2": null, "address3": null, "city": "Ahrensburg", "zip_code": "22926", "country": "DE", "state": "SH", "display_address": ["Gro\u00dfe Str. 15", "22926 Ahrensburg", "Germany"]}, "phone": "+494102888888", "display_phone": "+49 4102 888888", "distance": 3518.8192713696876}, {"id": "2xJdUgZ9P-92zk7EHboT8g", "alias": "greco-bistro-grill-ahrensburg", "name": "Greco Bistro Grill", "image_url": "https://s3-media3.fl.yelpcdn.com/bphoto/oU1zL0jxN7dsKXOIEz3lww/o.jpg", "is_closed": false, "url": "https://www.yelp.com/biz/greco-bistro-grill-ahrensburg?adjust_creative=hBJOknVQJ58S5goQyjmwRw&utm_campaign=yelp_api_v3&utm_medium=api_v3_business_search&utm_source=hBJOknVQJ58S5goQyjmwRw", "review_count": 6, "categories": [{"alias": "greek", "title": "Greek"}], "rating": 4.5, "coordinates": {"latitude": 53.6748, "longitude": 10.2401}, "transactions": [], "price": "\u20ac", "location": {"address1": "Gro\u00dfe Str. 15", "address2": null, "address3": null, "city": "Ahrensburg", "zip_code": "22926", "country": "DE", "state": "SH", "display_address": ["Gro\u00dfe Str. 15", "22926 Ahrensburg", "Germany"]}, "phone": "+49410257065", "display_phone": "+49 4102 57065", "distance": 3497.199037478087}, {"id": "9BoptuqV6JKp816-hL0rxw", "alias": "kroatien-restaurant-mediterraneo-ahrensburg-4", "name": "Kroatien Restaurant Mediterraneo", "image_url": "https://s3-media1.fl.yelpcdn.com/bphoto/0l52YvMZbBZdSOww8rigOA/o.jpg", "is_closed": false, "url": "https://www.yelp.com/biz/kroatien-restaurant-mediterraneo-ahrensburg-4?adjust_creative=hBJOknVQJ58S5goQyjmwRw&utm_campaign=yelp_api_v3&utm_medium=api_v3_business_search&utm_source=hBJOknVQJ58S5goQyjmwRw", "review_count": 9, "categories": [{"alias": "bowling", "title": "Bowling"}, {"alias": "mediterranean", "title": "Mediterranean"}], "rating": 4.0, "coordinates": {"latitude": 53.6803176227514, "longitude": 10.2351419627666}, "transactions": [], "price": "\u20ac\u20ac\u20ac", "location": {"address1": "Reeshoop 48", "address2": null, "address3": "", "city": "Ahrensburg", "zip_code": "22926", "country": "DE", "state": "SH", "display_address": ["Reeshoop 48", "22926 Ahrensburg", "Germany"]}, "phone": "+4941024737184", "display_phone": "+49 4102 4737184", "distance": 4136.177289208827}, {"id": "EA_eMoKrim3_9srIh4siwg", "alias": "new-long-ahrensburg", "name": "New Long", "image_url": "https://s3-media3.fl.yelpcdn.com/bphoto/_QtZznlgmYfEhyQnd59hbw/o.jpg", "is_closed": false, "url": "https://www.yelp.com/biz/new-long-ahrensburg?adjust_creative=hBJOknVQJ58S5goQyjmwRw&utm_campaign=yelp_api_v3&utm_medium=api_v3_business_search&utm_source=hBJOknVQJ58S5goQyjmwRw", "review_count": 11, "categories": [{"alias": "thai", "title": "Thai"}, {"alias": "chinese", "title": "Chinese"}], "rating": 4.5, "coordinates": {"latitude": 53.6747411800218, "longitude": 10.238852524477}, "transactions": [], "price": "\u20ac\u20ac", "location": {"address1": "Gro\u00dfe Str. 16 - 20", "address2": "", "address3": "", "city": "Ahrensburg", "zip_code": "22926", "country": "DE", "state": "SH", "display_address": ["Gro\u00dfe Str. 16 - 20", "22926 Ahrensburg", "Germany"]}, "phone": "+49410232883", "display_phone": "+49 4102 32883", "distance": 3495.520946761854}, {"id": "xBWobvwGsxbkIR2QC5CXZg", "alias": "b\u00fcrgervereinshaus-ahrensburg", "name": "B\u00fcrgervereinshaus", "image_url": "", "is_closed": false, "url": "https://www.yelp.com/biz/b%C3%BCrgervereinshaus-ahrensburg?adjust_creative=hBJOknVQJ58S5goQyjmwRw&utm_campaign=yelp_api_v3&utm_medium=api_v3_business_search&utm_source=hBJOknVQJ58S5goQyjmwRw", "review_count": 1, "categories": [{"alias": "cafes", "title": "Cafes"}, {"alias": "coffee", "title": "Coffee & Tea"}], "rating": 4.0, "coordinates": {"latitude": 53.68, "longitude": 10.2388}, "transactions": [], "location": {"address1": "Bagatelle", "address2": null, "address3": null, "city": "Ahrensburg", "zip_code": "22926", "country": "DE", "state": "SH", "display_address": ["Bagatelle", "22926 Ahrensburg", "Germany"]}, "phone": "", "display_phone": "", "distance": 4079.228185987522}, {"id": "PJxZY6nLTG2hjTUhOFhT4g", "alias": "hotel-zur-windm\u00fchle-stapelfeld", "name": "Hotel zur Windm\u00fchle", "image_url": "https://s3-media3.fl.yelpcdn.com/bphoto/Cp80W94PL_uPIIdnSFVWzw/o.jpg", "is_closed": false, "url": "https://www.yelp.com/biz/hotel-zur-windm%C3%BChle-stapelfeld?adjust_creative=hBJOknVQJ58S5goQyjmwRw&utm_campaign=yelp_api_v3&utm_medium=api_v3_business_search&utm_source=hBJOknVQJ58S5goQyjmwRw", "review_count": 9, "categories": [{"alias": "hotels", "title": "Hotels"}, {"alias": "german", "title": "German"}], "rating": 2.5, "coordinates": {"latitude": 53.6086, "longitude": 10.2359}, "transactions": [], "price": "\u20ac\u20ac", "location": {"address1": "Hauptstr. 99", "address2": null, "address3": null, "city": "Stapelfeld", "zip_code": "22145", "country": "DE", "state": "SH", "display_address": ["Hauptstr. 99", "22145 Stapelfeld", "Germany"]}, "phone": "+4940675070", "display_phone": "+49 40 675070", "distance": 3893.0106490848307}, {"id": "r4kA6f5qtmq8yNL1ktmJgQ", "alias": "bella-vita-ahrensburg", "name": "Bella Vita", "image_url": "https://s3-media1.fl.yelpcdn.com/bphoto/Xv_rK0yJJ8nIPD9kHyN4Zg/o.jpg", "is_closed": false, "url": "https://www.yelp.com/biz/bella-vita-ahrensburg?adjust_creative=hBJOknVQJ58S5goQyjmwRw&utm_campaign=yelp_api_v3&utm_medium=api_v3_business_search&utm_source=hBJOknVQJ58S5goQyjmwRw", "review_count": 6, "categories": [{"alias": "italian", "title": "Italian"}], "rating": 4.0, "coordinates": {"latitude": 53.675805, "longitude": 10.240527}, "transactions": [], "price": "\u20ac\u20ac", "location": {"address1": "Gro\u00dfe Str. 9 c", "address2": "", "address3": "", "city": "Ahrensburg", "zip_code": "22926", "country": "DE", "state": "SH", "display_address": ["Gro\u00dfe Str. 9 c", "22926 Ahrensburg", "Germany"]}, "phone": "+49410231762", "display_phone": "+49 4102 31762", "distance": 3609.195766858373}, {"id": "CB428jsOtLG8E4jiQlkB4w", "alias": "dailyfresh-ahrensburg", "name": "Dailyfresh", "image_url": "https://s3-media2.fl.yelpcdn.com/bphoto/wWniJ4FP-e8k28543rWi3Q/o.jpg", "is_closed": false, "url": "https://www.yelp.com/biz/dailyfresh-ahrensburg?adjust_creative=hBJOknVQJ58S5goQyjmwRw&utm_campaign=yelp_api_v3&utm_medium=api_v3_business_search&utm_source=hBJOknVQJ58S5goQyjmwRw", "review_count": 4, "categories": [{"alias": "salad", "title": "Salad"}, {"alias": "bistros", "title": "Bistros"}], "rating": 5.0, "coordinates": {"latitude": 53.6724892, "longitude": 10.2382803}, "transactions": [], "price": "\u20ac", "location": {"address1": "Hamburger Str. 3-5", "address2": "", "address3": "", "city": "Ahrensburg", "zip_code": "22926", "country": "DE", "state": "SH", "display_address": ["Hamburger Str. 3-5", "22926 Ahrensburg", "Germany"]}, "phone": "+494102824431", "display_phone": "+49 4102 824431", "distance": 3238.353249205209}, {"id": "JOq6siJT8d6dz-C3EICOyA", "alias": "go-asia-ahrensburg", "name": "Go-Asia", "image_url": "https://s3-media4.fl.yelpcdn.com/bphoto/UTJ0dTyRXZe60puNdE_Vng/o.jpg", "is_closed": false, "url": "https://www.yelp.com/biz/go-asia-ahrensburg?adjust_creative=hBJOknVQJ58S5goQyjmwRw&utm_campaign=yelp_api_v3&utm_medium=api_v3_business_search&utm_source=hBJOknVQJ58S5goQyjmwRw", "review_count": 4, "categories": [{"alias": "panasian", "title": "Pan Asian"}], "rating": 5.0, "coordinates": {"latitude": 53.6743852, "longitude": 10.2381118}, "transactions": [], "price": "\u20ac\u20ac", "location": {"address1": "Gro\u00dfe Str. 24", "address2": "", "address3": "", "city": "Ahrensburg", "zip_code": "22926", "country": "DE", "state": "SH", "display_address": ["Gro\u00dfe Str. 24", "22926 Ahrensburg", "Germany"]}, "phone": "+494102667875", "display_phone": "+49 4102 667875", "distance": 3459.8750440376234}, {"id": "Zke2xY2vMOVX0MwUDGV5Yw", "alias": "schmidtchen-ahrensburg-3", "name": "Schmidtchen", "image_url": "https://s3-media2.fl.yelpcdn.com/bphoto/a20Wx7FBPrfPRJCtZaAFSA/o.jpg", "is_closed": false, "url": "https://www.yelp.com/biz/schmidtchen-ahrensburg-3?adjust_creative=hBJOknVQJ58S5goQyjmwRw&utm_campaign=yelp_api_v3&utm_medium=api_v3_business_search&utm_source=hBJOknVQJ58S5goQyjmwRw", "review_count": 1, "categories": [{"alias": "cafes", "title": "Cafes"}, {"alias": "bakeries", "title": "Bakeries"}, {"alias": "breakfast_brunch", "title": "Breakfast & Brunch"}], "rating": 4.0, "coordinates": {"latitude": 53.67227, "longitude": 10.2399799}, "transactions": [], "location": {"address1": "Manhagener Allee 8", "address2": "", "address3": null, "city": "Ahrensburg", "zip_code": "22926", "country": "DE", "state": "SH", "display_address": ["Manhagener Allee 8", "22926 Ahrensburg", "Germany"]}, "phone": "+4941022180151", "display_phone": "+49 4102 2180151", "distance": 3216.6699960661103}, {"id": "rHwrVneRAkKRHclKjtgi7Q", "alias": "s\u00f6bentein-ahrensburg", "name": "S\u00f6bentein", "image_url": "https://s3-media3.fl.yelpcdn.com/bphoto/p8T6o4gTCp11MNqioPdScA/o.jpg", "is_closed": false, "url": "https://www.yelp.com/biz/s%C3%B6bentein-ahrensburg?adjust_creative=hBJOknVQJ58S5goQyjmwRw&utm_campaign=yelp_api_v3&utm_medium=api_v3_business_search&utm_source=hBJOknVQJ58S5goQyjmwRw", "review_count": 4, "categories": [{"alias": "german", "title": "German"}, {"alias": "cafes", "title": "Cafes"}], "rating": 4.0, "coordinates": {"latitude": 53.67696, "longitude": 10.24034}, "transactions": [], "price": "\u20ac\u20ac", "location": {"address1": "Am Alten Markt 17", "address2": "", "address3": null, "city": "Ahrensburg", "zip_code": "22926", "country": "DE", "state": "SH", "display_address": ["Am Alten Markt 17", "22926 Ahrensburg", "Germany"]}, "phone": "+494102805329", "display_phone": "+49 4102 805329", "distance": 3727.3343225507206}, {"id": "7HDhzAe10JF5-r7b41h6dw", "alias": "cocktailbar-zeitlos-ahrensburg", "name": "Cocktailbar Zeitlos", "image_url": "https://s3-media3.fl.yelpcdn.com/bphoto/ARHx864oZOPYyPcRbC2-dw/o.jpg", "is_closed": false, "url": "https://www.yelp.com/biz/cocktailbar-zeitlos-ahrensburg?adjust_creative=hBJOknVQJ58S5goQyjmwRw&utm_campaign=yelp_api_v3&utm_medium=api_v3_business_search&utm_source=hBJOknVQJ58S5goQyjmwRw", "review_count": 1, "categories": [{"alias": "cocktailbars", "title": "Cocktail Bars"}, {"alias": "cafes", "title": "Cafes"}], "rating": 5.0, "coordinates": {"latitude": 53.6741674975278, "longitude": 10.2392771850331}, "transactions": [], "location": {"address1": "Gro\u00dfe Str. 40", "address2": "", "address3": null, "city": "Ahrensburg", "zip_code": "22926", "country": "DE", "state": "SH", "display_address": ["Gro\u00dfe Str. 40", "22926 Ahrensburg", "Germany"]}, "phone": "+4941028247472", "display_phone": "+49 4102 8247472", "distance": 3429.9897208682746}, {"id": "70tzSXq2-oHDCniqEun9gQ", "alias": "restaurante-peerstall-cavallino-ahrensburg", "name": "Restaurante Peerstall Cavallino", "image_url": "https://s3-media2.fl.yelpcdn.com/bphoto/e4y1EphxfhtSuCboPaGd1A/o.jpg", "is_closed": false, "url": "https://www.yelp.com/biz/restaurante-peerstall-cavallino-ahrensburg?adjust_creative=hBJOknVQJ58S5goQyjmwRw&utm_campaign=yelp_api_v3&utm_medium=api_v3_business_search&utm_source=hBJOknVQJ58S5goQyjmwRw", "review_count": 8, "categories": [{"alias": "italian", "title": "Italian"}], "rating": 3.5, "coordinates": {"latitude": 53.64305, "longitude": 10.24192}, "transactions": [], "price": "\u20ac\u20ac", "location": {"address1": "Querweg 1", "address2": null, "address3": null, "city": "Ahrensburg", "zip_code": "22926", "country": "DE", "state": "SH", "display_address": ["Querweg 1", "22926 Ahrensburg", "Germany"]}, "phone": "+49410263700", "display_phone": "+49 4102 63700", "distance": 61.60858469477707}, {"id": "a9zTyvX_iY0jygqIfuqjJg", "alias": "d\u00f6ner-harem-ahrensburg", "name": "D\u00f6ner-Harem", "image_url": "https://s3-media2.fl.yelpcdn.com/bphoto/KoLUsGxu4aVGI6jLjjB02A/o.jpg", "is_closed": false, "url": "https://www.yelp.com/biz/d%C3%B6ner-harem-ahrensburg?adjust_creative=hBJOknVQJ58S5goQyjmwRw&utm_campaign=yelp_api_v3&utm_medium=api_v3_business_search&utm_source=hBJOknVQJ58S5goQyjmwRw", "review_count": 6, "categories": [{"alias": "kebab", "title": "Kebab"}], "rating": 3.0, "coordinates": {"latitude": 53.6729, "longitude": 10.2362}, "transactions": [], "price": "\u20ac\u20ac", "location": {"address1": "Manfred-Samusch-Str. 1", "address2": null, "address3": null, "city": "Ahrensburg", "zip_code": "22926", "country": "DE", "state": "SH", "display_address": ["Manfred-Samusch-Str. 1", "22926 Ahrensburg", "Germany"]}, "phone": "+49410253091", "display_phone": "+49 4102 53091", "distance": 3309.0696515538243}, {"id": "eoT1lSiZE9eIGbiHAKvEXg", "alias": "dat-backhus-gro\u00dfhansdorf", "name": "Dat Backhus", "image_url": "https://s3-media1.fl.yelpcdn.com/bphoto/XIaqQL0Npo2ZuoVYnpvjWQ/o.jpg", "is_closed": false, "url": "https://www.yelp.com/biz/dat-backhus-gro%C3%9Fhansdorf?adjust_creative=hBJOknVQJ58S5goQyjmwRw&utm_campaign=yelp_api_v3&utm_medium=api_v3_business_search&utm_source=hBJOknVQJ58S5goQyjmwRw", "review_count": 2, "categories": [{"alias": "cafes", "title": "Cafes"}], "rating": 4.0, "coordinates": {"latitude": 53.6531030812629, "longitude": 10.2620005980134}, "transactions": [], "price": "\u20ac", "location": {"address1": "Ahrensfelder Weg 1", "address2": "", "address3": null, "city": "Gro\u00dfhansdorf", "zip_code": "22927", "country": "DE", "state": "SH", "display_address": ["Ahrensfelder Weg 1", "22927 Gro\u00dfhansdorf", "Germany"]}, "phone": "+4941028247030", "display_phone": "+49 4102 8247030", "distance": 1673.838343994657}, {"id": "3emsLbdBi4PHclK8kuFhPg", "alias": "schlemmerst\u00fcbchen-ahrensburg", "name": "Schlemmerst\u00fcbchen", "image_url": "", "is_closed": false, "url": "https://www.yelp.com/biz/schlemmerst%C3%BCbchen-ahrensburg?adjust_creative=hBJOknVQJ58S5goQyjmwRw&utm_campaign=yelp_api_v3&utm_medium=api_v3_business_search&utm_source=hBJOknVQJ58S5goQyjmwRw", "review_count": 1, "categories": [{"alias": "foodstands", "title": "Food Stands"}], "rating": 5.0, "coordinates": {"latitude": 53.673183095609, "longitude": 10.2374708429222}, "transactions": [], "location": {"address1": "Rathausstr. 24", "address2": "", "address3": null, "city": "Ahrensburg", "zip_code": "22926", "country": "DE", "state": "SH", "display_address": ["Rathausstr. 24", "22926 Ahrensburg", "Germany"]}, "phone": "+4941021330", "display_phone": "+49 4102 1330", "distance": 3330.7447074593997}, {"id": "u3ub5f0MS4qY67Q8XF9ZoA", "alias": "sodemanns-fisch-kutter-nr-1-hamburg", "name": "Sodemann's Fisch-Kutter Nr. 1", "image_url": "https://s3-media3.fl.yelpcdn.com/bphoto/BlysP6fVPaL0eEjKvEbByw/o.jpg", "is_closed": false, "url": "https://www.yelp.com/biz/sodemanns-fisch-kutter-nr-1-hamburg?adjust_creative=hBJOknVQJ58S5goQyjmwRw&utm_campaign=yelp_api_v3&utm_medium=api_v3_business_search&utm_source=hBJOknVQJ58S5goQyjmwRw", "review_count": 3, "categories": [{"alias": "foodtrucks", "title": "Food Trucks"}, {"alias": "fischbroetchen", "title": "Fischbroetchen"}], "rating": 5.0, "coordinates": {"latitude": 53.5537490844727, "longitude": 9.99182987213135}, "transactions": [], "price": "\u20ac\u20ac", "location": {"address1": "", "address2": null, "address3": "", "city": "Hamburg", "zip_code": "", "country": "DE", "state": "HH", "display_address": ["Hamburg", "Germany"]}, "phone": "+491773606663", "display_phone": "+49 177 3606663", "distance": 19369.07500594121}, {"id": "nNHDS5YgtsSiSPk-berUqg", "alias": "back-drive-braaker-m\u00fchle-braak", "name": "Back Drive Braaker M\u00fchle", "image_url": "https://s3-media2.fl.yelpcdn.com/bphoto/DJeDEFHaSFa5-ddvcifdCg/o.jpg", "is_closed": false, "url": "https://www.yelp.com/biz/back-drive-braaker-m%C3%BChle-braak?adjust_creative=hBJOknVQJ58S5goQyjmwRw&utm_campaign=yelp_api_v3&utm_medium=api_v3_business_search&utm_source=hBJOknVQJ58S5goQyjmwRw", "review_count": 9, "categories": [{"alias": "cafes", "title": "Cafes"}, {"alias": "breakfast_brunch", "title": "Breakfast & Brunch"}, {"alias": "bakeries", "title": "Bakeries"}], "rating": 3.0, "coordinates": {"latitude": 53.618016, "longitude": 10.240096}, "transactions": [], "price": "\u20ac", "location": {"address1": "Braaker Bogen 33", "address2": null, "address3": "", "city": "Braak", "zip_code": "22145", "country": "DE", "state": "SH", "display_address": ["Braaker Bogen 33", "22145 Braak", "Germany"]}, "phone": "+494018024177", "display_phone": "+49 40 18024177", "distance": 2825.647796160903}, {"id": "0Ndzh9sFL1h9QQpaX7P32Q", "alias": "new-mongolei-ahrensburg", "name": "New Mongolei", "image_url": "https://s3-media3.fl.yelpcdn.com/bphoto/tBD-eN8NxmJqOHWTFsAdLA/o.jpg", "is_closed": false, "url": "https://www.yelp.com/biz/new-mongolei-ahrensburg?adjust_creative=hBJOknVQJ58S5goQyjmwRw&utm_campaign=yelp_api_v3&utm_medium=api_v3_business_search&utm_source=hBJOknVQJ58S5goQyjmwRw", "review_count": 6, "categories": [{"alias": "mongolian", "title": "Mongolian"}, {"alias": "chinese", "title": "Chinese"}], "rating": 3.5, "coordinates": {"latitude": 53.675824, "longitude": 10.240166}, "transactions": [], "price": "\u20ac\u20ac", "location": {"address1": "Gro\u00dfe Str. 9", "address2": "", "address3": "", "city": "Ahrensburg", "zip_code": "22926", "country": "DE", "state": "SH", "display_address": ["Gro\u00dfe Str. 9", "22926 Ahrensburg", "Germany"]}, "phone": "+4941026917988", "display_phone": "+49 4102 6917988", "distance": 3607.2852402579747}, {"id": "9gJPnkhX8xGN-9AwQ9T9oQ", "alias": "cafe-gold-ahrensburg", "name": "Cafe GOLD", "image_url": "https://s3-media4.fl.yelpcdn.com/bphoto/F_imZjd1RIkxGChyOsKsIQ/o.jpg", "is_closed": false, "url": "https://www.yelp.com/biz/cafe-gold-ahrensburg?adjust_creative=hBJOknVQJ58S5goQyjmwRw&utm_campaign=yelp_api_v3&utm_medium=api_v3_business_search&utm_source=hBJOknVQJ58S5goQyjmwRw", "review_count": 5, "categories": [{"alias": "cafes", "title": "Cafes"}, {"alias": "homedecor", "title": "Home Decor"}, {"alias": "antiques", "title": "Antiques"}], "rating": 4.0, "coordinates": {"latitude": 53.68131, "longitude": 10.2441099}, "transactions": [], "price": "\u20ac", "location": {"address1": "L\u00fcbecker Str. 6", "address2": null, "address3": "", "city": "Ahrensburg", "zip_code": "22926", "country": "DE", "state": "SH", "display_address": ["L\u00fcbecker Str. 6", "22926 Ahrensburg", "Germany"]}, "phone": "+4941026649596", "display_phone": "+49 4102 6649596", "distance": 4171.705085071268}, {"id": "KSd_Z8iubV7SySmgcQYimA", "alias": "ruges-croque-shop-ahrensburg", "name": "Ruge's Croque-Shop", "image_url": "https://s3-media2.fl.yelpcdn.com/bphoto/fS3AQPrX6Kec9YcwEANWOA/o.jpg", "is_closed": false, "url": "https://www.yelp.com/biz/ruges-croque-shop-ahrensburg?adjust_creative=hBJOknVQJ58S5goQyjmwRw&utm_campaign=yelp_api_v3&utm_medium=api_v3_business_search&utm_source=hBJOknVQJ58S5goQyjmwRw", "review_count": 22, "categories": [{"alias": "german", "title": "German"}, {"alias": "sandwiches", "title": "Sandwiches"}], "rating": 4.0, "coordinates": {"latitude": 53.67266, "longitude": 10.2387599}, "transactions": [], "price": "\u20ac\u20ac", "location": {"address1": "Rondeel 8", "address2": null, "address3": null, "city": "Ahrensburg", "zip_code": "22926", "country": "DE", "state": "SH", "display_address": ["Rondeel 8", "22926 Ahrensburg", "Germany"]}, "phone": "+49410232200", "display_phone": "+49 4102 32200", "distance": 3271.3618739259773}, {"id": "Ef_MpC422pbYB_9rruoBFQ", "alias": "block-house-ahrensburg", "name": "Block House", "image_url": "https://s3-media2.fl.yelpcdn.com/bphoto/-k2VT7KitdEWBdwKqtpyqw/o.jpg", "is_closed": false, "url": "https://www.yelp.com/biz/block-house-ahrensburg?adjust_creative=hBJOknVQJ58S5goQyjmwRw&utm_campaign=yelp_api_v3&utm_medium=api_v3_business_search&utm_source=hBJOknVQJ58S5goQyjmwRw", "review_count": 34, "categories": [{"alias": "steak", "title": "Steakhouses"}], "rating": 4.0, "coordinates": {"latitude": 53.6751, "longitude": 10.2404}, "transactions": [], "price": "\u20ac\u20ac\u20ac", "location": {"address1": "Gro\u00dfe Str. 13", "address2": null, "address3": null, "city": "Ahrensburg", "zip_code": "22926", "country": "DE", "state": "SH", "display_address": ["Gro\u00dfe Str. 13", "22926 Ahrensburg", "Germany"]}, "phone": "+49410254314", "display_phone": "+49 4102 54314", "distance": 3529.6507250854966}, {"id": "xSZO3bg3cyXdB3cEAblykQ", "alias": "la-casetta-ahrensburg", "name": "La Casetta", "image_url": "https://s3-media4.fl.yelpcdn.com/bphoto/LljVDlDhmpcwSsRQeyK1XA/o.jpg", "is_closed": false, "url": "https://www.yelp.com/biz/la-casetta-ahrensburg?adjust_creative=hBJOknVQJ58S5goQyjmwRw&utm_campaign=yelp_api_v3&utm_medium=api_v3_business_search&utm_source=hBJOknVQJ58S5goQyjmwRw", "review_count": 4, "categories": [{"alias": "italian", "title": "Italian"}, {"alias": "venues", "title": "Venues & Event Spaces"}], "rating": 4.0, "coordinates": {"latitude": 53.6670299, "longitude": 10.22166}, "transactions": [], "location": {"address1": "Rantzaustr. 136", "address2": null, "address3": "", "city": "Ahrensburg", "zip_code": "22926", "country": "DE", "state": "SH", "display_address": ["Rantzaustr. 136", "22926 Ahrensburg", "Germany"]}, "phone": "+494102205573", "display_phone": "+49 4102 205573", "distance": 2968.8875285335043}, {"id": "ONOZStpGX8Nn0UtFiXXzVw", "alias": "selale-ahrensburg", "name": "Selale", "image_url": "", "is_closed": false, "url": "https://www.yelp.com/biz/selale-ahrensburg?adjust_creative=hBJOknVQJ58S5goQyjmwRw&utm_campaign=yelp_api_v3&utm_medium=api_v3_business_search&utm_source=hBJOknVQJ58S5goQyjmwRw", "review_count": 1, "categories": [{"alias": "turkish", "title": "Turkish"}], "rating": 4.0, "coordinates": {"latitude": 53.6762279, "longitude": 10.2392492}, "transactions": [], "location": {"address1": "Bei der alten Kate 6", "address2": "", "address3": "", "city": "Ahrensburg", "zip_code": "22926", "country": "DE", "state": "SH", "display_address": ["Bei der alten Kate 6", "22926 Ahrensburg", "Germany"]}, "phone": "+4941026912361", "display_phone": "+49 4102 6912361", "distance": 3658.76652886014}, {"id": "TAfqyQEh0__QlLylFOTaGw", "alias": "china-restaurant-yau-ahrensburg", "name": "China-Restaurant Yau", "image_url": "", "is_closed": false, "url": "https://www.yelp.com/biz/china-restaurant-yau-ahrensburg?adjust_creative=hBJOknVQJ58S5goQyjmwRw&utm_campaign=yelp_api_v3&utm_medium=api_v3_business_search&utm_source=hBJOknVQJ58S5goQyjmwRw", "review_count": 1, "categories": [{"alias": "chinese", "title": "Chinese"}], "rating": 5.0, "coordinates": {"latitude": 53.6757, "longitude": 10.2369}, "transactions": [], "price": "\u20ac\u20ac\u20ac", "location": {"address1": "Reeshoop 16", "address2": null, "address3": null, "city": "Ahrensburg", "zip_code": "22926", "country": "DE", "state": "SH", "display_address": ["Reeshoop 16", "22926 Ahrensburg", "Germany"]}, "phone": "+49410257800", "display_phone": "+49 4102 57800", "distance": 3612.995037548399}, {"id": "YfayyY4dGw7VkwRfHwl4Mw", "alias": "fisch-schloh-ahrensburg", "name": "Fisch-Schloh", "image_url": "https://s3-media1.fl.yelpcdn.com/bphoto/7ZkRfScGxuE8AsN7owQwCw/o.jpg", "is_closed": false, "url": "https://www.yelp.com/biz/fisch-schloh-ahrensburg?adjust_creative=hBJOknVQJ58S5goQyjmwRw&utm_campaign=yelp_api_v3&utm_medium=api_v3_business_search&utm_source=hBJOknVQJ58S5goQyjmwRw", "review_count": 6, "categories": [{"alias": "seafood", "title": "Seafood"}, {"alias": "fishmonger", "title": "Fishmonger"}], "rating": 4.5, "coordinates": {"latitude": 53.671771, "longitude": 10.2404682}, "transactions": [], "price": "\u20ac\u20ac", "location": {"address1": "Manhagener Allee  11 a", "address2": null, "address3": null, "city": "Ahrensburg", "zip_code": "22926", "country": "DE", "state": "SH", "display_address": ["Manhagener Allee  11 a", "22926 Ahrensburg", "Germany"]}, "phone": "+494102666722", "display_phone": "+49 4102 666722", "distance": 3159.631044730924}, {"id": "QuEmoW_Y7Vqhh1qWPreNog", "alias": "fr\u00fchst\u00fccks-stube-ahrensburg", "name": "Fr\u00fchst\u00fccks-Stube", "image_url": "", "is_closed": false, "url": "https://www.yelp.com/biz/fr%C3%BChst%C3%BCcks-stube-ahrensburg?adjust_creative=hBJOknVQJ58S5goQyjmwRw&utm_campaign=yelp_api_v3&utm_medium=api_v3_business_search&utm_source=hBJOknVQJ58S5goQyjmwRw", "review_count": 4, "categories": [{"alias": "cafes", "title": "Cafes"}, {"alias": "coffee", "title": "Coffee & Tea"}], "rating": 5.0, "coordinates": {"latitude": 53.66487, "longitude": 10.22024}, "transactions": [], "location": {"address1": "Waldemar-Bonselsweg 168", "address2": null, "address3": null, "city": "Ahrensburg", "zip_code": "22926", "country": "DE", "state": "SH", "display_address": ["Waldemar-Bonselsweg 168", "22926 Ahrensburg", "Germany"]}, "phone": "+49410230295", "display_phone": "+49 4102 30295", "distance": 2807.254623636294}, {"id": "KX5viLCOnnASgNtKgZNfdg", "alias": "big-d\u00f6ner-ahrensburg", "name": "Big-D\u00f6ner", "image_url": "https://s3-media1.fl.yelpcdn.com/bphoto/s5NisHTc_gtpmwDNvA4BLQ/o.jpg", "is_closed": false, "url": "https://www.yelp.com/biz/big-d%C3%B6ner-ahrensburg?adjust_creative=hBJOknVQJ58S5goQyjmwRw&utm_campaign=yelp_api_v3&utm_medium=api_v3_business_search&utm_source=hBJOknVQJ58S5goQyjmwRw", "review_count": 3, "categories": [{"alias": "kebab", "title": "Kebab"}], "rating": 4.0, "coordinates": {"latitude": 53.6743852, "longitude": 10.2381118}, "transactions": [], "price": "\u20ac\u20ac", "location": {"address1": "Klaus-Groth-Str. 2 - 4", "address2": "", "address3": "", "city": "Ahrensburg", "zip_code": "22926", "country": "DE", "state": "SH", "display_address": ["Klaus-Groth-Str. 2 - 4", "22926 Ahrensburg", "Germany"]}, "phone": "+4917647049817", "display_phone": "+49 176 47049817", "distance": 3459.8750440376234}, {"id": "EgKY7oSwxMHGMLiqGiIOWA", "alias": "tapas-und-wein-bar-ahrensburg", "name": "Tapas & Wein Bar", "image_url": "https://s3-media1.fl.yelpcdn.com/bphoto/e0yt1A9M-1JW8cSfPnIDpg/o.jpg", "is_closed": false, "url": "https://www.yelp.com/biz/tapas-und-wein-bar-ahrensburg?adjust_creative=hBJOknVQJ58S5goQyjmwRw&utm_campaign=yelp_api_v3&utm_medium=api_v3_business_search&utm_source=hBJOknVQJ58S5goQyjmwRw", "review_count": 11, "categories": [{"alias": "tapas", "title": "Tapas Bars"}, {"alias": "spanish", "title": "Spanish"}], "rating": 3.5, "coordinates": {"latitude": 53.68177, "longitude": 10.24226}, "transactions": [], "price": "\u20ac\u20ac\u20ac", "location": {"address1": "L\u00fcbecker Str. 10 a", "address2": "", "address3": "", "city": "Ahrensburg", "zip_code": "22926", "country": "DE", "state": "SH", "display_address": ["L\u00fcbecker Str. 10 a", "22926 Ahrensburg", "Germany"]}, "phone": "+4941022300", "display_phone": "+49 4102 2300", "distance": 4264.020321754976}, {"id": "XxOP1O3vQGLvuoodWk68Aw", "alias": "ok-pizza-ahrensburg", "name": "OK Pizza", "image_url": "https://s3-media4.fl.yelpcdn.com/bphoto/dQ1dw8W9WuZKwuw11ZwSwQ/o.jpg", "is_closed": false, "url": "https://www.yelp.com/biz/ok-pizza-ahrensburg?adjust_creative=hBJOknVQJ58S5goQyjmwRw&utm_campaign=yelp_api_v3&utm_medium=api_v3_business_search&utm_source=hBJOknVQJ58S5goQyjmwRw", "review_count": 6, "categories": [{"alias": "pizza", "title": "Pizza"}], "rating": 3.5, "coordinates": {"latitude": 53.6752525088791, "longitude": 10.239392441608}, "transactions": [], "price": "\u20ac\u20ac\u20ac", "location": {"address1": "Gro\u00dfe Str. 16 - 20", "address2": "", "address3": "", "city": "Ahrensburg", "zip_code": "22926", "country": "DE", "state": "SH", "display_address": ["Gro\u00dfe Str. 16 - 20", "22926 Ahrensburg", "Germany"]}, "phone": "+49410240555", "display_phone": "+49 4102 40555", "distance": 3549.937117708837}, {"id": "zdvVMN4s0wk7Rn4DxjU4Nw", "alias": "cake-and-coffee-ahrensburg", "name": "Cake & Coffee", "image_url": "https://s3-media2.fl.yelpcdn.com/bphoto/FzoqemyvSDFCO01SEt7mpw/o.jpg", "is_closed": false, "url": "https://www.yelp.com/biz/cake-and-coffee-ahrensburg?adjust_creative=hBJOknVQJ58S5goQyjmwRw&utm_campaign=yelp_api_v3&utm_medium=api_v3_business_search&utm_source=hBJOknVQJ58S5goQyjmwRw", "review_count": 2, "categories": [{"alias": "cafes", "title": "Cafes"}, {"alias": "coffee", "title": "Coffee & Tea"}], "rating": 4.0, "coordinates": {"latitude": 53.67371, "longitude": 10.23894}, "transactions": [], "location": {"address1": "Gro\u00dfe Str. 42", "address2": null, "address3": null, "city": "Ahrensburg", "zip_code": "22926", "country": "DE", "state": "SH", "display_address": ["Gro\u00dfe Str. 42", "22926 Ahrensburg", "Germany"]}, "phone": "+494102983174", "display_phone": "+49 4102 983174", "distance": 3394.8547060390915}, {"id": "otXAU9fFRpqLYMZYoEgrXQ", "alias": "mcdonalds-ahrensburg", "name": "McDonald's", "image_url": "https://s3-media3.fl.yelpcdn.com/bphoto/oN01eTrfJbmbPw2ErphhjQ/o.jpg", "is_closed": false, "url": "https://www.yelp.com/biz/mcdonalds-ahrensburg?adjust_creative=hBJOknVQJ58S5goQyjmwRw&utm_campaign=yelp_api_v3&utm_medium=api_v3_business_search&utm_source=hBJOknVQJ58S5goQyjmwRw", "review_count": 12, "categories": [{"alias": "hotdogs", "title": "Fast Food"}, {"alias": "burgers", "title": "Burgers"}], "rating": 3.0, "coordinates": {"latitude": 53.6635599, "longitude": 10.2212099}, "transactions": [], "price": "\u20ac\u20ac", "location": {"address1": "Hamburger Str. 159", "address2": null, "address3": null, "city": "Ahrensburg", "zip_code": "22926", "country": "DE", "state": "SH", "display_address": ["Hamburger Str. 159", "22926 Ahrensburg", "Germany"]}, "phone": "+494102821707", "display_phone": "+49 4102 821707", "distance": 2643.3455302545754}, {"id": "X7fr91R--0fQuyBL7gaOEw", "alias": "rockefeller-ahrensburg", "name": "Rockefeller", "image_url": "https://s3-media3.fl.yelpcdn.com/bphoto/c90wOI-L3my0rGvBkfNmLg/o.jpg", "is_closed": false, "url": "https://www.yelp.com/biz/rockefeller-ahrensburg?adjust_creative=hBJOknVQJ58S5goQyjmwRw&utm_campaign=yelp_api_v3&utm_medium=api_v3_business_search&utm_source=hBJOknVQJ58S5goQyjmwRw", "review_count": 20, "categories": [{"alias": "international", "title": "International"}], "rating": 3.5, "coordinates": {"latitude": 53.669829751765, "longitude": 10.236160818777}, "transactions": [], "price": "\u20ac\u20ac", "location": {"address1": "Stormarnstr. 2", "address2": null, "address3": null, "city": "Ahrensburg", "zip_code": "22926", "country": "DE", "state": "SH", "display_address": ["Stormarnstr. 2", "22926 Ahrensburg", "Germany"]}, "phone": "+494102823483", "display_phone": "+49 4102 823483", "distance": 2971.1538855613385}, {"id": "CRVbrc10xodwSwr8o-L2lQ", "alias": "taverne-rigani-ahrensburg", "name": "Taverne Rigani", "image_url": "https://s3-media4.fl.yelpcdn.com/bphoto/bZCBUKdDDowz0A79g5J2qw/o.jpg", "is_closed": false, "url": "https://www.yelp.com/biz/taverne-rigani-ahrensburg?adjust_creative=hBJOknVQJ58S5goQyjmwRw&utm_campaign=yelp_api_v3&utm_medium=api_v3_business_search&utm_source=hBJOknVQJ58S5goQyjmwRw", "review_count": 9, "categories": [{"alias": "greek", "title": "Greek"}], "rating": 3.5, "coordinates": {"latitude": 53.6698029592347, "longitude": 10.2354253055572}, "transactions": [], "price": "\u20ac\u20ac\u20ac", "location": {"address1": "Stormarnstr. 15", "address2": null, "address3": null, "city": "Ahrensburg", "zip_code": "22926", "country": "DE", "state": "SH", "display_address": ["Stormarnstr. 15", "22926 Ahrensburg", "Germany"]}, "phone": "+494102666969", "display_phone": "+49 4102 666969", "distance": 2975.528694178734}, {"id": "zFysaJzQwC8uav4Ka08aww", "alias": "mendoza-ahrensburg", "name": "Mendoza", "image_url": "https://s3-media1.fl.yelpcdn.com/bphoto/YuanUbthkb73UWDBOhnPBQ/o.jpg", "is_closed": false, "url": "https://www.yelp.com/biz/mendoza-ahrensburg?adjust_creative=hBJOknVQJ58S5goQyjmwRw&utm_campaign=yelp_api_v3&utm_medium=api_v3_business_search&utm_source=hBJOknVQJ58S5goQyjmwRw", "review_count": 8, "categories": [{"alias": "bistros", "title": "Bistros"}, {"alias": "steak", "title": "Steakhouses"}], "rating": 4.0, "coordinates": {"latitude": 53.6725, "longitude": 10.24098}, "transactions": [], "location": {"address1": "Neue Str. 9", "address2": "", "address3": null, "city": "Ahrensburg", "zip_code": "22926", "country": "DE", "state": "SH", "display_address": ["Neue Str. 9", "22926 Ahrensburg", "Germany"]}, "phone": "+4941022057779", "display_phone": "+49 4102 2057779", "distance": 3234.3592615491643}, {"id": "aj5KdLaad35-HlAVQc-bCQ", "alias": "schweinske-ahrensburg", "name": "Schweinske", "image_url": "https://s3-media1.fl.yelpcdn.com/bphoto/5VHx6hmwYNum6iLPwqZZqg/o.jpg", "is_closed": false, "url": "https://www.yelp.com/biz/schweinske-ahrensburg?adjust_creative=hBJOknVQJ58S5goQyjmwRw&utm_campaign=yelp_api_v3&utm_medium=api_v3_business_search&utm_source=hBJOknVQJ58S5goQyjmwRw", "review_count": 28, "categories": [{"alias": "german", "title": "German"}], "rating": 3.0, "coordinates": {"latitude": 53.6695, "longitude": 10.2363}, "transactions": [], "price": "\u20ac\u20ac", "location": {"address1": "Bahnhofstr. 9", "address2": null, "address3": null, "city": "Ahrensburg", "zip_code": "22926", "country": "DE", "state": "SH", "display_address": ["Bahnhofstr. 9", "22926 Ahrensburg", "Germany"]}, "phone": "+494102208058", "display_phone": "+49 4102 208058", "distance": 2933.5553300830516}, {"id": "9WImPAkgJMIdbyb0lAa2tg", "alias": "tunicis-restaurant-dubrovnik-ahrensburg-2", "name": "Tunici's Restaurant Dubrovnik", "image_url": "", "is_closed": false, "url": "https://www.yelp.com/biz/tunicis-restaurant-dubrovnik-ahrensburg-2?adjust_creative=hBJOknVQJ58S5goQyjmwRw&utm_campaign=yelp_api_v3&utm_medium=api_v3_business_search&utm_source=hBJOknVQJ58S5goQyjmwRw", "review_count": 11, "categories": [{"alias": "serbocroatian", "title": "Serbo Croatian"}], "rating": 3.5, "coordinates": {"latitude": 53.66187, "longitude": 10.24325}, "transactions": [], "location": {"address1": "Ahrensfelder Weg 52", "address2": "", "address3": "", "city": "Ahrensburg", "zip_code": "22926", "country": "DE", "state": "SH", "display_address": ["Ahrensfelder Weg 52", "22926 Ahrensburg", "Germany"]}, "phone": "+49410251211", "display_phone": "+49 4102 51211", "distance": 2055.9816497675783}, {"id": "APvIA_7ssxgC0atmQEFMcg", "alias": "burgerkultour-food-truck-hamburg-2", "name": "BurgerKultour Food Truck", "image_url": "https://s3-media4.fl.yelpcdn.com/bphoto/KoAuwalMnlAO8139MmdYBQ/o.jpg", "is_closed": false, "url": "https://www.yelp.com/biz/burgerkultour-food-truck-hamburg-2?adjust_creative=hBJOknVQJ58S5goQyjmwRw&utm_campaign=yelp_api_v3&utm_medium=api_v3_business_search&utm_source=hBJOknVQJ58S5goQyjmwRw", "review_count": 3, "categories": [{"alias": "foodtrucks", "title": "Food Trucks"}, {"alias": "burgers", "title": "Burgers"}], "rating": 4.5, "coordinates": {"latitude": 53.57154, "longitude": 9.95575}, "transactions": [], "price": "\u20ac\u20ac", "location": {"address1": "", "address2": "", "address3": "", "city": "Hamburg", "zip_code": "20259", "country": "DE", "state": "HH", "display_address": ["20259 Hamburg", "Germany"]}, "phone": "+4917626055122", "display_phone": "+49 176 26055122", "distance": 20529.89579457459}, {"id": "YlY659TTaSuESJD36fDtYA", "alias": "asia-haus-ahrensburg", "name": "Asia Haus", "image_url": "", "is_closed": false, "url": "https://www.yelp.com/biz/asia-haus-ahrensburg?adjust_creative=hBJOknVQJ58S5goQyjmwRw&utm_campaign=yelp_api_v3&utm_medium=api_v3_business_search&utm_source=hBJOknVQJ58S5goQyjmwRw", "review_count": 5, "categories": [{"alias": "panasian", "title": "Pan Asian"}], "rating": 2.5, "coordinates": {"latitude": 53.6699598, "longitude": 10.2356106}, "transactions": [], "price": "\u20ac\u20ac", "location": {"address1": "Stormarnstr. 4", "address2": null, "address3": null, "city": "Ahrensburg", "zip_code": "22926", "country": "DE", "state": "SH", "display_address": ["Stormarnstr. 4", "22926 Ahrensburg", "Germany"]}, "phone": "+494102458830", "display_phone": "+49 4102 458830", "distance": 2990.8410750979956}, {"id": "uKGytQa7ogSmVv6uSPHucA", "alias": "eiscafe-il-gelato-ahrensburg", "name": "Eiscafe Il Gelato", "image_url": "https://s3-media1.fl.yelpcdn.com/bphoto/-PA1dOLX47ZxEs_ZJKDcag/o.jpg", "is_closed": false, "url": "https://www.yelp.com/biz/eiscafe-il-gelato-ahrensburg?adjust_creative=hBJOknVQJ58S5goQyjmwRw&utm_campaign=yelp_api_v3&utm_medium=api_v3_business_search&utm_source=hBJOknVQJ58S5goQyjmwRw", "review_count": 4, "categories": [{"alias": "icecream", "title": "Ice Cream & Frozen Yogurt"}, {"alias": "cafes", "title": "Cafes"}, {"alias": "coffee", "title": "Coffee & Tea"}], "rating": 4.0, "coordinates": {"latitude": 53.6747, "longitude": 10.2401}, "transactions": [], "price": "\u20ac\u20ac", "location": {"address1": "Gro\u00dfe Str. 17", "address2": null, "address3": null, "city": "Ahrensburg", "zip_code": "22926", "country": "DE", "state": "SH", "display_address": ["Gro\u00dfe Str. 17", "22926 Ahrensburg", "Germany"]}, "phone": "+49410230838", "display_phone": "+49 4102 30838", "distance": 3486.0920215800543}, {"id": "vYzdcrNTGdpLbSbgCWeTaQ", "alias": "leckere-bratwurst-bude-ahrensburg", "name": "Leckere Bratwurst Bude", "image_url": "", "is_closed": false, "url": "https://www.yelp.com/biz/leckere-bratwurst-bude-ahrensburg?adjust_creative=hBJOknVQJ58S5goQyjmwRw&utm_campaign=yelp_api_v3&utm_medium=api_v3_business_search&utm_source=hBJOknVQJ58S5goQyjmwRw", "review_count": 1, "categories": [{"alias": "currysausage", "title": "Curry Sausage"}], "rating": 4.0, "coordinates": {"latitude": 53.6764136, "longitude": 10.2378854}, "transactions": [], "price": "\u20ac", "location": {"address1": "Kornkamp 34", "address2": "", "address3": "", "city": "Ahrensburg", "zip_code": "22926", "country": "DE", "state": "SH", "display_address": ["Kornkamp 34", "22926 Ahrensburg", "Germany"]}, "phone": "", "display_phone": "", "distance": 3685.873699011853}, {"id": "tKyHGeLv00xm-NtJGra3Kg", "alias": "eis-cafe-chocolat-ahrensburg", "name": "Eis Cafe Chocolat", "image_url": "https://s3-media1.fl.yelpcdn.com/bphoto/wqmYbDRV1BIpTlJFWnLSmg/o.jpg", "is_closed": false, "url": "https://www.yelp.com/biz/eis-cafe-chocolat-ahrensburg?adjust_creative=hBJOknVQJ58S5goQyjmwRw&utm_campaign=yelp_api_v3&utm_medium=api_v3_business_search&utm_source=hBJOknVQJ58S5goQyjmwRw", "review_count": 3, "categories": [{"alias": "cafes", "title": "Cafes"}, {"alias": "coffee", "title": "Coffee & Tea"}], "rating": 4.5, "coordinates": {"latitude": 53.664, "longitude": 10.2206}, "transactions": [], "location": {"address1": "Waldemar-Bonsels-Weg", "address2": null, "address3": null, "city": "Ahrensburg", "zip_code": "22926", "country": "DE", "state": "SH", "display_address": ["Waldemar-Bonsels-Weg", "22926 Ahrensburg", "Germany"]}, "phone": "", "display_phone": "", "distance": 2712.6476135953158}, {"id": "5JSnV2Zy0YUcxK0WiBGCGg", "alias": "villa-romana-ahrensburg", "name": "Villa Romana", "image_url": "https://s3-media2.fl.yelpcdn.com/bphoto/6BY1KIF-TkWws7kr9H8oRw/o.jpg", "is_closed": false, "url": "https://www.yelp.com/biz/villa-romana-ahrensburg?adjust_creative=hBJOknVQJ58S5goQyjmwRw&utm_campaign=yelp_api_v3&utm_medium=api_v3_business_search&utm_source=hBJOknVQJ58S5goQyjmwRw", "review_count": 4, "categories": [{"alias": "italian", "title": "Italian"}], "rating": 4.0, "coordinates": {"latitude": 53.6761124665944, "longitude": 10.2392913401127}, "transactions": [], "price": "\u20ac\u20ac\u20ac", "location": {"address1": "Bei der Alten Kate 6", "address2": "", "address3": "", "city": "Ahrensburg", "zip_code": "22926", "country": "DE", "state": "SH", "display_address": ["Bei der Alten Kate 6", "22926 Ahrensburg", "Germany"]}, "phone": "+4941026672596", "display_phone": "+49 4102 6672596", "distance": 3645.787065029371}, {"id": "zGrPAoYmTj-CrepaEfF0Pg", "alias": "noris-eiscafe-ahrensburg", "name": "Nori's Eiscafe", "image_url": "https://s3-media2.fl.yelpcdn.com/bphoto/JGc7agy6Qfd80NFZJ9cpOw/o.jpg", "is_closed": false, "url": "https://www.yelp.com/biz/noris-eiscafe-ahrensburg?adjust_creative=hBJOknVQJ58S5goQyjmwRw&utm_campaign=yelp_api_v3&utm_medium=api_v3_business_search&utm_source=hBJOknVQJ58S5goQyjmwRw", "review_count": 3, "categories": [{"alias": "cafes", "title": "Cafes"}, {"alias": "italian", "title": "Italian"}, {"alias": "coffee", "title": "Coffee & Tea"}], "rating": 5.0, "coordinates": {"latitude": 53.67181, "longitude": 10.238984}, "transactions": [], "price": "\u20ac", "location": {"address1": "Hagener Allee 23", "address2": "", "address3": "", "city": "Ahrensburg", "zip_code": "22926", "country": "DE", "state": "SH", "display_address": ["Hagener Allee 23", "22926 Ahrensburg", "Germany"]}, "phone": "", "display_phone": "", "distance": 3167.2847393438187}, {"id": "7DT39R64fx3OxYm5ahIt9g", "alias": "eiscafe-la-volpe-ahrensburg", "name": "Eiscafe La Volpe", "image_url": "https://s3-media3.fl.yelpcdn.com/bphoto/OvND0RyZjqRIh-2o67kaog/o.jpg", "is_closed": false, "url": "https://www.yelp.com/biz/eiscafe-la-volpe-ahrensburg?adjust_creative=hBJOknVQJ58S5goQyjmwRw&utm_campaign=yelp_api_v3&utm_medium=api_v3_business_search&utm_source=hBJOknVQJ58S5goQyjmwRw", "review_count": 7, "categories": [{"alias": "icecream", "title": "Ice Cream & Frozen Yogurt"}, {"alias": "cafes", "title": "Cafes"}, {"alias": "coffee", "title": "Coffee & Tea"}], "rating": 5.0, "coordinates": {"latitude": 53.6732, "longitude": 10.2376}, "transactions": [], "price": "\u20ac\u20ac", "location": {"address1": "Rathausplatz 25", "address2": null, "address3": null, "city": "Ahrensburg", "zip_code": "22926", "country": "DE", "state": "SH", "display_address": ["Rathausplatz 25", "22926 Ahrensburg", "Germany"]}, "phone": "+49410250130", "display_phone": "+49 4102 50130", "distance": 3331.761055346491}, {"id": "RuoKg2MqRvWAbpbvY5Q2-w", "alias": "effes-grill-ahrensburg", "name": "Effes Grill", "image_url": "", "is_closed": false, "url": "https://www.yelp.com/biz/effes-grill-ahrensburg?adjust_creative=hBJOknVQJ58S5goQyjmwRw&utm_campaign=yelp_api_v3&utm_medium=api_v3_business_search&utm_source=hBJOknVQJ58S5goQyjmwRw", "review_count": 14, "categories": [{"alias": "kebab", "title": "Kebab"}, {"alias": "bbq", "title": "Barbeque"}], "rating": 3.5, "coordinates": {"latitude": 53.6736905, "longitude": 10.2400128}, "transactions": [], "price": "\u20ac", "location": {"address1": "Gro\u00dfe Str. 35", "address2": null, "address3": null, "city": "Ahrensburg", "zip_code": "22926", "country": "DE", "state": "SH", "display_address": ["Gro\u00dfe Str. 35", "22926 Ahrensburg", "Germany"]}, "phone": "+494102458357", "display_phone": "+49 4102 458357", "distance": 3374.2575459377804}, {"id": "7xNC4Frn4ZBQ-MdMrze4AA", "alias": "caligo-coffee-ahrensburg-2", "name": "Caligo Coffee", "image_url": "https://s3-media4.fl.yelpcdn.com/bphoto/w1YfA3-ta3TOnPDjy0vNnw/o.jpg", "is_closed": false, "url": "https://www.yelp.com/biz/caligo-coffee-ahrensburg-2?adjust_creative=hBJOknVQJ58S5goQyjmwRw&utm_campaign=yelp_api_v3&utm_medium=api_v3_business_search&utm_source=hBJOknVQJ58S5goQyjmwRw", "review_count": 21, "categories": [{"alias": "cafes", "title": "Cafes"}], "rating": 4.0, "coordinates": {"latitude": 53.673167, "longitude": 10.238838}, "transactions": [], "price": "\u20ac\u20ac", "location": {"address1": "Rondeel 4", "address2": null, "address3": null, "city": "Ahrensburg", "zip_code": "22926", "country": "DE", "state": "SH", "display_address": ["Rondeel 4", "22926 Ahrensburg", "Germany"]}, "phone": "", "display_phone": "", "distance": 3321.0142314144323}, {"id": "0xkPxwwWkQpsembjKyjg_A", "alias": "die-k\u00f6nigliche-wurst-ahrensburg", "name": "Die K\u00f6nigliche Wurst", "image_url": "https://s3-media1.fl.yelpcdn.com/bphoto/nrt1YhE7NU07j_F92q1OlQ/o.jpg", "is_closed": false, "url": "https://www.yelp.com/biz/die-k%C3%B6nigliche-wurst-ahrensburg?adjust_creative=hBJOknVQJ58S5goQyjmwRw&utm_campaign=yelp_api_v3&utm_medium=api_v3_business_search&utm_source=hBJOknVQJ58S5goQyjmwRw", "review_count": 1, "categories": [{"alias": "currysausage", "title": "Curry Sausage"}, {"alias": "bbq", "title": "Barbeque"}, {"alias": "foodstands", "title": "Food Stands"}], "rating": 2.0, "coordinates": {"latitude": 53.673693, "longitude": 10.2395457}, "transactions": [], "price": "\u20ac\u20ac\u20ac", "location": {"address1": "Gro\u00dfe Str. 43", "address2": null, "address3": null, "city": "Ahrensburg", "zip_code": "22926", "country": "DE", "state": "SH", "display_address": ["Gro\u00dfe Str. 43", "22926 Ahrensburg", "Germany"]}, "phone": "+4941028914713", "display_phone": "+49 4102 8914713", "distance": 3376.2344760834762}, {"id": "NIdJO-hwFoXefYWkIxenMA", "alias": "pizza-max-ahrensburg", "name": "Pizza Max", "image_url": "https://s3-media1.fl.yelpcdn.com/bphoto/A8hNCkw27N6kxu7EbFdLuw/o.jpg", "is_closed": false, "url": "https://www.yelp.com/biz/pizza-max-ahrensburg?adjust_creative=hBJOknVQJ58S5goQyjmwRw&utm_campaign=yelp_api_v3&utm_medium=api_v3_business_search&utm_source=hBJOknVQJ58S5goQyjmwRw", "review_count": 10, "categories": [{"alias": "pizza", "title": "Pizza"}], "rating": 3.5, "coordinates": {"latitude": 53.670595, "longitude": 10.234687}, "transactions": [], "price": "\u20ac\u20ac", "location": {"address1": "Hamburger Str. 37", "address2": "", "address3": "", "city": "Ahrensburg", "zip_code": "22926", "country": "DE", "state": "SH", "display_address": ["Hamburger Str. 37", "22926 Ahrensburg", "Germany"]}, "phone": "+494102888834", "display_phone": "+49 4102 888834", "distance": 3059.0682605203892}, {"id": "eXJVATOCTFSv2jhsQWGUCQ", "alias": "croque-shop-imbi\u00dfbetriebe-ahrensburg-3", "name": "Croque Shop Imbi\u00dfbetriebe", "image_url": "https://s3-media3.fl.yelpcdn.com/bphoto/zwaPBOkqWJxDozfezOtAoQ/o.jpg", "is_closed": false, "url": "https://www.yelp.com/biz/croque-shop-imbi%C3%9Fbetriebe-ahrensburg-3?adjust_creative=hBJOknVQJ58S5goQyjmwRw&utm_campaign=yelp_api_v3&utm_medium=api_v3_business_search&utm_source=hBJOknVQJ58S5goQyjmwRw", "review_count": 1, "categories": [{"alias": "hotdogs", "title": "Fast Food"}], "rating": 1.0, "coordinates": {"latitude": 53.6726717117947, "longitude": 10.2387651559083}, "transactions": [], "location": {"address1": "Rondeel 8", "address2": null, "address3": null, "city": "Ahrensburg", "zip_code": "22926", "country": "DE", "state": "SH", "display_address": ["Rondeel 8", "22926 Ahrensburg", "Germany"]}, "phone": "+49410232200", "display_phone": "+49 4102 32200", "distance": 3266.466246914253}, {"id": "qXJD8Oep_OSBlV0AM00eRg", "alias": "gastst\u00e4tte-braaker-krug-braak", "name": "Gastst\u00e4tte Braaker Krug", "image_url": "https://s3-media3.fl.yelpcdn.com/bphoto/dtO6y6MWBi6ddDH2mXB0uw/o.jpg", "is_closed": false, "url": "https://www.yelp.com/biz/gastst%C3%A4tte-braaker-krug-braak?adjust_creative=hBJOknVQJ58S5goQyjmwRw&utm_campaign=yelp_api_v3&utm_medium=api_v3_business_search&utm_source=hBJOknVQJ58S5goQyjmwRw", "review_count": 8, "categories": [{"alias": "restaurants", "title": "Restaurants"}], "rating": 3.5, "coordinates": {"latitude": 53.616215, "longitude": 10.240216}, "transactions": [], "price": "\u20ac", "location": {"address1": "Am Sp\u00f6tzen 1", "address2": null, "address3": null, "city": "Braak", "zip_code": "22145", "country": "DE", "state": "SH", "display_address": ["Am Sp\u00f6tzen 1", "22145 Braak", "Germany"]}, "phone": "+49406759540", "display_phone": "+49 40 6759540", "distance": 3026.886460009699}, {"id": "CR51HLNSeD-eXFOhb2k42w", "alias": "smileys-ahrensburg", "name": "Smiley's", "image_url": "", "is_closed": false, "url": "https://www.yelp.com/biz/smileys-ahrensburg?adjust_creative=hBJOknVQJ58S5goQyjmwRw&utm_campaign=yelp_api_v3&utm_medium=api_v3_business_search&utm_source=hBJOknVQJ58S5goQyjmwRw", "review_count": 6, "categories": [{"alias": "pizza", "title": "Pizza"}], "rating": 4.0, "coordinates": {"latitude": 53.6703, "longitude": 10.2353}, "transactions": [], "price": "\u20ac\u20ac\u20ac", "location": {"address1": "Stormarnstr. 6", "address2": null, "address3": null, "city": "Ahrensburg", "zip_code": "22926", "country": "DE", "state": "SH", "display_address": ["Stormarnstr. 6", "22926 Ahrensburg", "Germany"]}, "phone": "+49410250519", "display_phone": "+49 4102 50519", "distance": 3031.406430606029}, {"id": "cGIKCcR0wZszz8VldC2-7g", "alias": "currywerk-hamburg", "name": "curryWERK", "image_url": "https://s3-media4.fl.yelpcdn.com/bphoto/j_ZPQAB6JrAru84VDuLiRA/o.jpg", "is_closed": false, "url": "https://www.yelp.com/biz/currywerk-hamburg?adjust_creative=hBJOknVQJ58S5goQyjmwRw&utm_campaign=yelp_api_v3&utm_medium=api_v3_business_search&utm_source=hBJOknVQJ58S5goQyjmwRw", "review_count": 1, "categories": [{"alias": "foodtrucks", "title": "Food Trucks"}, {"alias": "currysausage", "title": "Curry Sausage"}], "rating": 4.0, "coordinates": {"latitude": 53.5498886108398, "longitude": 9.94732189178467}, "transactions": [], "price": "\u20ac\u20ac", "location": {"address1": "", "address2": "", "address3": "", "city": "Hamburg", "zip_code": "22767", "country": "DE", "state": "HH", "display_address": ["22767 Hamburg", "Germany"]}, "phone": "+4917632443433", "display_phone": "+49 176 32443433", "distance": 22412.927744095512}, {"id": "32oc98cbPR8STNDUnoPCSg", "alias": "cafe-gerads-ahrensburg", "name": "Cafe-Gerads", "image_url": "", "is_closed": false, "url": "https://www.yelp.com/biz/cafe-gerads-ahrensburg?adjust_creative=hBJOknVQJ58S5goQyjmwRw&utm_campaign=yelp_api_v3&utm_medium=api_v3_business_search&utm_source=hBJOknVQJ58S5goQyjmwRw", "review_count": 5, "categories": [{"alias": "cafes", "title": "Cafes"}, {"alias": "coffee", "title": "Coffee & Tea"}], "rating": 3.0, "coordinates": {"latitude": 53.6723419, "longitude": 10.2379449}, "transactions": [], "location": {"address1": "Hamburger Str.  7", "address2": null, "address3": null, "city": "Ahrensburg", "zip_code": "22926", "country": "DE", "state": "SH", "display_address": ["Hamburger Str.  7", "22926 Ahrensburg", "Germany"]}, "phone": "", "display_phone": "", "distance": 3234.5902270899305}]