[{"id": "HJ01zMNLEmQKEVdkMcJYUQ", "alias": "con-calma-hamburg", "name": "Con Calma", "image_url": "https://s3-media2.fl.yelpcdn.com/bphoto/fvN1qc3Bz5KqEJ9NoSz6zA/o.jpg", "is_closed": false, "url": "https://www.yelp.com/biz/con-calma-hamburg?adjust_creative=hBJOknVQJ58S5goQyjmwRw&utm_campaign=yelp_api_v3&utm_medium=api_v3_business_search&utm_source=hBJOknVQJ58S5goQyjmwRw", "review_count": 14, "categories": [{"alias": "italian", "title": "Italian"}], "rating": 4.5, "coordinates": {"latitude": 53.64219, "longitude": 10.1129}, "transactions": [], "price": "\u20ac", "location": {"address1": "Volksdorfer Weg 112", "address2": "", "address3": "", "city": "Hamburg", "zip_code": "22393", "country": "DE", "state": "HH", "display_address": ["Volksdorfer Weg 112", "22393 Hamburg", "Germany"]}, "phone": "+494087602817", "display_phone": "+49 40 87602817", "distance": 633.0968580052986}, {"id": "HTJFV4B-xQRwvDxIun0g2g", "alias": "l-amira-farmsen-hamburg", "name": "L'Amira Farmsen", "image_url": "https://s3-media4.fl.yelpcdn.com/bphoto/vGGTedKCivZ-omRsQDWDnQ/o.jpg", "is_closed": false, "url": "https://www.yelp.com/biz/l-amira-farmsen-hamburg?adjust_creative=hBJOknVQJ58S5goQyjmwRw&utm_campaign=yelp_api_v3&utm_medium=api_v3_business_search&utm_source=hBJOknVQJ58S5goQyjmwRw", "review_count": 58, "categories": [{"alias": "syrian", "title": "Syrian"}], "rating": 4.5, "coordinates": {"latitude": 53.6165449, "longitude": 10.1136955}, "transactions": [], "price": "\u20ac\u20ac", "location": {"address1": "Neusurenland 101", "address2": "", "address3": "", "city": "Hamburg", "zip_code": "22159", "country": "DE", "state": "HH", "display_address": ["Neusurenland 101", "22159 Hamburg", "Germany"]}, "phone": "+494073088653", "display_phone": "+49 40 73088653", "distance": 3160.687406499216}, {"id": "YY5zm9RE9A7Y6Bwz7c4Z4Q", "alias": "indian-temple-hamburg-4", "name": "Indian Temple", "image_url": "https://s3-media1.fl.yelpcdn.com/bphoto/XFfM2ecW3PStoPw8kxniCA/o.jpg", "is_closed": false, "url": "https://www.yelp.com/biz/indian-temple-hamburg-4?adjust_creative=hBJOknVQJ58S5goQyjmwRw&utm_campaign=yelp_api_v3&utm_medium=api_v3_business_search&utm_source=hBJOknVQJ58S5goQyjmwRw", "review_count": 12, "categories": [{"alias": "indpak", "title": "Indian"}], "rating": 4.5, "coordinates": {"latitude": 53.6531, "longitude": 10.10639}, "transactions": [], "price": "\u20ac\u20ac", "location": {"address1": "Saseler Chaussee 205", "address2": "", "address3": "", "city": "Hamburg", "zip_code": "22393", "country": "DE", "state": "HH", "display_address": ["Saseler Chaussee 205", "22393 Hamburg", "Germany"]}, "phone": "+494046642464", "display_phone": "+49 40 46642464", "distance": 1379.3371182302683}, {"id": "rvih7rBlO-VmsWMbgAkJbQ", "alias": "bb-bistro-hamburg", "name": "BB Bistro", "image_url": "https://s3-media3.fl.yelpcdn.com/bphoto/bps_H8kKPnWnMYKvdB3xPQ/o.jpg", "is_closed": false, "url": "https://www.yelp.com/biz/bb-bistro-hamburg?adjust_creative=hBJOknVQJ58S5goQyjmwRw&utm_campaign=yelp_api_v3&utm_medium=api_v3_business_search&utm_source=hBJOknVQJ58S5goQyjmwRw", "review_count": 31, "categories": [{"alias": "bistros", "title": "Bistros"}, {"alias": "chinese", "title": "Chinese"}], "rating": 4.5, "coordinates": {"latitude": 53.653329, "longitude": 10.114534}, "transactions": [], "price": "\u20ac", "location": {"address1": "Waldweg 8", "address2": "", "address3": "", "city": "Hamburg", "zip_code": "22393", "country": "DE", "state": "HH", "display_address": ["Waldweg 8", "22393 Hamburg", "Germany"]}, "phone": "+494088165634", "display_phone": "+49 40 88165634", "distance": 1075.3698246402894}, {"id": "7yDn3Eb-Oo9lECGO2MS0qw", "alias": "watzmann-wirtshaus-hamburg", "name": "Watzmann Wirtshaus", "image_url": "https://s3-media4.fl.yelpcdn.com/bphoto/fAGbOGkp82110R3lEOTKfw/o.jpg", "is_closed": false, "url": "https://www.yelp.com/biz/watzmann-wirtshaus-hamburg?adjust_creative=hBJOknVQJ58S5goQyjmwRw&utm_campaign=yelp_api_v3&utm_medium=api_v3_business_search&utm_source=hBJOknVQJ58S5goQyjmwRw", "review_count": 66, "categories": [{"alias": "austrian", "title": "Austrian"}], "rating": 4.0, "coordinates": {"latitude": 53.65195, "longitude": 10.10617}, "transactions": [], "price": "\u20ac\u20ac", "location": {"address1": "Saseler Chaussee 166", "address2": null, "address3": null, "city": "Hamburg", "zip_code": "22393", "country": "DE", "state": "HH", "display_address": ["Saseler Chaussee 166", "22393 Hamburg", "Germany"]}, "phone": "+49406003589", "display_phone": "+49 40 6003589", "distance": 1302.104899780385}, {"id": "-6tlO6UyWyo_NsKur7uKCw", "alias": "la-madera-hamburg-2", "name": "La Madera", "image_url": "https://s3-media3.fl.yelpcdn.com/bphoto/9J8fAarpfPXzpScmOs85gw/o.jpg", "is_closed": false, "url": "https://www.yelp.com/biz/la-madera-hamburg-2?adjust_creative=hBJOknVQJ58S5goQyjmwRw&utm_campaign=yelp_api_v3&utm_medium=api_v3_business_search&utm_source=hBJOknVQJ58S5goQyjmwRw", "review_count": 103, "categories": [{"alias": "steak", "title": "Steakhouses"}, {"alias": "spanish", "title": "Spanish"}], "rating": 3.5, "coordinates": {"latitude": 53.6434, "longitude": 10.09883}, "transactions": [], "price": "\u20ac\u20ac\u20ac", "location": {"address1": "Saseler Chaussee 101", "address2": "", "address3": "", "city": "Hamburg", "zip_code": "22393", "country": "DE", "state": "HH", "display_address": ["Saseler Chaussee 101", "22393 Hamburg", "Germany"]}, "phone": "+494038076165", "display_phone": "+49 40 38076165", "distance": 1514.7633794493343}, {"id": "Bda7qjlbhgbEimtkgq8IrQ", "alias": "china-ente-restaurant-hamburg-2", "name": "China-Ente-Restaurant", "image_url": "https://s3-media1.fl.yelpcdn.com/bphoto/wrXm4UbqLdIEUZ_hjWLGPg/o.jpg", "is_closed": false, "url": "https://www.yelp.com/biz/china-ente-restaurant-hamburg-2?adjust_creative=hBJOknVQJ58S5goQyjmwRw&utm_campaign=yelp_api_v3&utm_medium=api_v3_business_search&utm_source=hBJOknVQJ58S5goQyjmwRw", "review_count": 14, "categories": [{"alias": "chinese", "title": "Chinese"}], "rating": 4.5, "coordinates": {"latitude": 53.64288, "longitude": 10.09904}, "transactions": [], "price": "\u20ac\u20ac\u20ac", "location": {"address1": "Saseler Chaussee 88 a", "address2": null, "address3": null, "city": "Hamburg", "zip_code": "22393", "country": "DE", "state": "HH", "display_address": ["Saseler Chaussee 88 a", "22393 Hamburg", "Germany"]}, "phone": "+49406014012", "display_phone": "+49 40 6014012", "distance": 1500.223577286268}, {"id": "VsgSTpeeqZUCvAJIXZlN-w", "alias": "just-falafels-hamburg", "name": "Just Falafels", "image_url": "https://s3-media3.fl.yelpcdn.com/bphoto/FY54O4kmbp-WKWDywuiaVQ/o.jpg", "is_closed": false, "url": "https://www.yelp.com/biz/just-falafels-hamburg?adjust_creative=hBJOknVQJ58S5goQyjmwRw&utm_campaign=yelp_api_v3&utm_medium=api_v3_business_search&utm_source=hBJOknVQJ58S5goQyjmwRw", "review_count": 1, "categories": [{"alias": "falafel", "title": "Falafel"}], "rating": 5.0, "coordinates": {"latitude": 53.620699, "longitude": 10.102013}, "transactions": [], "location": {"address1": "Pezolddamm 40", "address2": "", "address3": "", "city": "Hamburg", "zip_code": "22175", "country": "DE", "state": "HH", "display_address": ["Pezolddamm 40", "22175 Hamburg", "Germany"]}, "phone": "+494055645530", "display_phone": "+49 40 55645530", "distance": 2952.3213120890437}, {"id": "5lJWDVEEOLYFG9JU_hYLSw", "alias": "hobs-diner-hamburg", "name": "Hobs - Diner", "image_url": "https://s3-media1.fl.yelpcdn.com/bphoto/fpK-3izEqqip8qXKfCXWNw/o.jpg", "is_closed": false, "url": "https://www.yelp.com/biz/hobs-diner-hamburg?adjust_creative=hBJOknVQJ58S5goQyjmwRw&utm_campaign=yelp_api_v3&utm_medium=api_v3_business_search&utm_source=hBJOknVQJ58S5goQyjmwRw", "review_count": 28, "categories": [{"alias": "sportsbars", "title": "Sports Bars"}, {"alias": "tradamerican", "title": "American (Traditional)"}, {"alias": "poolhalls", "title": "Pool Halls"}], "rating": 3.5, "coordinates": {"latitude": 53.61651, "longitude": 10.12226}, "transactions": [], "price": "\u20ac\u20ac", "location": {"address1": "Neusurenland 139", "address2": null, "address3": null, "city": "Hamburg", "zip_code": "22159", "country": "DE", "state": "HH", "display_address": ["Neusurenland 139", "22159 Hamburg", "Germany"]}, "phone": "+49406523164", "display_phone": "+49 40 6523164", "distance": 3155.5979911254303}, {"id": "NrKPNavZCmOuBFWLNLTrQA", "alias": "taverna-santorini-hamburg-4", "name": "Taverna Santorini", "image_url": "https://s3-media2.fl.yelpcdn.com/bphoto/eRyaIJu4GHd8hBnS6yoJvg/o.jpg", "is_closed": false, "url": "https://www.yelp.com/biz/taverna-santorini-hamburg-4?adjust_creative=hBJOknVQJ58S5goQyjmwRw&utm_campaign=yelp_api_v3&utm_medium=api_v3_business_search&utm_source=hBJOknVQJ58S5goQyjmwRw", "review_count": 26, "categories": [{"alias": "greek", "title": "Greek"}, {"alias": "mediterranean", "title": "Mediterranean"}], "rating": 3.5, "coordinates": {"latitude": 53.649165, "longitude": 10.1032543}, "transactions": [], "price": "\u20ac\u20ac", "location": {"address1": "Saseler Chaussee 161", "address2": "", "address3": "", "city": "Hamburg", "zip_code": "22393", "country": "DE", "state": "HH", "display_address": ["Saseler Chaussee 161", "22393 Hamburg", "Germany"]}, "phone": "+49406018080", "display_phone": "+49 40 6018080", "distance": 1313.4459175399497}, {"id": "ttHhNqy1or8gL8bFyC19uQ", "alias": "der-gyros-spezialist-hamburg", "name": "Der Gyros-Spezialist", "image_url": "https://s3-media4.fl.yelpcdn.com/bphoto/hIO-FDqfRZGybl--b3V2UA/o.jpg", "is_closed": false, "url": "https://www.yelp.com/biz/der-gyros-spezialist-hamburg?adjust_creative=hBJOknVQJ58S5goQyjmwRw&utm_campaign=yelp_api_v3&utm_medium=api_v3_business_search&utm_source=hBJOknVQJ58S5goQyjmwRw", "review_count": 87, "categories": [{"alias": "greek", "title": "Greek"}], "rating": 4.5, "coordinates": {"latitude": 53.62113, "longitude": 10.10274}, "transactions": [], "price": "\u20ac\u20ac", "location": {"address1": "Pezolddamm 45", "address2": "", "address3": "", "city": "Hamburg", "zip_code": "22175", "country": "DE", "state": "HH", "display_address": ["Pezolddamm 45", "22175 Hamburg", "Germany"]}, "phone": "+49406434946", "display_phone": "+49 40 6434946", "distance": 2885.6686631543585}, {"id": "qsAIbON79_SOn2rEzYpUZA", "alias": "taverna-kreta-hamburg", "name": "Taverna Kreta", "image_url": "https://s3-media1.fl.yelpcdn.com/bphoto/mngkSUVrt-Lv0aWJxXvKxQ/o.jpg", "is_closed": false, "url": "https://www.yelp.com/biz/taverna-kreta-hamburg?adjust_creative=hBJOknVQJ58S5goQyjmwRw&utm_campaign=yelp_api_v3&utm_medium=api_v3_business_search&utm_source=hBJOknVQJ58S5goQyjmwRw", "review_count": 29, "categories": [{"alias": "greek", "title": "Greek"}], "rating": 4.5, "coordinates": {"latitude": 53.6241, "longitude": 10.1181}, "transactions": [], "price": "\u20ac\u20ac", "location": {"address1": "Roter Hahn 14", "address2": null, "address3": null, "city": "Hamburg", "zip_code": "22159", "country": "DE", "state": "HH", "display_address": ["Roter Hahn 14", "22159 Hamburg", "Germany"]}, "phone": "+49406448993", "display_phone": "+49 40 6448993", "distance": 2288.9126991966855}, {"id": "lPP7z4ItqTPpA_XX52QnrA", "alias": "alte-m\u00fchle-hamburg", "name": "Alte M\u00fchle", "image_url": "https://s3-media2.fl.yelpcdn.com/bphoto/aQx2TqQhVkygL5E089prJQ/o.jpg", "is_closed": false, "url": "https://www.yelp.com/biz/alte-m%C3%BChle-hamburg?adjust_creative=hBJOknVQJ58S5goQyjmwRw&utm_campaign=yelp_api_v3&utm_medium=api_v3_business_search&utm_source=hBJOknVQJ58S5goQyjmwRw", "review_count": 34, "categories": [{"alias": "german", "title": "German"}, {"alias": "cafes", "title": "Cafes"}], "rating": 4.0, "coordinates": {"latitude": 53.6701998, "longitude": 10.1083718}, "transactions": [], "price": "\u20ac\u20ac", "location": {"address1": "Alte M\u00fchle 34", "address2": null, "address3": null, "city": "Hamburg", "zip_code": "22395", "country": "DE", "state": "HH", "display_address": ["Alte M\u00fchle 34", "22395 Hamburg", "Germany"]}, "phone": "+49406049171", "display_phone": "+49 40 6049171", "distance": 2979.6507860062666}, {"id": "fAQL7j7udJXG7lmU7PHzJQ", "alias": "restaurant-hellas-hamburg-2", "name": "Restaurant Hellas", "image_url": "https://s3-media1.fl.yelpcdn.com/bphoto/eueMnGjWpKm5_hRq4iFWWg/o.jpg", "is_closed": false, "url": "https://www.yelp.com/biz/restaurant-hellas-hamburg-2?adjust_creative=hBJOknVQJ58S5goQyjmwRw&utm_campaign=yelp_api_v3&utm_medium=api_v3_business_search&utm_source=hBJOknVQJ58S5goQyjmwRw", "review_count": 22, "categories": [{"alias": "greek", "title": "Greek"}], "rating": 4.5, "coordinates": {"latitude": 53.62471, "longitude": 10.09919}, "transactions": [], "price": "\u20ac\u20ac", "location": {"address1": "Am St\u00fchm-S\u00fcd 86", "address2": null, "address3": null, "city": "Hamburg", "zip_code": "22175", "country": "DE", "state": "HH", "display_address": ["Am St\u00fchm-S\u00fcd 86", "22175 Hamburg", "Germany"]}, "phone": "+49406409546", "display_phone": "+49 40 6409546", "distance": 2657.0995542326864}, {"id": "dMOGOXCY6U_MZu0aBA_ohw", "alias": "taverna-pegasus-hamburg", "name": "Taverna Pegasus", "image_url": "https://s3-media4.fl.yelpcdn.com/bphoto/LRKHH5mePsvM-t6pSdu-hg/o.jpg", "is_closed": false, "url": "https://www.yelp.com/biz/taverna-pegasus-hamburg?adjust_creative=hBJOknVQJ58S5goQyjmwRw&utm_campaign=yelp_api_v3&utm_medium=api_v3_business_search&utm_source=hBJOknVQJ58S5goQyjmwRw", "review_count": 9, "categories": [{"alias": "greek", "title": "Greek"}], "rating": 3.5, "coordinates": {"latitude": 53.67012, "longitude": 10.12642}, "transactions": [], "price": "\u20ac\u20ac", "location": {"address1": "Bergstedter Chaussee 128", "address2": "", "address3": null, "city": "Hamburg", "zip_code": "22395", "country": "DE", "state": "HH", "display_address": ["Bergstedter Chaussee 128", "22395 Hamburg", "Germany"]}, "phone": "+494064430710", "display_phone": "+49 40 64430710", "distance": 2851.8779623837745}, {"id": "XAYxj7jgDCYCHeeeW6EZpA", "alias": "leandros-hamburg", "name": "Leandros", "image_url": "https://s3-media2.fl.yelpcdn.com/bphoto/uvaiNTyOECCTTC-0czXxKg/o.jpg", "is_closed": false, "url": "https://www.yelp.com/biz/leandros-hamburg?adjust_creative=hBJOknVQJ58S5goQyjmwRw&utm_campaign=yelp_api_v3&utm_medium=api_v3_business_search&utm_source=hBJOknVQJ58S5goQyjmwRw", "review_count": 7, "categories": [{"alias": "greek", "title": "Greek"}], "rating": 2.5, "coordinates": {"latitude": 53.6427, "longitude": 10.12886}, "transactions": [], "price": "\u20ac\u20ac\u20ac", "location": {"address1": "Meiendorfer M\u00fchlenweg 35", "address2": "", "address3": null, "city": "Hamburg", "zip_code": "22393", "country": "DE", "state": "HH", "display_address": ["Meiendorfer M\u00fchlenweg 35", "22393 Hamburg", "Germany"]}, "phone": "+494049207616", "display_phone": "+49 40 49207616", "distance": 605.7983854410662}, {"id": "G5qIXIDFswYYXy_-SlOwgw", "alias": "gut-karlsh\u00f6he-hamburg", "name": "Gut Karlsh\u00f6he", "image_url": "https://s3-media4.fl.yelpcdn.com/bphoto/K4UPzUKEdKdTIArYJNnFdw/o.jpg", "is_closed": false, "url": "https://www.yelp.com/biz/gut-karlsh%C3%B6he-hamburg?adjust_creative=hBJOknVQJ58S5goQyjmwRw&utm_campaign=yelp_api_v3&utm_medium=api_v3_business_search&utm_source=hBJOknVQJ58S5goQyjmwRw", "review_count": 9, "categories": [{"alias": "active", "title": "Active Life"}, {"alias": "cafes", "title": "Cafes"}, {"alias": "museums", "title": "Museums"}], "rating": 4.0, "coordinates": {"latitude": 53.62997, "longitude": 10.11033}, "transactions": [], "location": {"address1": "Karlsh\u00f6he 60d", "address2": null, "address3": null, "city": "Hamburg", "zip_code": "22175", "country": "DE", "state": "HH", "display_address": ["Karlsh\u00f6he 60d", "22175 Hamburg", "Germany"]}, "phone": "+494063702490", "display_phone": "+49 40 63702490", "distance": 1786.7723500891605}, {"id": "1qV1Wz2aohC6Rp-CZPGRVg", "alias": "berne-kebap-haus-hamburg", "name": "Berne Kebap Haus", "image_url": "https://s3-media4.fl.yelpcdn.com/bphoto/bpsRMMVl8g8lAmfmV5YO9g/o.jpg", "is_closed": false, "url": "https://www.yelp.com/biz/berne-kebap-haus-hamburg?adjust_creative=hBJOknVQJ58S5goQyjmwRw&utm_campaign=yelp_api_v3&utm_medium=api_v3_business_search&utm_source=hBJOknVQJ58S5goQyjmwRw", "review_count": 1, "categories": [{"alias": "kebab", "title": "Kebab"}], "rating": 5.0, "coordinates": {"latitude": 53.6252153896313, "longitude": 10.1390706002712}, "transactions": [], "price": "\u20ac", "location": {"address1": "Hermann-Balk-Str. 117", "address2": "", "address3": null, "city": "Hamburg", "zip_code": "22147", "country": "DE", "state": "HH", "display_address": ["Hermann-Balk-Str. 117", "22147 Hamburg", "Germany"]}, "phone": "+494032843723", "display_phone": "+49 40 32843723", "distance": 2441.277218653284}, {"id": "j83Ua1NqVDfr_jLo3EMIlA", "alias": "caf\u00e9-pause-hamburg-5", "name": "Caf\u00e9 Pause", "image_url": "https://s3-media1.fl.yelpcdn.com/bphoto/O0-JRfhhsJczYdsxPedX-w/o.jpg", "is_closed": false, "url": "https://www.yelp.com/biz/caf%C3%A9-pause-hamburg-5?adjust_creative=hBJOknVQJ58S5goQyjmwRw&utm_campaign=yelp_api_v3&utm_medium=api_v3_business_search&utm_source=hBJOknVQJ58S5goQyjmwRw", "review_count": 1, "categories": [{"alias": "cafes", "title": "Cafes"}], "rating": 5.0, "coordinates": {"latitude": 53.6546156269338, "longitude": 10.1097825542092}, "transactions": [], "location": {"address1": "Sasel-Haus", "address2": "Saseler Parkweg 3", "address3": "", "city": "Hamburg", "zip_code": "22393", "country": "DE", "state": "HH", "display_address": ["Sasel-Haus", "Saseler Parkweg 3", "22393 Hamburg", "Germany"]}, "phone": "+491748004001", "display_phone": "+49 174 8004001", "distance": 1361.6405535731496}, {"id": "ViYFQMBkHuyybK-trk-anw", "alias": "maurizio-hamburg", "name": "Maurizio", "image_url": "https://s3-media2.fl.yelpcdn.com/bphoto/TCN6cTsb9bfZ7RklswpcBg/o.jpg", "is_closed": false, "url": "https://www.yelp.com/biz/maurizio-hamburg?adjust_creative=hBJOknVQJ58S5goQyjmwRw&utm_campaign=yelp_api_v3&utm_medium=api_v3_business_search&utm_source=hBJOknVQJ58S5goQyjmwRw", "review_count": 5, "categories": [{"alias": "italian", "title": "Italian"}], "rating": 4.0, "coordinates": {"latitude": 53.64967, "longitude": 10.11751}, "transactions": [], "location": {"address1": "Berner Weg 33", "address2": "", "address3": "", "city": "Hamburg", "zip_code": "22393", "country": "DE", "state": "HH", "display_address": ["Berner Weg 33", "22393 Hamburg", "Germany"]}, "phone": "+494024437850", "display_phone": "+49 40 24437850", "distance": 625.4102746989414}, {"id": "sSIvrC1bY2hHZs7nx6zJeQ", "alias": "pizza-tree-hamburg", "name": "Pizza Tree", "image_url": "https://s3-media2.fl.yelpcdn.com/bphoto/Q1l_gVNGuu2rjPWL4bXbgw/o.jpg", "is_closed": false, "url": "https://www.yelp.com/biz/pizza-tree-hamburg?adjust_creative=hBJOknVQJ58S5goQyjmwRw&utm_campaign=yelp_api_v3&utm_medium=api_v3_business_search&utm_source=hBJOknVQJ58S5goQyjmwRw", "review_count": 2, "categories": [{"alias": "pizza", "title": "Pizza"}, {"alias": "salad", "title": "Salad"}, {"alias": "burgers", "title": "Burgers"}], "rating": 3.5, "coordinates": {"latitude": 53.62549, "longitude": 10.11434}, "transactions": [], "location": {"address1": "Stefan-Zweig-Str. 1", "address2": "", "address3": null, "city": "Hamburg", "zip_code": "22175", "country": "DE", "state": "HH", "display_address": ["Stefan-Zweig-Str. 1", "22175 Hamburg", "Germany"]}, "phone": "+494073677223", "display_phone": "+49 40 73677223", "distance": 2168.542026224225}, {"id": "xU2xZcdV9ITI5UGAD5tdJA", "alias": "forum-sasel-hamburg", "name": "Forum Sasel", "image_url": "https://s3-media2.fl.yelpcdn.com/bphoto/aZpLxutpg0QSHwS-UUI9sw/o.jpg", "is_closed": false, "url": "https://www.yelp.com/biz/forum-sasel-hamburg?adjust_creative=hBJOknVQJ58S5goQyjmwRw&utm_campaign=yelp_api_v3&utm_medium=api_v3_business_search&utm_source=hBJOknVQJ58S5goQyjmwRw", "review_count": 23, "categories": [{"alias": "international", "title": "International"}, {"alias": "cocktailbars", "title": "Cocktail Bars"}, {"alias": "sportsbars", "title": "Sports Bars"}], "rating": 3.5, "coordinates": {"latitude": 53.6535788177995, "longitude": 10.1121384625408}, "transactions": [], "price": "\u20ac\u20ac", "location": {"address1": "Saseler Markt 1", "address2": "", "address3": "", "city": "Hamburg", "zip_code": "22393", "country": "DE", "state": "HH", "display_address": ["Saseler Markt 1", "22393 Hamburg", "Germany"]}, "phone": "+494088165850", "display_phone": "+49 40 88165850", "distance": 1179.7870491428137}, {"id": "-A_pku1o6DuLFe-3vy88-Q", "alias": "restaurant-estia-hamburg", "name": "Restaurant Estia", "image_url": "https://s3-media1.fl.yelpcdn.com/bphoto/oS_czziV0V8yNLRCLi2wow/o.jpg", "is_closed": false, "url": "https://www.yelp.com/biz/restaurant-estia-hamburg?adjust_creative=hBJOknVQJ58S5goQyjmwRw&utm_campaign=yelp_api_v3&utm_medium=api_v3_business_search&utm_source=hBJOknVQJ58S5goQyjmwRw", "review_count": 9, "categories": [{"alias": "greek", "title": "Greek"}], "rating": 3.5, "coordinates": {"latitude": 53.6244, "longitude": 10.1405}, "transactions": [], "price": "\u20ac\u20ac", "location": {"address1": "Hermann-Balk-Str. 112", "address2": null, "address3": null, "city": "Hamburg", "zip_code": "22147", "country": "DE", "state": "HH", "display_address": ["Hermann-Balk-Str. 112", "22147 Hamburg", "Germany"]}, "phone": "+494064400995", "display_phone": "+49 40 64400995", "distance": 2565.9839238367254}, {"id": "WsUam5VAAQ7yWpoBggzFSQ", "alias": "asia-k\u00fcche-hamburg", "name": "Asia K\u00fcche", "image_url": "https://s3-media2.fl.yelpcdn.com/bphoto/91FbganovwNRnmQaB3b1iw/o.jpg", "is_closed": false, "url": "https://www.yelp.com/biz/asia-k%C3%BCche-hamburg?adjust_creative=hBJOknVQJ58S5goQyjmwRw&utm_campaign=yelp_api_v3&utm_medium=api_v3_business_search&utm_source=hBJOknVQJ58S5goQyjmwRw", "review_count": 8, "categories": [{"alias": "panasian", "title": "Pan Asian"}], "rating": 2.5, "coordinates": {"latitude": 53.6251717, "longitude": 10.1404104}, "transactions": [], "price": "\u20ac\u20ac", "location": {"address1": "Hermann-Balk-Str. 120", "address2": "", "address3": "", "city": "Hamburg", "zip_code": "22147", "country": "DE", "state": "HH", "display_address": ["Hermann-Balk-Str. 120", "22147 Hamburg", "Germany"]}, "phone": "+49406446988", "display_phone": "+49 40 6446988", "distance": 2490.9618813559114}, {"id": "wQXci5HPimPT00Ub1oHRTA", "alias": "shin-shin-hamburg", "name": "Shin Shin", "image_url": "https://s3-media1.fl.yelpcdn.com/bphoto/AmnCNLLIqKxbmb1JjlfkVA/o.jpg", "is_closed": false, "url": "https://www.yelp.com/biz/shin-shin-hamburg?adjust_creative=hBJOknVQJ58S5goQyjmwRw&utm_campaign=yelp_api_v3&utm_medium=api_v3_business_search&utm_source=hBJOknVQJ58S5goQyjmwRw", "review_count": 60, "categories": [{"alias": "chinese", "title": "Chinese"}], "rating": 3.5, "coordinates": {"latitude": 53.6599219019676, "longitude": 10.1155304326125}, "transactions": [], "price": "\u20ac\u20ac", "location": {"address1": "Saseler Chaussee 254", "address2": null, "address3": null, "city": "Hamburg", "zip_code": "22393", "country": "DE", "state": "HH", "display_address": ["Saseler Chaussee 254", "22393 Hamburg", "Germany"]}, "phone": "+49406019064", "display_phone": "+49 40 6019064", "distance": 1752.6206134953943}, {"id": "EtyP2kB2FG6YiJTQxzV3mA", "alias": "sale-pepe-hamburg", "name": "Sale Pepe", "image_url": "https://s3-media2.fl.yelpcdn.com/bphoto/fRPybKpBBRPG8au-9RWuHA/o.jpg", "is_closed": false, "url": "https://www.yelp.com/biz/sale-pepe-hamburg?adjust_creative=hBJOknVQJ58S5goQyjmwRw&utm_campaign=yelp_api_v3&utm_medium=api_v3_business_search&utm_source=hBJOknVQJ58S5goQyjmwRw", "review_count": 2, "categories": [{"alias": "italian", "title": "Italian"}], "rating": 4.5, "coordinates": {"latitude": 53.6052, "longitude": 10.1183599}, "transactions": [], "price": "\u20ac\u20ac", "location": {"address1": "Berner Heerweg 173", "address2": "", "address3": "", "city": "Hamburg", "zip_code": "22159", "country": "DE", "state": "HH", "display_address": ["Berner Heerweg 173", "22159 Hamburg", "Germany"]}, "phone": "+494064533985", "display_phone": "+49 40 64533985", "distance": 4343.373564063278}, {"id": "JYW4LsJPYmWM5RI-DNrfBw", "alias": "la-rucola-hamburg", "name": "La Rucola", "image_url": "https://s3-media4.fl.yelpcdn.com/bphoto/1_Q54uR6iMNlJDfx8nCdNQ/o.jpg", "is_closed": false, "url": "https://www.yelp.com/biz/la-rucola-hamburg?adjust_creative=hBJOknVQJ58S5goQyjmwRw&utm_campaign=yelp_api_v3&utm_medium=api_v3_business_search&utm_source=hBJOknVQJ58S5goQyjmwRw", "review_count": 10, "categories": [{"alias": "italian", "title": "Italian"}], "rating": 4.0, "coordinates": {"latitude": 53.6695114717445, "longitude": 10.1428208803824}, "transactions": [], "price": "\u20ac\u20ac\u20ac", "location": {"address1": "St\u00fcffeleck 2", "address2": "", "address3": null, "city": "Hamburg", "zip_code": "22359", "country": "DE", "state": "HH", "display_address": ["St\u00fcffeleck 2", "22359 Hamburg", "Germany"]}, "phone": "+49406048062", "display_phone": "+49 40 6048062", "distance": 3104.55004350492}, {"id": "Q56Y4jZph_c7ufWsi6mqXA", "alias": "crazy-croque-hamburg-6", "name": "Crazy Croque", "image_url": "https://s3-media1.fl.yelpcdn.com/bphoto/NcnlnHNsCAtRUdPZXZdvbw/o.jpg", "is_closed": false, "url": "https://www.yelp.com/biz/crazy-croque-hamburg-6?adjust_creative=hBJOknVQJ58S5goQyjmwRw&utm_campaign=yelp_api_v3&utm_medium=api_v3_business_search&utm_source=hBJOknVQJ58S5goQyjmwRw", "review_count": 7, "categories": [{"alias": "sandwiches", "title": "Sandwiches"}, {"alias": "burgers", "title": "Burgers"}], "rating": 4.0, "coordinates": {"latitude": 53.625, "longitude": 10.1148}, "transactions": [], "price": "\u20ac\u20ac", "location": {"address1": "Pezolddamm 156", "address2": null, "address3": null, "city": "Hamburg", "zip_code": "22159", "country": "DE", "state": "HH", "display_address": ["Pezolddamm 156", "22159 Hamburg", "Germany"]}, "phone": "+494063645655", "display_phone": "+49 40 63645655", "distance": 2222.979908565525}, {"id": "Xop8tuUgi1wWhZ2UNo8I9Q", "alias": "restaurant-mellingburger-schleuse-hamburg", "name": "Restaurant Mellingburger Schleuse", "image_url": "https://s3-media2.fl.yelpcdn.com/bphoto/ihfZ5LheEmuWRPg8-kqSVw/o.jpg", "is_closed": false, "url": "https://www.yelp.com/biz/restaurant-mellingburger-schleuse-hamburg?adjust_creative=hBJOknVQJ58S5goQyjmwRw&utm_campaign=yelp_api_v3&utm_medium=api_v3_business_search&utm_source=hBJOknVQJ58S5goQyjmwRw", "review_count": 5, "categories": [{"alias": "german", "title": "German"}], "rating": 4.0, "coordinates": {"latitude": 53.66999, "longitude": 10.09828}, "transactions": [], "location": {"address1": "Mellingburgredder 1", "address2": "", "address3": "", "city": "Hamburg", "zip_code": "22395", "country": "DE", "state": "HH", "display_address": ["Mellingburgredder 1", "22395 Hamburg", "Germany"]}, "phone": "+49406024001", "display_phone": "+49 40 6024001", "distance": 3091.3589078599357}, {"id": "MsmXXwUr9HGCdeLEXEF_3Q", "alias": "schnoors-hamburg", "name": "Schnoor's", "image_url": "https://s3-media2.fl.yelpcdn.com/bphoto/XUNae9EiZsEJM3P52l7m9A/o.jpg", "is_closed": false, "url": "https://www.yelp.com/biz/schnoors-hamburg?adjust_creative=hBJOknVQJ58S5goQyjmwRw&utm_campaign=yelp_api_v3&utm_medium=api_v3_business_search&utm_source=hBJOknVQJ58S5goQyjmwRw", "review_count": 6, "categories": [{"alias": "modern_european", "title": "Modern European"}, {"alias": "beergarden", "title": "Beer Garden"}], "rating": 2.0, "coordinates": {"latitude": 53.63869, "longitude": 10.1065}, "transactions": [], "price": "\u20ac\u20ac", "location": {"address1": "Donauweg 2", "address2": null, "address3": null, "city": "Hamburg", "zip_code": "22359", "country": "DE", "state": "HH", "display_address": ["Donauweg 2", "22359 Hamburg", "Germany"]}, "phone": "+494064941030", "display_phone": "+49 40 64941030", "distance": 1192.4596897598583}, {"id": "bGDTPY4glhsdwHxJi8SAEg", "alias": "apos-bistro-hamburg", "name": "Apos Bistro", "image_url": "https://s3-media3.fl.yelpcdn.com/bphoto/fyCZlRLbHPxAve_Kc8LJ2g/o.jpg", "is_closed": false, "url": "https://www.yelp.com/biz/apos-bistro-hamburg?adjust_creative=hBJOknVQJ58S5goQyjmwRw&utm_campaign=yelp_api_v3&utm_medium=api_v3_business_search&utm_source=hBJOknVQJ58S5goQyjmwRw", "review_count": 9, "categories": [{"alias": "bistros", "title": "Bistros"}], "rating": 3.5, "coordinates": {"latitude": 53.6179411, "longitude": 10.1445135}, "transactions": [], "price": "\u20ac\u20ac", "location": {"address1": "Greifenberger Str. 61", "address2": null, "address3": null, "city": "Hamburg", "zip_code": "22147", "country": "DE", "state": "HH", "display_address": ["Greifenberger Str. 61", "22147 Hamburg", "Germany"]}, "phone": "+494064891941", "display_phone": "+49 40 64891941", "distance": 3324.4878761471164}, {"id": "ZCNX0Jow6YkO_HDoT0TewA", "alias": "luisenhof-und-dubrovnik-hamburg", "name": "Luisenhof & Dubrovnik", "image_url": "https://s3-media2.fl.yelpcdn.com/bphoto/zl1WpS75hZ9awDkAfTrSRQ/o.jpg", "is_closed": false, "url": "https://www.yelp.com/biz/luisenhof-und-dubrovnik-hamburg?adjust_creative=hBJOknVQJ58S5goQyjmwRw&utm_campaign=yelp_api_v3&utm_medium=api_v3_business_search&utm_source=hBJOknVQJ58S5goQyjmwRw", "review_count": 14, "categories": [{"alias": "international", "title": "International"}, {"alias": "german", "title": "German"}], "rating": 3.5, "coordinates": {"latitude": 53.6072, "longitude": 10.1165}, "transactions": [], "price": "\u20ac\u20ac", "location": {"address1": "Am Luisenhof 1", "address2": null, "address3": null, "city": "Hamburg", "zip_code": "22159", "country": "DE", "state": "HH", "display_address": ["Am Luisenhof 1", "22159 Hamburg", "Germany"]}, "phone": "+49406431071", "display_phone": "+49 40 6431071", "distance": 4170.002698654406}, {"id": "oohAJFC5eClaPZO9dcsrsw", "alias": "taverna-bei-anna-hamburg", "name": "Taverna Bei Anna", "image_url": "https://s3-media2.fl.yelpcdn.com/bphoto/4r4ro1JOdeeszyl0G917-w/o.jpg", "is_closed": false, "url": "https://www.yelp.com/biz/taverna-bei-anna-hamburg?adjust_creative=hBJOknVQJ58S5goQyjmwRw&utm_campaign=yelp_api_v3&utm_medium=api_v3_business_search&utm_source=hBJOknVQJ58S5goQyjmwRw", "review_count": 24, "categories": [{"alias": "greek", "title": "Greek"}], "rating": 3.5, "coordinates": {"latitude": 53.6141, "longitude": 10.1357}, "transactions": [], "price": "\u20ac\u20ac", "location": {"address1": "Bekassinenau 67", "address2": null, "address3": null, "city": "Hamburg", "zip_code": "22147", "country": "DE", "state": "HH", "display_address": ["Bekassinenau 67", "22147 Hamburg", "Germany"]}, "phone": "+49406471357", "display_phone": "+49 40 6471357", "distance": 3513.9761231621937}, {"id": "jEVrKVGGr50sba9op8A3sw", "alias": "china-boy-hamburg", "name": "China Boy", "image_url": "https://s3-media4.fl.yelpcdn.com/bphoto/gAf1fNaZvBXueIQ-3Vw4Yw/o.jpg", "is_closed": false, "url": "https://www.yelp.com/biz/china-boy-hamburg?adjust_creative=hBJOknVQJ58S5goQyjmwRw&utm_campaign=yelp_api_v3&utm_medium=api_v3_business_search&utm_source=hBJOknVQJ58S5goQyjmwRw", "review_count": 22, "categories": [{"alias": "panasian", "title": "Pan Asian"}], "rating": 3.0, "coordinates": {"latitude": 53.6057, "longitude": 10.1187}, "transactions": [], "price": "\u20ac\u20ac", "location": {"address1": "Berner Heerweg 175", "address2": null, "address3": null, "city": "Hamburg", "zip_code": "22159", "country": "DE", "state": "HH", "display_address": ["Berner Heerweg 175", "22159 Hamburg", "Germany"]}, "phone": "+49406451611", "display_phone": "+49 40 6451611", "distance": 4327.394274417525}, {"id": "bp2Z3UichsPCMfokIAluvA", "alias": "san-marino-hamburg-2", "name": "San Marino", "image_url": "https://s3-media1.fl.yelpcdn.com/bphoto/TP-eYZnMzYNO3_GGkPkLRA/o.jpg", "is_closed": false, "url": "https://www.yelp.com/biz/san-marino-hamburg-2?adjust_creative=hBJOknVQJ58S5goQyjmwRw&utm_campaign=yelp_api_v3&utm_medium=api_v3_business_search&utm_source=hBJOknVQJ58S5goQyjmwRw", "review_count": 6, "categories": [{"alias": "italian", "title": "Italian"}], "rating": 3.0, "coordinates": {"latitude": 53.6186151617801, "longitude": 10.1356185972691}, "transactions": [], "price": "\u20ac\u20ac", "location": {"address1": "Bekassinenau 114", "address2": "", "address3": "", "city": "Hamburg", "zip_code": "22147", "country": "DE", "state": "HH", "display_address": ["Bekassinenau 114", "22147 Hamburg", "Germany"]}, "phone": "+494067103931", "display_phone": "+49 40 67103931", "distance": 3031.007711200941}, {"id": "efI_NlXd4vZz03SsjaLRCA", "alias": "d\u00f6-back-hamburg-2", "name": "D\u00d6-Back", "image_url": "https://s3-media3.fl.yelpcdn.com/bphoto/OLOR81E_mA0YOlaFQbz4_w/o.jpg", "is_closed": false, "url": "https://www.yelp.com/biz/d%C3%B6-back-hamburg-2?adjust_creative=hBJOknVQJ58S5goQyjmwRw&utm_campaign=yelp_api_v3&utm_medium=api_v3_business_search&utm_source=hBJOknVQJ58S5goQyjmwRw", "review_count": 5, "categories": [{"alias": "kebab", "title": "Kebab"}], "rating": 3.0, "coordinates": {"latitude": 53.6267, "longitude": 10.13893}, "transactions": [], "price": "\u20ac", "location": {"address1": "Berner Heerweg 372", "address2": null, "address3": "", "city": "Hamburg", "zip_code": "22159", "country": "DE", "state": "HH", "display_address": ["Berner Heerweg 372", "22159 Hamburg", "Germany"]}, "phone": "+494064861088", "display_phone": "+49 40 64861088", "distance": 2292.262533158378}, {"id": "8Hj7wbmTyoNr8OmYj_AUYA", "alias": "argentina-steak-house-hamburg", "name": "Argentina Steak-House", "image_url": "https://s3-media3.fl.yelpcdn.com/bphoto/iOt_pvp8kgqMDIRIh4X7yQ/o.jpg", "is_closed": false, "url": "https://www.yelp.com/biz/argentina-steak-house-hamburg?adjust_creative=hBJOknVQJ58S5goQyjmwRw&utm_campaign=yelp_api_v3&utm_medium=api_v3_business_search&utm_source=hBJOknVQJ58S5goQyjmwRw", "review_count": 40, "categories": [{"alias": "steak", "title": "Steakhouses"}], "rating": 3.5, "coordinates": {"latitude": 53.64447, "longitude": 10.09971}, "transactions": [], "price": "\u20ac\u20ac", "location": {"address1": "Saseler Chaussee 111", "address2": "", "address3": "", "city": "Hamburg", "zip_code": "22393", "country": "DE", "state": "HH", "display_address": ["Saseler Chaussee 111", "22393 Hamburg", "Germany"]}, "phone": "+494053889849", "display_phone": "+49 40 53889849", "distance": 1444.6820919505678}, {"id": "M511DBafDIvUcOODPUeVdQ", "alias": "bistro-sc-condor-hamburg", "name": "Bistro SC Condor", "image_url": "https://s3-media2.fl.yelpcdn.com/bphoto/zI9qACggFCfiCnd6n304PA/o.jpg", "is_closed": false, "url": "https://www.yelp.com/biz/bistro-sc-condor-hamburg?adjust_creative=hBJOknVQJ58S5goQyjmwRw&utm_campaign=yelp_api_v3&utm_medium=api_v3_business_search&utm_source=hBJOknVQJ58S5goQyjmwRw", "review_count": 1, "categories": [{"alias": "bistros", "title": "Bistros"}], "rating": 5.0, "coordinates": {"latitude": 53.6079, "longitude": 10.1226}, "transactions": [], "price": "\u20ac", "location": {"address1": "Berner Heerweg 188", "address2": null, "address3": null, "city": "Hamburg", "zip_code": "22159", "country": "DE", "state": "HH", "display_address": ["Berner Heerweg 188", "22159 Hamburg", "Germany"]}, "phone": "+49406451848", "display_phone": "+49 40 6451848", "distance": 4078.9982258997547}, {"id": "fzEGjPIcjuxx_TVoEy9GVg", "alias": "weltladen-und-caf\u00e9-hamburg", "name": "Weltladen & Caf\u00e9", "image_url": "https://s3-media3.fl.yelpcdn.com/bphoto/dspuKA-13OlfLt_KHbjW_g/o.jpg", "is_closed": false, "url": "https://www.yelp.com/biz/weltladen-und-caf%C3%A9-hamburg?adjust_creative=hBJOknVQJ58S5goQyjmwRw&utm_campaign=yelp_api_v3&utm_medium=api_v3_business_search&utm_source=hBJOknVQJ58S5goQyjmwRw", "review_count": 2, "categories": [{"alias": "cafes", "title": "Cafes"}], "rating": 4.5, "coordinates": {"latitude": 53.6542200096796, "longitude": 10.1132201403379}, "transactions": [], "location": {"address1": "Saseler Markt 8", "address2": "", "address3": null, "city": "Hamburg", "zip_code": "22393", "country": "DE", "state": "HH", "display_address": ["Saseler Markt 8", "22393 Hamburg", "Germany"]}, "phone": "+494060011916", "display_phone": "+49 40 60011916", "distance": 1206.5140463278317}, {"id": "hz50-hDcuY8KxhG5S4xLDg", "alias": "gasthaus-offen-hamburg", "name": "Gasthaus Offen", "image_url": "https://s3-media2.fl.yelpcdn.com/bphoto/z60mHTwqI2onQiOeUjFPSg/o.jpg", "is_closed": false, "url": "https://www.yelp.com/biz/gasthaus-offen-hamburg?adjust_creative=hBJOknVQJ58S5goQyjmwRw&utm_campaign=yelp_api_v3&utm_medium=api_v3_business_search&utm_source=hBJOknVQJ58S5goQyjmwRw", "review_count": 55, "categories": [{"alias": "german", "title": "German"}], "rating": 4.0, "coordinates": {"latitude": 53.6865, "longitude": 10.105}, "transactions": [], "price": "\u20ac\u20ac", "location": {"address1": "Lemsahler Dorfstr. 39", "address2": null, "address3": null, "city": "Hamburg", "zip_code": "22397", "country": "DE", "state": "HH", "display_address": ["Lemsahler Dorfstr. 39", "22397 Hamburg", "Germany"]}, "phone": "+49406083835", "display_phone": "+49 40 6083835", "distance": 4788.27820769906}, {"id": "cua3_fdR9fejQwLYgHWYOA", "alias": "sushi-for-friends-hamburg-3", "name": "Sushi for Friends", "image_url": "https://s3-media1.fl.yelpcdn.com/bphoto/nDCCXsMFnB4iajti1fadfg/o.jpg", "is_closed": false, "url": "https://www.yelp.com/biz/sushi-for-friends-hamburg-3?adjust_creative=hBJOknVQJ58S5goQyjmwRw&utm_campaign=yelp_api_v3&utm_medium=api_v3_business_search&utm_source=hBJOknVQJ58S5goQyjmwRw", "review_count": 26, "categories": [{"alias": "sushi", "title": "Sushi Bars"}], "rating": 3.0, "coordinates": {"latitude": 53.65209, "longitude": 10.10624}, "transactions": [], "price": "\u20ac\u20ac\u20ac", "location": {"address1": "Saseler Chaussee 168", "address2": "", "address3": "", "city": "Hamburg", "zip_code": "22393", "country": "DE", "state": "HH", "display_address": ["Saseler Chaussee 168", "22393 Hamburg", "Germany"]}, "phone": "+494060671608", "display_phone": "+49 40 60671608", "distance": 1311.2353936514191}, {"id": "bgbZXdQLgDSqcy6OHZ3Pdw", "alias": "jacky-chang-hamburg", "name": "Jacky Chang", "image_url": "https://s3-media2.fl.yelpcdn.com/bphoto/Y8rROICVPApDteZXq30uAg/o.jpg", "is_closed": false, "url": "https://www.yelp.com/biz/jacky-chang-hamburg?adjust_creative=hBJOknVQJ58S5goQyjmwRw&utm_campaign=yelp_api_v3&utm_medium=api_v3_business_search&utm_source=hBJOknVQJ58S5goQyjmwRw", "review_count": 12, "categories": [{"alias": "panasian", "title": "Pan Asian"}], "rating": 3.0, "coordinates": {"latitude": 53.6052, "longitude": 10.1183599}, "transactions": [], "price": "\u20ac\u20ac", "location": {"address1": "Berner Heerweg 173", "address2": "", "address3": "", "city": "Hamburg", "zip_code": "22159", "country": "DE", "state": "HH", "display_address": ["Berner Heerweg 173", "22159 Hamburg", "Germany"]}, "phone": "+49406438850", "display_phone": "+49 40 6438850", "distance": 4343.373564063278}, {"id": "gVp3MTlFvgnRDJ2a7XMFTA", "alias": "hei\u00dfe-ecke-hamburg-3", "name": "Hei\u00dfe Ecke", "image_url": "https://s3-media3.fl.yelpcdn.com/bphoto/nWgKWIU6H7_71HmesOjoBQ/o.jpg", "is_closed": false, "url": "https://www.yelp.com/biz/hei%C3%9Fe-ecke-hamburg-3?adjust_creative=hBJOknVQJ58S5goQyjmwRw&utm_campaign=yelp_api_v3&utm_medium=api_v3_business_search&utm_source=hBJOknVQJ58S5goQyjmwRw", "review_count": 11, "categories": [{"alias": "kebab", "title": "Kebab"}], "rating": 3.5, "coordinates": {"latitude": 53.6076288663775, "longitude": 10.1169973611832}, "transactions": [], "price": "\u20ac", "location": {"address1": "August-Krogmannstr. 22", "address2": "", "address3": "", "city": "Hamburg", "zip_code": "22159", "country": "DE", "state": "HH", "display_address": ["August-Krogmannstr. 22", "22159 Hamburg", "Germany"]}, "phone": "", "display_phone": "", "distance": 4119.917516904604}, {"id": "zvkheD2NuYxCvxKCJP_RKA", "alias": "croque-und-crepes-hamburg-7", "name": "Croque & Crepes", "image_url": "https://s3-media1.fl.yelpcdn.com/bphoto/elc2YImmdAXulRwXzRpceQ/o.jpg", "is_closed": false, "url": "https://www.yelp.com/biz/croque-und-crepes-hamburg-7?adjust_creative=hBJOknVQJ58S5goQyjmwRw&utm_campaign=yelp_api_v3&utm_medium=api_v3_business_search&utm_source=hBJOknVQJ58S5goQyjmwRw", "review_count": 28, "categories": [{"alias": "sandwiches", "title": "Sandwiches"}, {"alias": "creperies", "title": "Creperies"}], "rating": 4.5, "coordinates": {"latitude": 53.6068, "longitude": 10.119}, "transactions": [], "price": "\u20ac\u20ac", "location": {"address1": "August-Krogmannstr. 2", "address2": null, "address3": null, "city": "Hamburg", "zip_code": "22159", "country": "DE", "state": "HH", "display_address": ["August-Krogmannstr. 2", "22159 Hamburg", "Germany"]}, "phone": "+49406430900", "display_phone": "+49 40 6430900", "distance": 4204.345499642642}, {"id": "34AjJqRyzU6Aq57KVC34Kw", "alias": "kim-chi-hamburg-3", "name": "Kim-Chi", "image_url": "https://s3-media3.fl.yelpcdn.com/bphoto/_yOS07aEdpVOGu2_ijvbXQ/o.jpg", "is_closed": false, "url": "https://www.yelp.com/biz/kim-chi-hamburg-3?adjust_creative=hBJOknVQJ58S5goQyjmwRw&utm_campaign=yelp_api_v3&utm_medium=api_v3_business_search&utm_source=hBJOknVQJ58S5goQyjmwRw", "review_count": 9, "categories": [{"alias": "panasian", "title": "Pan Asian"}], "rating": 3.0, "coordinates": {"latitude": 53.6194, "longitude": 10.0973}, "transactions": [], "price": "\u20ac", "location": {"address1": "Fahrenkr\u00f6n 146", "address2": null, "address3": null, "city": "Hamburg", "zip_code": "22179", "country": "DE", "state": "HH", "display_address": ["Fahrenkr\u00f6n 146", "22179 Hamburg", "Germany"]}, "phone": "+494064413900", "display_phone": "+49 40 64413900", "distance": 3226.3822184359683}, {"id": "2hzpvfdlgGOqGXzgjujLiQ", "alias": "zum-bergstedter-hamburg", "name": "Zum Bergstedter", "image_url": "", "is_closed": false, "url": "https://www.yelp.com/biz/zum-bergstedter-hamburg?adjust_creative=hBJOknVQJ58S5goQyjmwRw&utm_campaign=yelp_api_v3&utm_medium=api_v3_business_search&utm_source=hBJOknVQJ58S5goQyjmwRw", "review_count": 1, "categories": [{"alias": "amateursportsteams", "title": "Amateur Sports Teams"}, {"alias": "german", "title": "German"}], "rating": 4.0, "coordinates": {"latitude": 53.6709998, "longitude": 10.1343}, "transactions": [], "location": {"address1": "Teekoppel 9", "address2": null, "address3": null, "city": "Hamburg", "zip_code": "22395", "country": "DE", "state": "HH", "display_address": ["Teekoppel 9", "22395 Hamburg", "Germany"]}, "phone": "+49406049066", "display_phone": "+49 40 6049066", "distance": 3054.42327526299}, {"id": "fDCSXYKbbA6t6hgNhmcLwg", "alias": "ok-pizza-hamburg", "name": "OK Pizza", "image_url": "", "is_closed": false, "url": "https://www.yelp.com/biz/ok-pizza-hamburg?adjust_creative=hBJOknVQJ58S5goQyjmwRw&utm_campaign=yelp_api_v3&utm_medium=api_v3_business_search&utm_source=hBJOknVQJ58S5goQyjmwRw", "review_count": 2, "categories": [{"alias": "pizza", "title": "Pizza"}], "rating": 5.0, "coordinates": {"latitude": 53.6513, "longitude": 10.10565}, "transactions": [], "location": {"address1": "Saseler Chaussee 160", "address2": "", "address3": "", "city": "Hamburg", "zip_code": "22393", "country": "DE", "state": "HH", "display_address": ["Saseler Chaussee 160", "22393 Hamburg", "Germany"]}, "phone": "+49406045544", "display_phone": "+49 40 6045544", "distance": 1290.471081870883}, {"id": "Ynp7YmJAy6qTatoZcT66Eg", "alias": "restaurant-pane-e-vino-hamburg", "name": "Restaurant Pane E Vino", "image_url": "https://s3-media1.fl.yelpcdn.com/bphoto/82PXWqUQf_edShIaQHBe5Q/o.jpg", "is_closed": false, "url": "https://www.yelp.com/biz/restaurant-pane-e-vino-hamburg?adjust_creative=hBJOknVQJ58S5goQyjmwRw&utm_campaign=yelp_api_v3&utm_medium=api_v3_business_search&utm_source=hBJOknVQJ58S5goQyjmwRw", "review_count": 17, "categories": [{"alias": "italian", "title": "Italian"}], "rating": 3.0, "coordinates": {"latitude": 53.6202, "longitude": 10.0977}, "transactions": [], "price": "\u20ac\u20ac", "location": {"address1": "Pezolddamm 1", "address2": null, "address3": null, "city": "Hamburg", "zip_code": "22175", "country": "DE", "state": "HH", "display_address": ["Pezolddamm 1", "22175 Hamburg", "Germany"]}, "phone": "+494064426895", "display_phone": "+49 40 64426895", "distance": 3136.147150729288}, {"id": "Z_VhoYana9KZlVipdBw58Q", "alias": "kleinhuis-gartenbistro-hamburg", "name": "Kleinhuis' Gartenbistro", "image_url": "https://s3-media2.fl.yelpcdn.com/bphoto/zrIA1rCwZNp2uDeUeVZdew/o.jpg", "is_closed": false, "url": "https://www.yelp.com/biz/kleinhuis-gartenbistro-hamburg?adjust_creative=hBJOknVQJ58S5goQyjmwRw&utm_campaign=yelp_api_v3&utm_medium=api_v3_business_search&utm_source=hBJOknVQJ58S5goQyjmwRw", "review_count": 2, "categories": [{"alias": "german", "title": "German"}, {"alias": "bistros", "title": "Bistros"}], "rating": 3.0, "coordinates": {"latitude": 53.630419, "longitude": 10.110478}, "transactions": [], "location": {"address1": "Karlsh\u00f6he 60 d", "address2": null, "address3": null, "city": "Hamburg", "zip_code": "22175", "country": "DE", "state": "HH", "display_address": ["Karlsh\u00f6he 60 d", "22175 Hamburg", "Germany"]}, "phone": "+494060009245", "display_phone": "+49 40 60009245", "distance": 1737.3578756830734}, {"id": "TGz8lKgoxwEQM4IhdasDWw", "alias": "\u00f6kologisches-zentrum-siemerscher-hof-hamburg", "name": "\u00d6kologisches Zentrum Siemerscher Hof", "image_url": "https://s3-media1.fl.yelpcdn.com/bphoto/RYBWYt2K7VwQe2So7ETtRQ/o.jpg", "is_closed": false, "url": "https://www.yelp.com/biz/%C3%B6kologisches-zentrum-siemerscher-hof-hamburg?adjust_creative=hBJOknVQJ58S5goQyjmwRw&utm_campaign=yelp_api_v3&utm_medium=api_v3_business_search&utm_source=hBJOknVQJ58S5goQyjmwRw", "review_count": 1, "categories": [{"alias": "cafes", "title": "Cafes"}, {"alias": "coffee", "title": "Coffee & Tea"}], "rating": 5.0, "coordinates": {"latitude": 53.6707, "longitude": 10.1241}, "transactions": [], "location": {"address1": "Bergstedter Markt 1", "address2": null, "address3": null, "city": "Hamburg", "zip_code": "22395", "country": "DE", "state": "HH", "display_address": ["Bergstedter Markt 1", "22395 Hamburg", "Germany"]}, "phone": "+494060679140", "display_phone": "+49 40 60679140", "distance": 2909.1493858497643}, {"id": "LH5ahW4cXmyBSr1D4dSeHA", "alias": "dominos-hamburg-9", "name": "Domino's", "image_url": "https://s3-media1.fl.yelpcdn.com/bphoto/FCXTVrzDPp-nKJjDZzUr0A/o.jpg", "is_closed": false, "url": "https://www.yelp.com/biz/dominos-hamburg-9?adjust_creative=hBJOknVQJ58S5goQyjmwRw&utm_campaign=yelp_api_v3&utm_medium=api_v3_business_search&utm_source=hBJOknVQJ58S5goQyjmwRw", "review_count": 1, "categories": [{"alias": "pizza", "title": "Pizza"}], "rating": 5.0, "coordinates": {"latitude": 53.60255, "longitude": 10.14512}, "transactions": [], "location": {"address1": "Bargteheider Str. 75", "address2": "", "address3": null, "city": "Hamburg", "zip_code": "22143", "country": "DE", "state": "HH", "display_address": ["Bargteheider Str. 75", "22143 Hamburg", "Germany"]}, "phone": "+49406736070", "display_phone": "+49 40 6736070", "distance": 4929.010592523783}, {"id": "aGGb59d0pgT-pDWSis-EVg", "alias": "braaker-m\u00fchle-hamburg-6", "name": "Braaker M\u00fchle", "image_url": "https://s3-media3.fl.yelpcdn.com/bphoto/q3mc4HvwxlqUP_d5kOWFIQ/o.jpg", "is_closed": false, "url": "https://www.yelp.com/biz/braaker-m%C3%BChle-hamburg-6?adjust_creative=hBJOknVQJ58S5goQyjmwRw&utm_campaign=yelp_api_v3&utm_medium=api_v3_business_search&utm_source=hBJOknVQJ58S5goQyjmwRw", "review_count": 1, "categories": [{"alias": "bakeries", "title": "Bakeries"}, {"alias": "cakeshop", "title": "Patisserie/Cake Shop"}, {"alias": "cafes", "title": "Cafes"}], "rating": 5.0, "coordinates": {"latitude": 53.6071291, "longitude": 10.1182898}, "transactions": [], "location": {"address1": "August-Krogmann-Str. 10", "address2": null, "address3": null, "city": "Hamburg", "zip_code": "22159", "country": "DE", "state": "HH", "display_address": ["August-Krogmann-Str. 10", "22159 Hamburg", "Germany"]}, "phone": "+494064422123", "display_phone": "+49 40 64422123", "distance": 4169.98515453868}, {"id": "ugQlHvgEVolXPln9jsmenA", "alias": "baris-grillhaus-hamburg", "name": "Baris Grillhaus", "image_url": "https://s3-media3.fl.yelpcdn.com/bphoto/XLzCcvgXVZ9_rntj2NZ5aA/o.jpg", "is_closed": false, "url": "https://www.yelp.com/biz/baris-grillhaus-hamburg?adjust_creative=hBJOknVQJ58S5goQyjmwRw&utm_campaign=yelp_api_v3&utm_medium=api_v3_business_search&utm_source=hBJOknVQJ58S5goQyjmwRw", "review_count": 9, "categories": [{"alias": "kebab", "title": "Kebab"}], "rating": 3.0, "coordinates": {"latitude": 53.6071, "longitude": 10.11808}, "transactions": [], "price": "\u20ac\u20ac", "location": {"address1": "August-Krogmannstr. 12", "address2": "", "address3": "", "city": "Hamburg", "zip_code": "22159", "country": "DE", "state": "HH", "display_address": ["August-Krogmannstr. 12", "22159 Hamburg", "Germany"]}, "phone": "+494069464336", "display_phone": "+49 40 69464336", "distance": 4179.911273740292}, {"id": "5X3yGustepaQnEkkxIb3Xg", "alias": "braaker-m\u00fchle-hamburg-7", "name": "Braaker M\u00fchle", "image_url": "https://s3-media1.fl.yelpcdn.com/bphoto/qIu1O5S5gH3tk84HWewL0w/o.jpg", "is_closed": false, "url": "https://www.yelp.com/biz/braaker-m%C3%BChle-hamburg-7?adjust_creative=hBJOknVQJ58S5goQyjmwRw&utm_campaign=yelp_api_v3&utm_medium=api_v3_business_search&utm_source=hBJOknVQJ58S5goQyjmwRw", "review_count": 2, "categories": [{"alias": "bakeries", "title": "Bakeries"}, {"alias": "cakeshop", "title": "Patisserie/Cake Shop"}, {"alias": "cafes", "title": "Cafes"}], "rating": 3.5, "coordinates": {"latitude": 53.6703923, "longitude": 10.1265993}, "transactions": [], "price": "\u20ac\u20ac", "location": {"address1": "Bergstedter Chaussee 130 a", "address2": null, "address3": null, "city": "Hamburg", "zip_code": "22395", "country": "DE", "state": "HH", "display_address": ["Bergstedter Chaussee 130 a", "22395 Hamburg", "Germany"]}, "phone": "+494069464668", "display_phone": "+49 40 69464668", "distance": 2889.0404014969}, {"id": "xZgEJoV1fgi-jdQkHTJe6Q", "alias": "smileys-hamburg-12", "name": "Smiley's", "image_url": "https://s3-media4.fl.yelpcdn.com/bphoto/l8AuEvXYXnHPd4d86bnVWQ/o.jpg", "is_closed": false, "url": "https://www.yelp.com/biz/smileys-hamburg-12?adjust_creative=hBJOknVQJ58S5goQyjmwRw&utm_campaign=yelp_api_v3&utm_medium=api_v3_business_search&utm_source=hBJOknVQJ58S5goQyjmwRw", "review_count": 4, "categories": [{"alias": "pizza", "title": "Pizza"}], "rating": 3.5, "coordinates": {"latitude": 53.6536, "longitude": 10.1057}, "transactions": [], "price": "\u20ac\u20ac", "location": {"address1": "Stadtbahnstr. 32", "address2": null, "address3": null, "city": "Hamburg", "zip_code": "22393", "country": "DE", "state": "HH", "display_address": ["Stadtbahnstr. 32", "22393 Hamburg", "Germany"]}, "phone": "+49406017585", "display_phone": "+49 40 6017585", "distance": 1451.5345273902158}, {"id": "_KEs5iyxsJzhE6dmiur-_Q", "alias": "corfu-grill-hamburg-6", "name": "Corfu Grill", "image_url": "https://s3-media1.fl.yelpcdn.com/bphoto/PjW1pXfqtgldYbIZW1EB3A/o.jpg", "is_closed": false, "url": "https://www.yelp.com/biz/corfu-grill-hamburg-6?adjust_creative=hBJOknVQJ58S5goQyjmwRw&utm_campaign=yelp_api_v3&utm_medium=api_v3_business_search&utm_source=hBJOknVQJ58S5goQyjmwRw", "review_count": 14, "categories": [{"alias": "greek", "title": "Greek"}, {"alias": "hotdogs", "title": "Fast Food"}], "rating": 3.5, "coordinates": {"latitude": 53.6034816, "longitude": 10.1304022}, "transactions": [], "price": "\u20ac\u20ac\u20ac", "location": {"address1": "Alter Zollweg 197", "address2": "", "address3": "", "city": "Hamburg", "zip_code": "22147", "country": "DE", "state": "HH", "display_address": ["Alter Zollweg 197", "22147 Hamburg", "Germany"]}, "phone": "+49406470946", "display_phone": "+49 40 6470946", "distance": 4606.356914333514}, {"id": "mxT59tks7phC1hUiaqMAJA", "alias": "gasthaus-quellenhof-aubert-fromm\u00e9-hamburg", "name": "Gasthaus Quellenhof Aubert Fromm\u00e9", "image_url": "https://s3-media2.fl.yelpcdn.com/bphoto/7UQJ0pSOgXBWrqp88VmuAg/o.jpg", "is_closed": false, "url": "https://www.yelp.com/biz/gasthaus-quellenhof-aubert-fromm%C3%A9-hamburg?adjust_creative=hBJOknVQJ58S5goQyjmwRw&utm_campaign=yelp_api_v3&utm_medium=api_v3_business_search&utm_source=hBJOknVQJ58S5goQyjmwRw", "review_count": 19, "categories": [{"alias": "cafes", "title": "Cafes"}, {"alias": "german", "title": "German"}], "rating": 3.5, "coordinates": {"latitude": 53.6847, "longitude": 10.1175}, "transactions": [], "price": "\u20ac\u20ac", "location": {"address1": "Rodenbeker Str. 126", "address2": null, "address3": null, "city": "Hamburg", "zip_code": "22395", "country": "DE", "state": "HH", "display_address": ["Rodenbeker Str. 126", "22395 Hamburg", "Germany"]}, "phone": "+49406049228", "display_phone": "+49 40 6049228", "distance": 4469.519651546766}, {"id": "pf_RiSbOuQKLkhDodWf4Zg", "alias": "schweinske-hamburg-15", "name": "Schweinske", "image_url": "https://s3-media4.fl.yelpcdn.com/bphoto/sCaYsSGos8klABFJQtC-Sg/o.jpg", "is_closed": false, "url": "https://www.yelp.com/biz/schweinske-hamburg-15?adjust_creative=hBJOknVQJ58S5goQyjmwRw&utm_campaign=yelp_api_v3&utm_medium=api_v3_business_search&utm_source=hBJOknVQJ58S5goQyjmwRw", "review_count": 61, "categories": [{"alias": "german", "title": "German"}, {"alias": "breakfast_brunch", "title": "Breakfast & Brunch"}], "rating": 3.0, "coordinates": {"latitude": 53.608071, "longitude": 10.11642}, "transactions": [], "price": "\u20ac\u20ac", "location": {"address1": "August-Krogmann-Str. 25", "address2": null, "address3": null, "city": "Hamburg", "zip_code": "22159", "country": "DE", "state": "HH", "display_address": ["August-Krogmann-Str. 25", "22159 Hamburg", "Germany"]}, "phone": "+494064537516", "display_phone": "+49 40 64537516", "distance": 4072.6569299955654}, {"id": "2eayVcKqiIuDVdb5Qqt-Fg", "alias": "zenthai-hamburg-4", "name": "Zenthai", "image_url": "https://s3-media3.fl.yelpcdn.com/bphoto/2lF3e6Ej5DQ70NJdZEIGGg/o.jpg", "is_closed": false, "url": "https://www.yelp.com/biz/zenthai-hamburg-4?adjust_creative=hBJOknVQJ58S5goQyjmwRw&utm_campaign=yelp_api_v3&utm_medium=api_v3_business_search&utm_source=hBJOknVQJ58S5goQyjmwRw", "review_count": 3, "categories": [{"alias": "sushi", "title": "Sushi Bars"}, {"alias": "panasian", "title": "Pan Asian"}], "rating": 2.0, "coordinates": {"latitude": 53.60681, "longitude": 10.11904}, "transactions": [], "price": "\u20ac", "location": {"address1": "August-Krogmann-Str. 2", "address2": "", "address3": "", "city": "Hamburg", "zip_code": "22159", "country": "DE", "state": "HH", "display_address": ["August-Krogmann-Str. 2", "22159 Hamburg", "Germany"]}, "phone": "", "display_phone": "", "distance": 4182.6098186040745}, {"id": "o_LN9k-Z3QJkZvz0X4rBDA", "alias": "pizza-max-hamburg-12", "name": "Pizza Max", "image_url": "https://s3-media4.fl.yelpcdn.com/bphoto/_AzpobkYYDAl3_R92xh7iQ/o.jpg", "is_closed": false, "url": "https://www.yelp.com/biz/pizza-max-hamburg-12?adjust_creative=hBJOknVQJ58S5goQyjmwRw&utm_campaign=yelp_api_v3&utm_medium=api_v3_business_search&utm_source=hBJOknVQJ58S5goQyjmwRw", "review_count": 1, "categories": [{"alias": "pizza", "title": "Pizza"}], "rating": 1.0, "coordinates": {"latitude": 53.6513347185164, "longitude": 10.1057185789401}, "transactions": [], "price": "\u20ac\u20ac\u20ac", "location": {"address1": "Stadtbahnstr. 19 a", "address2": "", "address3": "", "city": "Hamburg", "zip_code": "22393", "country": "DE", "state": "HH", "display_address": ["Stadtbahnstr. 19 a", "22393 Hamburg", "Germany"]}, "phone": "+4940600886800", "display_phone": "+49 40 600886800", "distance": 1289.397168937312}, {"id": "Ct8p-l9z7Irdh6DK6ujlkg", "alias": "smileys-hamburg", "name": "Smiley's", "image_url": "https://s3-media4.fl.yelpcdn.com/bphoto/ZeAhxSEvejN5QMK3EBRGjA/o.jpg", "is_closed": false, "url": "https://www.yelp.com/biz/smileys-hamburg?adjust_creative=hBJOknVQJ58S5goQyjmwRw&utm_campaign=yelp_api_v3&utm_medium=api_v3_business_search&utm_source=hBJOknVQJ58S5goQyjmwRw", "review_count": 23, "categories": [{"alias": "pizza", "title": "Pizza"}], "rating": 3.5, "coordinates": {"latitude": 53.60262, "longitude": 10.1291}, "transactions": [], "price": "\u20ac\u20ac", "location": {"address1": "Alter Zollweg 192", "address2": null, "address3": null, "city": "Hamburg", "zip_code": "22147", "country": "DE", "state": "HH", "display_address": ["Alter Zollweg 192", "22147 Hamburg", "Germany"]}, "phone": "+494064539560", "display_phone": "+49 40 64539560", "distance": 4679.422535142701}, {"id": "a_D612wDcgOYT5UM0tMjTQ", "alias": "mundfein-pizzawerkstatt-hamburg-7", "name": "Mundfein Pizzawerkstatt", "image_url": "", "is_closed": false, "url": "https://www.yelp.com/biz/mundfein-pizzawerkstatt-hamburg-7?adjust_creative=hBJOknVQJ58S5goQyjmwRw&utm_campaign=yelp_api_v3&utm_medium=api_v3_business_search&utm_source=hBJOknVQJ58S5goQyjmwRw", "review_count": 3, "categories": [{"alias": "pizza", "title": "Pizza"}], "rating": 3.0, "coordinates": {"latitude": 53.66581, "longitude": 10.12076}, "transactions": [], "price": "\u20ac\u20ac", "location": {"address1": "Bergstedter Chaussee 77", "address2": "", "address3": "", "city": "Hamburg", "zip_code": "22395", "country": "DE", "state": "HH", "display_address": ["Bergstedter Chaussee 77", "22395 Hamburg", "Germany"]}, "phone": "+494021007896", "display_phone": "+49 40 21007896", "distance": 2366.900448503277}, {"id": "CbAt26AJcBJR4EHcqltEeg", "alias": "zorbas-hamburg-2", "name": "Zorbas", "image_url": "", "is_closed": false, "url": "https://www.yelp.com/biz/zorbas-hamburg-2?adjust_creative=hBJOknVQJ58S5goQyjmwRw&utm_campaign=yelp_api_v3&utm_medium=api_v3_business_search&utm_source=hBJOknVQJ58S5goQyjmwRw", "review_count": 1, "categories": [{"alias": "greek", "title": "Greek"}], "rating": 2.0, "coordinates": {"latitude": 53.6046, "longitude": 10.1176}, "transactions": [], "price": "\u20ac\u20ac", "location": {"address1": "Berner Heerweg 173", "address2": null, "address3": null, "city": "Hamburg", "zip_code": "22159", "country": "DE", "state": "HH", "display_address": ["Berner Heerweg 173", "22159 Hamburg", "Germany"]}, "phone": "+49406454823", "display_phone": "+49 40 6454823", "distance": 4453.31820616494}, {"id": "aNWnsNOYLimm6JLwGHrGUA", "alias": "mcdonalds-hamburg-4", "name": "McDonald's", "image_url": "https://s3-media3.fl.yelpcdn.com/bphoto/LH31L8wi2eVgxSfd8jgFQg/o.jpg", "is_closed": false, "url": "https://www.yelp.com/biz/mcdonalds-hamburg-4?adjust_creative=hBJOknVQJ58S5goQyjmwRw&utm_campaign=yelp_api_v3&utm_medium=api_v3_business_search&utm_source=hBJOknVQJ58S5goQyjmwRw", "review_count": 6, "categories": [{"alias": "burgers", "title": "Burgers"}, {"alias": "hotdogs", "title": "Fast Food"}], "rating": 3.0, "coordinates": {"latitude": 53.60704, "longitude": 10.11837}, "transactions": [], "price": "\u20ac\u20ac", "location": {"address1": "August-Krogmann-Str. 10", "address2": "", "address3": "", "city": "Hamburg", "zip_code": "22159", "country": "DE", "state": "HH", "display_address": ["August-Krogmann-Str. 10", "22159 Hamburg", "Germany"]}, "phone": "+494053304204", "display_phone": "+49 40 53304204", "distance": 4169.893774787943}, {"id": "RydfOmd5cLtqBxE80Q_CGg", "alias": "burger-king-hamburg-17", "name": "Burger King", "image_url": "https://s3-media1.fl.yelpcdn.com/bphoto/U5O-x4_5xKBA5hylh5eMXg/o.jpg", "is_closed": false, "url": "https://www.yelp.com/biz/burger-king-hamburg-17?adjust_creative=hBJOknVQJ58S5goQyjmwRw&utm_campaign=yelp_api_v3&utm_medium=api_v3_business_search&utm_source=hBJOknVQJ58S5goQyjmwRw", "review_count": 6, "categories": [{"alias": "burgers", "title": "Burgers"}, {"alias": "hotdogs", "title": "Fast Food"}], "rating": 2.5, "coordinates": {"latitude": 53.6052, "longitude": 10.1183599}, "transactions": [], "price": "\u20ac\u20ac", "location": {"address1": "Berner Heerweg 173-175", "address2": "", "address3": "", "city": "Hamburg", "zip_code": "22159", "country": "DE", "state": "HH", "display_address": ["Berner Heerweg 173-175", "22159 Hamburg", "Germany"]}, "phone": "+494041541333", "display_phone": "+49 40 41541333", "distance": 4408.26355509034}]