[{"id": "GOkAbpc01-TQFeMJ1m33vA", "alias": "la-terrazza-hamburg", "name": "La Terrazza", "image_url": "https://s3-media3.fl.yelpcdn.com/bphoto/NjoxAhgl6EcwmgOmk1KgSw/o.jpg", "is_closed": false, "url": "https://www.yelp.com/biz/la-terrazza-hamburg?adjust_creative=hBJOknVQJ58S5goQyjmwRw&utm_campaign=yelp_api_v3&utm_medium=api_v3_business_search&utm_source=hBJOknVQJ58S5goQyjmwRw", "review_count": 34, "categories": [{"alias": "italian", "title": "Italian"}], "rating": 4.5, "coordinates": {"latitude": 53.63217, "longitude": 9.95583}, "transactions": [], "price": "\u20ac\u20ac", "location": {"address1": "Adlerhorst 18", "address2": "", "address3": "", "city": "Hamburg", "zip_code": "22459", "country": "DE", "state": "HH", "display_address": ["Adlerhorst 18", "22459 Hamburg", "Germany"]}, "phone": "+494056009241", "display_phone": "+49 40 56009241", "distance": 1875.573447825527}, {"id": "v7pzQnz0d0xs8fFyLXFP5g", "alias": "joks-steakhouse-hamburg", "name": "Jok's Steakhouse", "image_url": "https://s3-media2.fl.yelpcdn.com/bphoto/7P1RhkDr4svJE6oEe69NsA/o.jpg", "is_closed": false, "url": "https://www.yelp.com/biz/joks-steakhouse-hamburg?adjust_creative=hBJOknVQJ58S5goQyjmwRw&utm_campaign=yelp_api_v3&utm_medium=api_v3_business_search&utm_source=hBJOknVQJ58S5goQyjmwRw", "review_count": 71, "categories": [{"alias": "steak", "title": "Steakhouses"}], "rating": 4.0, "coordinates": {"latitude": 53.63533, "longitude": 9.91884}, "transactions": [], "price": "\u20ac\u20ac", "location": {"address1": "Frohmestr. 11", "address2": null, "address3": null, "city": "Hamburg", "zip_code": "22457", "country": "DE", "state": "HH", "display_address": ["Frohmestr. 11", "22457 Hamburg", "Germany"]}, "phone": "+49405594459", "display_phone": "+49 40 5594459", "distance": 1804.5834315833326}, {"id": "P4DcAjOedAFJFulOC9zoCA", "alias": "adyton-hamburg", "name": "Adyton", "image_url": "https://s3-media3.fl.yelpcdn.com/bphoto/jsdX5nPCSjWgCGZ4SfsA_g/o.jpg", "is_closed": false, "url": "https://www.yelp.com/biz/adyton-hamburg?adjust_creative=hBJOknVQJ58S5goQyjmwRw&utm_campaign=yelp_api_v3&utm_medium=api_v3_business_search&utm_source=hBJOknVQJ58S5goQyjmwRw", "review_count": 4, "categories": [{"alias": "international", "title": "International"}], "rating": 4.5, "coordinates": {"latitude": 53.6435, "longitude": 9.96095}, "transactions": [], "price": "\u20ac\u20ac", "location": {"address1": "Sachsenweg 78", "address2": null, "address3": null, "city": "Hamburg", "zip_code": "22455", "country": "DE", "state": "HH", "display_address": ["Sachsenweg 78", "22455 Hamburg", "Germany"]}, "phone": "+494055421621", "display_phone": "+49 40 55421621", "distance": 1404.1192586067182}, {"id": "naHSQVdkPYV8NTottebzRg", "alias": "trattoria-pirandello-hamburg", "name": "Trattoria Pirandello", "image_url": "https://s3-media3.fl.yelpcdn.com/bphoto/QtSQ9XL27EOBwI068uFkjA/o.jpg", "is_closed": false, "url": "https://www.yelp.com/biz/trattoria-pirandello-hamburg?adjust_creative=hBJOknVQJ58S5goQyjmwRw&utm_campaign=yelp_api_v3&utm_medium=api_v3_business_search&utm_source=hBJOknVQJ58S5goQyjmwRw", "review_count": 19, "categories": [{"alias": "pizza", "title": "Pizza"}, {"alias": "italian", "title": "Italian"}], "rating": 4.0, "coordinates": {"latitude": 53.64031, "longitude": 9.94794}, "transactions": [], "price": "\u20ac\u20ac", "location": {"address1": "Nordalbingerweg 17", "address2": "", "address3": "", "city": "Hamburg", "zip_code": "22455", "country": "DE", "state": "HH", "display_address": ["Nordalbingerweg 17", "22455 Hamburg", "Germany"]}, "phone": "+494055598570", "display_phone": "+49 40 55598570", "distance": 828.3923184410721}, {"id": "OZ9aIUijZbgLn9GyN1QChQ", "alias": "mai-bistro-hamburg", "name": "Mai Bistro", "image_url": "https://s3-media4.fl.yelpcdn.com/bphoto/N69n8eUT8CYBKsZdF4omDA/o.jpg", "is_closed": false, "url": "https://www.yelp.com/biz/mai-bistro-hamburg?adjust_creative=hBJOknVQJ58S5goQyjmwRw&utm_campaign=yelp_api_v3&utm_medium=api_v3_business_search&utm_source=hBJOknVQJ58S5goQyjmwRw", "review_count": 4, "categories": [{"alias": "vietnamese", "title": "Vietnamese"}, {"alias": "chinese", "title": "Chinese"}], "rating": 5.0, "coordinates": {"latitude": 53.6406600758964, "longitude": 9.9473499879241}, "transactions": [], "price": "\u20ac\u20ac", "location": {"address1": "Rudolf-Klug-Weg 9", "address2": "", "address3": null, "city": "Hamburg", "zip_code": "22455", "country": "DE", "state": "HH", "display_address": ["Rudolf-Klug-Weg 9", "22455 Hamburg", "Germany"]}, "phone": "+494055599544", "display_phone": "+49 40 55599544", "distance": 773.742488924885}, {"id": "qUJfOZZ4S69Amwf8J8SS8w", "alias": "osteria-da-vino-hamburg", "name": "Osteria da Vino", "image_url": "https://s3-media3.fl.yelpcdn.com/bphoto/p7gn9gWX4XVKALvT-dZGOA/o.jpg", "is_closed": false, "url": "https://www.yelp.com/biz/osteria-da-vino-hamburg?adjust_creative=hBJOknVQJ58S5goQyjmwRw&utm_campaign=yelp_api_v3&utm_medium=api_v3_business_search&utm_source=hBJOknVQJ58S5goQyjmwRw", "review_count": 25, "categories": [{"alias": "italian", "title": "Italian"}], "rating": 4.0, "coordinates": {"latitude": 53.6289366, "longitude": 9.92505}, "transactions": [], "price": "\u20ac\u20ac", "location": {"address1": "Heidlohstr. 20", "address2": null, "address3": null, "city": "Hamburg", "zip_code": "22459", "country": "DE", "state": "HH", "display_address": ["Heidlohstr. 20", "22459 Hamburg", "Germany"]}, "phone": "+49405592696", "display_phone": "+49 40 5592696", "distance": 2155.6782290567908}, {"id": "risFWghqY9UAzmemif3e4w", "alias": "gasthaus-pilio-hamburg", "name": "Gasthaus Pilio", "image_url": "https://s3-media2.fl.yelpcdn.com/bphoto/8tzSJl0BAGX0nHvIpuQCtA/o.jpg", "is_closed": false, "url": "https://www.yelp.com/biz/gasthaus-pilio-hamburg?adjust_creative=hBJOknVQJ58S5goQyjmwRw&utm_campaign=yelp_api_v3&utm_medium=api_v3_business_search&utm_source=hBJOknVQJ58S5goQyjmwRw", "review_count": 45, "categories": [{"alias": "greek", "title": "Greek"}], "rating": 4.5, "coordinates": {"latitude": 53.6215299206977, "longitude": 9.95179004967213}, "transactions": [], "price": "\u20ac\u20ac", "location": {"address1": "Tibarg 33 a", "address2": "", "address3": "", "city": "Hamburg", "zip_code": "22459", "country": "DE", "state": "HH", "display_address": ["Tibarg 33 a", "22459 Hamburg", "Germany"]}, "phone": "+4940582214", "display_phone": "+49 40 582214", "distance": 2842.807320099558}, {"id": "zWNZhZXMLbLageqZ-Rkqxg", "alias": "victors-hamburg", "name": "Victors", "image_url": "https://s3-media3.fl.yelpcdn.com/bphoto/47zIgP1Sn9fdoZH8L3GNCg/o.jpg", "is_closed": false, "url": "https://www.yelp.com/biz/victors-hamburg?adjust_creative=hBJOknVQJ58S5goQyjmwRw&utm_campaign=yelp_api_v3&utm_medium=api_v3_business_search&utm_source=hBJOknVQJ58S5goQyjmwRw", "review_count": 6, "categories": [{"alias": "bars", "title": "Bars"}, {"alias": "german", "title": "German"}], "rating": 3.5, "coordinates": {"latitude": 53.6364, "longitude": 9.94439}, "transactions": [], "price": "\u20ac\u20ac", "location": {"address1": "Quedlinburger Weg 84", "address2": null, "address3": null, "city": "Hamburg", "zip_code": "22455", "country": "DE", "state": "HH", "display_address": ["Quedlinburger Weg 84", "22455 Hamburg", "Germany"]}, "phone": "+49405517422", "display_phone": "+49 40 5517422", "distance": 1119.198372592524}, {"id": "Gc3mUnsxH94Qald5kFMNhQ", "alias": "die-kleine-fischerstube-hamburg", "name": "Die kleine Fischerstube", "image_url": "https://s3-media3.fl.yelpcdn.com/bphoto/AWGJePl3L95hF-1WK98fyw/o.jpg", "is_closed": false, "url": "https://www.yelp.com/biz/die-kleine-fischerstube-hamburg?adjust_creative=hBJOknVQJ58S5goQyjmwRw&utm_campaign=yelp_api_v3&utm_medium=api_v3_business_search&utm_source=hBJOknVQJ58S5goQyjmwRw", "review_count": 31, "categories": [{"alias": "seafood", "title": "Seafood"}, {"alias": "german", "title": "German"}], "rating": 4.0, "coordinates": {"latitude": 53.62115, "longitude": 9.9519}, "transactions": [], "price": "\u20ac\u20ac", "location": {"address1": "Tibarg 27", "address2": "", "address3": "", "city": "Hamburg", "zip_code": "22459", "country": "DE", "state": "HH", "display_address": ["Tibarg 27", "22459 Hamburg", "Germany"]}, "phone": "+494058954720", "display_phone": "+49 40 58954720", "distance": 2881.4743076928366}, {"id": "_xp9F0Qmo8G0KIyIPKFiPw", "alias": "schweizer-haus-hamburg", "name": "Schweizer Haus", "image_url": "https://s3-media3.fl.yelpcdn.com/bphoto/36KLcJCajRwv7DgCthCanw/o.jpg", "is_closed": false, "url": "https://www.yelp.com/biz/schweizer-haus-hamburg?adjust_creative=hBJOknVQJ58S5goQyjmwRw&utm_campaign=yelp_api_v3&utm_medium=api_v3_business_search&utm_source=hBJOknVQJ58S5goQyjmwRw", "review_count": 7, "categories": [{"alias": "international", "title": "International"}, {"alias": "burgers", "title": "Burgers"}, {"alias": "sportsbars", "title": "Sports Bars"}], "rating": 3.5, "coordinates": {"latitude": 53.6257731, "longitude": 9.9460834}, "transactions": [], "price": "\u20ac\u20ac", "location": {"address1": "Hadermannsweg 57", "address2": null, "address3": null, "city": "Hamburg", "zip_code": "22459", "country": "DE", "state": "HH", "display_address": ["Hadermannsweg 57", "22459 Hamburg", "Germany"]}, "phone": "+494030717656", "display_phone": "+49 40 30717656", "distance": 2298.747216532412}, {"id": "T94FaXaga2Uu1m7FsYA18w", "alias": "alexandros-hamburg-4", "name": "Alexandros", "image_url": "https://s3-media2.fl.yelpcdn.com/bphoto/JEYmnGmf2-uGarBY3blCWQ/o.jpg", "is_closed": false, "url": "https://www.yelp.com/biz/alexandros-hamburg-4?adjust_creative=hBJOknVQJ58S5goQyjmwRw&utm_campaign=yelp_api_v3&utm_medium=api_v3_business_search&utm_source=hBJOknVQJ58S5goQyjmwRw", "review_count": 4, "categories": [{"alias": "greek", "title": "Greek"}], "rating": 4.0, "coordinates": {"latitude": 53.629672, "longitude": 9.942439}, "transactions": [], "location": {"address1": "Wendlohstr. 90", "address2": "", "address3": null, "city": "Hamburg", "zip_code": "22459", "country": "DE", "state": "HH", "display_address": ["Wendlohstr. 90", "22459 Hamburg", "Germany"]}, "phone": "+494065917806", "display_phone": "+49 40 65917806", "distance": 1837.7051784719768}, {"id": "o2T6iyuombynllX-qGb-AQ", "alias": "hellas-hamburg-2", "name": "Hellas", "image_url": "https://s3-media3.fl.yelpcdn.com/bphoto/w2DIGy_eKDVLfLWp_HTF0A/o.jpg", "is_closed": false, "url": "https://www.yelp.com/biz/hellas-hamburg-2?adjust_creative=hBJOknVQJ58S5goQyjmwRw&utm_campaign=yelp_api_v3&utm_medium=api_v3_business_search&utm_source=hBJOknVQJ58S5goQyjmwRw", "review_count": 28, "categories": [{"alias": "greek", "title": "Greek"}], "rating": 4.5, "coordinates": {"latitude": 53.6333, "longitude": 9.91477}, "transactions": [], "price": "\u20ac\u20ac", "location": {"address1": "Riekbornweg 16", "address2": null, "address3": null, "city": "Hamburg", "zip_code": "22457", "country": "DE", "state": "HH", "display_address": ["Riekbornweg 16", "22457 Hamburg", "Germany"]}, "phone": "+494097078235", "display_phone": "+49 40 97078235", "distance": 2198.0773690502792}, {"id": "8LAxLlweKVtus23DrB4Rcg", "alias": "china-restaurant-ho-schnelsen-hamburg-3", "name": "China-Restaurant Ho Schnelsen", "image_url": "https://s3-media3.fl.yelpcdn.com/bphoto/4qydCYSzwz_4WE6qo_Qj5A/o.jpg", "is_closed": false, "url": "https://www.yelp.com/biz/china-restaurant-ho-schnelsen-hamburg-3?adjust_creative=hBJOknVQJ58S5goQyjmwRw&utm_campaign=yelp_api_v3&utm_medium=api_v3_business_search&utm_source=hBJOknVQJ58S5goQyjmwRw", "review_count": 29, "categories": [{"alias": "chinese", "title": "Chinese"}], "rating": 4.5, "coordinates": {"latitude": 53.6358, "longitude": 9.91842}, "transactions": [], "price": "\u20ac\u20ac", "location": {"address1": "Frohmestr. 7", "address2": null, "address3": null, "city": "Hamburg", "zip_code": "22457", "country": "DE", "state": "HH", "display_address": ["Frohmestr. 7", "22457 Hamburg", "Germany"]}, "phone": "+49405504454", "display_phone": "+49 40 5504454", "distance": 1835.3507215482664}, {"id": "BQdrXWu6EZznHBDNu3C3aA", "alias": "qur-thai-drei-jai-hamburg", "name": "Qur Thai drei Jai", "image_url": "https://s3-media1.fl.yelpcdn.com/bphoto/qEn2kdcFTkh16Ue7jtdSqg/o.jpg", "is_closed": false, "url": "https://www.yelp.com/biz/qur-thai-drei-jai-hamburg?adjust_creative=hBJOknVQJ58S5goQyjmwRw&utm_campaign=yelp_api_v3&utm_medium=api_v3_business_search&utm_source=hBJOknVQJ58S5goQyjmwRw", "review_count": 4, "categories": [{"alias": "thai", "title": "Thai"}], "rating": 4.0, "coordinates": {"latitude": 53.63584, "longitude": 9.91656}, "transactions": [], "location": {"address1": "Oldesloer Str. 33", "address2": "", "address3": null, "city": "Hamburg", "zip_code": "22457", "country": "DE", "state": "HH", "display_address": ["Oldesloer Str. 33", "22457 Hamburg", "Germany"]}, "phone": "+4957148736", "display_phone": "+49 571 48736", "distance": 1930.0915428118851}, {"id": "Hi-T7r5zZCVZAykf7L3uDA", "alias": "humboldt-hamburg", "name": "Humboldt", "image_url": "https://s3-media3.fl.yelpcdn.com/bphoto/-1U0b4EpB_XIBOvwOr2uyQ/o.jpg", "is_closed": false, "url": "https://www.yelp.com/biz/humboldt-hamburg?adjust_creative=hBJOknVQJ58S5goQyjmwRw&utm_campaign=yelp_api_v3&utm_medium=api_v3_business_search&utm_source=hBJOknVQJ58S5goQyjmwRw", "review_count": 32, "categories": [{"alias": "german", "title": "German"}, {"alias": "tradamerican", "title": "American (Traditional)"}, {"alias": "sportsbars", "title": "Sports Bars"}], "rating": 3.0, "coordinates": {"latitude": 53.6208699066105, "longitude": 9.95290316641331}, "transactions": [], "price": "\u20ac", "location": {"address1": "Tibarg 40", "address2": "", "address3": "", "city": "Hamburg", "zip_code": "22459", "country": "DE", "state": "HH", "display_address": ["Tibarg 40", "22459 Hamburg", "Germany"]}, "phone": "+494058951933", "display_phone": "+49 40 58951933", "distance": 2933.7642236514507}, {"id": "l2DXqPaUw7G8PHpXfONO0w", "alias": "osteria-liguria-hamburg", "name": "Osteria Liguria", "image_url": "https://s3-media1.fl.yelpcdn.com/bphoto/eyVloBLtkH9d9G2XyXv3Jg/o.jpg", "is_closed": false, "url": "https://www.yelp.com/biz/osteria-liguria-hamburg?adjust_creative=hBJOknVQJ58S5goQyjmwRw&utm_campaign=yelp_api_v3&utm_medium=api_v3_business_search&utm_source=hBJOknVQJ58S5goQyjmwRw", "review_count": 64, "categories": [{"alias": "italian", "title": "Italian"}], "rating": 4.5, "coordinates": {"latitude": 53.60974, "longitude": 9.9581}, "transactions": [], "price": "\u20ac\u20ac", "location": {"address1": "Kollaustr. 125", "address2": "", "address3": null, "city": "Hamburg", "zip_code": "22453", "country": "DE", "state": "HH", "display_address": ["Kollaustr. 125", "22453 Hamburg", "Germany"]}, "phone": "+4940582569", "display_phone": "+49 40 582569", "distance": 4217.749695738912}, {"id": "8y2vyVt15hK8-hPj1j6qsg", "alias": "das-bistro-im-nnz-premium-hamburg", "name": "Das Bistro im Nnz Premium", "image_url": "https://s3-media2.fl.yelpcdn.com/bphoto/QXDWKufYjdNnO17JEqDKgw/o.jpg", "is_closed": false, "url": "https://www.yelp.com/biz/das-bistro-im-nnz-premium-hamburg?adjust_creative=hBJOknVQJ58S5goQyjmwRw&utm_campaign=yelp_api_v3&utm_medium=api_v3_business_search&utm_source=hBJOknVQJ58S5goQyjmwRw", "review_count": 9, "categories": [{"alias": "bistros", "title": "Bistros"}], "rating": 4.0, "coordinates": {"latitude": 53.6413, "longitude": 9.94809}, "transactions": [], "price": "\u20ac\u20ac", "location": {"address1": "Ernst-Mittelbach-Ring 49", "address2": null, "address3": null, "city": "Hamburg", "zip_code": "22455", "country": "DE", "state": "HH", "display_address": ["Ernst-Mittelbach-Ring 49", "22455 Hamburg", "Germany"]}, "phone": "+494022600137", "display_phone": "+49 40 22600137", "distance": 752.2455467395506}, {"id": "_LLuKQ0DAn9zgE4D9Mpc9Q", "alias": "taverna-santorini-hamburg-2", "name": "Taverna Santorini", "image_url": "https://s3-media1.fl.yelpcdn.com/bphoto/0ciNadd3zAnDi-YdsFJ_7w/o.jpg", "is_closed": false, "url": "https://www.yelp.com/biz/taverna-santorini-hamburg-2?adjust_creative=hBJOknVQJ58S5goQyjmwRw&utm_campaign=yelp_api_v3&utm_medium=api_v3_business_search&utm_source=hBJOknVQJ58S5goQyjmwRw", "review_count": 9, "categories": [{"alias": "greek", "title": "Greek"}], "rating": 4.0, "coordinates": {"latitude": 53.6226, "longitude": 9.950964}, "transactions": [], "price": "\u20ac", "location": {"address1": "Wendlohstr. 13", "address2": "", "address3": "", "city": "Hamburg", "zip_code": "22459", "country": "DE", "state": "HH", "display_address": ["Wendlohstr. 13", "22459 Hamburg", "Germany"]}, "phone": "+494022628444", "display_phone": "+49 40 22628444", "distance": 2728.6226280841483}, {"id": "AUrulavZJ2ubI9F_qPuRqQ", "alias": "el-greco-hamburg-9", "name": "El Greco", "image_url": "https://s3-media1.fl.yelpcdn.com/bphoto/SsGRcPsTc1fSEItU0X86ng/o.jpg", "is_closed": false, "url": "https://www.yelp.com/biz/el-greco-hamburg-9?adjust_creative=hBJOknVQJ58S5goQyjmwRw&utm_campaign=yelp_api_v3&utm_medium=api_v3_business_search&utm_source=hBJOknVQJ58S5goQyjmwRw", "review_count": 12, "categories": [{"alias": "greek", "title": "Greek"}], "rating": 3.5, "coordinates": {"latitude": 53.6345116, "longitude": 9.9540963}, "transactions": [], "price": "\u20ac\u20ac", "location": {"address1": "Paul-Sorge-Str. 142 A", "address2": "", "address3": null, "city": "Hamburg", "zip_code": "22455", "country": "DE", "state": "HH", "display_address": ["Paul-Sorge-Str. 142 A", "22455 Hamburg", "Germany"]}, "phone": "+49405514557", "display_phone": "+49 40 5514557", "distance": 1587.8619248760697}, {"id": "N4FRaSViYY5GMzVIm5bMag", "alias": "waldcafe-restaurant-corell-hamburg", "name": "Waldcafe Restaurant Corell", "image_url": "https://s3-media3.fl.yelpcdn.com/bphoto/7r7cFFhZjmvt6tuCXpE8yg/o.jpg", "is_closed": false, "url": "https://www.yelp.com/biz/waldcafe-restaurant-corell-hamburg?adjust_creative=hBJOknVQJ58S5goQyjmwRw&utm_campaign=yelp_api_v3&utm_medium=api_v3_business_search&utm_source=hBJOknVQJ58S5goQyjmwRw", "review_count": 59, "categories": [{"alias": "northerngerman", "title": "Northern German"}], "rating": 4.0, "coordinates": {"latitude": 53.61578, "longitude": 9.93239}, "transactions": [], "price": "\u20ac\u20ac", "location": {"address1": "Niendorfer Gehege 50", "address2": null, "address3": null, "city": "Hamburg", "zip_code": "22453", "country": "DE", "state": "HH", "display_address": ["Niendorfer Gehege 50", "22453 Hamburg", "Germany"]}, "phone": "+4940585378", "display_phone": "+49 40 585378", "distance": 3418.9980540794554}, {"id": "-bCIbK-xOJr00C2VumngNQ", "alias": "kuchenstund-hamburg", "name": "Kuchenstund", "image_url": "https://s3-media1.fl.yelpcdn.com/bphoto/CYNNVtUJd0reG7q2JRC6iw/o.jpg", "is_closed": false, "url": "https://www.yelp.com/biz/kuchenstund-hamburg?adjust_creative=hBJOknVQJ58S5goQyjmwRw&utm_campaign=yelp_api_v3&utm_medium=api_v3_business_search&utm_source=hBJOknVQJ58S5goQyjmwRw", "review_count": 5, "categories": [{"alias": "cafes", "title": "Cafes"}], "rating": 5.0, "coordinates": {"latitude": 53.61837, "longitude": 9.95103}, "transactions": [], "price": "\u20ac\u20ac", "location": {"address1": "Tibarg 16", "address2": null, "address3": "", "city": "Hamburg", "zip_code": "22459", "country": "DE", "state": "HH", "display_address": ["Tibarg 16", "22459 Hamburg", "Germany"]}, "phone": "+494055446935", "display_phone": "+49 40 55446935", "distance": 3183.302160538907}, {"id": "8aXDddyawgyuOjePAnnFzw", "alias": "eat-und-sweet-hamburg-2", "name": "Eat & Sweet", "image_url": "https://s3-media1.fl.yelpcdn.com/bphoto/V0Czc5wP9N5Gxy09GCloVg/o.jpg", "is_closed": false, "url": "https://www.yelp.com/biz/eat-und-sweet-hamburg-2?adjust_creative=hBJOknVQJ58S5goQyjmwRw&utm_campaign=yelp_api_v3&utm_medium=api_v3_business_search&utm_source=hBJOknVQJ58S5goQyjmwRw", "review_count": 5, "categories": [{"alias": "cakeshop", "title": "Patisserie/Cake Shop"}, {"alias": "cupcakes", "title": "Cupcakes"}, {"alias": "cafes", "title": "Cafes"}], "rating": 4.5, "coordinates": {"latitude": 53.6192272707374, "longitude": 9.95103437301634}, "transactions": [], "price": "\u20ac\u20ac", "location": {"address1": "Tibarg 5", "address2": "", "address3": "", "city": "Hamburg", "zip_code": "22459", "country": "DE", "state": "HH", "display_address": ["Tibarg 5", "22459 Hamburg", "Germany"]}, "phone": "+494030724615", "display_phone": "+49 40 30724615", "distance": 3078.045547188824}, {"id": "mURl_v8Ir4AMxfDs8VVizg", "alias": "mein-fischladen-hamburg", "name": "Mein Fischladen", "image_url": "https://s3-media3.fl.yelpcdn.com/bphoto/m7cHAyH7CZnWLvahD-D9qw/o.jpg", "is_closed": false, "url": "https://www.yelp.com/biz/mein-fischladen-hamburg?adjust_creative=hBJOknVQJ58S5goQyjmwRw&utm_campaign=yelp_api_v3&utm_medium=api_v3_business_search&utm_source=hBJOknVQJ58S5goQyjmwRw", "review_count": 10, "categories": [{"alias": "seafood", "title": "Seafood"}, {"alias": "fishmonger", "title": "Fishmonger"}], "rating": 4.5, "coordinates": {"latitude": 53.640307, "longitude": 9.947865}, "transactions": [], "price": "\u20ac", "location": {"address1": "Nordalbinger Weg 17", "address2": "", "address3": "", "city": "Hamburg", "zip_code": "22455", "country": "DE", "state": "HH", "display_address": ["Nordalbinger Weg 17", "22455 Hamburg", "Germany"]}, "phone": "+49405525337", "display_phone": "+49 40 5525337", "distance": 825.5869296293015}, {"id": "Yx93qjHYxkF_PYlJRHamag", "alias": "restaurant-porto-marina-hamburg", "name": "Restaurant Porto Marina", "image_url": "https://s3-media4.fl.yelpcdn.com/bphoto/g0FzunYqZ68FqNhZArCJ4Q/o.jpg", "is_closed": false, "url": "https://www.yelp.com/biz/restaurant-porto-marina-hamburg?adjust_creative=hBJOknVQJ58S5goQyjmwRw&utm_campaign=yelp_api_v3&utm_medium=api_v3_business_search&utm_source=hBJOknVQJ58S5goQyjmwRw", "review_count": 30, "categories": [{"alias": "greek", "title": "Greek"}], "rating": 3.5, "coordinates": {"latitude": 53.6223, "longitude": 9.95297}, "transactions": [], "price": "\u20ac\u20ac", "location": {"address1": "Tibarg 52", "address2": null, "address3": null, "city": "Hamburg", "zip_code": "22459", "country": "DE", "state": "HH", "display_address": ["Tibarg 52", "22459 Hamburg", "Germany"]}, "phone": "+494018886007", "display_phone": "+49 40 18886007", "distance": 2783.158538121105}, {"id": "mXOmODvz3JjJKtPoU4Pe7w", "alias": "the-eatalian-hamburg", "name": "The Eatalian", "image_url": "https://s3-media3.fl.yelpcdn.com/bphoto/6QFKlQaeGgrjXND0aKY30Q/o.jpg", "is_closed": false, "url": "https://www.yelp.com/biz/the-eatalian-hamburg?adjust_creative=hBJOknVQJ58S5goQyjmwRw&utm_campaign=yelp_api_v3&utm_medium=api_v3_business_search&utm_source=hBJOknVQJ58S5goQyjmwRw", "review_count": 4, "categories": [{"alias": "italian", "title": "Italian"}, {"alias": "coffee", "title": "Coffee & Tea"}], "rating": 4.0, "coordinates": {"latitude": 53.6210037, "longitude": 9.9522173}, "transactions": [], "price": "\u20ac\u20ac", "location": {"address1": "Tibarg Center", "address2": "Tibarg 41", "address3": "", "city": "Hamburg", "zip_code": "22459", "country": "DE", "state": "HH", "display_address": ["Tibarg Center", "Tibarg 41", "22459 Hamburg", "Germany"]}, "phone": "", "display_phone": "", "distance": 2906.7841208066634}, {"id": "uVY8wKq8_WhBb9I6YCUnjA", "alias": "ebertklause-hamburg", "name": "Ebertklause", "image_url": "", "is_closed": false, "url": "https://www.yelp.com/biz/ebertklause-hamburg?adjust_creative=hBJOknVQJ58S5goQyjmwRw&utm_campaign=yelp_api_v3&utm_medium=api_v3_business_search&utm_source=hBJOknVQJ58S5goQyjmwRw", "review_count": 2, "categories": [{"alias": "gastropubs", "title": "Gastropubs"}], "rating": 3.0, "coordinates": {"latitude": 53.622, "longitude": 9.94195}, "transactions": [], "location": {"address1": "Friedrich-Ebert-Str. 44", "address2": null, "address3": null, "city": "Hamburg", "zip_code": "22459", "country": "DE", "state": "HH", "display_address": ["Friedrich-Ebert-Str. 44", "22459 Hamburg", "Germany"]}, "phone": "+4940588414", "display_phone": "+49 40 588414", "distance": 2687.1299285735486}, {"id": "CMexeUkqwebafGSYBmWAsQ", "alias": "han-yang-hamburg", "name": "Han Yang", "image_url": "https://s3-media2.fl.yelpcdn.com/bphoto/GS9RRZxKWrrcSFe34Foy6A/o.jpg", "is_closed": false, "url": "https://www.yelp.com/biz/han-yang-hamburg?adjust_creative=hBJOknVQJ58S5goQyjmwRw&utm_campaign=yelp_api_v3&utm_medium=api_v3_business_search&utm_source=hBJOknVQJ58S5goQyjmwRw", "review_count": 10, "categories": [{"alias": "chinese", "title": "Chinese"}], "rating": 4.0, "coordinates": {"latitude": 53.6220355885043, "longitude": 9.95360252628155}, "transactions": [], "price": "\u20ac\u20ac\u20ac", "location": {"address1": "Zum Markt 1", "address2": "", "address3": "", "city": "Hamburg", "zip_code": "22459", "country": "DE", "state": "HH", "display_address": ["Zum Markt 1", "22459 Hamburg", "Germany"]}, "phone": "+49405523715", "display_phone": "+49 40 5523715", "distance": 2824.0283741659387}, {"id": "6AuelNJx_-5xGBtFfFwm1A", "alias": "haltestelle-zur-wurst-hamburg", "name": "Haltestelle zur Wurst", "image_url": "https://s3-media3.fl.yelpcdn.com/bphoto/NYWaVA6Iqx7Ghxf14NCNoA/o.jpg", "is_closed": false, "url": "https://www.yelp.com/biz/haltestelle-zur-wurst-hamburg?adjust_creative=hBJOknVQJ58S5goQyjmwRw&utm_campaign=yelp_api_v3&utm_medium=api_v3_business_search&utm_source=hBJOknVQJ58S5goQyjmwRw", "review_count": 10, "categories": [{"alias": "hotdogs", "title": "Fast Food"}], "rating": 5.0, "coordinates": {"latitude": 53.6106927961091, "longitude": 9.95697327770995}, "transactions": [], "price": "\u20ac", "location": {"address1": "St.-Pauli-Trainingsgel\u00e4nde", "address2": "Kollaustr. 137", "address3": null, "city": "Hamburg", "zip_code": "22453", "country": "DE", "state": "HH", "display_address": ["St.-Pauli-Trainingsgel\u00e4nde", "Kollaustr. 137", "22453 Hamburg", "Germany"]}, "phone": "+4915115374253", "display_phone": "+49 1511 5374253", "distance": 4095.3969900049997}, {"id": "8UdqNGq1zI2UZy2VY_oy8A", "alias": "schippels-kebab-hamburg", "name": "Schippels Kebab", "image_url": "https://s3-media3.fl.yelpcdn.com/bphoto/ErX83aTkQpIlSPmxmnaWiA/o.jpg", "is_closed": false, "url": "https://www.yelp.com/biz/schippels-kebab-hamburg?adjust_creative=hBJOknVQJ58S5goQyjmwRw&utm_campaign=yelp_api_v3&utm_medium=api_v3_business_search&utm_source=hBJOknVQJ58S5goQyjmwRw", "review_count": 2, "categories": [{"alias": "kebab", "title": "Kebab"}], "rating": 3.0, "coordinates": {"latitude": 53.6343213226088, "longitude": 9.95346829073646}, "transactions": [], "location": {"address1": "Paul-Sorge-Str. 142 B", "address2": "", "address3": null, "city": "Hamburg", "zip_code": "22455", "country": "DE", "state": "HH", "display_address": ["Paul-Sorge-Str. 142 B", "22455 Hamburg", "Germany"]}, "phone": "+494055505880", "display_phone": "+49 40 55505880", "distance": 1581.7403553186623}, {"id": "Cp5yywYa6MZNPv0QhAzy0g", "alias": "ponzu-hamburg", "name": "PONZU", "image_url": "https://s3-media4.fl.yelpcdn.com/bphoto/edtOpObgHbGPOvvrgPgSdw/o.jpg", "is_closed": false, "url": "https://www.yelp.com/biz/ponzu-hamburg?adjust_creative=hBJOknVQJ58S5goQyjmwRw&utm_campaign=yelp_api_v3&utm_medium=api_v3_business_search&utm_source=hBJOknVQJ58S5goQyjmwRw", "review_count": 2, "categories": [{"alias": "sushi", "title": "Sushi Bars"}, {"alias": "panasian", "title": "Pan Asian"}], "rating": 5.0, "coordinates": {"latitude": 53.6182, "longitude": 9.95068}, "transactions": [], "location": {"address1": "Tibarg 16", "address2": "", "address3": null, "city": "Hamburg", "zip_code": "22459", "country": "DE", "state": "HH", "display_address": ["Tibarg 16", "22459 Hamburg", "Germany"]}, "phone": "+494081972461", "display_phone": "+49 40 81972461", "distance": 3182.629399393008}, {"id": "Aqo370d_LdrQ-Odh5bg0mA", "alias": "chalon-hamburg-3", "name": "Chalon", "image_url": "https://s3-media3.fl.yelpcdn.com/bphoto/J_dUq8UFVPnkOcorSEzzeQ/o.jpg", "is_closed": false, "url": "https://www.yelp.com/biz/chalon-hamburg-3?adjust_creative=hBJOknVQJ58S5goQyjmwRw&utm_campaign=yelp_api_v3&utm_medium=api_v3_business_search&utm_source=hBJOknVQJ58S5goQyjmwRw", "review_count": 25, "categories": [{"alias": "mongolian", "title": "Mongolian"}, {"alias": "sushi", "title": "Sushi Bars"}, {"alias": "panasian", "title": "Pan Asian"}], "rating": 4.0, "coordinates": {"latitude": 53.63139, "longitude": 9.9552}, "transactions": [], "price": "\u20ac\u20ac", "location": {"address1": "Adlerhorst 8", "address2": "", "address3": "", "city": "Hamburg", "zip_code": "22459", "country": "DE", "state": "HH", "display_address": ["Adlerhorst 8", "22459 Hamburg", "Germany"]}, "phone": "+494089804966", "display_phone": "+49 40 89804966", "distance": 1940.57806012492}, {"id": "WvsUfGyc2KAAcQj64wyvlA", "alias": "asia-quick-hamburg-10", "name": "Asia Quick", "image_url": "https://s3-media3.fl.yelpcdn.com/bphoto/L_o4jFyDJPbIIw-FGlYFhw/o.jpg", "is_closed": false, "url": "https://www.yelp.com/biz/asia-quick-hamburg-10?adjust_creative=hBJOknVQJ58S5goQyjmwRw&utm_campaign=yelp_api_v3&utm_medium=api_v3_business_search&utm_source=hBJOknVQJ58S5goQyjmwRw", "review_count": 26, "categories": [{"alias": "panasian", "title": "Pan Asian"}], "rating": 4.0, "coordinates": {"latitude": 53.62021, "longitude": 9.95231}, "transactions": [], "price": "\u20ac", "location": {"address1": "Tibarg 34", "address2": "", "address3": "", "city": "Hamburg", "zip_code": "22459", "country": "DE", "state": "HH", "display_address": ["Tibarg 34", "22459 Hamburg", "Germany"]}, "phone": "+494087507993", "display_phone": "+49 40 87507993", "distance": 2967.589737991604}, {"id": "rZsV7d1gofjY-9_ZIzLnhg", "alias": "cantina-cuatro-hamburg", "name": "cantina cuatro", "image_url": "https://s3-media3.fl.yelpcdn.com/bphoto/EKMkeIJktDm0w3eV1j7tHw/o.jpg", "is_closed": false, "url": "https://www.yelp.com/biz/cantina-cuatro-hamburg?adjust_creative=hBJOknVQJ58S5goQyjmwRw&utm_campaign=yelp_api_v3&utm_medium=api_v3_business_search&utm_source=hBJOknVQJ58S5goQyjmwRw", "review_count": 2, "categories": [{"alias": "canteen", "title": "Canteen"}], "rating": 4.0, "coordinates": {"latitude": 53.6031, "longitude": 9.96201}, "transactions": [], "location": {"address1": "Audi Zentrum", "address2": "Kollaustr. 41-63", "address3": null, "city": "Hamburg", "zip_code": "22529", "country": "DE", "state": "HH", "display_address": ["Audi Zentrum", "Kollaustr. 41-63", "22529 Hamburg", "Germany"]}, "phone": "", "display_phone": "", "distance": 4998.981183405537}, {"id": "jFvtF_WCsb2IAlkOYzL0Bg", "alias": "landhaus-kaminski-norderstedt", "name": "Landhaus Kaminski", "image_url": "", "is_closed": false, "url": "https://www.yelp.com/biz/landhaus-kaminski-norderstedt?adjust_creative=hBJOknVQJ58S5goQyjmwRw&utm_campaign=yelp_api_v3&utm_medium=api_v3_business_search&utm_source=hBJOknVQJ58S5goQyjmwRw", "review_count": 4, "categories": [{"alias": "german", "title": "German"}], "rating": 5.0, "coordinates": {"latitude": 53.6583450958209, "longitude": 9.95852675288916}, "transactions": [], "location": {"address1": "Ohechaussee 442", "address2": "", "address3": null, "city": "Norderstedt", "zip_code": "22848", "country": "DE", "state": "SH", "display_address": ["Ohechaussee 442", "22848 Norderstedt", "Germany"]}, "phone": "+494018881703", "display_phone": "+49 40 18881703", "distance": 1820.1646522602884}, {"id": "6bHEN20g1Ck6vqC2PZguDg", "alias": "cafe-artig-niendorf", "name": "Cafe Artig", "image_url": "https://s3-media1.fl.yelpcdn.com/bphoto/7ax_5A2wXgmym8Y7W8xHsg/o.jpg", "is_closed": false, "url": "https://www.yelp.com/biz/cafe-artig-niendorf?adjust_creative=hBJOknVQJ58S5goQyjmwRw&utm_campaign=yelp_api_v3&utm_medium=api_v3_business_search&utm_source=hBJOknVQJ58S5goQyjmwRw", "review_count": 4, "categories": [{"alias": "cafes", "title": "Cafes"}], "rating": 4.5, "coordinates": {"latitude": 53.627179, "longitude": 9.944794}, "transactions": [], "price": "\u20ac\u20ac", "location": {"address1": "Graf-Anton-Weg 27", "address2": "", "address3": "", "city": "Niendorf", "zip_code": "22459", "country": "DE", "state": "HH", "display_address": ["Graf-Anton-Weg 27", "22459 Niendorf", "Germany"]}, "phone": "+494057205314", "display_phone": "+49 40 57205314", "distance": 2130.078187312777}, {"id": "ssulrzin1OWnuGnuKKOa-A", "alias": "il-porcino-restaurant-hamburg", "name": "Il Porcino Restaurant", "image_url": "https://s3-media3.fl.yelpcdn.com/bphoto/zHyT4wWqwYmkK-b9_xsXrA/o.jpg", "is_closed": false, "url": "https://www.yelp.com/biz/il-porcino-restaurant-hamburg?adjust_creative=hBJOknVQJ58S5goQyjmwRw&utm_campaign=yelp_api_v3&utm_medium=api_v3_business_search&utm_source=hBJOknVQJ58S5goQyjmwRw", "review_count": 34, "categories": [{"alias": "italian", "title": "Italian"}], "rating": 3.5, "coordinates": {"latitude": 53.62286, "longitude": 9.9511299}, "transactions": [], "price": "\u20ac\u20ac", "location": {"address1": "Wendlohstr. 6", "address2": "", "address3": "", "city": "Hamburg", "zip_code": "22459", "country": "DE", "state": "HH", "display_address": ["Wendlohstr. 6", "22459 Hamburg", "Germany"]}, "phone": "+494058955944", "display_phone": "+49 40 58955944", "distance": 2687.749028999968}, {"id": "lPaVZ6RCliJS2cS4j-fLcA", "alias": "papillon-hamburg", "name": "Papillon", "image_url": "https://s3-media3.fl.yelpcdn.com/bphoto/W2LUYq10kBaFbiYcz3c9Bw/o.jpg", "is_closed": false, "url": "https://www.yelp.com/biz/papillon-hamburg?adjust_creative=hBJOknVQJ58S5goQyjmwRw&utm_campaign=yelp_api_v3&utm_medium=api_v3_business_search&utm_source=hBJOknVQJ58S5goQyjmwRw", "review_count": 7, "categories": [{"alias": "international", "title": "International"}], "rating": 4.5, "coordinates": {"latitude": 53.6062, "longitude": 9.95523}, "transactions": [], "price": "\u20ac\u20ac\u20ac", "location": {"address1": "Niendorfer Str. 59", "address2": null, "address3": null, "city": "Hamburg", "zip_code": "22529", "country": "DE", "state": "HH", "display_address": ["Niendorfer Str. 59", "22529 Hamburg", "Germany"]}, "phone": "+4940584440", "display_phone": "+49 40 584440", "distance": 4551.707206500196}, {"id": "vp3fB4wycmUs-5otOTvjwg", "alias": "tibarg-kebap-haus-hamburg", "name": "Tibarg Kebap Haus", "image_url": "https://s3-media2.fl.yelpcdn.com/bphoto/srQylN-aEVRKiE2qZtT9oA/o.jpg", "is_closed": false, "url": "https://www.yelp.com/biz/tibarg-kebap-haus-hamburg?adjust_creative=hBJOknVQJ58S5goQyjmwRw&utm_campaign=yelp_api_v3&utm_medium=api_v3_business_search&utm_source=hBJOknVQJ58S5goQyjmwRw", "review_count": 29, "categories": [{"alias": "kebab", "title": "Kebab"}, {"alias": "turkish", "title": "Turkish"}], "rating": 3.5, "coordinates": {"latitude": 53.6199833755157, "longitude": 9.95198987424374}, "transactions": [], "price": "\u20ac\u20ac", "location": {"address1": "Tibarg 32a", "address2": "", "address3": "", "city": "Hamburg", "zip_code": "22459", "country": "DE", "state": "HH", "display_address": ["Tibarg 32a", "22459 Hamburg", "Germany"]}, "phone": "+4915734315204", "display_phone": "+49 1573 4315204", "distance": 3012.1159203417023}, {"id": "vImYVDX2a0kYn92XZpOa6g", "alias": "zum-zeppelin-hamburg-3", "name": "Zum Zeppelin", "image_url": "https://s3-media2.fl.yelpcdn.com/bphoto/RXga_Eqzb-_AFkA-Grgi3A/o.jpg", "is_closed": false, "url": "https://www.yelp.com/biz/zum-zeppelin-hamburg-3?adjust_creative=hBJOknVQJ58S5goQyjmwRw&utm_campaign=yelp_api_v3&utm_medium=api_v3_business_search&utm_source=hBJOknVQJ58S5goQyjmwRw", "review_count": 4, "categories": [{"alias": "german", "title": "German"}], "rating": 4.0, "coordinates": {"latitude": 53.62855, "longitude": 9.93248}, "transactions": [], "price": "\u20ac\u20ac\u20ac", "location": {"address1": "Frohmestr. 123-125", "address2": null, "address3": null, "city": "Hamburg", "zip_code": "22459", "country": "DE", "state": "HH", "display_address": ["Frohmestr. 123-125", "22459 Hamburg", "Germany"]}, "phone": "+4940559060", "display_phone": "+49 40 559060", "distance": 2015.6733343476221}, {"id": "-rEgwMosGsxFEgwwIEYSyg", "alias": "croque-point-niendorf-nord-hamburg", "name": "Croque Point Niendorf Nord", "image_url": "", "is_closed": false, "url": "https://www.yelp.com/biz/croque-point-niendorf-nord-hamburg?adjust_creative=hBJOknVQJ58S5goQyjmwRw&utm_campaign=yelp_api_v3&utm_medium=api_v3_business_search&utm_source=hBJOknVQJ58S5goQyjmwRw", "review_count": 9, "categories": [{"alias": "sandwiches", "title": "Sandwiches"}], "rating": 4.5, "coordinates": {"latitude": 53.64031, "longitude": 9.94794}, "transactions": [], "price": "\u20ac\u20ac", "location": {"address1": "Nordalbingerweg 17 b", "address2": null, "address3": null, "city": "Hamburg", "zip_code": "22455", "country": "DE", "state": "HH", "display_address": ["Nordalbingerweg 17 b", "22455 Hamburg", "Germany"]}, "phone": "+494057128880", "display_phone": "+49 40 57128880", "distance": 828.3923184410721}, {"id": "v9ZEwpx6nakbsvaJrFp-Bw", "alias": "fischhaus-timm-hamburg", "name": "Fischhaus Timm", "image_url": "https://s3-media2.fl.yelpcdn.com/bphoto/f62XnNQgC3zmAAJZA6vFPA/o.jpg", "is_closed": false, "url": "https://www.yelp.com/biz/fischhaus-timm-hamburg?adjust_creative=hBJOknVQJ58S5goQyjmwRw&utm_campaign=yelp_api_v3&utm_medium=api_v3_business_search&utm_source=hBJOknVQJ58S5goQyjmwRw", "review_count": 3, "categories": [{"alias": "seafood", "title": "Seafood"}, {"alias": "fishnchips", "title": "Fish & Chips"}], "rating": 3.5, "coordinates": {"latitude": 53.6352, "longitude": 9.917}, "transactions": [], "location": {"address1": "Gli\u00dfmannweg 11", "address2": null, "address3": null, "city": "Hamburg", "zip_code": "22457", "country": "DE", "state": "HH", "display_address": ["Gli\u00dfmannweg 11", "22457 Hamburg", "Germany"]}, "phone": "+49405592213", "display_phone": "+49 40 5592213", "distance": 1950.128306139268}, {"id": "XPjnWZ9ddKKn2w_T_pdNww", "alias": "ristorante-la-costa-smeralda-hamburg", "name": "Ristorante La Costa Smeralda", "image_url": "https://s3-media1.fl.yelpcdn.com/bphoto/plMHtB6o48u_Z8rmcJQj1A/o.jpg", "is_closed": false, "url": "https://www.yelp.com/biz/ristorante-la-costa-smeralda-hamburg?adjust_creative=hBJOknVQJ58S5goQyjmwRw&utm_campaign=yelp_api_v3&utm_medium=api_v3_business_search&utm_source=hBJOknVQJ58S5goQyjmwRw", "review_count": 12, "categories": [{"alias": "italian", "title": "Italian"}], "rating": 3.0, "coordinates": {"latitude": 53.6339, "longitude": 9.91975}, "transactions": [], "price": "\u20ac\u20ac", "location": {"address1": "Frohmestr. 29", "address2": null, "address3": null, "city": "Hamburg", "zip_code": "22457", "country": "DE", "state": "HH", "display_address": ["Frohmestr. 29", "22457 Hamburg", "Germany"]}, "phone": "+49405591041", "display_phone": "+49 40 5591041", "distance": 1912.0612682570377}, {"id": "ncZdbHM6gv-vgWAGl6p8pg", "alias": "da-sinito-norderstedt", "name": "Da Sinito", "image_url": "https://s3-media2.fl.yelpcdn.com/bphoto/_fIqepgtYf4h6koVb3V47Q/o.jpg", "is_closed": false, "url": "https://www.yelp.com/biz/da-sinito-norderstedt?adjust_creative=hBJOknVQJ58S5goQyjmwRw&utm_campaign=yelp_api_v3&utm_medium=api_v3_business_search&utm_source=hBJOknVQJ58S5goQyjmwRw", "review_count": 1, "categories": [{"alias": "italian", "title": "Italian"}], "rating": 4.0, "coordinates": {"latitude": 53.67486, "longitude": 9.96512}, "transactions": [], "location": {"address1": "Ohlenhoff 18", "address2": "", "address3": null, "city": "Norderstedt", "zip_code": "22848", "country": "DE", "state": "SH", "display_address": ["Ohlenhoff 18", "22848 Norderstedt", "Germany"]}, "phone": "+494050016151", "display_phone": "+49 40 50016151", "distance": 3593.1925299973436}, {"id": "6P64TboUCvYM3Td9Yczouw", "alias": "schnellimbi\u00df-hamburg", "name": "Schnellimbi\u00df", "image_url": "https://s3-media3.fl.yelpcdn.com/bphoto/tLVym6QJSh6g-J4MIe3xew/o.jpg", "is_closed": false, "url": "https://www.yelp.com/biz/schnellimbi%C3%9F-hamburg?adjust_creative=hBJOknVQJ58S5goQyjmwRw&utm_campaign=yelp_api_v3&utm_medium=api_v3_business_search&utm_source=hBJOknVQJ58S5goQyjmwRw", "review_count": 3, "categories": [{"alias": "hotdogs", "title": "Fast Food"}], "rating": 2.5, "coordinates": {"latitude": 53.64043, "longitude": 9.94832}, "transactions": [], "price": "\u20ac\u20ac", "location": {"address1": "Nordalbingerweg 19", "address2": null, "address3": null, "city": "Hamburg", "zip_code": "22455", "country": "DE", "state": "HH", "display_address": ["Nordalbingerweg 19", "22455 Hamburg", "Germany"]}, "phone": "+494057144523", "display_phone": "+49 40 57144523", "distance": 834.0022436484902}, {"id": "l3AIfDd2egtIEhIw2EZA4g", "alias": "mio-hamburg-3", "name": "Mio", "image_url": "", "is_closed": false, "url": "https://www.yelp.com/biz/mio-hamburg-3?adjust_creative=hBJOknVQJ58S5goQyjmwRw&utm_campaign=yelp_api_v3&utm_medium=api_v3_business_search&utm_source=hBJOknVQJ58S5goQyjmwRw", "review_count": 1, "categories": [{"alias": "icecream", "title": "Ice Cream & Frozen Yogurt"}, {"alias": "italian", "title": "Italian"}, {"alias": "breakfast_brunch", "title": "Breakfast & Brunch"}], "rating": 4.0, "coordinates": {"latitude": 53.6203291, "longitude": 9.9520887}, "transactions": [], "location": {"address1": "Tibarg 34", "address2": "", "address3": null, "city": "Hamburg", "zip_code": "22459", "country": "DE", "state": "HH", "display_address": ["Tibarg 34", "22459 Hamburg", "Germany"]}, "phone": "", "display_phone": "", "distance": 2976.730337166198}, {"id": "19uXg_TsMdYHg19MZptw-g", "alias": "lingtons-restaurant-hamburg", "name": "Lingtons Restaurant", "image_url": "https://s3-media2.fl.yelpcdn.com/bphoto/sVLbYqoDxV7R8JNwWsKSFA/o.jpg", "is_closed": false, "url": "https://www.yelp.com/biz/lingtons-restaurant-hamburg?adjust_creative=hBJOknVQJ58S5goQyjmwRw&utm_campaign=yelp_api_v3&utm_medium=api_v3_business_search&utm_source=hBJOknVQJ58S5goQyjmwRw", "review_count": 1, "categories": [{"alias": "restaurants", "title": "Restaurants"}], "rating": 1.0, "coordinates": {"latitude": 53.6434, "longitude": 9.96049}, "transactions": [], "price": "\u20ac\u20ac", "location": {"address1": "Sachsenweg 85", "address2": null, "address3": null, "city": "Hamburg", "zip_code": "22455", "country": "DE", "state": "HH", "display_address": ["Sachsenweg 85", "22455 Hamburg", "Germany"]}, "phone": "+49405518220", "display_phone": "+49 40 5518220", "distance": 1376.9044783761756}, {"id": "iCMzNrvQrwbejyoXFU5vUg", "alias": "welcome-india-hamburg-3", "name": "Welcome India", "image_url": "https://s3-media1.fl.yelpcdn.com/bphoto/u1z_6BYtvpuWRO9bte4IAA/o.jpg", "is_closed": false, "url": "https://www.yelp.com/biz/welcome-india-hamburg-3?adjust_creative=hBJOknVQJ58S5goQyjmwRw&utm_campaign=yelp_api_v3&utm_medium=api_v3_business_search&utm_source=hBJOknVQJ58S5goQyjmwRw", "review_count": 10, "categories": [{"alias": "indpak", "title": "Indian"}], "rating": 3.5, "coordinates": {"latitude": 53.6118852411481, "longitude": 9.95571292137109}, "transactions": [], "price": "\u20ac\u20ac", "location": {"address1": "Kollaustr. 144", "address2": null, "address3": "", "city": "Hamburg", "zip_code": "22453", "country": "DE", "state": "HH", "display_address": ["Kollaustr. 144", "22453 Hamburg", "Germany"]}, "phone": "+494046646789", "display_phone": "+49 40 46646789", "distance": 3945.4674010533276}, {"id": "563I0YNmkeOoaH2WXqJymQ", "alias": "grill-stop-hamburg-hamburg", "name": "Grill Stop Hamburg", "image_url": "https://s3-media3.fl.yelpcdn.com/bphoto/VlBYayXXEelJyPQbvMThJQ/o.jpg", "is_closed": false, "url": "https://www.yelp.com/biz/grill-stop-hamburg-hamburg?adjust_creative=hBJOknVQJ58S5goQyjmwRw&utm_campaign=yelp_api_v3&utm_medium=api_v3_business_search&utm_source=hBJOknVQJ58S5goQyjmwRw", "review_count": 2, "categories": [{"alias": "foodstands", "title": "Food Stands"}], "rating": 3.5, "coordinates": {"latitude": 53.632113, "longitude": 9.922267}, "transactions": [], "price": "\u20ac", "location": {"address1": "Frohmestr. 53", "address2": null, "address3": null, "city": "Hamburg", "zip_code": "22457", "country": "DE", "state": "HH", "display_address": ["Frohmestr. 53", "22457 Hamburg", "Germany"]}, "phone": "+49405507225", "display_phone": "+49 40 5507225", "distance": 1958.9961424660087}, {"id": "TP-8Q2Gpwaxv3Twa_Ke0EA", "alias": "mai-mai-hamburg-3", "name": "Mai Mai", "image_url": "https://s3-media2.fl.yelpcdn.com/bphoto/3-EQexMOeavPWD7I7O292w/o.jpg", "is_closed": false, "url": "https://www.yelp.com/biz/mai-mai-hamburg-3?adjust_creative=hBJOknVQJ58S5goQyjmwRw&utm_campaign=yelp_api_v3&utm_medium=api_v3_business_search&utm_source=hBJOknVQJ58S5goQyjmwRw", "review_count": 5, "categories": [{"alias": "panasian", "title": "Pan Asian"}], "rating": 2.0, "coordinates": {"latitude": 53.62216, "longitude": 9.9523}, "transactions": [], "price": "\u20ac\u20ac", "location": {"address1": "Tibarg 41", "address2": "", "address3": "", "city": "Hamburg", "zip_code": "22459", "country": "DE", "state": "HH", "display_address": ["Tibarg 41", "22459 Hamburg", "Germany"]}, "phone": "", "display_phone": "", "distance": 2742.646414787046}, {"id": "fwdDE_9CO6RJ9uFQKa6nUQ", "alias": "schnelsener-kebap-house-hamburg", "name": "Schnelsener Kebap House", "image_url": "", "is_closed": false, "url": "https://www.yelp.com/biz/schnelsener-kebap-house-hamburg?adjust_creative=hBJOknVQJ58S5goQyjmwRw&utm_campaign=yelp_api_v3&utm_medium=api_v3_business_search&utm_source=hBJOknVQJ58S5goQyjmwRw", "review_count": 9, "categories": [{"alias": "kebab", "title": "Kebab"}], "rating": 4.5, "coordinates": {"latitude": 53.6362, "longitude": 9.91752}, "transactions": [], "price": "\u20ac", "location": {"address1": "Oldesloer Str. 41", "address2": null, "address3": null, "city": "Hamburg", "zip_code": "22457", "country": "DE", "state": "HH", "display_address": ["Oldesloer Str. 41", "22457 Hamburg", "Germany"]}, "phone": "+494055009130", "display_phone": "+49 40 55009130", "distance": 1855.1092135711563}, {"id": "aeUdh5cEwbXG9_HIi16qcg", "alias": "mr-fresh-hamburg", "name": "Mr. Fresh", "image_url": "https://s3-media2.fl.yelpcdn.com/bphoto/lLnY1KY0usrvrFYqL-PQPg/o.jpg", "is_closed": false, "url": "https://www.yelp.com/biz/mr-fresh-hamburg?adjust_creative=hBJOknVQJ58S5goQyjmwRw&utm_campaign=yelp_api_v3&utm_medium=api_v3_business_search&utm_source=hBJOknVQJ58S5goQyjmwRw", "review_count": 13, "categories": [{"alias": "salad", "title": "Salad"}, {"alias": "creperies", "title": "Creperies"}], "rating": 4.0, "coordinates": {"latitude": 53.6316, "longitude": 9.92009}, "transactions": [], "price": "\u20ac\u20ac", "location": {"address1": "W\u00e4hlingsallee 11", "address2": null, "address3": null, "city": "Hamburg", "zip_code": "22459", "country": "DE", "state": "HH", "display_address": ["W\u00e4hlingsallee 11", "22459 Hamburg", "Germany"]}, "phone": "+49405583400", "display_phone": "+49 40 5583400", "distance": 2087.5911812713152}, {"id": "9CZvK4co5_so_9xr5rXHcQ", "alias": "smileys-hamburg-18", "name": "Smiley's", "image_url": "https://s3-media3.fl.yelpcdn.com/bphoto/T9oi5VJODeof-L62efwJRw/o.jpg", "is_closed": false, "url": "https://www.yelp.com/biz/smileys-hamburg-18?adjust_creative=hBJOknVQJ58S5goQyjmwRw&utm_campaign=yelp_api_v3&utm_medium=api_v3_business_search&utm_source=hBJOknVQJ58S5goQyjmwRw", "review_count": 13, "categories": [{"alias": "pizza", "title": "Pizza"}], "rating": 4.0, "coordinates": {"latitude": 53.6336, "longitude": 9.95305}, "transactions": [], "price": "\u20ac\u20ac", "location": {"address1": "Paul-Sorge-Str. 140", "address2": null, "address3": null, "city": "Hamburg", "zip_code": "22455", "country": "DE", "state": "HH", "display_address": ["Paul-Sorge-Str. 140", "22455 Hamburg", "Germany"]}, "phone": "+494055540050", "display_phone": "+49 40 55540050", "distance": 1634.4475434095475}, {"id": "U9QJwMx3RNOPy7Ce0xn4fA", "alias": "brimborium-hamburg-2", "name": "Brimborium", "image_url": "https://s3-media2.fl.yelpcdn.com/bphoto/ccorPrrGnaj__ntjefe2Ww/o.jpg", "is_closed": false, "url": "https://www.yelp.com/biz/brimborium-hamburg-2?adjust_creative=hBJOknVQJ58S5goQyjmwRw&utm_campaign=yelp_api_v3&utm_medium=api_v3_business_search&utm_source=hBJOknVQJ58S5goQyjmwRw", "review_count": 6, "categories": [{"alias": "international", "title": "International"}], "rating": 3.5, "coordinates": {"latitude": 53.6289, "longitude": 9.93144}, "transactions": [], "location": {"address1": "Frohmestr. 110", "address2": null, "address3": null, "city": "Hamburg", "zip_code": "22459", "country": "DE", "state": "HH", "display_address": ["Frohmestr. 110", "22459 Hamburg", "Germany"]}, "phone": "+49405590621535", "display_phone": "+49 40 5590621535", "distance": 2000.7418057904213}, {"id": "0bRB2Dk1RuO_XYvigryCrw", "alias": "hamaliya-pizzaservice-hamburg", "name": "Hamaliya Pizzaservice", "image_url": "", "is_closed": false, "url": "https://www.yelp.com/biz/hamaliya-pizzaservice-hamburg?adjust_creative=hBJOknVQJ58S5goQyjmwRw&utm_campaign=yelp_api_v3&utm_medium=api_v3_business_search&utm_source=hBJOknVQJ58S5goQyjmwRw", "review_count": 3, "categories": [{"alias": "pizza", "title": "Pizza"}], "rating": 3.5, "coordinates": {"latitude": 53.63412, "longitude": 9.91615}, "transactions": [], "location": {"address1": "Riekbornweg 2", "address2": "", "address3": "", "city": "Hamburg", "zip_code": "22457", "country": "DE", "state": "HH", "display_address": ["Riekbornweg 2", "22457 Hamburg", "Germany"]}, "phone": "+494055505719", "display_phone": "+49 40 55505719", "distance": 2068.5832433656155}, {"id": "h6XSC8n7UsQ5pEeI6N871w", "alias": "hallo-pizza-hamburg-14", "name": "Hallo Pizza!", "image_url": "https://s3-media3.fl.yelpcdn.com/bphoto/rPETS0HqHtwEcK_oVYi7dA/o.jpg", "is_closed": false, "url": "https://www.yelp.com/biz/hallo-pizza-hamburg-14?adjust_creative=hBJOknVQJ58S5goQyjmwRw&utm_campaign=yelp_api_v3&utm_medium=api_v3_business_search&utm_source=hBJOknVQJ58S5goQyjmwRw", "review_count": 2, "categories": [{"alias": "pizza", "title": "Pizza"}], "rating": 5.0, "coordinates": {"latitude": 53.6303085, "longitude": 9.9266974}, "transactions": [], "price": "\u20ac", "location": {"address1": "Frohmestr. 86", "address2": null, "address3": null, "city": "Hamburg", "zip_code": "22459", "country": "DE", "state": "HH", "display_address": ["Frohmestr. 86", "22459 Hamburg", "Germany"]}, "phone": "+494059354300", "display_phone": "+49 40 59354300", "distance": 1970.4092862946438}, {"id": "1N0RoHYpRany3cen0il2VA", "alias": "restaurant-omyros-hamburg", "name": "Restaurant Omyros", "image_url": "https://s3-media1.fl.yelpcdn.com/bphoto/2uhIyQIgkOb82pZmUEMzwg/o.jpg", "is_closed": false, "url": "https://www.yelp.com/biz/restaurant-omyros-hamburg?adjust_creative=hBJOknVQJ58S5goQyjmwRw&utm_campaign=yelp_api_v3&utm_medium=api_v3_business_search&utm_source=hBJOknVQJ58S5goQyjmwRw", "review_count": 11, "categories": [{"alias": "greek", "title": "Greek"}, {"alias": "international", "title": "International"}], "rating": 3.0, "coordinates": {"latitude": 53.6318, "longitude": 9.92008}, "transactions": [], "price": "\u20ac\u20ac", "location": {"address1": "W\u00e4hlingsallee 8", "address2": null, "address3": null, "city": "Hamburg", "zip_code": "22459", "country": "DE", "state": "HH", "display_address": ["W\u00e4hlingsallee 8", "22459 Hamburg", "Germany"]}, "phone": "+494067044630", "display_phone": "+49 40 67044630", "distance": 2070.832237907527}, {"id": "pdCpaunO_IsJx9egvbp4vg", "alias": "asia-pfanne-hamburg", "name": "Asia Pfanne", "image_url": "https://s3-media2.fl.yelpcdn.com/bphoto/4Dr3ceAn6V1xIJvsGkT15w/o.jpg", "is_closed": false, "url": "https://www.yelp.com/biz/asia-pfanne-hamburg?adjust_creative=hBJOknVQJ58S5goQyjmwRw&utm_campaign=yelp_api_v3&utm_medium=api_v3_business_search&utm_source=hBJOknVQJ58S5goQyjmwRw", "review_count": 1, "categories": [{"alias": "panasian", "title": "Pan Asian"}], "rating": 3.0, "coordinates": {"latitude": 53.632113, "longitude": 9.922267}, "transactions": [], "location": {"address1": "Frohmestr. 53", "address2": "", "address3": "", "city": "Hamburg", "zip_code": "22457", "country": "DE", "state": "HH", "display_address": ["Frohmestr. 53", "22457 Hamburg", "Germany"]}, "phone": "+49405507225", "display_phone": "+49 40 5507225", "distance": 1958.9961424660087}, {"id": "fTQyh9kb6XbWJEygoWC5LQ", "alias": "bennys-hamburg-2", "name": "Bennys", "image_url": "", "is_closed": false, "url": "https://www.yelp.com/biz/bennys-hamburg-2?adjust_creative=hBJOknVQJ58S5goQyjmwRw&utm_campaign=yelp_api_v3&utm_medium=api_v3_business_search&utm_source=hBJOknVQJ58S5goQyjmwRw", "review_count": 3, "categories": [{"alias": "restaurants", "title": "Restaurants"}], "rating": 1.0, "coordinates": {"latitude": 53.6528179, "longitude": 9.9200587}, "transactions": [], "location": {"address1": "K\u00f6nigskinderweg 200", "address2": "", "address3": null, "city": "Hamburg", "zip_code": "22457", "country": "DE", "state": "HH", "display_address": ["K\u00f6nigskinderweg 200", "22457 Hamburg", "Germany"]}, "phone": "+49405598790", "display_phone": "+49 40 5598790", "distance": 1516.3137779933556}, {"id": "nv04Ara6tQAcf0aSTsEslg", "alias": "tien-asia-hamburg", "name": "Tien-Asia", "image_url": "", "is_closed": false, "url": "https://www.yelp.com/biz/tien-asia-hamburg?adjust_creative=hBJOknVQJ58S5goQyjmwRw&utm_campaign=yelp_api_v3&utm_medium=api_v3_business_search&utm_source=hBJOknVQJ58S5goQyjmwRw", "review_count": 6, "categories": [{"alias": "panasian", "title": "Pan Asian"}], "rating": 3.5, "coordinates": {"latitude": 53.63525, "longitude": 9.94297}, "transactions": [], "price": "\u20ac\u20ac", "location": {"address1": "Gottschalkweg 2", "address2": "", "address3": "", "city": "Hamburg", "zip_code": "22453", "country": "DE", "state": "HH", "display_address": ["Gottschalkweg 2", "22453 Hamburg", "Germany"]}, "phone": "+494057261664", "display_phone": "+49 40 57261664", "distance": 1226.5244451265926}, {"id": "f8Iq441eBFQ2H6l44iUYNA", "alias": "call-a-pizza-hamburg-5", "name": "Call a Pizza", "image_url": "https://s3-media4.fl.yelpcdn.com/bphoto/VKKfI_x3McuKKuUSy6MW1Q/o.jpg", "is_closed": false, "url": "https://www.yelp.com/biz/call-a-pizza-hamburg-5?adjust_creative=hBJOknVQJ58S5goQyjmwRw&utm_campaign=yelp_api_v3&utm_medium=api_v3_business_search&utm_source=hBJOknVQJ58S5goQyjmwRw", "review_count": 15, "categories": [{"alias": "pizza", "title": "Pizza"}], "rating": 3.5, "coordinates": {"latitude": 53.63051, "longitude": 9.92599}, "transactions": [], "price": "\u20ac\u20ac", "location": {"address1": "Frohmestr. 78D", "address2": "", "address3": null, "city": "Hamburg", "zip_code": "22459", "country": "DE", "state": "HH", "display_address": ["Frohmestr. 78D", "22459 Hamburg", "Germany"]}, "phone": "+49405592047", "display_phone": "+49 40 5592047", "distance": 1973.4126999109058}, {"id": "MiFbCdqKkKr2uMbGWvnQfg", "alias": "dominos-hamburg-18", "name": "Domino's", "image_url": "", "is_closed": false, "url": "https://www.yelp.com/biz/dominos-hamburg-18?adjust_creative=hBJOknVQJ58S5goQyjmwRw&utm_campaign=yelp_api_v3&utm_medium=api_v3_business_search&utm_source=hBJOknVQJ58S5goQyjmwRw", "review_count": 1, "categories": [{"alias": "pizza", "title": "Pizza"}], "rating": 2.0, "coordinates": {"latitude": 53.63612, "longitude": 9.9446999}, "transactions": [], "location": {"address1": "Quedlinburger Weg 78", "address2": "", "address3": null, "city": "Hamburg", "zip_code": "22455", "country": "DE", "state": "HH", "display_address": ["Quedlinburger Weg 78", "22455 Hamburg", "Germany"]}, "phone": "+49405558810", "display_phone": "+49 40 5558810", "distance": 1147.33329542961}, {"id": "XLyU_7BUrvymMxDwBdiMyg", "alias": "mcdonalds-hamburg-24", "name": "McDonald's", "image_url": "https://s3-media2.fl.yelpcdn.com/bphoto/cJRyNjFs8fFKUmwTkpVNrg/o.jpg", "is_closed": false, "url": "https://www.yelp.com/biz/mcdonalds-hamburg-24?adjust_creative=hBJOknVQJ58S5goQyjmwRw&utm_campaign=yelp_api_v3&utm_medium=api_v3_business_search&utm_source=hBJOknVQJ58S5goQyjmwRw", "review_count": 6, "categories": [{"alias": "hotdogs", "title": "Fast Food"}, {"alias": "burgers", "title": "Burgers"}], "rating": 2.0, "coordinates": {"latitude": 53.6218, "longitude": 9.9523}, "transactions": [], "location": {"address1": "Tibarg 41", "address2": "", "address3": null, "city": "Hamburg", "zip_code": "22459", "country": "DE", "state": "HH", "display_address": ["Tibarg 41", "22459 Hamburg", "Germany"]}, "phone": "+494058951943", "display_phone": "+49 40 58951943", "distance": 2823.2873051485}, {"id": "F4o21bYF9t71tEQkiJZpVA", "alias": "livia-hamburg-3", "name": "Livia", "image_url": "", "is_closed": false, "url": "https://www.yelp.com/biz/livia-hamburg-3?adjust_creative=hBJOknVQJ58S5goQyjmwRw&utm_campaign=yelp_api_v3&utm_medium=api_v3_business_search&utm_source=hBJOknVQJ58S5goQyjmwRw", "review_count": 3, "categories": [{"alias": "international", "title": "International"}], "rating": 2.5, "coordinates": {"latitude": 53.6298, "longitude": 9.95693}, "transactions": [], "price": "\u20ac\u20ac", "location": {"address1": "Rebhuhnweg 24", "address2": null, "address3": null, "city": "Hamburg", "zip_code": "22459", "country": "DE", "state": "HH", "display_address": ["Rebhuhnweg 24", "22459 Hamburg", "Germany"]}, "phone": "+49405522781", "display_phone": "+49 40 5522781", "distance": 2128.3970267801346}, {"id": "gLx6Vz_0Tht17upmrAVfbQ", "alias": "xxl-croque-hamburg", "name": "XXL Croque", "image_url": "https://s3-media1.fl.yelpcdn.com/bphoto/WI-0DoqAWwvayUaAfxUu6Q/o.jpg", "is_closed": false, "url": "https://www.yelp.com/biz/xxl-croque-hamburg?adjust_creative=hBJOknVQJ58S5goQyjmwRw&utm_campaign=yelp_api_v3&utm_medium=api_v3_business_search&utm_source=hBJOknVQJ58S5goQyjmwRw", "review_count": 2, "categories": [{"alias": "sandwiches", "title": "Sandwiches"}], "rating": 2.0, "coordinates": {"latitude": 53.63412, "longitude": 9.91615}, "transactions": [], "price": "\u20ac\u20ac", "location": {"address1": "Riekbornweg 2", "address2": "", "address3": "", "city": "Hamburg", "zip_code": "22457", "country": "DE", "state": "HH", "display_address": ["Riekbornweg 2", "22457 Hamburg", "Germany"]}, "phone": "+494055505880", "display_phone": "+49 40 55505880", "distance": 2068.5832433656155}]