[{"id": "E73qYJmztAibJOEQ26C6yw", "alias": "quanto-basta-pinneberg", "name": "Quanto Basta", "image_url": "https://s3-media2.fl.yelpcdn.com/bphoto/pga5AFzbxJRUxsTI0Tqt5Q/o.jpg", "is_closed": false, "url": "https://www.yelp.com/biz/quanto-basta-pinneberg?adjust_creative=hBJOknVQJ58S5goQyjmwRw&utm_campaign=yelp_api_v3&utm_medium=api_v3_business_search&utm_source=hBJOknVQJ58S5goQyjmwRw", "review_count": 26, "categories": [{"alias": "italian", "title": "Italian"}, {"alias": "pizza", "title": "Pizza"}], "rating": 4.5, "coordinates": {"latitude": 53.6525091359192, "longitude": 9.8083545640111}, "transactions": [], "price": "\u20ac\u20ac", "location": {"address1": "Fahltsweide 10", "address2": "", "address3": "", "city": "Pinneberg", "zip_code": "25421", "country": "DE", "state": "SH", "display_address": ["Fahltsweide 10", "25421 Pinneberg", "Germany"]}, "phone": "+4941018451823", "display_phone": "+49 4101 8451823", "distance": 934.7230576367465}, {"id": "AYlMFGMmNAzgiUYPjwZeLw", "alias": "kochlounge-pinneberg", "name": "Kochlounge", "image_url": "https://s3-media4.fl.yelpcdn.com/bphoto/qYWSkH2Y6C02kzXCU17hXQ/o.jpg", "is_closed": false, "url": "https://www.yelp.com/biz/kochlounge-pinneberg?adjust_creative=hBJOknVQJ58S5goQyjmwRw&utm_campaign=yelp_api_v3&utm_medium=api_v3_business_search&utm_source=hBJOknVQJ58S5goQyjmwRw", "review_count": 39, "categories": [{"alias": "international", "title": "International"}], "rating": 4.5, "coordinates": {"latitude": 53.6444199, "longitude": 9.81111}, "transactions": [], "price": "\u20ac\u20ac", "location": {"address1": "Diesterwegstr. 33 b", "address2": "", "address3": "", "city": "Pinneberg", "zip_code": "25421", "country": "DE", "state": "SH", "display_address": ["Diesterwegstr. 33 b", "25421 Pinneberg", "Germany"]}, "phone": "+4941018590070", "display_phone": "+49 4101 8590070", "distance": 614.1828922562629}, {"id": "Bg01nWnHGhbYOREOZ4DmDQ", "alias": "rolin-pinneberg", "name": "Rolin", "image_url": "https://s3-media1.fl.yelpcdn.com/bphoto/_9EY5XeZ0orqLTCRrukesw/o.jpg", "is_closed": false, "url": "https://www.yelp.com/biz/rolin-pinneberg?adjust_creative=hBJOknVQJ58S5goQyjmwRw&utm_campaign=yelp_api_v3&utm_medium=api_v3_business_search&utm_source=hBJOknVQJ58S5goQyjmwRw", "review_count": 18, "categories": [{"alias": "german", "title": "German"}, {"alias": "international", "title": "International"}], "rating": 4.5, "coordinates": {"latitude": 53.65764, "longitude": 9.80629}, "transactions": [], "price": "\u20ac\u20ac\u20ac", "location": {"address1": "Fahltskamp 48", "address2": "", "address3": null, "city": "Pinneberg", "zip_code": "25421", "country": "DE", "state": "SH", "display_address": ["Fahltskamp 48", "25421 Pinneberg", "Germany"]}, "phone": "+4941015330", "display_phone": "+49 4101 5330", "distance": 1451.0941606458948}, {"id": "yxaa2M8ksV3oE3e77J_cWg", "alias": "marathon-grill-rellingen", "name": "Marathon Grill", "image_url": "https://s3-media1.fl.yelpcdn.com/bphoto/MeQPAIYOymxpCLDbQWj7aw/o.jpg", "is_closed": false, "url": "https://www.yelp.com/biz/marathon-grill-rellingen?adjust_creative=hBJOknVQJ58S5goQyjmwRw&utm_campaign=yelp_api_v3&utm_medium=api_v3_business_search&utm_source=hBJOknVQJ58S5goQyjmwRw", "review_count": 13, "categories": [{"alias": "greek", "title": "Greek"}], "rating": 4.5, "coordinates": {"latitude": 53.6436, "longitude": 9.84214}, "transactions": [], "price": "\u20ac", "location": {"address1": "Hallstr. 55", "address2": null, "address3": null, "city": "Rellingen", "zip_code": "25462", "country": "DE", "state": "SH", "display_address": ["Hallstr. 55", "25462 Rellingen", "Germany"]}, "phone": "+49410125161", "display_phone": "+49 4101 25161", "distance": 1565.1211591226197}, {"id": "g_Ck3uyR7yFeOWckhtHwCQ", "alias": "zur-schmiede-borstel-hohenraden", "name": "Zur Schmiede", "image_url": "https://s3-media1.fl.yelpcdn.com/bphoto/qaSaHjgblU1F0Dsr5OynBg/o.jpg", "is_closed": false, "url": "https://www.yelp.com/biz/zur-schmiede-borstel-hohenraden?adjust_creative=hBJOknVQJ58S5goQyjmwRw&utm_campaign=yelp_api_v3&utm_medium=api_v3_business_search&utm_source=hBJOknVQJ58S5goQyjmwRw", "review_count": 5, "categories": [{"alias": "beergarden", "title": "Beer Garden"}], "rating": 4.5, "coordinates": {"latitude": 53.6865, "longitude": 9.80884}, "transactions": [], "price": "\u20ac\u20ac\u20ac", "location": {"address1": "Quickborner Str. 71", "address2": null, "address3": null, "city": "Borstel-Hohenraden", "zip_code": "25494", "country": "DE", "state": "SH", "display_address": ["Quickborner Str. 71", "25494 Borstel-Hohenraden", "Germany"]}, "phone": "+4941018575222", "display_phone": "+49 4101 8575222", "distance": 4440.64911238752}, {"id": "22HCDMkVa8NXpWyMxyFuZQ", "alias": "rhodos-rellingen", "name": "Rhodos", "image_url": "https://s3-media2.fl.yelpcdn.com/bphoto/MnfZdj9yyseT-3KD1yygeA/o.jpg", "is_closed": false, "url": "https://www.yelp.com/biz/rhodos-rellingen?adjust_creative=hBJOknVQJ58S5goQyjmwRw&utm_campaign=yelp_api_v3&utm_medium=api_v3_business_search&utm_source=hBJOknVQJ58S5goQyjmwRw", "review_count": 12, "categories": [{"alias": "greek", "title": "Greek"}], "rating": 4.5, "coordinates": {"latitude": 53.6517, "longitude": 9.82941}, "transactions": [], "price": "\u20ac\u20ac", "location": {"address1": "Hauptstr. 22", "address2": null, "address3": null, "city": "Rellingen", "zip_code": "25462", "country": "DE", "state": "SH", "display_address": ["Hauptstr. 22", "25462 Rellingen", "Germany"]}, "phone": "+494101200993", "display_phone": "+49 4101 200993", "distance": 854.5784944140219}, {"id": "2O87KG8xApQAqTJ-x7PpvQ", "alias": "trattoria-rocco-halstenbek", "name": "Trattoria Rocco", "image_url": "https://s3-media2.fl.yelpcdn.com/bphoto/4NKMDZUKn_Zi3B8V4eTRCQ/o.jpg", "is_closed": false, "url": "https://www.yelp.com/biz/trattoria-rocco-halstenbek?adjust_creative=hBJOknVQJ58S5goQyjmwRw&utm_campaign=yelp_api_v3&utm_medium=api_v3_business_search&utm_source=hBJOknVQJ58S5goQyjmwRw", "review_count": 20, "categories": [{"alias": "italian", "title": "Italian"}], "rating": 3.5, "coordinates": {"latitude": 53.629337, "longitude": 9.835356}, "transactions": [], "price": "\u20ac\u20ac", "location": {"address1": "Dockenhudener Chaussee 20", "address2": null, "address3": null, "city": "Halstenbek", "zip_code": "25469", "country": "DE", "state": "SH", "display_address": ["Dockenhudener Chaussee 20", "25469 Halstenbek", "Germany"]}, "phone": "+4941017877107", "display_phone": "+49 4101 7877107", "distance": 2240.0292803906277}, {"id": "Ih663KsFk7rYP68-y4OiMQ", "alias": "elena-pinneberg", "name": "Elena", "image_url": "https://s3-media4.fl.yelpcdn.com/bphoto/un667ClqQS1Afh8t32LqYA/o.jpg", "is_closed": false, "url": "https://www.yelp.com/biz/elena-pinneberg?adjust_creative=hBJOknVQJ58S5goQyjmwRw&utm_campaign=yelp_api_v3&utm_medium=api_v3_business_search&utm_source=hBJOknVQJ58S5goQyjmwRw", "review_count": 27, "categories": [{"alias": "greek", "title": "Greek"}], "rating": 4.0, "coordinates": {"latitude": 53.6605, "longitude": 9.80122}, "transactions": [], "price": "\u20ac\u20ac", "location": {"address1": "Fahltskamp 11", "address2": null, "address3": null, "city": "Pinneberg", "zip_code": "25421", "country": "DE", "state": "SH", "display_address": ["Fahltskamp 11", "25421 Pinneberg", "Germany"]}, "phone": "+49410122437", "display_phone": "+49 4101 22437", "distance": 1906.1341965230843}, {"id": "rWwyt3dC3zZH-Nn0Ya3RNg", "alias": "dolce-vita-halstenbek-2", "name": "Dolce Vita", "image_url": "https://s3-media4.fl.yelpcdn.com/bphoto/A8H7s-BGOt6jWpDOAGNVhw/o.jpg", "is_closed": false, "url": "https://www.yelp.com/biz/dolce-vita-halstenbek-2?adjust_creative=hBJOknVQJ58S5goQyjmwRw&utm_campaign=yelp_api_v3&utm_medium=api_v3_business_search&utm_source=hBJOknVQJ58S5goQyjmwRw", "review_count": 30, "categories": [{"alias": "italian", "title": "Italian"}], "rating": 3.5, "coordinates": {"latitude": 53.6364, "longitude": 9.8408008}, "transactions": [], "price": "\u20ac\u20ac", "location": {"address1": "Poststr. 3", "address2": null, "address3": null, "city": "Halstenbek", "zip_code": "25469", "country": "DE", "state": "SH", "display_address": ["Poststr. 3", "25469 Halstenbek", "Germany"]}, "phone": "+494101585885", "display_phone": "+49 4101 585885", "distance": 1855.138005088805}, {"id": "GoPSa1AAu2iHtpl-QbQgPA", "alias": "canton-pinneberg", "name": "Canton", "image_url": "https://s3-media1.fl.yelpcdn.com/bphoto/vRVQOyN3urUhUEbI_SmXdg/o.jpg", "is_closed": false, "url": "https://www.yelp.com/biz/canton-pinneberg?adjust_creative=hBJOknVQJ58S5goQyjmwRw&utm_campaign=yelp_api_v3&utm_medium=api_v3_business_search&utm_source=hBJOknVQJ58S5goQyjmwRw", "review_count": 20, "categories": [{"alias": "chinese", "title": "Chinese"}], "rating": 4.5, "coordinates": {"latitude": 53.6571954, "longitude": 9.8080748}, "transactions": [], "price": "\u20ac\u20ac", "location": {"address1": "Fahltskamp 65 A", "address2": null, "address3": null, "city": "Pinneberg", "zip_code": "25421", "country": "DE", "state": "SH", "display_address": ["Fahltskamp 65 A", "25421 Pinneberg", "Germany"]}, "phone": "+49410123136", "display_phone": "+49 4101 23136", "distance": 1344.075815152987}, {"id": "_u9aihwL89_GWcMIVehpTQ", "alias": "meusels-landdrostei-pinneberg", "name": "Meusel's Landdrostei", "image_url": "https://s3-media1.fl.yelpcdn.com/bphoto/ZAEvWaKqy2JIDTgVcEY3Rw/o.jpg", "is_closed": false, "url": "https://www.yelp.com/biz/meusels-landdrostei-pinneberg?adjust_creative=hBJOknVQJ58S5goQyjmwRw&utm_campaign=yelp_api_v3&utm_medium=api_v3_business_search&utm_source=hBJOknVQJ58S5goQyjmwRw", "review_count": 7, "categories": [{"alias": "german", "title": "German"}], "rating": 3.5, "coordinates": {"latitude": 53.660968, "longitude": 9.796627}, "transactions": [], "price": "\u20ac\u20ac\u20ac", "location": {"address1": "Dingst\u00e4tte 23", "address2": "", "address3": "", "city": "Pinneberg", "zip_code": "25421", "country": "DE", "state": "SH", "display_address": ["Dingst\u00e4tte 23", "25421 Pinneberg", "Germany"]}, "phone": "+4941018527777", "display_phone": "+49 4101 8527777", "distance": 2142.26971227531}, {"id": "yYGvyXSdjnBnY1OBjgYbRw", "alias": "taverna-nico-rellingen", "name": "Taverna Nico", "image_url": "https://s3-media1.fl.yelpcdn.com/bphoto/vnk9X84eX3HemCHw3yweAQ/o.jpg", "is_closed": false, "url": "https://www.yelp.com/biz/taverna-nico-rellingen?adjust_creative=hBJOknVQJ58S5goQyjmwRw&utm_campaign=yelp_api_v3&utm_medium=api_v3_business_search&utm_source=hBJOknVQJ58S5goQyjmwRw", "review_count": 11, "categories": [{"alias": "greek", "title": "Greek"}], "rating": 4.5, "coordinates": {"latitude": 53.6498891758998, "longitude": 9.8296494748688}, "transactions": [], "price": "\u20ac\u20ac", "location": {"address1": "Hauptstr. 37", "address2": null, "address3": null, "city": "Rellingen", "zip_code": "25462", "country": "DE", "state": "SH", "display_address": ["Hauptstr. 37", "25462 Rellingen", "Germany"]}, "phone": "+494101379384", "display_phone": "+49 4101 379384", "distance": 763.8415633659888}, {"id": "INE-ibfUNq2l170_4Qb_Bg", "alias": "pino-pinneberg", "name": "Pino", "image_url": "https://s3-media3.fl.yelpcdn.com/bphoto/3UJ4CShqrqYOVD14b8x7jA/o.jpg", "is_closed": false, "url": "https://www.yelp.com/biz/pino-pinneberg?adjust_creative=hBJOknVQJ58S5goQyjmwRw&utm_campaign=yelp_api_v3&utm_medium=api_v3_business_search&utm_source=hBJOknVQJ58S5goQyjmwRw", "review_count": 1, "categories": [{"alias": "cafes", "title": "Cafes"}, {"alias": "italian", "title": "Italian"}, {"alias": "german", "title": "German"}], "rating": 5.0, "coordinates": {"latitude": 53.658699, "longitude": 9.8000803}, "transactions": [], "price": "\u20ac", "location": {"address1": "Bahnhofstr. 12", "address2": "", "address3": "", "city": "Pinneberg", "zip_code": "25421", "country": "DE", "state": "SH", "display_address": ["Bahnhofstr. 12", "25421 Pinneberg", "Germany"]}, "phone": "+4941018528021", "display_phone": "+49 4101 8528021", "distance": 1800.2971750106217}, {"id": "IAzyYxK_dpE72v4OG2hHgQ", "alias": "mundfein-pizzawerkstatt-pinneberg", "name": "Mundfein Pizzawerkstatt", "image_url": "https://s3-media1.fl.yelpcdn.com/bphoto/Hp1hIbIW_T1bs3YpI-jO4g/o.jpg", "is_closed": false, "url": "https://www.yelp.com/biz/mundfein-pizzawerkstatt-pinneberg?adjust_creative=hBJOknVQJ58S5goQyjmwRw&utm_campaign=yelp_api_v3&utm_medium=api_v3_business_search&utm_source=hBJOknVQJ58S5goQyjmwRw", "review_count": 2, "categories": [{"alias": "pizza", "title": "Pizza"}], "rating": 5.0, "coordinates": {"latitude": 53.661718, "longitude": 9.800807}, "transactions": [], "price": "\u20ac\u20ac", "location": {"address1": "Friedrich-Ebert-Str. 3", "address2": "", "address3": "", "city": "Pinneberg", "zip_code": "25421", "country": "DE", "state": "SH", "display_address": ["Friedrich-Ebert-Str. 3", "25421 Pinneberg", "Germany"]}, "phone": "+494101515550", "display_phone": "+49 4101 515550", "distance": 2020.193058598362}, {"id": "zE311HJ18xCM1JuAPmiGJA", "alias": "restaurant-muckefuck-rellingen-2", "name": "Restaurant Muckefuck", "image_url": "https://s3-media2.fl.yelpcdn.com/bphoto/-orUgjKqSDR9_oUT0fHnAA/o.jpg", "is_closed": false, "url": "https://www.yelp.com/biz/restaurant-muckefuck-rellingen-2?adjust_creative=hBJOknVQJ58S5goQyjmwRw&utm_campaign=yelp_api_v3&utm_medium=api_v3_business_search&utm_source=hBJOknVQJ58S5goQyjmwRw", "review_count": 3, "categories": [{"alias": "hotdogs", "title": "Fast Food"}], "rating": 3.0, "coordinates": {"latitude": 53.650658, "longitude": 9.8296056}, "transactions": [], "price": "\u20ac", "location": {"address1": "Hauptstr. 39A", "address2": null, "address3": null, "city": "Rellingen", "zip_code": "25462", "country": "DE", "state": "SH", "display_address": ["Hauptstr. 39A", "25462 Rellingen", "Germany"]}, "phone": "+494101512610", "display_phone": "+49 4101 512610", "distance": 800.6818473679243}, {"id": "DX9R3hI8K5YhB1ed3KIxxw", "alias": "imbiss-am-rathaus-pinneberg", "name": "Imbiss am Rathaus", "image_url": "https://s3-media1.fl.yelpcdn.com/bphoto/7Tce-TlNvg2j9Rze2WkqpA/o.jpg", "is_closed": false, "url": "https://www.yelp.com/biz/imbiss-am-rathaus-pinneberg?adjust_creative=hBJOknVQJ58S5goQyjmwRw&utm_campaign=yelp_api_v3&utm_medium=api_v3_business_search&utm_source=hBJOknVQJ58S5goQyjmwRw", "review_count": 1, "categories": [{"alias": "foodstands", "title": "Food Stands"}], "rating": 5.0, "coordinates": {"latitude": 53.6618799, "longitude": 9.79851}, "transactions": [], "location": {"address1": "Am Rathaus", "address2": "", "address3": "", "city": "Pinneberg", "zip_code": "25421", "country": "DE", "state": "SH", "display_address": ["Am Rathaus", "25421 Pinneberg", "Germany"]}, "phone": "", "display_phone": "", "distance": 2129.4229122368365}, {"id": "tS5rfu-toQDYXhnNU5JBIg", "alias": "tennistreff-halstenbek", "name": "Tennistreff", "image_url": "", "is_closed": false, "url": "https://www.yelp.com/biz/tennistreff-halstenbek?adjust_creative=hBJOknVQJ58S5goQyjmwRw&utm_campaign=yelp_api_v3&utm_medium=api_v3_business_search&utm_source=hBJOknVQJ58S5goQyjmwRw", "review_count": 3, "categories": [{"alias": "tennis", "title": "Tennis"}, {"alias": "german", "title": "German"}], "rating": 4.5, "coordinates": {"latitude": 53.6398343, "longitude": 9.8347151}, "transactions": [], "location": {"address1": "Thesdorfer Weg 20", "address2": null, "address3": null, "city": "Halstenbek", "zip_code": "25469", "country": "DE", "state": "SH", "display_address": ["Thesdorfer Weg 20", "25469 Halstenbek", "Germany"]}, "phone": "+494101859424", "display_phone": "+49 4101 859424", "distance": 1303.1684098739631}, {"id": "bK6tKtwrh5Du_TobQU91FQ", "alias": "etna-pinneberg", "name": "Etna", "image_url": "https://s3-media3.fl.yelpcdn.com/bphoto/ah5sCeu_U-3mu7sH-QlMdA/o.jpg", "is_closed": false, "url": "https://www.yelp.com/biz/etna-pinneberg?adjust_creative=hBJOknVQJ58S5goQyjmwRw&utm_campaign=yelp_api_v3&utm_medium=api_v3_business_search&utm_source=hBJOknVQJ58S5goQyjmwRw", "review_count": 19, "categories": [{"alias": "italian", "title": "Italian"}], "rating": 4.0, "coordinates": {"latitude": 53.6604, "longitude": 9.80329}, "transactions": [], "price": "\u20ac\u20ac", "location": {"address1": "Damm 39", "address2": null, "address3": null, "city": "Pinneberg", "zip_code": "25421", "country": "DE", "state": "SH", "display_address": ["Damm 39", "25421 Pinneberg", "Germany"]}, "phone": "+49410124296", "display_phone": "+49 4101 24296", "distance": 1815.7899211758324}, {"id": "szsGwc_ySsKMAMMNIkVtDQ", "alias": "pastelaria-lusitana-pinneberg", "name": "Pastelaria Lusitana", "image_url": "https://s3-media1.fl.yelpcdn.com/bphoto/OcV6gOz8hb7x-XeuwR30bA/o.jpg", "is_closed": false, "url": "https://www.yelp.com/biz/pastelaria-lusitana-pinneberg?adjust_creative=hBJOknVQJ58S5goQyjmwRw&utm_campaign=yelp_api_v3&utm_medium=api_v3_business_search&utm_source=hBJOknVQJ58S5goQyjmwRw", "review_count": 1, "categories": [{"alias": "cafes", "title": "Cafes"}], "rating": 4.0, "coordinates": {"latitude": 53.6603088, "longitude": 9.8013296}, "transactions": [], "price": "\u20ac\u20ac", "location": {"address1": "Bahnhofstr. 38", "address2": "", "address3": "", "city": "Pinneberg", "zip_code": "25421", "country": "DE", "state": "SH", "display_address": ["Bahnhofstr. 38", "25421 Pinneberg", "Germany"]}, "phone": "+4941018145758", "display_phone": "+49 4101 8145758", "distance": 1879.3840128872398}, {"id": "aZx3exGMvA_X2whL2Mzrnw", "alias": "rancho-grande-pinneberg", "name": "Rancho Grande", "image_url": "https://s3-media2.fl.yelpcdn.com/bphoto/5DKAIMJ1zXeXinG5JEJEag/o.jpg", "is_closed": false, "url": "https://www.yelp.com/biz/rancho-grande-pinneberg?adjust_creative=hBJOknVQJ58S5goQyjmwRw&utm_campaign=yelp_api_v3&utm_medium=api_v3_business_search&utm_source=hBJOknVQJ58S5goQyjmwRw", "review_count": 17, "categories": [{"alias": "steak", "title": "Steakhouses"}, {"alias": "burgers", "title": "Burgers"}, {"alias": "tradamerican", "title": "American (Traditional)"}], "rating": 3.0, "coordinates": {"latitude": 53.66242, "longitude": 9.8054}, "transactions": [], "price": "\u20ac\u20ac", "location": {"address1": "Hindenburgdamm 67-69", "address2": null, "address3": null, "city": "Pinneberg", "zip_code": "25421", "country": "DE", "state": "SH", "display_address": ["Hindenburgdamm 67-69", "25421 Pinneberg", "Germany"]}, "phone": "+494101590441", "display_phone": "+49 4101 590441", "distance": 1916.8060942788568}, {"id": "CD1DgcV3lkEB9U517XjJkQ", "alias": "grill-treff-pinneberg-2", "name": "Grill Treff", "image_url": "https://s3-media3.fl.yelpcdn.com/bphoto/Tavt5wOLYbakCYTQ2VLMTQ/o.jpg", "is_closed": false, "url": "https://www.yelp.com/biz/grill-treff-pinneberg-2?adjust_creative=hBJOknVQJ58S5goQyjmwRw&utm_campaign=yelp_api_v3&utm_medium=api_v3_business_search&utm_source=hBJOknVQJ58S5goQyjmwRw", "review_count": 1, "categories": [{"alias": "pizza", "title": "Pizza"}, {"alias": "cafes", "title": "Cafes"}], "rating": 5.0, "coordinates": {"latitude": 53.65604, "longitude": 9.79766}, "transactions": [], "location": {"address1": "Bahnhofstr. 3a", "address2": "", "address3": "", "city": "Pinneberg", "zip_code": "25421", "country": "DE", "state": "SH", "display_address": ["Bahnhofstr. 3a", "25421 Pinneberg", "Germany"]}, "phone": "+4941017891900", "display_phone": "+49 4101 7891900", "distance": 1751.6073385651184}, {"id": "Y0lrpByrOYfQG_m_-6hWQg", "alias": "raj-mahal-pinneberg", "name": "Raj Mahal", "image_url": "https://s3-media2.fl.yelpcdn.com/bphoto/jcnU2mHIU2m7pPDjPWTwwQ/o.jpg", "is_closed": false, "url": "https://www.yelp.com/biz/raj-mahal-pinneberg?adjust_creative=hBJOknVQJ58S5goQyjmwRw&utm_campaign=yelp_api_v3&utm_medium=api_v3_business_search&utm_source=hBJOknVQJ58S5goQyjmwRw", "review_count": 1, "categories": [{"alias": "indpak", "title": "Indian"}], "rating": 4.0, "coordinates": {"latitude": 53.6607, "longitude": 9.79888}, "transactions": [], "location": {"address1": "Lindenstr. 35", "address2": null, "address3": "", "city": "Pinneberg", "zip_code": "25421", "country": "DE", "state": "SH", "display_address": ["Lindenstr. 35", "25421 Pinneberg", "Germany"]}, "phone": "+4941015858440", "display_phone": "+49 4101 5858440", "distance": 2025.9941580972152}, {"id": "m8fgrFZE9-H67Usnscoh5A", "alias": "the-kebab-house-pinneberg", "name": "The Kebab House", "image_url": "https://s3-media3.fl.yelpcdn.com/bphoto/CR2T0GA1ebztfk6xgOdNuA/o.jpg", "is_closed": false, "url": "https://www.yelp.com/biz/the-kebab-house-pinneberg?adjust_creative=hBJOknVQJ58S5goQyjmwRw&utm_campaign=yelp_api_v3&utm_medium=api_v3_business_search&utm_source=hBJOknVQJ58S5goQyjmwRw", "review_count": 2, "categories": [{"alias": "turkish", "title": "Turkish"}, {"alias": "kebab", "title": "Kebab"}], "rating": 4.5, "coordinates": {"latitude": 53.6611817, "longitude": 9.801872}, "transactions": [], "price": "\u20ac", "location": {"address1": "Damm 3", "address2": "", "address3": "", "city": "Pinneberg", "zip_code": "25421", "country": "DE", "state": "SH", "display_address": ["Damm 3", "25421 Pinneberg", "Germany"]}, "phone": "+4941018189703", "display_phone": "+49 4101 8189703", "distance": 1938.2255456493417}, {"id": "laRi4ONmG2scKeNW4nIsSw", "alias": "gazi-antep-pinneberg", "name": "Gazi Antep", "image_url": "https://s3-media2.fl.yelpcdn.com/bphoto/6FMvUdUDqVsQxE5owpqy0w/o.jpg", "is_closed": false, "url": "https://www.yelp.com/biz/gazi-antep-pinneberg?adjust_creative=hBJOknVQJ58S5goQyjmwRw&utm_campaign=yelp_api_v3&utm_medium=api_v3_business_search&utm_source=hBJOknVQJ58S5goQyjmwRw", "review_count": 3, "categories": [{"alias": "kebab", "title": "Kebab"}, {"alias": "turkish", "title": "Turkish"}], "rating": 4.5, "coordinates": {"latitude": 53.66098, "longitude": 9.7944099}, "transactions": [], "price": "\u20ac", "location": {"address1": "R\u00fcbekamp 8", "address2": null, "address3": null, "city": "Pinneberg", "zip_code": "25421", "country": "DE", "state": "SH", "display_address": ["R\u00fcbekamp 8", "25421 Pinneberg", "Germany"]}, "phone": "+4941017759321", "display_phone": "+49 4101 7759321", "distance": 2252.3037869610403}, {"id": "rXIWKEO83YvT42oIALdoGg", "alias": "niitaka-sushi-pinneberg", "name": "Niitaka Sushi", "image_url": "https://s3-media2.fl.yelpcdn.com/bphoto/n7CpWyZ7OgldzlpR5-d2QA/o.jpg", "is_closed": false, "url": "https://www.yelp.com/biz/niitaka-sushi-pinneberg?adjust_creative=hBJOknVQJ58S5goQyjmwRw&utm_campaign=yelp_api_v3&utm_medium=api_v3_business_search&utm_source=hBJOknVQJ58S5goQyjmwRw", "review_count": 10, "categories": [{"alias": "sushi", "title": "Sushi Bars"}], "rating": 4.0, "coordinates": {"latitude": 53.6603357, "longitude": 9.8017589}, "transactions": [], "price": "\u20ac\u20ac", "location": {"address1": "Fahltskamp 15", "address2": null, "address3": null, "city": "Pinneberg", "zip_code": "25421", "country": "DE", "state": "SH", "display_address": ["Fahltskamp 15", "25421 Pinneberg", "Germany"]}, "phone": "+4941015174044", "display_phone": "+49 4101 5174044", "distance": 1869.8868454357043}, {"id": "nvmgtLOXRu4Zfywx9SGyzQ", "alias": "china-restaurant-mr-hoh-schenefeld", "name": "China-Restaurant Mr. Hoh", "image_url": "https://s3-media4.fl.yelpcdn.com/bphoto/m0LVWBB8M4JP42aSBhQBKQ/o.jpg", "is_closed": false, "url": "https://www.yelp.com/biz/china-restaurant-mr-hoh-schenefeld?adjust_creative=hBJOknVQJ58S5goQyjmwRw&utm_campaign=yelp_api_v3&utm_medium=api_v3_business_search&utm_source=hBJOknVQJ58S5goQyjmwRw", "review_count": 31, "categories": [{"alias": "chinese", "title": "Chinese"}], "rating": 4.0, "coordinates": {"latitude": 53.60809, "longitude": 9.84038}, "transactions": [], "price": "\u20ac\u20ac", "location": {"address1": "Lornsenstr. 122", "address2": null, "address3": null, "city": "Schenefeld", "zip_code": "22869", "country": "DE", "state": "SH", "display_address": ["Lornsenstr. 122", "22869 Schenefeld", "Germany"]}, "phone": "+49408304990", "display_phone": "+49 40 8304990", "distance": 4546.646825583039}, {"id": "Qh8YXrTyRM8zojh7t5c1uw", "alias": "rio-grande-rellingen-3", "name": "Rio Grande", "image_url": "https://s3-media1.fl.yelpcdn.com/bphoto/C1xnkQ_fAHt8IXR6WjzcAg/o.jpg", "is_closed": false, "url": "https://www.yelp.com/biz/rio-grande-rellingen-3?adjust_creative=hBJOknVQJ58S5goQyjmwRw&utm_campaign=yelp_api_v3&utm_medium=api_v3_business_search&utm_source=hBJOknVQJ58S5goQyjmwRw", "review_count": 38, "categories": [{"alias": "steak", "title": "Steakhouses"}, {"alias": "argentine", "title": "Argentine"}], "rating": 3.5, "coordinates": {"latitude": 53.6500371, "longitude": 9.8307958}, "transactions": [], "price": "\u20ac\u20ac", "location": {"address1": "Schmiedestr. 2", "address2": null, "address3": null, "city": "Rellingen", "zip_code": "25462", "country": "DE", "state": "SH", "display_address": ["Schmiedestr. 2", "25462 Rellingen", "Germany"]}, "phone": "+494101599855", "display_phone": "+49 4101 599855", "distance": 839.5481142478883}, {"id": "payrQ1kXJvdTW6I0AB9kmw", "alias": "remise-pinneberg", "name": "Remise", "image_url": "https://s3-media3.fl.yelpcdn.com/bphoto/G9eDea-6MdhgmDlb_wqV1A/o.jpg", "is_closed": false, "url": "https://www.yelp.com/biz/remise-pinneberg?adjust_creative=hBJOknVQJ58S5goQyjmwRw&utm_campaign=yelp_api_v3&utm_medium=api_v3_business_search&utm_source=hBJOknVQJ58S5goQyjmwRw", "review_count": 17, "categories": [{"alias": "cafes", "title": "Cafes"}, {"alias": "wine_bars", "title": "Wine Bars"}, {"alias": "beergarden", "title": "Beer Garden"}], "rating": 4.0, "coordinates": {"latitude": 53.6612520105675, "longitude": 9.79583731904904}, "transactions": [], "price": "\u20ac\u20ac", "location": {"address1": "Dingst\u00e4tte 27", "address2": "", "address3": "", "city": "Pinneberg", "zip_code": "25421", "country": "DE", "state": "SH", "display_address": ["Dingst\u00e4tte 27", "25421 Pinneberg", "Germany"]}, "phone": "+4941018191626", "display_phone": "+49 4101 8191626", "distance": 2202.971822323957}, {"id": "KnYynrd2I5obxHFAy6uDEA", "alias": "arnoldis-pinneberg", "name": "Arnoldi's", "image_url": "https://s3-media2.fl.yelpcdn.com/bphoto/c-lxanj7XP-rux71pUTFCQ/o.jpg", "is_closed": false, "url": "https://www.yelp.com/biz/arnoldis-pinneberg?adjust_creative=hBJOknVQJ58S5goQyjmwRw&utm_campaign=yelp_api_v3&utm_medium=api_v3_business_search&utm_source=hBJOknVQJ58S5goQyjmwRw", "review_count": 1, "categories": [{"alias": "sandwiches", "title": "Sandwiches"}], "rating": 3.0, "coordinates": {"latitude": 53.66986, "longitude": 9.7945}, "transactions": [], "location": {"address1": "Elmshorner Str. 68 - 72", "address2": null, "address3": "", "city": "Pinneberg", "zip_code": "25421", "country": "DE", "state": "SH", "display_address": ["Elmshorner Str. 68 - 72", "25421 Pinneberg", "Germany"]}, "phone": "+4941015850051", "display_phone": "+49 4101 5850051", "distance": 2994.791695412827}, {"id": "SCayfikdUB5O7g27MpLE1Q", "alias": "eiscaf\u00e9-valentina-pinneberg", "name": "Eiscaf\u00e9 Valentina", "image_url": "https://s3-media4.fl.yelpcdn.com/bphoto/ZT2_0At2ViEtZEt2CoSscQ/o.jpg", "is_closed": false, "url": "https://www.yelp.com/biz/eiscaf%C3%A9-valentina-pinneberg?adjust_creative=hBJOknVQJ58S5goQyjmwRw&utm_campaign=yelp_api_v3&utm_medium=api_v3_business_search&utm_source=hBJOknVQJ58S5goQyjmwRw", "review_count": 1, "categories": [{"alias": "cafes", "title": "Cafes"}, {"alias": "icecream", "title": "Ice Cream & Frozen Yogurt"}], "rating": 5.0, "coordinates": {"latitude": 53.661187, "longitude": 9.798608}, "transactions": [], "location": {"address1": "Dingst\u00e4tte 14", "address2": "", "address3": "", "city": "Pinneberg", "zip_code": "25421", "country": "DE", "state": "SH", "display_address": ["Dingst\u00e4tte 14", "25421 Pinneberg", "Germany"]}, "phone": "+494101204650", "display_phone": "+49 4101 204650", "distance": 2076.2630843805928}, {"id": "mLLCOcBXKw8HJRXXQO61Fw", "alias": "kebab-box-rellingen", "name": "Kebab Box", "image_url": "", "is_closed": false, "url": "https://www.yelp.com/biz/kebab-box-rellingen?adjust_creative=hBJOknVQJ58S5goQyjmwRw&utm_campaign=yelp_api_v3&utm_medium=api_v3_business_search&utm_source=hBJOknVQJ58S5goQyjmwRw", "review_count": 2, "categories": [{"alias": "hotdogs", "title": "Fast Food"}], "rating": 3.5, "coordinates": {"latitude": 53.6529, "longitude": 9.82928}, "transactions": [], "location": {"address1": "Hauptstr. 61", "address2": null, "address3": null, "city": "Rellingen", "zip_code": "25462", "country": "DE", "state": "SH", "display_address": ["Hauptstr. 61", "25462 Rellingen", "Germany"]}, "phone": "+494101511243", "display_phone": "+49 4101 511243", "distance": 935.4669681377657}, {"id": "f4gHB43M98wZRy8taNLe7w", "alias": "gastst\u00e4tte-attika-halstenbek", "name": "Gastst\u00e4tte Attika", "image_url": "https://s3-media2.fl.yelpcdn.com/bphoto/99ktmmYxdCq_4weDu9ar7A/o.jpg", "is_closed": false, "url": "https://www.yelp.com/biz/gastst%C3%A4tte-attika-halstenbek?adjust_creative=hBJOknVQJ58S5goQyjmwRw&utm_campaign=yelp_api_v3&utm_medium=api_v3_business_search&utm_source=hBJOknVQJ58S5goQyjmwRw", "review_count": 18, "categories": [{"alias": "greek", "title": "Greek"}], "rating": 3.5, "coordinates": {"latitude": 53.63794, "longitude": 9.8424}, "transactions": [], "price": "\u20ac\u20ac", "location": {"address1": "B\u00e4ckerstr. 3", "address2": null, "address3": null, "city": "Halstenbek", "zip_code": "25469", "country": "DE", "state": "SH", "display_address": ["B\u00e4ckerstr. 3", "25469 Halstenbek", "Germany"]}, "phone": "+49410141331", "display_phone": "+49 4101 41331", "distance": 1825.681525662474}, {"id": "V1GEbdrOLwCb5wgg4wPorg", "alias": "trattoria-da-matteo-rellingen", "name": "Trattoria da Matteo", "image_url": "", "is_closed": false, "url": "https://www.yelp.com/biz/trattoria-da-matteo-rellingen?adjust_creative=hBJOknVQJ58S5goQyjmwRw&utm_campaign=yelp_api_v3&utm_medium=api_v3_business_search&utm_source=hBJOknVQJ58S5goQyjmwRw", "review_count": 1, "categories": [{"alias": "italian", "title": "Italian"}], "rating": 3.0, "coordinates": {"latitude": 53.6517941, "longitude": 9.8302747}, "transactions": [], "location": {"address1": "Hauptstr. 62", "address2": "", "address3": null, "city": "Rellingen", "zip_code": "25462", "country": "DE", "state": "SH", "display_address": ["Hauptstr. 62", "25462 Rellingen", "Germany"]}, "phone": "+4941018536259", "display_phone": "+49 4101 8536259", "distance": 906.5830399716023}, {"id": "li2GIYTWIVO6OQsA6WmHGw", "alias": "reitstall-kl\u00f6vensteen-schenefeld", "name": "Reitstall Kl\u00f6vensteen", "image_url": "https://s3-media3.fl.yelpcdn.com/bphoto/OhJd34pnglhaC436A2ioAQ/o.jpg", "is_closed": false, "url": "https://www.yelp.com/biz/reitstall-kl%C3%B6vensteen-schenefeld?adjust_creative=hBJOknVQJ58S5goQyjmwRw&utm_campaign=yelp_api_v3&utm_medium=api_v3_business_search&utm_source=hBJOknVQJ58S5goQyjmwRw", "review_count": 24, "categories": [{"alias": "german", "title": "German"}], "rating": 3.5, "coordinates": {"latitude": 53.6056310252484, "longitude": 9.80153379364015}, "transactions": [], "price": "\u20ac\u20ac", "location": {"address1": "Uetersener Weg 100", "address2": null, "address3": null, "city": "Schenefeld", "zip_code": "22869", "country": "DE", "state": "SH", "display_address": ["Uetersener Weg 100", "22869 Schenefeld", "Germany"]}, "phone": "+49408306992", "display_phone": "+49 40 8306992", "distance": 4747.110898854943}, {"id": "-LahiQEX8wp4XrR7iNIRig", "alias": "delal-d\u00f6ner-pinneberg", "name": "Delal D\u00f6ner", "image_url": "https://s3-media3.fl.yelpcdn.com/bphoto/rJZaq6js3x7LuYQGW7S69g/o.jpg", "is_closed": false, "url": "https://www.yelp.com/biz/delal-d%C3%B6ner-pinneberg?adjust_creative=hBJOknVQJ58S5goQyjmwRw&utm_campaign=yelp_api_v3&utm_medium=api_v3_business_search&utm_source=hBJOknVQJ58S5goQyjmwRw", "review_count": 3, "categories": [{"alias": "kebab", "title": "Kebab"}], "rating": 2.5, "coordinates": {"latitude": 53.66084, "longitude": 9.80024}, "transactions": [], "price": "\u20ac\u20ac", "location": {"address1": "Fahltskamp 1 A", "address2": null, "address3": null, "city": "Pinneberg", "zip_code": "25421", "country": "DE", "state": "SH", "display_address": ["Fahltskamp 1 A", "25421 Pinneberg", "Germany"]}, "phone": "+494101590822", "display_phone": "+49 4101 590822", "distance": 1987.1363906297574}, {"id": "9EcAW1Nhu9Mi9cnj9Tth_A", "alias": "d\u00f6ner-prinz-pinneberg", "name": "D\u00f6ner Prinz", "image_url": "https://s3-media2.fl.yelpcdn.com/bphoto/WQeMkRYB5-J0GS2SwqN2mQ/o.jpg", "is_closed": false, "url": "https://www.yelp.com/biz/d%C3%B6ner-prinz-pinneberg?adjust_creative=hBJOknVQJ58S5goQyjmwRw&utm_campaign=yelp_api_v3&utm_medium=api_v3_business_search&utm_source=hBJOknVQJ58S5goQyjmwRw", "review_count": 7, "categories": [{"alias": "turkish", "title": "Turkish"}, {"alias": "fooddeliveryservices", "title": "Food Delivery Services"}], "rating": 3.5, "coordinates": {"latitude": 53.661, "longitude": 9.79843}, "transactions": [], "price": "\u20ac\u20ac", "location": {"address1": "Dingst\u00e4tte 11", "address2": null, "address3": null, "city": "Pinneberg", "zip_code": "25421", "country": "DE", "state": "SH", "display_address": ["Dingst\u00e4tte 11", "25421 Pinneberg", "Germany"]}, "phone": "+4941013751145", "display_phone": "+49 4101 3751145", "distance": 2066.4784501146005}, {"id": "RA-KbWu9sBMSwX7UcyOP6A", "alias": "alexandros-pinneberg", "name": "Alexandros", "image_url": "https://s3-media1.fl.yelpcdn.com/bphoto/jGGsDjSxpN2R7zvQTJHOOg/o.jpg", "is_closed": false, "url": "https://www.yelp.com/biz/alexandros-pinneberg?adjust_creative=hBJOknVQJ58S5goQyjmwRw&utm_campaign=yelp_api_v3&utm_medium=api_v3_business_search&utm_source=hBJOknVQJ58S5goQyjmwRw", "review_count": 3, "categories": [{"alias": "greek", "title": "Greek"}], "rating": 4.0, "coordinates": {"latitude": 53.660375, "longitude": 9.799048}, "transactions": [], "price": "\u20ac\u20ac", "location": {"address1": "Lindenstr. 26", "address2": "", "address3": "", "city": "Pinneberg", "zip_code": "25421", "country": "DE", "state": "SH", "display_address": ["Lindenstr. 26", "25421 Pinneberg", "Germany"]}, "phone": "+4941018148604", "display_phone": "+49 4101 8148604", "distance": 1987.4436985834814}, {"id": "dC83gjyunrb-I_uULUkUCg", "alias": "g\u00f6rner-grillstation-halstenbek", "name": "G\u00f6rner Grillstation", "image_url": "https://s3-media2.fl.yelpcdn.com/bphoto/EJAlMYY4qje24I42XnruFQ/o.jpg", "is_closed": false, "url": "https://www.yelp.com/biz/g%C3%B6rner-grillstation-halstenbek?adjust_creative=hBJOknVQJ58S5goQyjmwRw&utm_campaign=yelp_api_v3&utm_medium=api_v3_business_search&utm_source=hBJOknVQJ58S5goQyjmwRw", "review_count": 10, "categories": [{"alias": "bbq", "title": "Barbeque"}, {"alias": "german", "title": "German"}], "rating": 3.0, "coordinates": {"latitude": 53.6364, "longitude": 9.8401}, "transactions": [], "price": "\u20ac\u20ac", "location": {"address1": "Hauptstr. 49", "address2": null, "address3": null, "city": "Halstenbek", "zip_code": "25469", "country": "DE", "state": "SH", "display_address": ["Hauptstr. 49", "25469 Halstenbek", "Germany"]}, "phone": "+49410141229", "display_phone": "+49 4101 41229", "distance": 1819.7719038310972}, {"id": "eu0dPfxU2SX-4ZZX6GQPzw", "alias": "taverna-pegasus-schenefeld", "name": "Taverna Pegasus", "image_url": "https://s3-media2.fl.yelpcdn.com/bphoto/aHZEhsqs1fhiec1WMgNgFg/o.jpg", "is_closed": false, "url": "https://www.yelp.com/biz/taverna-pegasus-schenefeld?adjust_creative=hBJOknVQJ58S5goQyjmwRw&utm_campaign=yelp_api_v3&utm_medium=api_v3_business_search&utm_source=hBJOknVQJ58S5goQyjmwRw", "review_count": 18, "categories": [{"alias": "greek", "title": "Greek"}], "rating": 3.5, "coordinates": {"latitude": 53.608651, "longitude": 9.841422}, "transactions": [], "price": "\u20ac\u20ac", "location": {"address1": "Friedrich-Ebert-Allee 3 - 11", "address2": null, "address3": null, "city": "Schenefeld", "zip_code": "22869", "country": "DE", "state": "SH", "display_address": ["Friedrich-Ebert-Allee 3 - 11", "22869 Schenefeld", "Germany"]}, "phone": "+494084053737", "display_phone": "+49 40 84053737", "distance": 4514.087048600944}, {"id": "Je39ss_26Nzi5FlwY9-i-A", "alias": "eiscaf\u00e9-arleccino-rellingen", "name": "Eiscaf\u00e9 Arleccino", "image_url": "", "is_closed": false, "url": "https://www.yelp.com/biz/eiscaf%C3%A9-arleccino-rellingen?adjust_creative=hBJOknVQJ58S5goQyjmwRw&utm_campaign=yelp_api_v3&utm_medium=api_v3_business_search&utm_source=hBJOknVQJ58S5goQyjmwRw", "review_count": 3, "categories": [{"alias": "restaurants", "title": "Restaurants"}], "rating": 2.5, "coordinates": {"latitude": 53.6535, "longitude": 9.82924}, "transactions": [], "price": "\u20ac\u20ac", "location": {"address1": "Hauptstr. 80", "address2": null, "address3": null, "city": "Rellingen", "zip_code": "25462", "country": "DE", "state": "SH", "display_address": ["Hauptstr. 80", "25462 Rellingen", "Germany"]}, "phone": "+494101200595", "display_phone": "+49 4101 200595", "distance": 981.3772357691726}, {"id": "n_Yio-a9VzssOtDbgezpRA", "alias": "subu-sushi-burrito-hamburg-3", "name": "Subu Sushi Burrito", "image_url": "https://s3-media3.fl.yelpcdn.com/bphoto/x2oh5mzvkzvrXjswE_MjXQ/o.jpg", "is_closed": false, "url": "https://www.yelp.com/biz/subu-sushi-burrito-hamburg-3?adjust_creative=hBJOknVQJ58S5goQyjmwRw&utm_campaign=yelp_api_v3&utm_medium=api_v3_business_search&utm_source=hBJOknVQJ58S5goQyjmwRw", "review_count": 3, "categories": [{"alias": "foodtrucks", "title": "Food Trucks"}, {"alias": "sushi", "title": "Sushi Bars"}], "rating": 5.0, "coordinates": {"latitude": 53.5526819869811, "longitude": 10.0010880455375}, "transactions": [], "price": "\u20ac", "location": {"address1": "", "address2": "", "address3": "", "city": "Hamburg", "zip_code": "", "country": "DE", "state": "HH", "display_address": ["Hamburg", "Germany"]}, "phone": "+4917670834316", "display_phone": "+49 176 70834316", "distance": 15945.205753791586}, {"id": "u3ub5f0MS4qY67Q8XF9ZoA", "alias": "sodemanns-fisch-kutter-nr-1-hamburg", "name": "Sodemann's Fisch-Kutter Nr. 1", "image_url": "https://s3-media3.fl.yelpcdn.com/bphoto/BlysP6fVPaL0eEjKvEbByw/o.jpg", "is_closed": false, "url": "https://www.yelp.com/biz/sodemanns-fisch-kutter-nr-1-hamburg?adjust_creative=hBJOknVQJ58S5goQyjmwRw&utm_campaign=yelp_api_v3&utm_medium=api_v3_business_search&utm_source=hBJOknVQJ58S5goQyjmwRw", "review_count": 3, "categories": [{"alias": "foodtrucks", "title": "Food Trucks"}, {"alias": "fischbroetchen", "title": "Fischbroetchen"}], "rating": 5.0, "coordinates": {"latitude": 53.5537490844727, "longitude": 9.99182987213135}, "transactions": [], "price": "\u20ac\u20ac", "location": {"address1": "", "address2": null, "address3": "", "city": "Hamburg", "zip_code": "", "country": "DE", "state": "HH", "display_address": ["Hamburg", "Germany"]}, "phone": "+491773606663", "display_phone": "+49 177 3606663", "distance": 15700.813052035264}, {"id": "1scOX0fMV4UdmrlHxMlR0g", "alias": "baris-grill-haus-schenefeld", "name": "Baris Grill-Haus", "image_url": "", "is_closed": false, "url": "https://www.yelp.com/biz/baris-grill-haus-schenefeld?adjust_creative=hBJOknVQJ58S5goQyjmwRw&utm_campaign=yelp_api_v3&utm_medium=api_v3_business_search&utm_source=hBJOknVQJ58S5goQyjmwRw", "review_count": 2, "categories": [{"alias": "food", "title": "Food"}, {"alias": "mideastern", "title": "Middle Eastern"}, {"alias": "kebab", "title": "Kebab"}], "rating": 4.5, "coordinates": {"latitude": 53.6086, "longitude": 9.83903}, "transactions": [], "price": "\u20ac", "location": {"address1": "Lindenallee 8", "address2": null, "address3": null, "city": "Schenefeld", "zip_code": "22869", "country": "DE", "state": "SH", "display_address": ["Lindenallee 8", "22869 Schenefeld", "Germany"]}, "phone": "+494083929389", "display_phone": "+49 40 83929389", "distance": 4470.5911777790325}, {"id": "2i6_mHWvgwwlV9zwCtvu7Q", "alias": "asia-pham-pinneberg-2", "name": "Asia Pham", "image_url": "https://s3-media2.fl.yelpcdn.com/bphoto/ysuj-XudB-zH6BhnqvS-CQ/o.jpg", "is_closed": false, "url": "https://www.yelp.com/biz/asia-pham-pinneberg-2?adjust_creative=hBJOknVQJ58S5goQyjmwRw&utm_campaign=yelp_api_v3&utm_medium=api_v3_business_search&utm_source=hBJOknVQJ58S5goQyjmwRw", "review_count": 6, "categories": [{"alias": "chinese", "title": "Chinese"}], "rating": 3.0, "coordinates": {"latitude": 53.6604881, "longitude": 9.8007669}, "transactions": [], "price": "\u20ac\u20ac", "location": {"address1": "Fahltskamp 8", "address2": "", "address3": "", "city": "Pinneberg", "zip_code": "25421", "country": "DE", "state": "SH", "display_address": ["Fahltskamp 8", "25421 Pinneberg", "Germany"]}, "phone": "+494101375065", "display_phone": "+49 4101 375065", "distance": 1932.0627222420683}, {"id": "E6KVtWh7eCNjWWahwo2hLw", "alias": "smileys-pinneberg", "name": "Smiley's", "image_url": "https://s3-media2.fl.yelpcdn.com/bphoto/2QrjSXV0qxsqStoX6tBqfQ/o.jpg", "is_closed": false, "url": "https://www.yelp.com/biz/smileys-pinneberg?adjust_creative=hBJOknVQJ58S5goQyjmwRw&utm_campaign=yelp_api_v3&utm_medium=api_v3_business_search&utm_source=hBJOknVQJ58S5goQyjmwRw", "review_count": 1, "categories": [{"alias": "pizza", "title": "Pizza"}], "rating": 5.0, "coordinates": {"latitude": 53.66774052029, "longitude": 9.794312116843}, "transactions": [], "price": "\u20ac\u20ac", "location": {"address1": "Elmshorner Str. 46", "address2": "", "address3": null, "city": "Pinneberg", "zip_code": "25421", "country": "DE", "state": "SH", "display_address": ["Elmshorner Str. 46", "25421 Pinneberg", "Germany"]}, "phone": "+494101855777", "display_phone": "+49 4101 855777", "distance": 2823.736415788458}, {"id": "nmjpFpl65oMXQbgOkvsrfQ", "alias": "scheune-pinneberg", "name": "Scheune", "image_url": "https://s3-media2.fl.yelpcdn.com/bphoto/0iu_YrqndA6s3QoUQQtPNQ/o.jpg", "is_closed": false, "url": "https://www.yelp.com/biz/scheune-pinneberg?adjust_creative=hBJOknVQJ58S5goQyjmwRw&utm_campaign=yelp_api_v3&utm_medium=api_v3_business_search&utm_source=hBJOknVQJ58S5goQyjmwRw", "review_count": 49, "categories": [{"alias": "german", "title": "German"}], "rating": 2.0, "coordinates": {"latitude": 53.66229, "longitude": 9.79707}, "transactions": [], "price": "\u20ac\u20ac", "location": {"address1": "Bismarckstr. 8 a", "address2": "", "address3": "", "city": "Pinneberg", "zip_code": "25421", "country": "DE", "state": "SH", "display_address": ["Bismarckstr. 8 a", "25421 Pinneberg", "Germany"]}, "phone": "+494101378865", "display_phone": "+49 4101 378865", "distance": 2262.098692168207}, {"id": "X14N6ogl5lNNLuFsvBzlzw", "alias": "restaurant-dubrovnik-schenefeld", "name": "Restaurant Dubrovnik", "image_url": "", "is_closed": false, "url": "https://www.yelp.com/biz/restaurant-dubrovnik-schenefeld?adjust_creative=hBJOknVQJ58S5goQyjmwRw&utm_campaign=yelp_api_v3&utm_medium=api_v3_business_search&utm_source=hBJOknVQJ58S5goQyjmwRw", "review_count": 9, "categories": [{"alias": "international", "title": "International"}, {"alias": "german", "title": "German"}, {"alias": "serbocroatian", "title": "Serbo Croatian"}], "rating": 4.5, "coordinates": {"latitude": 53.6081, "longitude": 9.83994}, "transactions": [], "price": "\u20ac\u20ac", "location": {"address1": "Lornsenstr. 111", "address2": null, "address3": null, "city": "Schenefeld", "zip_code": "22869", "country": "DE", "state": "SH", "display_address": ["Lornsenstr. 111", "22869 Schenefeld", "Germany"]}, "phone": "+49408391568", "display_phone": "+49 40 8391568", "distance": 4541.552791471837}, {"id": "2jzIbZsfzca5drJYk7JwbQ", "alias": "the-bao-bros-hamburg-2", "name": "The Bao Bros", "image_url": "https://s3-media1.fl.yelpcdn.com/bphoto/vUMA4Y35x3UwZk6fMJfZRw/o.jpg", "is_closed": false, "url": "https://www.yelp.com/biz/the-bao-bros-hamburg-2?adjust_creative=hBJOknVQJ58S5goQyjmwRw&utm_campaign=yelp_api_v3&utm_medium=api_v3_business_search&utm_source=hBJOknVQJ58S5goQyjmwRw", "review_count": 2, "categories": [{"alias": "foodtrucks", "title": "Food Trucks"}, {"alias": "burgers", "title": "Burgers"}], "rating": 4.0, "coordinates": {"latitude": 53.5533409118652, "longitude": 9.99246978759766}, "transactions": [], "price": "\u20ac", "location": {"address1": "", "address2": "", "address3": "", "city": "Hamburg", "zip_code": "", "country": "DE", "state": "HH", "display_address": ["Hamburg", "Germany"]}, "phone": "+4915140700076", "display_phone": "+49 1514 0700076", "distance": 15700.808210769208}, {"id": "APvIA_7ssxgC0atmQEFMcg", "alias": "burgerkultour-food-truck-hamburg-2", "name": "BurgerKultour Food Truck", "image_url": "https://s3-media4.fl.yelpcdn.com/bphoto/KoAuwalMnlAO8139MmdYBQ/o.jpg", "is_closed": false, "url": "https://www.yelp.com/biz/burgerkultour-food-truck-hamburg-2?adjust_creative=hBJOknVQJ58S5goQyjmwRw&utm_campaign=yelp_api_v3&utm_medium=api_v3_business_search&utm_source=hBJOknVQJ58S5goQyjmwRw", "review_count": 3, "categories": [{"alias": "foodtrucks", "title": "Food Trucks"}, {"alias": "burgers", "title": "Burgers"}], "rating": 4.5, "coordinates": {"latitude": 53.57154, "longitude": 9.95575}, "transactions": [], "price": "\u20ac\u20ac", "location": {"address1": "", "address2": "", "address3": "", "city": "Hamburg", "zip_code": "20259", "country": "DE", "state": "HH", "display_address": ["20259 Hamburg", "Germany"]}, "phone": "+4917626055122", "display_phone": "+49 176 26055122", "distance": 12390.926704158379}, {"id": "HkJL24yDIo1VJd1sZFCGXw", "alias": "akropolis-rellingen", "name": "Akropolis", "image_url": "https://s3-media4.fl.yelpcdn.com/bphoto/isBnDLy1YAdrnTlQfonBcA/o.jpg", "is_closed": false, "url": "https://www.yelp.com/biz/akropolis-rellingen?adjust_creative=hBJOknVQJ58S5goQyjmwRw&utm_campaign=yelp_api_v3&utm_medium=api_v3_business_search&utm_source=hBJOknVQJ58S5goQyjmwRw", "review_count": 5, "categories": [{"alias": "greek", "title": "Greek"}], "rating": 3.5, "coordinates": {"latitude": 53.6555, "longitude": 9.81788}, "transactions": [], "location": {"address1": "Eichenstr. 2", "address2": null, "address3": null, "city": "Rellingen", "zip_code": "25462", "country": "DE", "state": "SH", "display_address": ["Eichenstr. 2", "25462 Rellingen", "Germany"]}, "phone": "+49410122385", "display_phone": "+49 4101 22385", "distance": 945.2397744985882}, {"id": "WYBXd9zggh3jHXshwOeMIQ", "alias": "rellinger-hof-rellingen-2", "name": "Rellinger Hof", "image_url": "https://s3-media4.fl.yelpcdn.com/bphoto/OIi6QFl9S4aIPEVO64s24Q/o.jpg", "is_closed": false, "url": "https://www.yelp.com/biz/rellinger-hof-rellingen-2?adjust_creative=hBJOknVQJ58S5goQyjmwRw&utm_campaign=yelp_api_v3&utm_medium=api_v3_business_search&utm_source=hBJOknVQJ58S5goQyjmwRw", "review_count": 1, "categories": [{"alias": "german", "title": "German"}], "rating": 2.0, "coordinates": {"latitude": 53.6492, "longitude": 9.82989}, "transactions": [], "location": {"address1": "Hauptstr. 31", "address2": null, "address3": null, "city": "Rellingen", "zip_code": "25462", "country": "DE", "state": "SH", "display_address": ["Hauptstr. 31", "25462 Rellingen", "Germany"]}, "phone": "+4941012130", "display_phone": "+49 4101 2130", "distance": 750.2609324763667}, {"id": "jUVY4TZvRoHzwuz2SU0TMQ", "alias": "happy-wok-pinneberg", "name": "Happy Wok", "image_url": "https://s3-media2.fl.yelpcdn.com/bphoto/5zj2gLKNmeHiM4CcBWM2NQ/o.jpg", "is_closed": false, "url": "https://www.yelp.com/biz/happy-wok-pinneberg?adjust_creative=hBJOknVQJ58S5goQyjmwRw&utm_campaign=yelp_api_v3&utm_medium=api_v3_business_search&utm_source=hBJOknVQJ58S5goQyjmwRw", "review_count": 5, "categories": [{"alias": "panasian", "title": "Pan Asian"}], "rating": 2.0, "coordinates": {"latitude": 53.67712, "longitude": 9.798228}, "transactions": [], "price": "\u20ac\u20ac", "location": {"address1": "Flensburger Str. 20", "address2": "", "address3": "", "city": "Pinneberg", "zip_code": "25421", "country": "DE", "state": "SH", "display_address": ["Flensburger Str. 20", "25421 Pinneberg", "Germany"]}, "phone": "+4941018190277", "display_phone": "+49 4101 8190277", "distance": 3617.66773834391}, {"id": "cGIKCcR0wZszz8VldC2-7g", "alias": "currywerk-hamburg", "name": "curryWERK", "image_url": "https://s3-media4.fl.yelpcdn.com/bphoto/j_ZPQAB6JrAru84VDuLiRA/o.jpg", "is_closed": false, "url": "https://www.yelp.com/biz/currywerk-hamburg?adjust_creative=hBJOknVQJ58S5goQyjmwRw&utm_campaign=yelp_api_v3&utm_medium=api_v3_business_search&utm_source=hBJOknVQJ58S5goQyjmwRw", "review_count": 1, "categories": [{"alias": "foodtrucks", "title": "Food Trucks"}, {"alias": "currysausage", "title": "Curry Sausage"}], "rating": 4.0, "coordinates": {"latitude": 53.5498886108398, "longitude": 9.94732189178467}, "transactions": [], "price": "\u20ac\u20ac", "location": {"address1": "", "address2": "", "address3": "", "city": "Hamburg", "zip_code": "22767", "country": "DE", "state": "HH", "display_address": ["22767 Hamburg", "Germany"]}, "phone": "+4917632443433", "display_phone": "+49 176 32443433", "distance": 13619.914869593656}, {"id": "rghZCvTQvkVOmC-kVTrWxw", "alias": "meyo-pinneberg", "name": "Meyo", "image_url": "https://s3-media3.fl.yelpcdn.com/bphoto/iwE5W0ce_TNhAGb5lQfOrw/o.jpg", "is_closed": false, "url": "https://www.yelp.com/biz/meyo-pinneberg?adjust_creative=hBJOknVQJ58S5goQyjmwRw&utm_campaign=yelp_api_v3&utm_medium=api_v3_business_search&utm_source=hBJOknVQJ58S5goQyjmwRw", "review_count": 2, "categories": [{"alias": "pizza", "title": "Pizza"}, {"alias": "icecream", "title": "Ice Cream & Frozen Yogurt"}], "rating": 2.5, "coordinates": {"latitude": 53.6553244, "longitude": 9.7981383}, "transactions": [], "location": {"address1": "Bahnhofstr. 1", "address2": "", "address3": "", "city": "Pinneberg", "zip_code": "25421", "country": "DE", "state": "SH", "display_address": ["Bahnhofstr. 1", "25421 Pinneberg", "Germany"]}, "phone": "+494101511814", "display_phone": "+49 4101 511814", "distance": 1714.146213264387}, {"id": "8NKcar_w6jfbRg2QnlvIEg", "alias": "mcdonalds-pinneberg", "name": "McDonald's", "image_url": "https://s3-media3.fl.yelpcdn.com/bphoto/_GhTGtMSoZJKZPGHOUijww/o.jpg", "is_closed": false, "url": "https://www.yelp.com/biz/mcdonalds-pinneberg?adjust_creative=hBJOknVQJ58S5goQyjmwRw&utm_campaign=yelp_api_v3&utm_medium=api_v3_business_search&utm_source=hBJOknVQJ58S5goQyjmwRw", "review_count": 15, "categories": [{"alias": "hotdogs", "title": "Fast Food"}, {"alias": "burgers", "title": "Burgers"}], "rating": 3.0, "coordinates": {"latitude": 53.6640429757914, "longitude": 9.79389376938343}, "transactions": [], "price": "\u20ac", "location": {"address1": "Friedrich-Ebert-Str. 54", "address2": "", "address3": "", "city": "Pinneberg", "zip_code": "25421", "country": "DE", "state": "SH", "display_address": ["Friedrich-Ebert-Str. 54", "25421 Pinneberg", "Germany"]}, "phone": "+494101375320", "display_phone": "+49 4101 375320", "distance": 2517.9398906335937}, {"id": "MQuYGwEojN7fFPMXRePLhw", "alias": "friedrichs-am-reiterhof-schenefeld", "name": "Friedrichs - Am Reiterhof", "image_url": "", "is_closed": false, "url": "https://www.yelp.com/biz/friedrichs-am-reiterhof-schenefeld?adjust_creative=hBJOknVQJ58S5goQyjmwRw&utm_campaign=yelp_api_v3&utm_medium=api_v3_business_search&utm_source=hBJOknVQJ58S5goQyjmwRw", "review_count": 6, "categories": [{"alias": "german", "title": "German"}], "rating": 2.5, "coordinates": {"latitude": 53.6084, "longitude": 9.82596}, "transactions": [], "location": {"address1": "Lindenallee 98", "address2": null, "address3": null, "city": "Schenefeld", "zip_code": "22869", "country": "DE", "state": "SH", "display_address": ["Lindenallee 98", "22869 Schenefeld", "Germany"]}, "phone": "+494018981959", "display_phone": "+49 40 18981959", "distance": 4319.200582527318}, {"id": "px1s7sLcSCiYRSNvfNsx3w", "alias": "arnoldis-schenefeld", "name": "Arnoldis", "image_url": "https://s3-media3.fl.yelpcdn.com/bphoto/eF8tzsDXhVgqJjkYLy0mKQ/o.jpg", "is_closed": false, "url": "https://www.yelp.com/biz/arnoldis-schenefeld?adjust_creative=hBJOknVQJ58S5goQyjmwRw&utm_campaign=yelp_api_v3&utm_medium=api_v3_business_search&utm_source=hBJOknVQJ58S5goQyjmwRw", "review_count": 18, "categories": [{"alias": "sandwiches", "title": "Sandwiches"}, {"alias": "salad", "title": "Salad"}, {"alias": "pizza", "title": "Pizza"}], "rating": 4.0, "coordinates": {"latitude": 53.6081246, "longitude": 9.8400738}, "transactions": [], "price": "\u20ac\u20ac", "location": {"address1": "Lornsenstr. 111 d", "address2": null, "address3": null, "city": "Schenefeld", "zip_code": "22869", "country": "DE", "state": "SH", "display_address": ["Lornsenstr. 111 d", "22869 Schenefeld", "Germany"]}, "phone": "+494084058550", "display_phone": "+49 40 84058550", "distance": 4541.623087482507}, {"id": "Ot2_EQ4AiHMrncYallz52w", "alias": "grillimbiss-athena-pinneberg", "name": "Grillimbiss Athena", "image_url": "https://s3-media2.fl.yelpcdn.com/bphoto/4Hem3oppXcUcjsh7R-D8mw/o.jpg", "is_closed": false, "url": "https://www.yelp.com/biz/grillimbiss-athena-pinneberg?adjust_creative=hBJOknVQJ58S5goQyjmwRw&utm_campaign=yelp_api_v3&utm_medium=api_v3_business_search&utm_source=hBJOknVQJ58S5goQyjmwRw", "review_count": 3, "categories": [{"alias": "food", "title": "Food"}, {"alias": "hotdogs", "title": "Fast Food"}], "rating": 2.5, "coordinates": {"latitude": 53.6442, "longitude": 9.81008}, "transactions": [], "location": {"address1": "Diesterwegstr. 33", "address2": null, "address3": null, "city": "Pinneberg", "zip_code": "25421", "country": "DE", "state": "SH", "display_address": ["Diesterwegstr. 33", "25421 Pinneberg", "Germany"]}, "phone": "+494101374937", "display_phone": "+49 4101 374937", "distance": 673.3750044955765}, {"id": "SeodQIjOcsrznD7rwIB-Jw", "alias": "the-big-balmy-hamburg-2", "name": "The Big Balmy", "image_url": "https://s3-media2.fl.yelpcdn.com/bphoto/KWUCQvGDONs_iDxlKXzgvQ/o.jpg", "is_closed": false, "url": "https://www.yelp.com/biz/the-big-balmy-hamburg-2?adjust_creative=hBJOknVQJ58S5goQyjmwRw&utm_campaign=yelp_api_v3&utm_medium=api_v3_business_search&utm_source=hBJOknVQJ58S5goQyjmwRw", "review_count": 27, "categories": [{"alias": "burgers", "title": "Burgers"}, {"alias": "foodtrucks", "title": "Food Trucks"}], "rating": 3.5, "coordinates": {"latitude": 53.537786, "longitude": 10.028218}, "transactions": [], "price": "\u20ac\u20ac", "location": {"address1": "", "address2": null, "address3": null, "city": "Hamburg", "zip_code": "", "country": "DE", "state": "HH", "display_address": ["Hamburg", "Germany"]}, "phone": "+494069278630", "display_phone": "+49 40 69278630", "distance": 18385.072424767164}]