[{"id": "bk5N3hkwvn1wzKIHEjdNOA", "alias": "la-fortuna-hamburg-5", "name": "La Fortuna", "image_url": "https://s3-media2.fl.yelpcdn.com/bphoto/pkK_iHxYmlw_s-pn1Om9Qg/o.jpg", "is_closed": false, "url": "https://www.yelp.com/biz/la-fortuna-hamburg-5?adjust_creative=hBJOknVQJ58S5goQyjmwRw&utm_campaign=yelp_api_v3&utm_medium=api_v3_business_search&utm_source=hBJOknVQJ58S5goQyjmwRw", "review_count": 8, "categories": [{"alias": "italian", "title": "Italian"}, {"alias": "french", "title": "French"}], "rating": 5.0, "coordinates": {"latitude": 53.61771, "longitude": 10.07887}, "transactions": [], "price": "\u20ac\u20ac", "location": {"address1": "Bramfelder Chaussee 306", "address2": "", "address3": "", "city": "Hamburg", "zip_code": "22177", "country": "DE", "state": "HH", "display_address": ["Bramfelder Chaussee 306", "22177 Hamburg", "Germany"]}, "phone": "+494028804755", "display_phone": "+49 40 28804755", "distance": 3132.353431560246}, {"id": "-6tlO6UyWyo_NsKur7uKCw", "alias": "la-madera-hamburg-2", "name": "La Madera", "image_url": "https://s3-media3.fl.yelpcdn.com/bphoto/9J8fAarpfPXzpScmOs85gw/o.jpg", "is_closed": false, "url": "https://www.yelp.com/biz/la-madera-hamburg-2?adjust_creative=hBJOknVQJ58S5goQyjmwRw&utm_campaign=yelp_api_v3&utm_medium=api_v3_business_search&utm_source=hBJOknVQJ58S5goQyjmwRw", "review_count": 103, "categories": [{"alias": "steak", "title": "Steakhouses"}, {"alias": "spanish", "title": "Spanish"}], "rating": 3.5, "coordinates": {"latitude": 53.6434, "longitude": 10.09883}, "transactions": [], "price": "\u20ac\u20ac\u20ac", "location": {"address1": "Saseler Chaussee 101", "address2": "", "address3": "", "city": "Hamburg", "zip_code": "22393", "country": "DE", "state": "HH", "display_address": ["Saseler Chaussee 101", "22393 Hamburg", "Germany"]}, "phone": "+494038076165", "display_phone": "+49 40 38076165", "distance": 509.8739951120776}, {"id": "HJ01zMNLEmQKEVdkMcJYUQ", "alias": "con-calma-hamburg", "name": "Con Calma", "image_url": "https://s3-media2.fl.yelpcdn.com/bphoto/fvN1qc3Bz5KqEJ9NoSz6zA/o.jpg", "is_closed": false, "url": "https://www.yelp.com/biz/con-calma-hamburg?adjust_creative=hBJOknVQJ58S5goQyjmwRw&utm_campaign=yelp_api_v3&utm_medium=api_v3_business_search&utm_source=hBJOknVQJ58S5goQyjmwRw", "review_count": 14, "categories": [{"alias": "italian", "title": "Italian"}], "rating": 4.5, "coordinates": {"latitude": 53.64219, "longitude": 10.1129}, "transactions": [], "price": "\u20ac", "location": {"address1": "Volksdorfer Weg 112", "address2": "", "address3": "", "city": "Hamburg", "zip_code": "22393", "country": "DE", "state": "HH", "display_address": ["Volksdorfer Weg 112", "22393 Hamburg", "Germany"]}, "phone": "+494087602817", "display_phone": "+49 40 87602817", "distance": 1449.90156338059}, {"id": "7yDn3Eb-Oo9lECGO2MS0qw", "alias": "watzmann-wirtshaus-hamburg", "name": "Watzmann Wirtshaus", "image_url": "https://s3-media4.fl.yelpcdn.com/bphoto/fAGbOGkp82110R3lEOTKfw/o.jpg", "is_closed": false, "url": "https://www.yelp.com/biz/watzmann-wirtshaus-hamburg?adjust_creative=hBJOknVQJ58S5goQyjmwRw&utm_campaign=yelp_api_v3&utm_medium=api_v3_business_search&utm_source=hBJOknVQJ58S5goQyjmwRw", "review_count": 66, "categories": [{"alias": "austrian", "title": "Austrian"}], "rating": 4.0, "coordinates": {"latitude": 53.65195, "longitude": 10.10617}, "transactions": [], "price": "\u20ac\u20ac", "location": {"address1": "Saseler Chaussee 166", "address2": null, "address3": null, "city": "Hamburg", "zip_code": "22393", "country": "DE", "state": "HH", "display_address": ["Saseler Chaussee 166", "22393 Hamburg", "Germany"]}, "phone": "+49406003589", "display_phone": "+49 40 6003589", "distance": 1257.9591902742109}, {"id": "RsZ18JONLGCdSUJyFLN9WA", "alias": "del-favero-hamburg-3", "name": "Del Favero", "image_url": "https://s3-media3.fl.yelpcdn.com/bphoto/F5TCDKHJ8gO3MSrrLA0org/o.jpg", "is_closed": false, "url": "https://www.yelp.com/biz/del-favero-hamburg-3?adjust_creative=hBJOknVQJ58S5goQyjmwRw&utm_campaign=yelp_api_v3&utm_medium=api_v3_business_search&utm_source=hBJOknVQJ58S5goQyjmwRw", "review_count": 34, "categories": [{"alias": "italian", "title": "Italian"}], "rating": 4.0, "coordinates": {"latitude": 53.6548112255357, "longitude": 10.09302680986}, "transactions": [], "price": "\u20ac\u20ac", "location": {"address1": "Heegbarg 28", "address2": null, "address3": null, "city": "Hamburg", "zip_code": "22391", "country": "DE", "state": "HH", "display_address": ["Heegbarg 28", "22391 Hamburg", "Germany"]}, "phone": "+49406061075", "display_phone": "+49 40 6061075", "distance": 1112.0887869796802}, {"id": "YY5zm9RE9A7Y6Bwz7c4Z4Q", "alias": "indian-temple-hamburg-4", "name": "Indian Temple", "image_url": "https://s3-media1.fl.yelpcdn.com/bphoto/XFfM2ecW3PStoPw8kxniCA/o.jpg", "is_closed": false, "url": "https://www.yelp.com/biz/indian-temple-hamburg-4?adjust_creative=hBJOknVQJ58S5goQyjmwRw&utm_campaign=yelp_api_v3&utm_medium=api_v3_business_search&utm_source=hBJOknVQJ58S5goQyjmwRw", "review_count": 12, "categories": [{"alias": "indpak", "title": "Indian"}], "rating": 4.5, "coordinates": {"latitude": 53.6531, "longitude": 10.10639}, "transactions": [], "price": "\u20ac\u20ac", "location": {"address1": "Saseler Chaussee 205", "address2": "", "address3": "", "city": "Hamburg", "zip_code": "22393", "country": "DE", "state": "HH", "display_address": ["Saseler Chaussee 205", "22393 Hamburg", "Germany"]}, "phone": "+494046642464", "display_phone": "+49 40 46642464", "distance": 1347.875517342278}, {"id": "65T_PmvHhTUckycwmjfREw", "alias": "metzgers-hamburg", "name": "Metzgers", "image_url": "https://s3-media2.fl.yelpcdn.com/bphoto/4gQwFejRNyAmAWG6mGavCA/o.jpg", "is_closed": false, "url": "https://www.yelp.com/biz/metzgers-hamburg?adjust_creative=hBJOknVQJ58S5goQyjmwRw&utm_campaign=yelp_api_v3&utm_medium=api_v3_business_search&utm_source=hBJOknVQJ58S5goQyjmwRw", "review_count": 5, "categories": [{"alias": "steak", "title": "Steakhouses"}, {"alias": "burgers", "title": "Burgers"}, {"alias": "meats", "title": "Meat Shops"}], "rating": 4.5, "coordinates": {"latitude": 53.65393, "longitude": 10.09115}, "transactions": [], "price": "\u20ac\u20ac", "location": {"address1": "Heegbarg 31", "address2": "", "address3": null, "city": "Hamburg", "zip_code": "22391", "country": "DE", "state": "HH", "display_address": ["Heegbarg 31", "22391 Hamburg", "Germany"]}, "phone": "", "display_phone": "", "distance": 1052.1638356451633}, {"id": "BOHWiX5XA7Svlmx_ipS7Xw", "alias": "alsterliebe-hamburg", "name": "Alsterliebe", "image_url": "https://s3-media2.fl.yelpcdn.com/bphoto/GrKOcNFERGMk2NDokQxRcg/o.jpg", "is_closed": false, "url": "https://www.yelp.com/biz/alsterliebe-hamburg?adjust_creative=hBJOknVQJ58S5goQyjmwRw&utm_campaign=yelp_api_v3&utm_medium=api_v3_business_search&utm_source=hBJOknVQJ58S5goQyjmwRw", "review_count": 2, "categories": [{"alias": "accessories", "title": "Accessories"}, {"alias": "homedecor", "title": "Home Decor"}, {"alias": "cafes", "title": "Cafes"}], "rating": 4.0, "coordinates": {"latitude": 53.6515, "longitude": 10.09596}, "transactions": [], "location": {"address1": "Frahmredder 1", "address2": "", "address3": "", "city": "Hamburg", "zip_code": "22393", "country": "DE", "state": "HH", "display_address": ["Frahmredder 1", "22393 Hamburg", "Germany"]}, "phone": "+494038047131", "display_phone": "+49 40 38047131", "distance": 806.590602749303}, {"id": "dxXgqSM_utHxfwtBR8H9nw", "alias": "stocks-hamburg", "name": "Stocks", "image_url": "https://s3-media1.fl.yelpcdn.com/bphoto/hp61P_D_U_TOFwFzswDcYg/o.jpg", "is_closed": false, "url": "https://www.yelp.com/biz/stocks-hamburg?adjust_creative=hBJOknVQJ58S5goQyjmwRw&utm_campaign=yelp_api_v3&utm_medium=api_v3_business_search&utm_source=hBJOknVQJ58S5goQyjmwRw", "review_count": 115, "categories": [{"alias": "seafood", "title": "Seafood"}, {"alias": "sushi", "title": "Sushi Bars"}], "rating": 4.5, "coordinates": {"latitude": 53.66898, "longitude": 10.09112}, "transactions": [], "price": "\u20ac\u20ac\u20ac", "location": {"address1": "An der Alsterschleife 3", "address2": null, "address3": null, "city": "Hamburg", "zip_code": "22399", "country": "DE", "state": "HH", "display_address": ["An der Alsterschleife 3", "22399 Hamburg", "Germany"]}, "phone": "+49406113620", "display_phone": "+49 40 6113620", "distance": 2683.843833168874}, {"id": "wndlRXhLYSXU5z7gbGlAdg", "alias": "mama-hamburg-6", "name": "Mama", "image_url": "https://s3-media4.fl.yelpcdn.com/bphoto/k0U6R2baGg14JUzzA2nUrg/o.jpg", "is_closed": false, "url": "https://www.yelp.com/biz/mama-hamburg-6?adjust_creative=hBJOknVQJ58S5goQyjmwRw&utm_campaign=yelp_api_v3&utm_medium=api_v3_business_search&utm_source=hBJOknVQJ58S5goQyjmwRw", "review_count": 6, "categories": [{"alias": "italian", "title": "Italian"}], "rating": 3.0, "coordinates": {"latitude": 53.64165, "longitude": 10.08053}, "transactions": [], "price": "\u20ac\u20ac", "location": {"address1": "Wellingsb\u00fcttler Weg 119", "address2": "", "address3": null, "city": "Hamburg", "zip_code": "22391", "country": "DE", "state": "HH", "display_address": ["Wellingsb\u00fcttler Weg 119", "22391 Hamburg", "Germany"]}, "phone": "+494050798555", "display_phone": "+49 40 50798555", "distance": 798.6301788325017}, {"id": "NJUMH0h1mxG3llOgdC1c2g", "alias": "del-hamburg-3", "name": "Del", "image_url": "https://s3-media2.fl.yelpcdn.com/bphoto/q3JZps6Fzy3Y9QAtgtr0Ow/o.jpg", "is_closed": false, "url": "https://www.yelp.com/biz/del-hamburg-3?adjust_creative=hBJOknVQJ58S5goQyjmwRw&utm_campaign=yelp_api_v3&utm_medium=api_v3_business_search&utm_source=hBJOknVQJ58S5goQyjmwRw", "review_count": 46, "categories": [{"alias": "international", "title": "International"}], "rating": 3.5, "coordinates": {"latitude": 53.64727, "longitude": 10.0878}, "transactions": [], "price": "\u20ac\u20ac\u20ac", "location": {"address1": "Poppenb\u00fcttler Landstr. 1C", "address2": null, "address3": null, "city": "Hamburg", "zip_code": "22391", "country": "DE", "state": "HH", "display_address": ["Poppenb\u00fcttler Landstr. 1C", "22391 Hamburg", "Germany"]}, "phone": "+49406027061", "display_phone": "+49 40 6027061", "distance": 356.7536719266813}, {"id": "vqN5zhmaM3YMtp-kVHUPFA", "alias": "hanoi-quan-hamburg", "name": "Hanoi Quan", "image_url": "https://s3-media2.fl.yelpcdn.com/bphoto/KspPS7hQia2DeSW68hRXpA/o.jpg", "is_closed": false, "url": "https://www.yelp.com/biz/hanoi-quan-hamburg?adjust_creative=hBJOknVQJ58S5goQyjmwRw&utm_campaign=yelp_api_v3&utm_medium=api_v3_business_search&utm_source=hBJOknVQJ58S5goQyjmwRw", "review_count": 2, "categories": [{"alias": "vietnamese", "title": "Vietnamese"}], "rating": 4.5, "coordinates": {"latitude": 53.6155579, "longitude": 10.0768295}, "transactions": [], "price": "\u20ac\u20ac", "location": {"address1": "Bramfelder Chaussee 264", "address2": "", "address3": null, "city": "Hamburg", "zip_code": "22177", "country": "DE", "state": "HH", "display_address": ["Bramfelder Chaussee 264", "22177 Hamburg", "Germany"]}, "phone": "+494064222509", "display_phone": "+49 40 64222509", "distance": 3396.189825160415}, {"id": "HTJFV4B-xQRwvDxIun0g2g", "alias": "l-amira-farmsen-hamburg", "name": "L'Amira Farmsen", "image_url": "https://s3-media4.fl.yelpcdn.com/bphoto/vGGTedKCivZ-omRsQDWDnQ/o.jpg", "is_closed": false, "url": "https://www.yelp.com/biz/l-amira-farmsen-hamburg?adjust_creative=hBJOknVQJ58S5goQyjmwRw&utm_campaign=yelp_api_v3&utm_medium=api_v3_business_search&utm_source=hBJOknVQJ58S5goQyjmwRw", "review_count": 58, "categories": [{"alias": "syrian", "title": "Syrian"}], "rating": 4.5, "coordinates": {"latitude": 53.6165449, "longitude": 10.1136955}, "transactions": [], "price": "\u20ac\u20ac", "location": {"address1": "Neusurenland 101", "address2": "", "address3": "", "city": "Hamburg", "zip_code": "22159", "country": "DE", "state": "HH", "display_address": ["Neusurenland 101", "22159 Hamburg", "Germany"]}, "phone": "+494073088653", "display_phone": "+49 40 73088653", "distance": 3475.4721195607276}, {"id": "i59YO-Z7DMbsZfuVJkHAbg", "alias": "caf\u00e9-im-herrenhaus-hamburg", "name": "Caf\u00e9 im Herrenhaus", "image_url": "https://s3-media4.fl.yelpcdn.com/bphoto/_O4BK-aezMWcfmA6NauPKg/o.jpg", "is_closed": false, "url": "https://www.yelp.com/biz/caf%C3%A9-im-herrenhaus-hamburg?adjust_creative=hBJOknVQJ58S5goQyjmwRw&utm_campaign=yelp_api_v3&utm_medium=api_v3_business_search&utm_source=hBJOknVQJ58S5goQyjmwRw", "review_count": 17, "categories": [{"alias": "german", "title": "German"}, {"alias": "cafes", "title": "Cafes"}], "rating": 4.0, "coordinates": {"latitude": 53.6435, "longitude": 10.072}, "transactions": [], "price": "\u20ac\u20ac", "location": {"address1": "Wellingsb\u00fcttler Weg 71", "address2": null, "address3": null, "city": "Hamburg", "zip_code": "22391", "country": "DE", "state": "HH", "display_address": ["Wellingsb\u00fcttler Weg 71", "22391 Hamburg", "Germany"]}, "phone": "+494097070980", "display_phone": "+49 40 97070980", "distance": 1285.6727162581867}, {"id": "S7PTsIxtptPd2ClC1msn7A", "alias": "trattoria-brunello-hamburg", "name": "Trattoria Brunello", "image_url": "https://s3-media2.fl.yelpcdn.com/bphoto/8fUbth2Z76kTyEA-vrQQOg/o.jpg", "is_closed": false, "url": "https://www.yelp.com/biz/trattoria-brunello-hamburg?adjust_creative=hBJOknVQJ58S5goQyjmwRw&utm_campaign=yelp_api_v3&utm_medium=api_v3_business_search&utm_source=hBJOknVQJ58S5goQyjmwRw", "review_count": 50, "categories": [{"alias": "italian", "title": "Italian"}], "rating": 3.5, "coordinates": {"latitude": 53.6510589, "longitude": 10.0951378}, "transactions": [], "price": "\u20ac\u20ac", "location": {"address1": "Stormarnplatz 8", "address2": null, "address3": null, "city": "Hamburg", "zip_code": "22393", "country": "DE", "state": "HH", "display_address": ["Stormarnplatz 8", "22393 Hamburg", "Germany"]}, "phone": "+494061187753", "display_phone": "+49 40 61187753", "distance": 732.841303230538}, {"id": "lt8UcN8patkOB14upuMwxg", "alias": "wellingten-hamburg", "name": "Wellingten", "image_url": "https://s3-media3.fl.yelpcdn.com/bphoto/Ym5ZLgnRSknz2q18l055NA/o.jpg", "is_closed": false, "url": "https://www.yelp.com/biz/wellingten-hamburg?adjust_creative=hBJOknVQJ58S5goQyjmwRw&utm_campaign=yelp_api_v3&utm_medium=api_v3_business_search&utm_source=hBJOknVQJ58S5goQyjmwRw", "review_count": 48, "categories": [{"alias": "german", "title": "German"}], "rating": 3.0, "coordinates": {"latitude": 53.6424, "longitude": 10.07712}, "transactions": [], "price": "\u20ac\u20ac\u20ac", "location": {"address1": "Wellingsb\u00fcttler Weg 91", "address2": "", "address3": "", "city": "Hamburg", "zip_code": "22391", "country": "DE", "state": "HH", "display_address": ["Wellingsb\u00fcttler Weg 91", "22391 Hamburg", "Germany"]}, "phone": "+49405362402", "display_phone": "+49 40 5362402", "distance": 972.127727337805}, {"id": "rvih7rBlO-VmsWMbgAkJbQ", "alias": "bb-bistro-hamburg", "name": "BB Bistro", "image_url": "https://s3-media3.fl.yelpcdn.com/bphoto/bps_H8kKPnWnMYKvdB3xPQ/o.jpg", "is_closed": false, "url": "https://www.yelp.com/biz/bb-bistro-hamburg?adjust_creative=hBJOknVQJ58S5goQyjmwRw&utm_campaign=yelp_api_v3&utm_medium=api_v3_business_search&utm_source=hBJOknVQJ58S5goQyjmwRw", "review_count": 31, "categories": [{"alias": "bistros", "title": "Bistros"}, {"alias": "chinese", "title": "Chinese"}], "rating": 4.5, "coordinates": {"latitude": 53.653329, "longitude": 10.114534}, "transactions": [], "price": "\u20ac", "location": {"address1": "Waldweg 8", "address2": "", "address3": "", "city": "Hamburg", "zip_code": "22393", "country": "DE", "state": "HH", "display_address": ["Waldweg 8", "22393 Hamburg", "Germany"]}, "phone": "+494088165634", "display_phone": "+49 40 88165634", "distance": 1800.1264258111585}, {"id": "Bda7qjlbhgbEimtkgq8IrQ", "alias": "china-ente-restaurant-hamburg-2", "name": "China-Ente-Restaurant", "image_url": "https://s3-media1.fl.yelpcdn.com/bphoto/wrXm4UbqLdIEUZ_hjWLGPg/o.jpg", "is_closed": false, "url": "https://www.yelp.com/biz/china-ente-restaurant-hamburg-2?adjust_creative=hBJOknVQJ58S5goQyjmwRw&utm_campaign=yelp_api_v3&utm_medium=api_v3_business_search&utm_source=hBJOknVQJ58S5goQyjmwRw", "review_count": 14, "categories": [{"alias": "chinese", "title": "Chinese"}], "rating": 4.5, "coordinates": {"latitude": 53.64288, "longitude": 10.09904}, "transactions": [], "price": "\u20ac\u20ac\u20ac", "location": {"address1": "Saseler Chaussee 88 a", "address2": null, "address3": null, "city": "Hamburg", "zip_code": "22393", "country": "DE", "state": "HH", "display_address": ["Saseler Chaussee 88 a", "22393 Hamburg", "Germany"]}, "phone": "+49406014012", "display_phone": "+49 40 6014012", "distance": 551.3851303580152}, {"id": "Tf2xYmAeLUa_FAfUuv5YCw", "alias": "z2-hamburg", "name": "Z2", "image_url": "https://s3-media2.fl.yelpcdn.com/bphoto/iM9r75DeXqQL7XbtBxPj0g/o.jpg", "is_closed": false, "url": "https://www.yelp.com/biz/z2-hamburg?adjust_creative=hBJOknVQJ58S5goQyjmwRw&utm_campaign=yelp_api_v3&utm_medium=api_v3_business_search&utm_source=hBJOknVQJ58S5goQyjmwRw", "review_count": 1, "categories": [{"alias": "catering", "title": "Caterers"}, {"alias": "german", "title": "German"}], "rating": 4.0, "coordinates": {"latitude": 53.653558, "longitude": 10.088168}, "transactions": [], "location": {"address1": "Kritenbarg 18", "address2": "", "address3": "", "city": "Hamburg", "zip_code": "22391", "country": "DE", "state": "HH", "display_address": ["Kritenbarg 18", "22391 Hamburg", "Germany"]}, "phone": "+494060435886", "display_phone": "+49 40 60435886", "distance": 990.4006165734385}, {"id": "VsgSTpeeqZUCvAJIXZlN-w", "alias": "just-falafels-hamburg", "name": "Just Falafels", "image_url": "https://s3-media3.fl.yelpcdn.com/bphoto/FY54O4kmbp-WKWDywuiaVQ/o.jpg", "is_closed": false, "url": "https://www.yelp.com/biz/just-falafels-hamburg?adjust_creative=hBJOknVQJ58S5goQyjmwRw&utm_campaign=yelp_api_v3&utm_medium=api_v3_business_search&utm_source=hBJOknVQJ58S5goQyjmwRw", "review_count": 1, "categories": [{"alias": "falafel", "title": "Falafel"}], "rating": 5.0, "coordinates": {"latitude": 53.620699, "longitude": 10.102013}, "transactions": [], "location": {"address1": "Pezolddamm 40", "address2": "", "address3": "", "city": "Hamburg", "zip_code": "22175", "country": "DE", "state": "HH", "display_address": ["Pezolddamm 40", "22175 Hamburg", "Germany"]}, "phone": "+494055645530", "display_phone": "+49 40 55645530", "distance": 2774.930276556258}, {"id": "NrKPNavZCmOuBFWLNLTrQA", "alias": "taverna-santorini-hamburg-4", "name": "Taverna Santorini", "image_url": "https://s3-media2.fl.yelpcdn.com/bphoto/eRyaIJu4GHd8hBnS6yoJvg/o.jpg", "is_closed": false, "url": "https://www.yelp.com/biz/taverna-santorini-hamburg-4?adjust_creative=hBJOknVQJ58S5goQyjmwRw&utm_campaign=yelp_api_v3&utm_medium=api_v3_business_search&utm_source=hBJOknVQJ58S5goQyjmwRw", "review_count": 26, "categories": [{"alias": "greek", "title": "Greek"}, {"alias": "mediterranean", "title": "Mediterranean"}], "rating": 3.5, "coordinates": {"latitude": 53.649165, "longitude": 10.1032543}, "transactions": [], "price": "\u20ac\u20ac", "location": {"address1": "Saseler Chaussee 161", "address2": "", "address3": "", "city": "Hamburg", "zip_code": "22393", "country": "DE", "state": "HH", "display_address": ["Saseler Chaussee 161", "22393 Hamburg", "Germany"]}, "phone": "+49406018080", "display_phone": "+49 40 6018080", "distance": 918.1206034353874}, {"id": "lPP7z4ItqTPpA_XX52QnrA", "alias": "alte-m\u00fchle-hamburg", "name": "Alte M\u00fchle", "image_url": "https://s3-media2.fl.yelpcdn.com/bphoto/aQx2TqQhVkygL5E089prJQ/o.jpg", "is_closed": false, "url": "https://www.yelp.com/biz/alte-m%C3%BChle-hamburg?adjust_creative=hBJOknVQJ58S5goQyjmwRw&utm_campaign=yelp_api_v3&utm_medium=api_v3_business_search&utm_source=hBJOknVQJ58S5goQyjmwRw", "review_count": 34, "categories": [{"alias": "german", "title": "German"}, {"alias": "cafes", "title": "Cafes"}], "rating": 4.0, "coordinates": {"latitude": 53.6701998, "longitude": 10.1083718}, "transactions": [], "price": "\u20ac\u20ac", "location": {"address1": "Alte M\u00fchle 34", "address2": null, "address3": null, "city": "Hamburg", "zip_code": "22395", "country": "DE", "state": "HH", "display_address": ["Alte M\u00fchle 34", "22395 Hamburg", "Germany"]}, "phone": "+49406049171", "display_phone": "+49 40 6049171", "distance": 3032.3987319607786}, {"id": "7tl-_xvzVJARRnIfpoTqDQ", "alias": "toscanello-hamburg", "name": "Toscanello", "image_url": "https://s3-media4.fl.yelpcdn.com/bphoto/a47jA3FqOh48lIOEAYeewA/o.jpg", "is_closed": false, "url": "https://www.yelp.com/biz/toscanello-hamburg?adjust_creative=hBJOknVQJ58S5goQyjmwRw&utm_campaign=yelp_api_v3&utm_medium=api_v3_business_search&utm_source=hBJOknVQJ58S5goQyjmwRw", "review_count": 26, "categories": [{"alias": "italian", "title": "Italian"}], "rating": 4.5, "coordinates": {"latitude": 53.67872, "longitude": 10.09455}, "transactions": [], "price": "\u20ac\u20ac", "location": {"address1": "Lemsahler Landstr. 118", "address2": null, "address3": null, "city": "Hamburg", "zip_code": "22397", "country": "DE", "state": "HH", "display_address": ["Lemsahler Landstr. 118", "22397 Hamburg", "Germany"]}, "phone": "+494025486304", "display_phone": "+49 40 25486304", "distance": 3769.7579355856433}, {"id": "0dpEgJYclZ0-ezDolzC5zA", "alias": "cristinas-hamburg", "name": "Cristina's", "image_url": "https://s3-media4.fl.yelpcdn.com/bphoto/ECErzB1ppaFKVGVAvKgMAA/o.jpg", "is_closed": false, "url": "https://www.yelp.com/biz/cristinas-hamburg?adjust_creative=hBJOknVQJ58S5goQyjmwRw&utm_campaign=yelp_api_v3&utm_medium=api_v3_business_search&utm_source=hBJOknVQJ58S5goQyjmwRw", "review_count": 52, "categories": [{"alias": "italian", "title": "Italian"}], "rating": 4.5, "coordinates": {"latitude": 53.61049, "longitude": 10.0740025}, "transactions": [], "price": "\u20ac\u20ac\u20ac", "location": {"address1": "Bramfelder Chaussee 212", "address2": "", "address3": "", "city": "Hamburg", "zip_code": "22177", "country": "DE", "state": "HH", "display_address": ["Bramfelder Chaussee 212", "22177 Hamburg", "Germany"]}, "phone": "+494063975061", "display_phone": "+49 40 63975061", "distance": 3989.4844066302144}, {"id": "Xap__prvefRHXYZgqBofaA", "alias": "balducci-hamburg", "name": "Balducci", "image_url": "https://s3-media3.fl.yelpcdn.com/bphoto/7OMvG4PYf_rBzgIseSIuzQ/o.jpg", "is_closed": false, "url": "https://www.yelp.com/biz/balducci-hamburg?adjust_creative=hBJOknVQJ58S5goQyjmwRw&utm_campaign=yelp_api_v3&utm_medium=api_v3_business_search&utm_source=hBJOknVQJ58S5goQyjmwRw", "review_count": 36, "categories": [{"alias": "italian", "title": "Italian"}, {"alias": "bistros", "title": "Bistros"}, {"alias": "cafes", "title": "Cafes"}], "rating": 4.0, "coordinates": {"latitude": 53.654972987359, "longitude": 10.092545242212}, "transactions": [], "price": "\u20ac\u20ac", "location": {"address1": "Heegbarg 31", "address2": "", "address3": null, "city": "Hamburg", "zip_code": "22391", "country": "DE", "state": "HH", "display_address": ["Heegbarg 31", "22391 Hamburg", "Germany"]}, "phone": "+494061192691", "display_phone": "+49 40 61192691", "distance": 1127.3652328358864}, {"id": "xjwhjFbA1w_827KMdMxPfw", "alias": "cha-ch\u00e3-hamburg-5", "name": "cha ch\u00e3", "image_url": "https://s3-media2.fl.yelpcdn.com/bphoto/CN6g2h2xSayvxaSURYHRZw/o.jpg", "is_closed": false, "url": "https://www.yelp.com/biz/cha-ch%C3%A3-hamburg-5?adjust_creative=hBJOknVQJ58S5goQyjmwRw&utm_campaign=yelp_api_v3&utm_medium=api_v3_business_search&utm_source=hBJOknVQJ58S5goQyjmwRw", "review_count": 17, "categories": [{"alias": "thai", "title": "Thai"}], "rating": 4.0, "coordinates": {"latitude": 53.654385, "longitude": 10.090829}, "transactions": [], "price": "\u20ac\u20ac", "location": {"address1": "Heegbarg 31", "address2": "", "address3": "", "city": "Hamburg", "zip_code": "22391", "country": "DE", "state": "HH", "display_address": ["Heegbarg 31", "22391 Hamburg", "Germany"]}, "phone": "+494065993795", "display_phone": "+49 40 65993795", "distance": 1059.917521758941}, {"id": "iuPJKyKtsjHryy0xnZG4CA", "alias": "mazza-hamburg-3", "name": "Mazza", "image_url": "https://s3-media2.fl.yelpcdn.com/bphoto/5NCsz4dUUqIaLQQb-lrhPQ/o.jpg", "is_closed": false, "url": "https://www.yelp.com/biz/mazza-hamburg-3?adjust_creative=hBJOknVQJ58S5goQyjmwRw&utm_campaign=yelp_api_v3&utm_medium=api_v3_business_search&utm_source=hBJOknVQJ58S5goQyjmwRw", "review_count": 17, "categories": [{"alias": "oriental", "title": "Oriental"}, {"alias": "syrian", "title": "Syrian"}], "rating": 4.0, "coordinates": {"latitude": 53.6582646278701, "longitude": 10.0855578650344}, "transactions": [], "price": "\u20ac\u20ac\u20ac", "location": {"address1": "Poppenb\u00fctteler Weg 236", "address2": "", "address3": "", "city": "Hamburg", "zip_code": "22399", "country": "DE", "state": "HH", "display_address": ["Poppenb\u00fctteler Weg 236", "22399 Hamburg", "Germany"]}, "phone": "+494060878240", "display_phone": "+49 40 60878240", "distance": 1539.1331155943901}, {"id": "ttHhNqy1or8gL8bFyC19uQ", "alias": "der-gyros-spezialist-hamburg", "name": "Der Gyros-Spezialist", "image_url": "https://s3-media4.fl.yelpcdn.com/bphoto/hIO-FDqfRZGybl--b3V2UA/o.jpg", "is_closed": false, "url": "https://www.yelp.com/biz/der-gyros-spezialist-hamburg?adjust_creative=hBJOknVQJ58S5goQyjmwRw&utm_campaign=yelp_api_v3&utm_medium=api_v3_business_search&utm_source=hBJOknVQJ58S5goQyjmwRw", "review_count": 87, "categories": [{"alias": "greek", "title": "Greek"}], "rating": 4.5, "coordinates": {"latitude": 53.62113, "longitude": 10.10274}, "transactions": [], "price": "\u20ac\u20ac", "location": {"address1": "Pezolddamm 45", "address2": "", "address3": "", "city": "Hamburg", "zip_code": "22175", "country": "DE", "state": "HH", "display_address": ["Pezolddamm 45", "22175 Hamburg", "Germany"]}, "phone": "+49406434946", "display_phone": "+49 40 6434946", "distance": 2740.0038275795478}, {"id": "pfIlDu9lscJcPY7UWGiq5A", "alias": "gastst\u00e4tte-zum-krombacher-hamburg", "name": "Gastst\u00e4tte Zum Krombacher", "image_url": "https://s3-media4.fl.yelpcdn.com/bphoto/aCdhDL4qJan_zjn5oPMCXA/o.jpg", "is_closed": false, "url": "https://www.yelp.com/biz/gastst%C3%A4tte-zum-krombacher-hamburg?adjust_creative=hBJOknVQJ58S5goQyjmwRw&utm_campaign=yelp_api_v3&utm_medium=api_v3_business_search&utm_source=hBJOknVQJ58S5goQyjmwRw", "review_count": 4, "categories": [{"alias": "restaurants", "title": "Restaurants"}], "rating": 4.0, "coordinates": {"latitude": 53.6395, "longitude": 10.0856}, "transactions": [], "location": {"address1": "Classenweg 1A", "address2": null, "address3": null, "city": "Hamburg", "zip_code": "22391", "country": "DE", "state": "HH", "display_address": ["Classenweg 1A", "22391 Hamburg", "Germany"]}, "phone": "+49405361881", "display_phone": "+49 40 5361881", "distance": 706.8576193147858}, {"id": "-m1Qdq2cvGbvqSOYhZ3jCg", "alias": "trattoria-l-aurora-hamburg", "name": "Trattoria L'Aurora", "image_url": "", "is_closed": false, "url": "https://www.yelp.com/biz/trattoria-l-aurora-hamburg?adjust_creative=hBJOknVQJ58S5goQyjmwRw&utm_campaign=yelp_api_v3&utm_medium=api_v3_business_search&utm_source=hBJOknVQJ58S5goQyjmwRw", "review_count": 3, "categories": [{"alias": "italian", "title": "Italian"}], "rating": 4.0, "coordinates": {"latitude": 53.63388, "longitude": 10.09037}, "transactions": [], "price": "\u20ac\u20ac", "location": {"address1": "Saseler Chaussee 5", "address2": "", "address3": null, "city": "Hamburg", "zip_code": "22391", "country": "DE", "state": "HH", "display_address": ["Saseler Chaussee 5", "22391 Hamburg", "Germany"]}, "phone": "+494049200859", "display_phone": "+49 40 49200859", "distance": 1222.0125489589436}, {"id": "VbKiVGP2cCppm1x1ez_bBg", "alias": "san-daniele-hamburg", "name": "San Daniele", "image_url": "https://s3-media1.fl.yelpcdn.com/bphoto/wzgPp1VLVtYHabRYDzL22A/o.jpg", "is_closed": false, "url": "https://www.yelp.com/biz/san-daniele-hamburg?adjust_creative=hBJOknVQJ58S5goQyjmwRw&utm_campaign=yelp_api_v3&utm_medium=api_v3_business_search&utm_source=hBJOknVQJ58S5goQyjmwRw", "review_count": 43, "categories": [{"alias": "italian", "title": "Italian"}], "rating": 4.0, "coordinates": {"latitude": 53.6638351834504, "longitude": 10.0749372835047}, "transactions": [], "price": "\u20ac\u20ac\u20ac", "location": {"address1": "Langenhorner Stra\u00dfe-Ost 7", "address2": "", "address3": "", "city": "Hamburg", "zip_code": "22399", "country": "DE", "state": "HH", "display_address": ["Langenhorner Stra\u00dfe-Ost 7", "22399 Hamburg", "Germany"]}, "phone": "+494061164693", "display_phone": "+49 40 61164693", "distance": 2371.773311750083}, {"id": "fAQL7j7udJXG7lmU7PHzJQ", "alias": "restaurant-hellas-hamburg-2", "name": "Restaurant Hellas", "image_url": "https://s3-media1.fl.yelpcdn.com/bphoto/eueMnGjWpKm5_hRq4iFWWg/o.jpg", "is_closed": false, "url": "https://www.yelp.com/biz/restaurant-hellas-hamburg-2?adjust_creative=hBJOknVQJ58S5goQyjmwRw&utm_campaign=yelp_api_v3&utm_medium=api_v3_business_search&utm_source=hBJOknVQJ58S5goQyjmwRw", "review_count": 22, "categories": [{"alias": "greek", "title": "Greek"}], "rating": 4.5, "coordinates": {"latitude": 53.62471, "longitude": 10.09919}, "transactions": [], "price": "\u20ac\u20ac", "location": {"address1": "Am St\u00fchm-S\u00fcd 86", "address2": null, "address3": null, "city": "Hamburg", "zip_code": "22175", "country": "DE", "state": "HH", "display_address": ["Am St\u00fchm-S\u00fcd 86", "22175 Hamburg", "Germany"]}, "phone": "+49406409546", "display_phone": "+49 40 6409546", "distance": 2299.6776952828823}, {"id": "UTJZ3y5MpyODzQC61PpiMg", "alias": "mr-asia-hamburg", "name": "Mr. Asia", "image_url": "https://s3-media4.fl.yelpcdn.com/bphoto/IqCskPcuIlWk1BpRfgwrXw/o.jpg", "is_closed": false, "url": "https://www.yelp.com/biz/mr-asia-hamburg?adjust_creative=hBJOknVQJ58S5goQyjmwRw&utm_campaign=yelp_api_v3&utm_medium=api_v3_business_search&utm_source=hBJOknVQJ58S5goQyjmwRw", "review_count": 22, "categories": [{"alias": "panasian", "title": "Pan Asian"}], "rating": 4.5, "coordinates": {"latitude": 53.62137, "longitude": 10.08228}, "transactions": [], "price": "\u20ac\u20ac", "location": {"address1": "Bramfelder Chaussee 373", "address2": null, "address3": null, "city": "Hamburg", "zip_code": "22175", "country": "DE", "state": "HH", "display_address": ["Bramfelder Chaussee 373", "22175 Hamburg", "Germany"]}, "phone": "+494063648189", "display_phone": "+49 40 63648189", "distance": 2680.1134318480276}, {"id": "GhYjVVk2Ew9GzaKrZIaVHA", "alias": "kr\u00f6gers-gasthaus-hamburg", "name": "Kr\u00f6ger's Gasthaus", "image_url": "https://s3-media1.fl.yelpcdn.com/bphoto/gevSZH7AAUrl41f9FmEzjg/o.jpg", "is_closed": false, "url": "https://www.yelp.com/biz/kr%C3%B6gers-gasthaus-hamburg?adjust_creative=hBJOknVQJ58S5goQyjmwRw&utm_campaign=yelp_api_v3&utm_medium=api_v3_business_search&utm_source=hBJOknVQJ58S5goQyjmwRw", "review_count": 28, "categories": [{"alias": "german", "title": "German"}], "rating": 4.0, "coordinates": {"latitude": 53.6757, "longitude": 10.09346}, "transactions": [], "price": "\u20ac\u20ac", "location": {"address1": "Lemsahler Landstr. 80", "address2": "", "address3": "", "city": "Hamburg", "zip_code": "22397", "country": "DE", "state": "HH", "display_address": ["Lemsahler Landstr. 80", "22397 Hamburg", "Germany"]}, "phone": "+49406083434", "display_phone": "+49 40 6083434", "distance": 3431.250400306442}, {"id": "OA35RtLMB9BiDiKiCcb5Mw", "alias": "the-locks-hamburg", "name": "The Locks", "image_url": "https://s3-media4.fl.yelpcdn.com/bphoto/p-uNr1rP23jAz01r4gwO_w/o.jpg", "is_closed": false, "url": "https://www.yelp.com/biz/the-locks-hamburg?adjust_creative=hBJOknVQJ58S5goQyjmwRw&utm_campaign=yelp_api_v3&utm_medium=api_v3_business_search&utm_source=hBJOknVQJ58S5goQyjmwRw", "review_count": 109, "categories": [{"alias": "german", "title": "German"}, {"alias": "lounges", "title": "Lounges"}], "rating": 3.5, "coordinates": {"latitude": 53.6573, "longitude": 10.0868}, "transactions": [], "price": "\u20ac\u20ac\u20ac", "location": {"address1": "Marienhof 6", "address2": null, "address3": null, "city": "Hamburg", "zip_code": "22399", "country": "DE", "state": "HH", "display_address": ["Marienhof 6", "22399 Hamburg", "Germany"]}, "phone": "+49406116600", "display_phone": "+49 40 6116600", "distance": 1415.851920075258}, {"id": "WE6UsqnejN_pI8RqorUf3w", "alias": "hollywood-canteen-hamburg-4", "name": "Hollywood Canteen", "image_url": "https://s3-media1.fl.yelpcdn.com/bphoto/KgmZiFzfqRDPvS54Y1pKyA/o.jpg", "is_closed": false, "url": "https://www.yelp.com/biz/hollywood-canteen-hamburg-4?adjust_creative=hBJOknVQJ58S5goQyjmwRw&utm_campaign=yelp_api_v3&utm_medium=api_v3_business_search&utm_source=hBJOknVQJ58S5goQyjmwRw", "review_count": 58, "categories": [{"alias": "burgers", "title": "Burgers"}, {"alias": "hotdogs", "title": "Fast Food"}], "rating": 4.0, "coordinates": {"latitude": 53.60642, "longitude": 10.07076}, "transactions": [], "price": "\u20ac\u20ac", "location": {"address1": "Bramfelder Chaussee 165", "address2": "", "address3": "", "city": "Hamburg", "zip_code": "22177", "country": "DE", "state": "HH", "display_address": ["Bramfelder Chaussee 165", "22177 Hamburg", "Germany"]}, "phone": "+494063689687", "display_phone": "+49 40 63689687", "distance": 4486.879216609066}, {"id": "ROegP6L_8oMnoGX-kFqm_g", "alias": "edo-d\u00f6ner-haus-hamburg", "name": "Edo D\u00f6ner Haus", "image_url": "https://s3-media2.fl.yelpcdn.com/bphoto/V0X_-EmDBAZ8zGzR0I33Kg/o.jpg", "is_closed": false, "url": "https://www.yelp.com/biz/edo-d%C3%B6ner-haus-hamburg?adjust_creative=hBJOknVQJ58S5goQyjmwRw&utm_campaign=yelp_api_v3&utm_medium=api_v3_business_search&utm_source=hBJOknVQJ58S5goQyjmwRw", "review_count": 1, "categories": [{"alias": "kebab", "title": "Kebab"}], "rating": 5.0, "coordinates": {"latitude": 53.6170878174613, "longitude": 10.0780570275054}, "transactions": [], "price": "\u20ac", "location": {"address1": "Bramfelder Chaussee 296", "address2": "", "address3": "", "city": "Hamburg", "zip_code": "22177", "country": "DE", "state": "HH", "display_address": ["Bramfelder Chaussee 296", "22177 Hamburg", "Germany"]}, "phone": "+494036905425", "display_phone": "+49 40 36905425", "distance": 3210.2731333542724}, {"id": "RUREwsfo-PdltbxOndaHrQ", "alias": "thai-china-wok-hamburg", "name": "Thai China Wok", "image_url": "https://s3-media2.fl.yelpcdn.com/bphoto/-VjH3B8ZXVKxNrAGNHdwVg/o.jpg", "is_closed": false, "url": "https://www.yelp.com/biz/thai-china-wok-hamburg?adjust_creative=hBJOknVQJ58S5goQyjmwRw&utm_campaign=yelp_api_v3&utm_medium=api_v3_business_search&utm_source=hBJOknVQJ58S5goQyjmwRw", "review_count": 8, "categories": [{"alias": "panasian", "title": "Pan Asian"}], "rating": 4.0, "coordinates": {"latitude": 53.6462, "longitude": 10.0871}, "transactions": [], "price": "\u20ac", "location": {"address1": "Wellingsb\u00fcttler Landstr. 1", "address2": null, "address3": null, "city": "Hamburg", "zip_code": "22337", "country": "DE", "state": "HH", "display_address": ["Wellingsb\u00fcttler Landstr. 1", "22337 Hamburg", "Germany"]}, "phone": "+494050048724", "display_phone": "+49 40 50048724", "distance": 318.52692742496913}, {"id": "wQXci5HPimPT00Ub1oHRTA", "alias": "shin-shin-hamburg", "name": "Shin Shin", "image_url": "https://s3-media1.fl.yelpcdn.com/bphoto/AmnCNLLIqKxbmb1JjlfkVA/o.jpg", "is_closed": false, "url": "https://www.yelp.com/biz/shin-shin-hamburg?adjust_creative=hBJOknVQJ58S5goQyjmwRw&utm_campaign=yelp_api_v3&utm_medium=api_v3_business_search&utm_source=hBJOknVQJ58S5goQyjmwRw", "review_count": 60, "categories": [{"alias": "chinese", "title": "Chinese"}], "rating": 3.5, "coordinates": {"latitude": 53.6599219019676, "longitude": 10.1155304326125}, "transactions": [], "price": "\u20ac\u20ac", "location": {"address1": "Saseler Chaussee 254", "address2": null, "address3": null, "city": "Hamburg", "zip_code": "22393", "country": "DE", "state": "HH", "display_address": ["Saseler Chaussee 254", "22393 Hamburg", "Germany"]}, "phone": "+49406019064", "display_phone": "+49 40 6019064", "distance": 2311.0474318656825}, {"id": "dZbaKFMEP7PF2_2bDg09ag", "alias": "mellinghus-hamburg", "name": "Mellinghus", "image_url": "https://s3-media2.fl.yelpcdn.com/bphoto/Rnfp4aFKm8fXD30Yp8J85A/o.jpg", "is_closed": false, "url": "https://www.yelp.com/biz/mellinghus-hamburg?adjust_creative=hBJOknVQJ58S5goQyjmwRw&utm_campaign=yelp_api_v3&utm_medium=api_v3_business_search&utm_source=hBJOknVQJ58S5goQyjmwRw", "review_count": 20, "categories": [{"alias": "wine_bars", "title": "Wine Bars"}, {"alias": "german", "title": "German"}], "rating": 4.0, "coordinates": {"latitude": 53.66855, "longitude": 10.09151}, "transactions": [], "price": "\u20ac\u20ac\u20ac", "location": {"address1": "An der Alsterschleife 2", "address2": "", "address3": "", "city": "Hamburg", "zip_code": "22399", "country": "DE", "state": "HH", "display_address": ["An der Alsterschleife 2", "22399 Hamburg", "Germany"]}, "phone": "+49406064838", "display_phone": "+49 40 6064838", "distance": 2633.983609306135}, {"id": "2deFmFk6cJxy7vdJ2TQkxA", "alias": "sushi-yama-hamburg-2", "name": "Sushi Yama", "image_url": "https://s3-media3.fl.yelpcdn.com/bphoto/Ric3T9qNstw8fwEdG17oMQ/o.jpg", "is_closed": false, "url": "https://www.yelp.com/biz/sushi-yama-hamburg-2?adjust_creative=hBJOknVQJ58S5goQyjmwRw&utm_campaign=yelp_api_v3&utm_medium=api_v3_business_search&utm_source=hBJOknVQJ58S5goQyjmwRw", "review_count": 15, "categories": [{"alias": "sushi", "title": "Sushi Bars"}], "rating": 4.5, "coordinates": {"latitude": 53.65393, "longitude": 10.09115}, "transactions": [], "price": "\u20ac\u20ac", "location": {"address1": "Heegbarg 31", "address2": "", "address3": null, "city": "Hamburg", "zip_code": "22391", "country": "DE", "state": "HH", "display_address": ["Heegbarg 31", "22391 Hamburg", "Germany"]}, "phone": "+494069211980", "display_phone": "+49 40 69211980", "distance": 989.329591580996}, {"id": "zvZGazCk353WSug_HeIUNg", "alias": "flammkuchentraum-hamburg", "name": "Flammkuchentraum", "image_url": "https://s3-media2.fl.yelpcdn.com/bphoto/IcM1NsnHFGFL6BUA1T1Y3A/o.jpg", "is_closed": false, "url": "https://www.yelp.com/biz/flammkuchentraum-hamburg?adjust_creative=hBJOknVQJ58S5goQyjmwRw&utm_campaign=yelp_api_v3&utm_medium=api_v3_business_search&utm_source=hBJOknVQJ58S5goQyjmwRw", "review_count": 5, "categories": [{"alias": "german", "title": "German"}, {"alias": "cafes", "title": "Cafes"}], "rating": 4.0, "coordinates": {"latitude": 53.686791, "longitude": 10.094547}, "transactions": [], "price": "\u20ac\u20ac", "location": {"address1": "Lemsahler Landstr. 195", "address2": "", "address3": "", "city": "Hamburg", "zip_code": "22397", "country": "DE", "state": "HH", "display_address": ["Lemsahler Landstr. 195", "22397 Hamburg", "Germany"]}, "phone": "+494084892373", "display_phone": "+49 40 84892373", "distance": 4661.437721155758}, {"id": "j83Ua1NqVDfr_jLo3EMIlA", "alias": "caf\u00e9-pause-hamburg-5", "name": "Caf\u00e9 Pause", "image_url": "https://s3-media1.fl.yelpcdn.com/bphoto/O0-JRfhhsJczYdsxPedX-w/o.jpg", "is_closed": false, "url": "https://www.yelp.com/biz/caf%C3%A9-pause-hamburg-5?adjust_creative=hBJOknVQJ58S5goQyjmwRw&utm_campaign=yelp_api_v3&utm_medium=api_v3_business_search&utm_source=hBJOknVQJ58S5goQyjmwRw", "review_count": 1, "categories": [{"alias": "cafes", "title": "Cafes"}], "rating": 5.0, "coordinates": {"latitude": 53.6546156269338, "longitude": 10.1097825542092}, "transactions": [], "location": {"address1": "Sasel-Haus", "address2": "Saseler Parkweg 3", "address3": "", "city": "Hamburg", "zip_code": "22393", "country": "DE", "state": "HH", "display_address": ["Sasel-Haus", "Saseler Parkweg 3", "22393 Hamburg", "Germany"]}, "phone": "+491748004001", "display_phone": "+49 174 8004001", "distance": 1627.833307620609}, {"id": "MsmXXwUr9HGCdeLEXEF_3Q", "alias": "schnoors-hamburg", "name": "Schnoor's", "image_url": "https://s3-media2.fl.yelpcdn.com/bphoto/XUNae9EiZsEJM3P52l7m9A/o.jpg", "is_closed": false, "url": "https://www.yelp.com/biz/schnoors-hamburg?adjust_creative=hBJOknVQJ58S5goQyjmwRw&utm_campaign=yelp_api_v3&utm_medium=api_v3_business_search&utm_source=hBJOknVQJ58S5goQyjmwRw", "review_count": 6, "categories": [{"alias": "modern_european", "title": "Modern European"}, {"alias": "beergarden", "title": "Beer Garden"}], "rating": 2.0, "coordinates": {"latitude": 53.63869, "longitude": 10.1065}, "transactions": [], "price": "\u20ac\u20ac", "location": {"address1": "Donauweg 2", "address2": null, "address3": null, "city": "Hamburg", "zip_code": "22359", "country": "DE", "state": "HH", "display_address": ["Donauweg 2", "22359 Hamburg", "Germany"]}, "phone": "+494064941030", "display_phone": "+49 40 64941030", "distance": 1210.4650171720123}, {"id": "sSIvrC1bY2hHZs7nx6zJeQ", "alias": "pizza-tree-hamburg", "name": "Pizza Tree", "image_url": "https://s3-media2.fl.yelpcdn.com/bphoto/Q1l_gVNGuu2rjPWL4bXbgw/o.jpg", "is_closed": false, "url": "https://www.yelp.com/biz/pizza-tree-hamburg?adjust_creative=hBJOknVQJ58S5goQyjmwRw&utm_campaign=yelp_api_v3&utm_medium=api_v3_business_search&utm_source=hBJOknVQJ58S5goQyjmwRw", "review_count": 2, "categories": [{"alias": "pizza", "title": "Pizza"}, {"alias": "salad", "title": "Salad"}, {"alias": "burgers", "title": "Burgers"}], "rating": 3.5, "coordinates": {"latitude": 53.62549, "longitude": 10.11434}, "transactions": [], "location": {"address1": "Stefan-Zweig-Str. 1", "address2": "", "address3": null, "city": "Hamburg", "zip_code": "22175", "country": "DE", "state": "HH", "display_address": ["Stefan-Zweig-Str. 1", "22175 Hamburg", "Germany"]}, "phone": "+494073677223", "display_phone": "+49 40 73677223", "distance": 2626.4592398450463}, {"id": "c3W3dGZPa7ypn3dK9Egnuw", "alias": "trattoria-mondello-hamburg", "name": "Trattoria Mondello", "image_url": "https://s3-media1.fl.yelpcdn.com/bphoto/3wCpzWG0GuIRb2henRPbaw/o.jpg", "is_closed": false, "url": "https://www.yelp.com/biz/trattoria-mondello-hamburg?adjust_creative=hBJOknVQJ58S5goQyjmwRw&utm_campaign=yelp_api_v3&utm_medium=api_v3_business_search&utm_source=hBJOknVQJ58S5goQyjmwRw", "review_count": 1, "categories": [{"alias": "italian", "title": "Italian"}], "rating": 1.0, "coordinates": {"latitude": 53.66567, "longitude": 10.07862}, "transactions": [], "price": "\u20ac", "location": {"address1": "Kramer-Kray-Weg 1", "address2": "", "address3": null, "city": "Hamburg", "zip_code": "22399", "country": "DE", "state": "HH", "display_address": ["Kramer-Kray-Weg 1", "22399 Hamburg", "Germany"]}, "phone": "+49406021835", "display_phone": "+49 40 6021835", "distance": 2473.778255729282}, {"id": "jAog6reofXxNtjjvEn_gQA", "alias": "asia-wok-hamburg-4", "name": "Asia Wok", "image_url": "https://s3-media4.fl.yelpcdn.com/bphoto/e7-z1ZsXkMjO12pVsnUwDQ/o.jpg", "is_closed": false, "url": "https://www.yelp.com/biz/asia-wok-hamburg-4?adjust_creative=hBJOknVQJ58S5goQyjmwRw&utm_campaign=yelp_api_v3&utm_medium=api_v3_business_search&utm_source=hBJOknVQJ58S5goQyjmwRw", "review_count": 8, "categories": [{"alias": "panasian", "title": "Pan Asian"}], "rating": 4.0, "coordinates": {"latitude": 53.6230931, "longitude": 10.0843982}, "transactions": [], "price": "\u20ac\u20ac", "location": {"address1": "Bramfelder Chaussee 390", "address2": "", "address3": "", "city": "Hamburg", "zip_code": "22175", "country": "DE", "state": "HH", "display_address": ["Bramfelder Chaussee 390", "22175 Hamburg", "Germany"]}, "phone": "+494023848426", "display_phone": "+49 40 23848426", "distance": 2463.439141559671}, {"id": "Xop8tuUgi1wWhZ2UNo8I9Q", "alias": "restaurant-mellingburger-schleuse-hamburg", "name": "Restaurant Mellingburger Schleuse", "image_url": "https://s3-media2.fl.yelpcdn.com/bphoto/ihfZ5LheEmuWRPg8-kqSVw/o.jpg", "is_closed": false, "url": "https://www.yelp.com/biz/restaurant-mellingburger-schleuse-hamburg?adjust_creative=hBJOknVQJ58S5goQyjmwRw&utm_campaign=yelp_api_v3&utm_medium=api_v3_business_search&utm_source=hBJOknVQJ58S5goQyjmwRw", "review_count": 5, "categories": [{"alias": "german", "title": "German"}], "rating": 4.0, "coordinates": {"latitude": 53.66999, "longitude": 10.09828}, "transactions": [], "location": {"address1": "Mellingburgredder 1", "address2": "", "address3": "", "city": "Hamburg", "zip_code": "22395", "country": "DE", "state": "HH", "display_address": ["Mellingburgredder 1", "22395 Hamburg", "Germany"]}, "phone": "+49406024001", "display_phone": "+49 40 6024001", "distance": 2704.375102486392}, {"id": "pTqNN8gynd9Ry9r34kPn7g", "alias": "trattoria-ciao-hamburg", "name": "Trattoria Ciao", "image_url": "https://s3-media2.fl.yelpcdn.com/bphoto/cYSP7OP0ikqG22WOiCwQBQ/o.jpg", "is_closed": false, "url": "https://www.yelp.com/biz/trattoria-ciao-hamburg?adjust_creative=hBJOknVQJ58S5goQyjmwRw&utm_campaign=yelp_api_v3&utm_medium=api_v3_business_search&utm_source=hBJOknVQJ58S5goQyjmwRw", "review_count": 7, "categories": [{"alias": "italian", "title": "Italian"}], "rating": 4.0, "coordinates": {"latitude": 53.61522, "longitude": 10.07596}, "transactions": [], "price": "\u20ac\u20ac", "location": {"address1": "Bramfelder Chaussee 265", "address2": null, "address3": null, "city": "Hamburg", "zip_code": "22179", "country": "DE", "state": "HH", "display_address": ["Bramfelder Chaussee 265", "22179 Hamburg", "Germany"]}, "phone": "+494070704727", "display_phone": "+49 40 70704727", "distance": 3448.7063976539043}, {"id": "8Hj7wbmTyoNr8OmYj_AUYA", "alias": "argentina-steak-house-hamburg", "name": "Argentina Steak-House", "image_url": "https://s3-media3.fl.yelpcdn.com/bphoto/iOt_pvp8kgqMDIRIh4X7yQ/o.jpg", "is_closed": false, "url": "https://www.yelp.com/biz/argentina-steak-house-hamburg?adjust_creative=hBJOknVQJ58S5goQyjmwRw&utm_campaign=yelp_api_v3&utm_medium=api_v3_business_search&utm_source=hBJOknVQJ58S5goQyjmwRw", "review_count": 40, "categories": [{"alias": "steak", "title": "Steakhouses"}], "rating": 3.5, "coordinates": {"latitude": 53.64447, "longitude": 10.09971}, "transactions": [], "price": "\u20ac\u20ac", "location": {"address1": "Saseler Chaussee 111", "address2": "", "address3": "", "city": "Hamburg", "zip_code": "22393", "country": "DE", "state": "HH", "display_address": ["Saseler Chaussee 111", "22393 Hamburg", "Germany"]}, "phone": "+494053889849", "display_phone": "+49 40 53889849", "distance": 549.854285217432}, {"id": "fDjbjPgV_zKK2FE_B3WV-w", "alias": "cordoba-steakhouse-hamburg-2", "name": "Cordoba Steakhouse", "image_url": "https://s3-media3.fl.yelpcdn.com/bphoto/C2IbSkglz3GdSHUcUxxeYg/o.jpg", "is_closed": false, "url": "https://www.yelp.com/biz/cordoba-steakhouse-hamburg-2?adjust_creative=hBJOknVQJ58S5goQyjmwRw&utm_campaign=yelp_api_v3&utm_medium=api_v3_business_search&utm_source=hBJOknVQJ58S5goQyjmwRw", "review_count": 7, "categories": [{"alias": "steak", "title": "Steakhouses"}], "rating": 4.0, "coordinates": {"latitude": 53.6143002252379, "longitude": 10.0767598673701}, "transactions": [], "location": {"address1": "Bramfelder Dorfplatz 3", "address2": "", "address3": null, "city": "Hamburg", "zip_code": "22179", "country": "DE", "state": "HH", "display_address": ["Bramfelder Dorfplatz 3", "22179 Hamburg", "Germany"]}, "phone": "+494054001755", "display_phone": "+49 40 54001755", "distance": 3531.822835812942}, {"id": "A_7ZqlDuXYrJAZRWKlVL8g", "alias": "block-house-hamburg-14", "name": "Block House", "image_url": "https://s3-media1.fl.yelpcdn.com/bphoto/YQs8EpfQzuyTc5o7PygpBQ/o.jpg", "is_closed": false, "url": "https://www.yelp.com/biz/block-house-hamburg-14?adjust_creative=hBJOknVQJ58S5goQyjmwRw&utm_campaign=yelp_api_v3&utm_medium=api_v3_business_search&utm_source=hBJOknVQJ58S5goQyjmwRw", "review_count": 63, "categories": [{"alias": "steak", "title": "Steakhouses"}], "rating": 3.5, "coordinates": {"latitude": 53.6548262502964, "longitude": 10.0932026087461}, "transactions": [], "price": "\u20ac\u20ac\u20ac", "location": {"address1": "Heegbarg 32", "address2": "", "address3": null, "city": "Hamburg", "zip_code": "22391", "country": "DE", "state": "HH", "display_address": ["Heegbarg 32", "22391 Hamburg", "Germany"]}, "phone": "+49406020804", "display_phone": "+49 40 6020804", "distance": 1114.9472391595184}, {"id": "1hLPAeM3oLca7HRh43YqxQ", "alias": "gzeiten-hamburg-2", "name": "Gzeiten", "image_url": "https://s3-media4.fl.yelpcdn.com/bphoto/lQediVi2YpcrLPv8oago8w/o.jpg", "is_closed": false, "url": "https://www.yelp.com/biz/gzeiten-hamburg-2?adjust_creative=hBJOknVQJ58S5goQyjmwRw&utm_campaign=yelp_api_v3&utm_medium=api_v3_business_search&utm_source=hBJOknVQJ58S5goQyjmwRw", "review_count": 77, "categories": [{"alias": "international", "title": "International"}], "rating": 3.5, "coordinates": {"latitude": 53.6176245, "longitude": 10.0788059}, "transactions": [], "price": "\u20ac\u20ac", "location": {"address1": "Bramfelder Chaussee 302", "address2": "", "address3": "", "city": "Hamburg", "zip_code": "22177", "country": "DE", "state": "HH", "display_address": ["Bramfelder Chaussee 302", "22177 Hamburg", "Germany"]}, "phone": "+494063974619", "display_phone": "+49 40 63974619", "distance": 3139.5228892247924}, {"id": "xRr5Ejy2Mc6wInLGKRszdQ", "alias": "schweinske-hamburg-18", "name": "Schweinske", "image_url": "https://s3-media3.fl.yelpcdn.com/bphoto/teoVO2qU9e-Mim6xJ_vbaA/o.jpg", "is_closed": false, "url": "https://www.yelp.com/biz/schweinske-hamburg-18?adjust_creative=hBJOknVQJ58S5goQyjmwRw&utm_campaign=yelp_api_v3&utm_medium=api_v3_business_search&utm_source=hBJOknVQJ58S5goQyjmwRw", "review_count": 57, "categories": [{"alias": "german", "title": "German"}], "rating": 4.0, "coordinates": {"latitude": 53.61644, "longitude": 10.0774}, "transactions": [], "price": "\u20ac", "location": {"address1": "Bramfelder Chaussee 280", "address2": null, "address3": null, "city": "Hamburg", "zip_code": "22177", "country": "DE", "state": "HH", "display_address": ["Bramfelder Chaussee 280", "22177 Hamburg", "Germany"]}, "phone": "+494064220580", "display_phone": "+49 40 64220580", "distance": 3293.696258618804}, {"id": "rcTfSrJfwIFmC3YTBTTUqg", "alias": "kelms-k\u00fcche-hamburg", "name": "Kelm's K\u00fcche", "image_url": "https://s3-media3.fl.yelpcdn.com/bphoto/LlSfqAiHQyljwIp5MTYp_Q/o.jpg", "is_closed": false, "url": "https://www.yelp.com/biz/kelms-k%C3%BCche-hamburg?adjust_creative=hBJOknVQJ58S5goQyjmwRw&utm_campaign=yelp_api_v3&utm_medium=api_v3_business_search&utm_source=hBJOknVQJ58S5goQyjmwRw", "review_count": 18, "categories": [{"alias": "currysausage", "title": "Curry Sausage"}, {"alias": "sandwiches", "title": "Sandwiches"}], "rating": 4.0, "coordinates": {"latitude": 53.6195, "longitude": 10.0805}, "transactions": [], "price": "\u20ac", "location": {"address1": "Bramfelder Chaussee 345", "address2": null, "address3": null, "city": "Hamburg", "zip_code": "22175", "country": "DE", "state": "HH", "display_address": ["Bramfelder Chaussee 345", "22175 Hamburg", "Germany"]}, "phone": "+49406412045", "display_phone": "+49 40 6412045", "distance": 2909.3673432887163}, {"id": "tSKYzaFFS5n_IyA4B08gwA", "alias": "eiscuisine-hamburg", "name": "Eiscuisine", "image_url": "https://s3-media4.fl.yelpcdn.com/bphoto/9F86yyioKX_cTF6Db5s_Sw/o.jpg", "is_closed": false, "url": "https://www.yelp.com/biz/eiscuisine-hamburg?adjust_creative=hBJOknVQJ58S5goQyjmwRw&utm_campaign=yelp_api_v3&utm_medium=api_v3_business_search&utm_source=hBJOknVQJ58S5goQyjmwRw", "review_count": 8, "categories": [{"alias": "icecream", "title": "Ice Cream & Frozen Yogurt"}, {"alias": "bistros", "title": "Bistros"}], "rating": 4.5, "coordinates": {"latitude": 53.64035, "longitude": 10.08292}, "transactions": [], "price": "\u20ac\u20ac", "location": {"address1": "Rolfinckstr. 12 a", "address2": "", "address3": "", "city": "Hamburg", "zip_code": "22391", "country": "DE", "state": "HH", "display_address": ["Rolfinckstr. 12 a", "22391 Hamburg", "Germany"]}, "phone": "+494052733011", "display_phone": "+49 40 52733011", "distance": 749.3580502785937}, {"id": "NQtPhmPtbN8maujHJJSBgQ", "alias": "athena-grill-hamburg-2", "name": "Athena Grill", "image_url": "https://s3-media4.fl.yelpcdn.com/bphoto/VHFz_KRTwuW5-2G4Fp8XsQ/o.jpg", "is_closed": false, "url": "https://www.yelp.com/biz/athena-grill-hamburg-2?adjust_creative=hBJOknVQJ58S5goQyjmwRw&utm_campaign=yelp_api_v3&utm_medium=api_v3_business_search&utm_source=hBJOknVQJ58S5goQyjmwRw", "review_count": 15, "categories": [{"alias": "greek", "title": "Greek"}], "rating": 4.5, "coordinates": {"latitude": 53.61658, "longitude": 10.07683}, "transactions": [], "price": "\u20ac\u20ac", "location": {"address1": "Bramfelder Chaussee 281", "address2": "", "address3": "", "city": "Hamburg", "zip_code": "22177", "country": "DE", "state": "HH", "display_address": ["Bramfelder Chaussee 281", "22177 Hamburg", "Germany"]}, "phone": "+494085104232", "display_phone": "+49 40 85104232", "distance": 3293.5836752870364}, {"id": "G5qIXIDFswYYXy_-SlOwgw", "alias": "gut-karlsh\u00f6he-hamburg", "name": "Gut Karlsh\u00f6he", "image_url": "https://s3-media4.fl.yelpcdn.com/bphoto/K4UPzUKEdKdTIArYJNnFdw/o.jpg", "is_closed": false, "url": "https://www.yelp.com/biz/gut-karlsh%C3%B6he-hamburg?adjust_creative=hBJOknVQJ58S5goQyjmwRw&utm_campaign=yelp_api_v3&utm_medium=api_v3_business_search&utm_source=hBJOknVQJ58S5goQyjmwRw", "review_count": 9, "categories": [{"alias": "active", "title": "Active Life"}, {"alias": "cafes", "title": "Cafes"}, {"alias": "museums", "title": "Museums"}], "rating": 4.0, "coordinates": {"latitude": 53.62997, "longitude": 10.11033}, "transactions": [], "location": {"address1": "Karlsh\u00f6he 60d", "address2": null, "address3": null, "city": "Hamburg", "zip_code": "22175", "country": "DE", "state": "HH", "display_address": ["Karlsh\u00f6he 60d", "22175 Hamburg", "Germany"]}, "phone": "+494063702490", "display_phone": "+49 40 63702490", "distance": 2074.4087815691787}, {"id": "KaC_exlpWSoqAx_NatHFQA", "alias": "bobbys-burger-hamburg-2", "name": "Bobby's Burger", "image_url": "https://s3-media2.fl.yelpcdn.com/bphoto/D190J-_SI_bTLP2nZOp0jw/o.jpg", "is_closed": false, "url": "https://www.yelp.com/biz/bobbys-burger-hamburg-2?adjust_creative=hBJOknVQJ58S5goQyjmwRw&utm_campaign=yelp_api_v3&utm_medium=api_v3_business_search&utm_source=hBJOknVQJ58S5goQyjmwRw", "review_count": 1, "categories": [{"alias": "burgers", "title": "Burgers"}], "rating": 4.0, "coordinates": {"latitude": 53.61222, "longitude": 10.076807}, "transactions": [], "location": {"address1": "Bramfelder Chaussee 230", "address2": "", "address3": null, "city": "Hamburg", "zip_code": "22177", "country": "DE", "state": "HH", "display_address": ["Bramfelder Chaussee 230", "22177 Hamburg", "Germany"]}, "phone": "", "display_phone": "", "distance": 3754.102066182524}, {"id": "lJkTU8UZurfTfSzdnYql2g", "alias": "sushi-dreams-hamburg", "name": "Sushi Dreams", "image_url": "https://s3-media2.fl.yelpcdn.com/bphoto/NQoAMaiS0yJgODCZUdRvoQ/o.jpg", "is_closed": false, "url": "https://www.yelp.com/biz/sushi-dreams-hamburg?adjust_creative=hBJOknVQJ58S5goQyjmwRw&utm_campaign=yelp_api_v3&utm_medium=api_v3_business_search&utm_source=hBJOknVQJ58S5goQyjmwRw", "review_count": 20, "categories": [{"alias": "sushi", "title": "Sushi Bars"}, {"alias": "panasian", "title": "Pan Asian"}], "rating": 4.0, "coordinates": {"latitude": 53.6082, "longitude": 10.0717}, "transactions": [], "price": "\u20ac\u20ac", "location": {"address1": "Bramfelder Chaussee 185", "address2": null, "address3": null, "city": "Hamburg", "zip_code": "22177", "country": "DE", "state": "HH", "display_address": ["Bramfelder Chaussee 185", "22177 Hamburg", "Germany"]}, "phone": "+494063314776", "display_phone": "+49 40 63314776", "distance": 4277.6106509875435}, {"id": "CQBSOomr8M3afVDKCQAc_A", "alias": "k\u00f6nig-d\u00f6ner-hamburg-2", "name": "K\u00f6nig D\u00f6ner", "image_url": "https://s3-media4.fl.yelpcdn.com/bphoto/gYSpjxx1UD4ua8LxKSjN2g/o.jpg", "is_closed": false, "url": "https://www.yelp.com/biz/k%C3%B6nig-d%C3%B6ner-hamburg-2?adjust_creative=hBJOknVQJ58S5goQyjmwRw&utm_campaign=yelp_api_v3&utm_medium=api_v3_business_search&utm_source=hBJOknVQJ58S5goQyjmwRw", "review_count": 14, "categories": [{"alias": "kebab", "title": "Kebab"}], "rating": 3.0, "coordinates": {"latitude": 53.65252, "longitude": 10.092773}, "transactions": [], "price": "\u20ac\u20ac", "location": {"address1": "Heegbarg  4", "address2": null, "address3": null, "city": "Hamburg", "zip_code": "22391", "country": "DE", "state": "HH", "display_address": ["Heegbarg  4", "22391 Hamburg", "Germany"]}, "phone": "+494069704744", "display_phone": "+49 40 69704744", "distance": 856.9464129485178}, {"id": "C9YzwUfpnK7Q6TxhIjYHZQ", "alias": "taverna-paros-hamburg", "name": "Taverna Paros", "image_url": "https://s3-media2.fl.yelpcdn.com/bphoto/poiy3jORrcyrPX1EmACSfg/o.jpg", "is_closed": false, "url": "https://www.yelp.com/biz/taverna-paros-hamburg?adjust_creative=hBJOknVQJ58S5goQyjmwRw&utm_campaign=yelp_api_v3&utm_medium=api_v3_business_search&utm_source=hBJOknVQJ58S5goQyjmwRw", "review_count": 12, "categories": [{"alias": "greek", "title": "Greek"}], "rating": 4.0, "coordinates": {"latitude": 53.61174, "longitude": 10.08089}, "transactions": [], "price": "\u20ac\u20ac", "location": {"address1": "Heukoppel 17", "address2": null, "address3": null, "city": "Hamburg", "zip_code": "22179", "country": "DE", "state": "HH", "display_address": ["Heukoppel 17", "22179 Hamburg", "Germany"]}, "phone": "+49406413007", "display_phone": "+49 40 6413007", "distance": 3741.395182000187}, {"id": "-QFWFi-83g57SxW5q-5-pw", "alias": "orient-d\u00f6ner-hamburg", "name": "Orient D\u00f6ner", "image_url": "https://s3-media4.fl.yelpcdn.com/bphoto/ueNVnp_I8sdYCyHqkIvdkg/o.jpg", "is_closed": false, "url": "https://www.yelp.com/biz/orient-d%C3%B6ner-hamburg?adjust_creative=hBJOknVQJ58S5goQyjmwRw&utm_campaign=yelp_api_v3&utm_medium=api_v3_business_search&utm_source=hBJOknVQJ58S5goQyjmwRw", "review_count": 1, "categories": [{"alias": "kebab", "title": "Kebab"}], "rating": 4.0, "coordinates": {"latitude": 53.612235, "longitude": 10.076757}, "transactions": [], "location": {"address1": "Bramfelder Chaussee 230", "address2": "", "address3": null, "city": "Hamburg", "zip_code": "22177", "country": "DE", "state": "HH", "display_address": ["Bramfelder Chaussee 230", "22177 Hamburg", "Germany"]}, "phone": "", "display_phone": "", "distance": 3753.334679693458}, {"id": "YhlJNvznZqWqu4YBvJ3ysQ", "alias": "caf\u00e9-reinhardt-hamburg-4", "name": "Caf\u00e9 Reinhardt", "image_url": "https://s3-media4.fl.yelpcdn.com/bphoto/K_TmNNnmC3o5zoHUhdjv3g/o.jpg", "is_closed": false, "url": "https://www.yelp.com/biz/caf%C3%A9-reinhardt-hamburg-4?adjust_creative=hBJOknVQJ58S5goQyjmwRw&utm_campaign=yelp_api_v3&utm_medium=api_v3_business_search&utm_source=hBJOknVQJ58S5goQyjmwRw", "review_count": 7, "categories": [{"alias": "cafes", "title": "Cafes"}, {"alias": "cakeshop", "title": "Patisserie/Cake Shop"}, {"alias": "bakeries", "title": "Bakeries"}], "rating": 4.0, "coordinates": {"latitude": 53.64058, "longitude": 10.08246}, "transactions": [], "location": {"address1": "Rolfinckstr. 8 - 10", "address2": "", "address3": null, "city": "Hamburg", "zip_code": "22391", "country": "DE", "state": "HH", "display_address": ["Rolfinckstr. 8 - 10", "22391 Hamburg", "Germany"]}, "phone": "+494053908727", "display_phone": "+49 40 53908727", "distance": 760.6101072653205}, {"id": "7UwNDjUE8GuHFWknWd0qRA", "alias": "zum-bramfelder-hof-hamburg", "name": "Zum Bramfelder Hof", "image_url": "", "is_closed": false, "url": "https://www.yelp.com/biz/zum-bramfelder-hof-hamburg?adjust_creative=hBJOknVQJ58S5goQyjmwRw&utm_campaign=yelp_api_v3&utm_medium=api_v3_business_search&utm_source=hBJOknVQJ58S5goQyjmwRw", "review_count": 7, "categories": [{"alias": "serbocroatian", "title": "Serbo Croatian"}, {"alias": "german", "title": "German"}], "rating": 4.5, "coordinates": {"latitude": 53.6115, "longitude": 10.074}, "transactions": [], "price": "\u20ac\u20ac", "location": {"address1": "Bramfelder Chaussee 217", "address2": null, "address3": null, "city": "Hamburg", "zip_code": "22177", "country": "DE", "state": "HH", "display_address": ["Bramfelder Chaussee 217", "22177 Hamburg", "Germany"]}, "phone": "+49406429969", "display_phone": "+49 40 6429969", "distance": 3882.0828131458584}, {"id": "ryJF6oTaqmJc-L3ccZivfg", "alias": "zum-br\u00e4ust\u00fcberl-hamburg", "name": "Zum Br\u00e4ust\u00fcberl", "image_url": "https://s3-media4.fl.yelpcdn.com/bphoto/xd_a0YsfdXTGlLVGGcshtg/o.jpg", "is_closed": false, "url": "https://www.yelp.com/biz/zum-br%C3%A4ust%C3%BCberl-hamburg?adjust_creative=hBJOknVQJ58S5goQyjmwRw&utm_campaign=yelp_api_v3&utm_medium=api_v3_business_search&utm_source=hBJOknVQJ58S5goQyjmwRw", "review_count": 25, "categories": [{"alias": "german", "title": "German"}, {"alias": "austrian", "title": "Austrian"}, {"alias": "beergarden", "title": "Beer Garden"}], "rating": 3.5, "coordinates": {"latitude": 53.6133160970132, "longitude": 10.079024322331}, "transactions": [], "price": "\u20ac\u20ac", "location": {"address1": "Bramfelder Dorfplatz 25", "address2": "", "address3": "", "city": "Hamburg", "zip_code": "22179", "country": "DE", "state": "HH", "display_address": ["Bramfelder Dorfplatz 25", "22179 Hamburg", "Germany"]}, "phone": "+494038070751", "display_phone": "+49 40 38070751", "distance": 3600.5604008766495}, {"id": "hz50-hDcuY8KxhG5S4xLDg", "alias": "gasthaus-offen-hamburg", "name": "Gasthaus Offen", "image_url": "https://s3-media2.fl.yelpcdn.com/bphoto/z60mHTwqI2onQiOeUjFPSg/o.jpg", "is_closed": false, "url": "https://www.yelp.com/biz/gasthaus-offen-hamburg?adjust_creative=hBJOknVQJ58S5goQyjmwRw&utm_campaign=yelp_api_v3&utm_medium=api_v3_business_search&utm_source=hBJOknVQJ58S5goQyjmwRw", "review_count": 55, "categories": [{"alias": "german", "title": "German"}], "rating": 4.0, "coordinates": {"latitude": 53.6865, "longitude": 10.105}, "transactions": [], "price": "\u20ac\u20ac", "location": {"address1": "Lemsahler Dorfstr. 39", "address2": null, "address3": null, "city": "Hamburg", "zip_code": "22397", "country": "DE", "state": "HH", "display_address": ["Lemsahler Dorfstr. 39", "22397 Hamburg", "Germany"]}, "phone": "+49406083835", "display_phone": "+49 40 6083835", "distance": 4716.614386452378}, {"id": "JGfK13HXQPajbp17DeCfLA", "alias": "restaurant-treudelberg-hamburg", "name": "Restaurant Treudelberg", "image_url": "https://s3-media3.fl.yelpcdn.com/bphoto/qGLsjNfPd6CmA616L4w_Vw/o.jpg", "is_closed": false, "url": "https://www.yelp.com/biz/restaurant-treudelberg-hamburg?adjust_creative=hBJOknVQJ58S5goQyjmwRw&utm_campaign=yelp_api_v3&utm_medium=api_v3_business_search&utm_source=hBJOknVQJ58S5goQyjmwRw", "review_count": 10, "categories": [{"alias": "german", "title": "German"}, {"alias": "international", "title": "International"}], "rating": 3.5, "coordinates": {"latitude": 53.6735191, "longitude": 10.0904799}, "transactions": [], "price": "\u20ac\u20ac\u20ac", "location": {"address1": "Lehmsahler Landstr. 45", "address2": "", "address3": "", "city": "Hamburg", "zip_code": "22397", "country": "DE", "state": "HH", "display_address": ["Lehmsahler Landstr. 45", "22397 Hamburg", "Germany"]}, "phone": "+4940608228712", "display_phone": "+49 40 608228712", "distance": 3128.548382793363}, {"id": "tyTueaTh2RFEDOTA_jRhuw", "alias": "cafe-reinhardt-hamburg-3", "name": "Cafe Reinhardt", "image_url": "https://s3-media1.fl.yelpcdn.com/bphoto/XctuK_apUmLfLoDGl0faFQ/o.jpg", "is_closed": false, "url": "https://www.yelp.com/biz/cafe-reinhardt-hamburg-3?adjust_creative=hBJOknVQJ58S5goQyjmwRw&utm_campaign=yelp_api_v3&utm_medium=api_v3_business_search&utm_source=hBJOknVQJ58S5goQyjmwRw", "review_count": 30, "categories": [{"alias": "bakeries", "title": "Bakeries"}, {"alias": "cafes", "title": "Cafes"}], "rating": 4.0, "coordinates": {"latitude": 53.6653, "longitude": 10.09}, "transactions": [], "price": "\u20ac\u20ac", "location": {"address1": "Poppenb\u00fcttler Hauptstr. 37", "address2": null, "address3": null, "city": "Hamburg", "zip_code": "22399", "country": "DE", "state": "HH", "display_address": ["Poppenb\u00fcttler Hauptstr. 37", "22399 Hamburg", "Germany"]}, "phone": "+49406023704", "display_phone": "+49 40 6023704", "distance": 2274.8009877729482}, {"id": "e0j_sQ-UgRDrLqPXcZgI5g", "alias": "balzac-coffee-hamburg-34", "name": "Balzac Coffee", "image_url": "https://s3-media4.fl.yelpcdn.com/bphoto/2pJHEFhNTx0bSlbkvhUl_Q/o.jpg", "is_closed": false, "url": "https://www.yelp.com/biz/balzac-coffee-hamburg-34?adjust_creative=hBJOknVQJ58S5goQyjmwRw&utm_campaign=yelp_api_v3&utm_medium=api_v3_business_search&utm_source=hBJOknVQJ58S5goQyjmwRw", "review_count": 2, "categories": [{"alias": "coffee", "title": "Coffee & Tea"}, {"alias": "cafes", "title": "Cafes"}], "rating": 4.5, "coordinates": {"latitude": 53.6548584, "longitude": 10.0931374}, "transactions": [], "price": "\u20ac\u20ac", "location": {"address1": "Heegbarg 28", "address2": "", "address3": "", "city": "Hamburg", "zip_code": "22391", "country": "DE", "state": "HH", "display_address": ["Heegbarg 28", "22391 Hamburg", "Germany"]}, "phone": "+494060298086", "display_phone": "+49 40 60298086", "distance": 1118.0451136198842}, {"id": "xU2xZcdV9ITI5UGAD5tdJA", "alias": "forum-sasel-hamburg", "name": "Forum Sasel", "image_url": "https://s3-media2.fl.yelpcdn.com/bphoto/aZpLxutpg0QSHwS-UUI9sw/o.jpg", "is_closed": false, "url": "https://www.yelp.com/biz/forum-sasel-hamburg?adjust_creative=hBJOknVQJ58S5goQyjmwRw&utm_campaign=yelp_api_v3&utm_medium=api_v3_business_search&utm_source=hBJOknVQJ58S5goQyjmwRw", "review_count": 23, "categories": [{"alias": "international", "title": "International"}, {"alias": "cocktailbars", "title": "Cocktail Bars"}, {"alias": "sportsbars", "title": "Sports Bars"}], "rating": 3.5, "coordinates": {"latitude": 53.6535788177995, "longitude": 10.1121384625408}, "transactions": [], "price": "\u20ac\u20ac", "location": {"address1": "Saseler Markt 1", "address2": "", "address3": "", "city": "Hamburg", "zip_code": "22393", "country": "DE", "state": "HH", "display_address": ["Saseler Markt 1", "22393 Hamburg", "Germany"]}, "phone": "+494088165850", "display_phone": "+49 40 88165850", "distance": 1677.4925180026908}, {"id": "47gqTciOiRYGb6VfVbPYvQ", "alias": "bistro-pizzarello-hamburg", "name": "Bistro Pizzarello", "image_url": "https://s3-media4.fl.yelpcdn.com/bphoto/eYh-vyMnx9_Q2M9He9sgLA/o.jpg", "is_closed": false, "url": "https://www.yelp.com/biz/bistro-pizzarello-hamburg?adjust_creative=hBJOknVQJ58S5goQyjmwRw&utm_campaign=yelp_api_v3&utm_medium=api_v3_business_search&utm_source=hBJOknVQJ58S5goQyjmwRw", "review_count": 7, "categories": [{"alias": "bars", "title": "Bars"}, {"alias": "italian", "title": "Italian"}, {"alias": "pizza", "title": "Pizza"}], "rating": 3.5, "coordinates": {"latitude": 53.6538, "longitude": 10.0928}, "transactions": [], "price": "\u20ac", "location": {"address1": "Heegbarg 14", "address2": null, "address3": null, "city": "Hamburg", "zip_code": "22391", "country": "DE", "state": "HH", "display_address": ["Heegbarg 14", "22391 Hamburg", "Germany"]}, "phone": "+494080606830", "display_phone": "+49 40 80606830", "distance": 998.7287178446963}, {"id": "zPeBPAvLzWfz_HvZmPs3YQ", "alias": "ciao-bella-hamburg-11", "name": "Ciao Bella", "image_url": "https://s3-media1.fl.yelpcdn.com/bphoto/sPCEFDyygineNT_BWiAFCw/o.jpg", "is_closed": false, "url": "https://www.yelp.com/biz/ciao-bella-hamburg-11?adjust_creative=hBJOknVQJ58S5goQyjmwRw&utm_campaign=yelp_api_v3&utm_medium=api_v3_business_search&utm_source=hBJOknVQJ58S5goQyjmwRw", "review_count": 1, "categories": [{"alias": "italian", "title": "Italian"}], "rating": 3.0, "coordinates": {"latitude": 53.653926, "longitude": 10.090917}, "transactions": [], "location": {"address1": "Heegbarg 31", "address2": "", "address3": null, "city": "Hamburg", "zip_code": "22391", "country": "DE", "state": "HH", "display_address": ["Heegbarg 31", "22391 Hamburg", "Germany"]}, "phone": "", "display_phone": "", "distance": 1052.1638356451633}, {"id": "5-vRbfPX0iOM9gLdSuLD0Q", "alias": "zum-hufschlag-hamburg", "name": "Zum Hufschlag", "image_url": "https://s3-media1.fl.yelpcdn.com/bphoto/kt22PQzKgB4-7QraMsv7fA/o.jpg", "is_closed": false, "url": "https://www.yelp.com/biz/zum-hufschlag-hamburg?adjust_creative=hBJOknVQJ58S5goQyjmwRw&utm_campaign=yelp_api_v3&utm_medium=api_v3_business_search&utm_source=hBJOknVQJ58S5goQyjmwRw", "review_count": 11, "categories": [{"alias": "german", "title": "German"}, {"alias": "cafes", "title": "Cafes"}], "rating": 4.0, "coordinates": {"latitude": 53.61071, "longitude": 10.09427}, "transactions": [], "price": "\u20ac\u20ac", "location": {"address1": "Fahrenkr\u00f6n 56", "address2": "", "address3": "", "city": "Hamburg", "zip_code": "22179", "country": "DE", "state": "HH", "display_address": ["Fahrenkr\u00f6n 56", "22179 Hamburg", "Germany"]}, "phone": "+494063129499", "display_phone": "+49 40 63129499", "distance": 3779.5088243922514}, {"id": "34AjJqRyzU6Aq57KVC34Kw", "alias": "kim-chi-hamburg-3", "name": "Kim-Chi", "image_url": "https://s3-media3.fl.yelpcdn.com/bphoto/_yOS07aEdpVOGu2_ijvbXQ/o.jpg", "is_closed": false, "url": "https://www.yelp.com/biz/kim-chi-hamburg-3?adjust_creative=hBJOknVQJ58S5goQyjmwRw&utm_campaign=yelp_api_v3&utm_medium=api_v3_business_search&utm_source=hBJOknVQJ58S5goQyjmwRw", "review_count": 9, "categories": [{"alias": "panasian", "title": "Pan Asian"}], "rating": 3.0, "coordinates": {"latitude": 53.6194, "longitude": 10.0973}, "transactions": [], "price": "\u20ac", "location": {"address1": "Fahrenkr\u00f6n 146", "address2": null, "address3": null, "city": "Hamburg", "zip_code": "22179", "country": "DE", "state": "HH", "display_address": ["Fahrenkr\u00f6n 146", "22179 Hamburg", "Germany"]}, "phone": "+494064413900", "display_phone": "+49 40 64413900", "distance": 2857.709493731491}, {"id": "fDCSXYKbbA6t6hgNhmcLwg", "alias": "ok-pizza-hamburg", "name": "OK Pizza", "image_url": "", "is_closed": false, "url": "https://www.yelp.com/biz/ok-pizza-hamburg?adjust_creative=hBJOknVQJ58S5goQyjmwRw&utm_campaign=yelp_api_v3&utm_medium=api_v3_business_search&utm_source=hBJOknVQJ58S5goQyjmwRw", "review_count": 2, "categories": [{"alias": "pizza", "title": "Pizza"}], "rating": 5.0, "coordinates": {"latitude": 53.6513, "longitude": 10.10565}, "transactions": [], "location": {"address1": "Saseler Chaussee 160", "address2": "", "address3": "", "city": "Hamburg", "zip_code": "22393", "country": "DE", "state": "HH", "display_address": ["Saseler Chaussee 160", "22393 Hamburg", "Germany"]}, "phone": "+49406045544", "display_phone": "+49 40 6045544", "distance": 1171.4753187397514}, {"id": "8-PLwQTPmKMoVuq1GqtYLA", "alias": "fidelio-hamburg", "name": "Fidelio", "image_url": "https://s3-media4.fl.yelpcdn.com/bphoto/8_ZhcnE47DVWPy-UxeLwaw/o.jpg", "is_closed": false, "url": "https://www.yelp.com/biz/fidelio-hamburg?adjust_creative=hBJOknVQJ58S5goQyjmwRw&utm_campaign=yelp_api_v3&utm_medium=api_v3_business_search&utm_source=hBJOknVQJ58S5goQyjmwRw", "review_count": 53, "categories": [{"alias": "gastropubs", "title": "Gastropubs"}, {"alias": "italian", "title": "Italian"}, {"alias": "bistros", "title": "Bistros"}], "rating": 2.5, "coordinates": {"latitude": 53.66038, "longitude": 10.0843399}, "transactions": [], "price": "\u20ac", "location": {"address1": "Moorhof 11", "address2": "", "address3": "", "city": "Hamburg", "zip_code": "22399", "country": "DE", "state": "HH", "display_address": ["Moorhof 11", "22399 Hamburg", "Germany"]}, "phone": "+494060875927", "display_phone": "+49 40 60875927", "distance": 1778.9874230581875}, {"id": "cua3_fdR9fejQwLYgHWYOA", "alias": "sushi-for-friends-hamburg-3", "name": "Sushi for Friends", "image_url": "https://s3-media1.fl.yelpcdn.com/bphoto/nDCCXsMFnB4iajti1fadfg/o.jpg", "is_closed": false, "url": "https://www.yelp.com/biz/sushi-for-friends-hamburg-3?adjust_creative=hBJOknVQJ58S5goQyjmwRw&utm_campaign=yelp_api_v3&utm_medium=api_v3_business_search&utm_source=hBJOknVQJ58S5goQyjmwRw", "review_count": 26, "categories": [{"alias": "sushi", "title": "Sushi Bars"}], "rating": 3.0, "coordinates": {"latitude": 53.65209, "longitude": 10.10624}, "transactions": [], "price": "\u20ac\u20ac\u20ac", "location": {"address1": "Saseler Chaussee 168", "address2": "", "address3": "", "city": "Hamburg", "zip_code": "22393", "country": "DE", "state": "HH", "display_address": ["Saseler Chaussee 168", "22393 Hamburg", "Germany"]}, "phone": "+494060671608", "display_phone": "+49 40 60671608", "distance": 1269.9294718602039}, {"id": "s8nByaYJIf-lwdhdp0WzYQ", "alias": "mr-wong-asia-bistro-hamburg", "name": "Mr. Wong Asia Bistro", "image_url": "", "is_closed": false, "url": "https://www.yelp.com/biz/mr-wong-asia-bistro-hamburg?adjust_creative=hBJOknVQJ58S5goQyjmwRw&utm_campaign=yelp_api_v3&utm_medium=api_v3_business_search&utm_source=hBJOknVQJ58S5goQyjmwRw", "review_count": 1, "categories": [{"alias": "bistros", "title": "Bistros"}, {"alias": "panasian", "title": "Pan Asian"}], "rating": 4.0, "coordinates": {"latitude": 53.6607, "longitude": 10.0823}, "transactions": [], "price": "\u20ac", "location": {"address1": "Harksheider Str. 10", "address2": null, "address3": null, "city": "Hamburg", "zip_code": "22399", "country": "DE", "state": "HH", "display_address": ["Harksheider Str. 10", "22399 Hamburg", "Germany"]}, "phone": "+494066872510", "display_phone": "+49 40 66872510", "distance": 1860.1588005344395}, {"id": "vMobSrGnQWGndM0UoVHGCw", "alias": "piacetto-coffee-shop-im-aez-hamburg", "name": "Piacetto Coffee Shop im Aez", "image_url": "https://s3-media4.fl.yelpcdn.com/bphoto/Z9ZbBvONSDU_qSeBGH34kw/o.jpg", "is_closed": false, "url": "https://www.yelp.com/biz/piacetto-coffee-shop-im-aez-hamburg?adjust_creative=hBJOknVQJ58S5goQyjmwRw&utm_campaign=yelp_api_v3&utm_medium=api_v3_business_search&utm_source=hBJOknVQJ58S5goQyjmwRw", "review_count": 2, "categories": [{"alias": "cafes", "title": "Cafes"}, {"alias": "coffee", "title": "Coffee & Tea"}], "rating": 4.5, "coordinates": {"latitude": 53.6537, "longitude": 10.0912}, "transactions": [], "location": {"address1": "Heegbarg 31", "address2": null, "address3": null, "city": "Hamburg", "zip_code": "22391", "country": "DE", "state": "HH", "display_address": ["Heegbarg 31", "22391 Hamburg", "Germany"]}, "phone": "+494061192693", "display_phone": "+49 40 61192693", "distance": 983.2135485891436}, {"id": "SWmfdHsfpfpaN4p1CwKe2Q", "alias": "neovii-hamburg", "name": "neovii", "image_url": "https://s3-media2.fl.yelpcdn.com/bphoto/1qGsK6bb3JCEu8d7LIH4_g/o.jpg", "is_closed": false, "url": "https://www.yelp.com/biz/neovii-hamburg?adjust_creative=hBJOknVQJ58S5goQyjmwRw&utm_campaign=yelp_api_v3&utm_medium=api_v3_business_search&utm_source=hBJOknVQJ58S5goQyjmwRw", "review_count": 5, "categories": [{"alias": "hotdogs", "title": "Fast Food"}], "rating": 4.5, "coordinates": {"latitude": 53.6119, "longitude": 10.0757}, "transactions": [], "price": "\u20ac\u20ac\u20ac", "location": {"address1": "Bramfelder Chaussee 230", "address2": "", "address3": null, "city": "Hamburg", "zip_code": "22177", "country": "DE", "state": "HH", "display_address": ["Bramfelder Chaussee 230", "22177 Hamburg", "Germany"]}, "phone": "+494080007117", "display_phone": "+49 40 80007117", "distance": 3807.6696511943264}, {"id": "P1P_tQ8jf0W_fALx6NxfnQ", "alias": "gosch-sylt-hamburg-7", "name": "Gosch Sylt", "image_url": "https://s3-media3.fl.yelpcdn.com/bphoto/uoxUAoI-a5gaW4Tcr8fe8w/o.jpg", "is_closed": false, "url": "https://www.yelp.com/biz/gosch-sylt-hamburg-7?adjust_creative=hBJOknVQJ58S5goQyjmwRw&utm_campaign=yelp_api_v3&utm_medium=api_v3_business_search&utm_source=hBJOknVQJ58S5goQyjmwRw", "review_count": 23, "categories": [{"alias": "seafood", "title": "Seafood"}, {"alias": "fishnchips", "title": "Fish & Chips"}], "rating": 3.0, "coordinates": {"latitude": 53.652855489139, "longitude": 10.089926160872}, "transactions": [], "price": "\u20ac\u20ac", "location": {"address1": "Heegbarg 31", "address2": "", "address3": "", "city": "Hamburg", "zip_code": "22391", "country": "DE", "state": "HH", "display_address": ["Heegbarg 31", "22391 Hamburg", "Germany"]}, "phone": "+494061136705", "display_phone": "+49 40 61136705", "distance": 894.3195267341981}, {"id": "tYBAsYqRjR8IKEzWmZGfcw", "alias": "emilia-hamburg", "name": "Emilia", "image_url": "https://s3-media4.fl.yelpcdn.com/bphoto/Izr8J-5l75efCutvua1RtA/o.jpg", "is_closed": false, "url": "https://www.yelp.com/biz/emilia-hamburg?adjust_creative=hBJOknVQJ58S5goQyjmwRw&utm_campaign=yelp_api_v3&utm_medium=api_v3_business_search&utm_source=hBJOknVQJ58S5goQyjmwRw", "review_count": 25, "categories": [{"alias": "italian", "title": "Italian"}, {"alias": "pizza", "title": "Pizza"}], "rating": 3.5, "coordinates": {"latitude": 53.65393, "longitude": 10.09115}, "transactions": [], "price": "\u20ac\u20ac", "location": {"address1": "Heegbarg 31", "address2": "", "address3": "", "city": "Hamburg", "zip_code": "22391", "country": "DE", "state": "HH", "display_address": ["Heegbarg 31", "22391 Hamburg", "Germany"]}, "phone": "+494060298631", "display_phone": "+49 40 60298631", "distance": 989.329591580996}, {"id": "3ofeCVY1Zf318ZLK5pqqyg", "alias": "vistro-hamburg-2", "name": "Vistro", "image_url": "https://s3-media1.fl.yelpcdn.com/bphoto/vvv_k_Q5toKCcfOU0p_Otw/o.jpg", "is_closed": false, "url": "https://www.yelp.com/biz/vistro-hamburg-2?adjust_creative=hBJOknVQJ58S5goQyjmwRw&utm_campaign=yelp_api_v3&utm_medium=api_v3_business_search&utm_source=hBJOknVQJ58S5goQyjmwRw", "review_count": 1, "categories": [{"alias": "cafes", "title": "Cafes"}, {"alias": "pizza", "title": "Pizza"}, {"alias": "cocktailbars", "title": "Cocktail Bars"}], "rating": 5.0, "coordinates": {"latitude": 53.615214, "longitude": 10.076024}, "transactions": [], "location": {"address1": "Bramfelder Chaussee 265", "address2": "", "address3": null, "city": "Hamburg", "zip_code": "22177", "country": "DE", "state": "HH", "display_address": ["Bramfelder Chaussee 265", "22177 Hamburg", "Germany"]}, "phone": "+494064217030", "display_phone": "+49 40 64217030", "distance": 3448.103227570734}, {"id": "Q56Y4jZph_c7ufWsi6mqXA", "alias": "crazy-croque-hamburg-6", "name": "Crazy Croque", "image_url": "https://s3-media1.fl.yelpcdn.com/bphoto/NcnlnHNsCAtRUdPZXZdvbw/o.jpg", "is_closed": false, "url": "https://www.yelp.com/biz/crazy-croque-hamburg-6?adjust_creative=hBJOknVQJ58S5goQyjmwRw&utm_campaign=yelp_api_v3&utm_medium=api_v3_business_search&utm_source=hBJOknVQJ58S5goQyjmwRw", "review_count": 7, "categories": [{"alias": "sandwiches", "title": "Sandwiches"}, {"alias": "burgers", "title": "Burgers"}], "rating": 4.0, "coordinates": {"latitude": 53.625, "longitude": 10.1148}, "transactions": [], "price": "\u20ac\u20ac", "location": {"address1": "Pezolddamm 156", "address2": null, "address3": null, "city": "Hamburg", "zip_code": "22159", "country": "DE", "state": "HH", "display_address": ["Pezolddamm 156", "22159 Hamburg", "Germany"]}, "phone": "+494063645655", "display_phone": "+49 40 63645655", "distance": 2694.850505674254}, {"id": "C8P8aF6rArI4qwRL9ig_CA", "alias": "grand-caf\u00e9-hamburg", "name": "Grand Caf\u00e9", "image_url": "https://s3-media1.fl.yelpcdn.com/bphoto/qoQJWjhMSP076lxjqQOTYQ/o.jpg", "is_closed": false, "url": "https://www.yelp.com/biz/grand-caf%C3%A9-hamburg?adjust_creative=hBJOknVQJ58S5goQyjmwRw&utm_campaign=yelp_api_v3&utm_medium=api_v3_business_search&utm_source=hBJOknVQJ58S5goQyjmwRw", "review_count": 11, "categories": [{"alias": "cafes", "title": "Cafes"}], "rating": 3.5, "coordinates": {"latitude": 53.65393, "longitude": 10.09115}, "transactions": [], "price": "\u20ac\u20ac", "location": {"address1": "Heegbarg 31", "address2": "", "address3": "", "city": "Hamburg", "zip_code": "22391", "country": "DE", "state": "HH", "display_address": ["Heegbarg 31", "22391 Hamburg", "Germany"]}, "phone": "+494069211412", "display_phone": "+49 40 69211412", "distance": 989.329591580996}, {"id": "MDueB-_uqPvpijX47GrQhg", "alias": "dinea-hamburg-2", "name": "Dinea", "image_url": "https://s3-media3.fl.yelpcdn.com/bphoto/h0PzwdGMp5bbexg5lYI05g/o.jpg", "is_closed": false, "url": "https://www.yelp.com/biz/dinea-hamburg-2?adjust_creative=hBJOknVQJ58S5goQyjmwRw&utm_campaign=yelp_api_v3&utm_medium=api_v3_business_search&utm_source=hBJOknVQJ58S5goQyjmwRw", "review_count": 2, "categories": [{"alias": "buffets", "title": "Buffets"}], "rating": 4.0, "coordinates": {"latitude": 53.65302, "longitude": 10.08939}, "transactions": [], "location": {"address1": "Galeria Kaufhof", "address2": "Kritenbarg 2", "address3": "", "city": "Hamburg", "zip_code": "22391", "country": "DE", "state": "HH", "display_address": ["Galeria Kaufhof", "Kritenbarg 2", "22391 Hamburg", "Germany"]}, "phone": "+494060676145", "display_phone": "+49 40 60676145", "distance": 934.1176862998929}, {"id": "Ynp7YmJAy6qTatoZcT66Eg", "alias": "restaurant-pane-e-vino-hamburg", "name": "Restaurant Pane E Vino", "image_url": "https://s3-media1.fl.yelpcdn.com/bphoto/82PXWqUQf_edShIaQHBe5Q/o.jpg", "is_closed": false, "url": "https://www.yelp.com/biz/restaurant-pane-e-vino-hamburg?adjust_creative=hBJOknVQJ58S5goQyjmwRw&utm_campaign=yelp_api_v3&utm_medium=api_v3_business_search&utm_source=hBJOknVQJ58S5goQyjmwRw", "review_count": 17, "categories": [{"alias": "italian", "title": "Italian"}], "rating": 3.0, "coordinates": {"latitude": 53.6202, "longitude": 10.0977}, "transactions": [], "price": "\u20ac\u20ac", "location": {"address1": "Pezolddamm 1", "address2": null, "address3": null, "city": "Hamburg", "zip_code": "22175", "country": "DE", "state": "HH", "display_address": ["Pezolddamm 1", "22175 Hamburg", "Germany"]}, "phone": "+494064426895", "display_phone": "+49 40 64426895", "distance": 2773.462872348175}, {"id": "ZCNX0Jow6YkO_HDoT0TewA", "alias": "luisenhof-und-dubrovnik-hamburg", "name": "Luisenhof & Dubrovnik", "image_url": "https://s3-media2.fl.yelpcdn.com/bphoto/zl1WpS75hZ9awDkAfTrSRQ/o.jpg", "is_closed": false, "url": "https://www.yelp.com/biz/luisenhof-und-dubrovnik-hamburg?adjust_creative=hBJOknVQJ58S5goQyjmwRw&utm_campaign=yelp_api_v3&utm_medium=api_v3_business_search&utm_source=hBJOknVQJ58S5goQyjmwRw", "review_count": 14, "categories": [{"alias": "international", "title": "International"}, {"alias": "german", "title": "German"}], "rating": 3.5, "coordinates": {"latitude": 53.6072, "longitude": 10.1165}, "transactions": [], "price": "\u20ac\u20ac", "location": {"address1": "Am Luisenhof 1", "address2": null, "address3": null, "city": "Hamburg", "zip_code": "22159", "country": "DE", "state": "HH", "display_address": ["Am Luisenhof 1", "22159 Hamburg", "Germany"]}, "phone": "+49406431071", "display_phone": "+49 40 6431071", "distance": 4503.412597466833}, {"id": "_ySNTQSelVnFcY9RtvkRpA", "alias": "burger-lounge-hamburg-4", "name": "Burger Lounge", "image_url": "https://s3-media3.fl.yelpcdn.com/bphoto/TRtu4X9C5hSlb9c0rACnCQ/o.jpg", "is_closed": false, "url": "https://www.yelp.com/biz/burger-lounge-hamburg-4?adjust_creative=hBJOknVQJ58S5goQyjmwRw&utm_campaign=yelp_api_v3&utm_medium=api_v3_business_search&utm_source=hBJOknVQJ58S5goQyjmwRw", "review_count": 3, "categories": [{"alias": "fooddeliveryservices", "title": "Food Delivery Services"}, {"alias": "tradamerican", "title": "American (Traditional)"}, {"alias": "burgers", "title": "Burgers"}], "rating": 1.5, "coordinates": {"latitude": 53.61135, "longitude": 10.07349}, "transactions": [], "price": "\u20ac\u20ac", "location": {"address1": "Bramfelder Chaussee 215", "address2": "", "address3": "", "city": "Hamburg", "zip_code": "22177", "country": "DE", "state": "HH", "display_address": ["Bramfelder Chaussee 215", "22177 Hamburg", "Germany"]}, "phone": "+494033987217", "display_phone": "+49 40 33987217", "distance": 3908.0371254304196}, {"id": "Z_VhoYana9KZlVipdBw58Q", "alias": "kleinhuis-gartenbistro-hamburg", "name": "Kleinhuis' Gartenbistro", "image_url": "https://s3-media2.fl.yelpcdn.com/bphoto/zrIA1rCwZNp2uDeUeVZdew/o.jpg", "is_closed": false, "url": "https://www.yelp.com/biz/kleinhuis-gartenbistro-hamburg?adjust_creative=hBJOknVQJ58S5goQyjmwRw&utm_campaign=yelp_api_v3&utm_medium=api_v3_business_search&utm_source=hBJOknVQJ58S5goQyjmwRw", "review_count": 2, "categories": [{"alias": "german", "title": "German"}, {"alias": "bistros", "title": "Bistros"}], "rating": 3.0, "coordinates": {"latitude": 53.630419, "longitude": 10.110478}, "transactions": [], "location": {"address1": "Karlsh\u00f6he 60 d", "address2": null, "address3": null, "city": "Hamburg", "zip_code": "22175", "country": "DE", "state": "HH", "display_address": ["Karlsh\u00f6he 60 d", "22175 Hamburg", "Germany"]}, "phone": "+494060009245", "display_phone": "+49 40 60009245", "distance": 2040.7911891494134}, {"id": "yw31WMkRCKED6y_TLI-ZFw", "alias": "schweinske-hamburg-5", "name": "Schweinske", "image_url": "https://s3-media4.fl.yelpcdn.com/bphoto/kHTqMtN7y3Mw34yX35VRcw/o.jpg", "is_closed": false, "url": "https://www.yelp.com/biz/schweinske-hamburg-5?adjust_creative=hBJOknVQJ58S5goQyjmwRw&utm_campaign=yelp_api_v3&utm_medium=api_v3_business_search&utm_source=hBJOknVQJ58S5goQyjmwRw", "review_count": 24, "categories": [{"alias": "german", "title": "German"}], "rating": 3.5, "coordinates": {"latitude": 53.659892, "longitude": 10.085127}, "transactions": [], "price": "\u20ac\u20ac", "location": {"address1": "Harksheider Str. 2", "address2": "", "address3": "", "city": "Hamburg", "zip_code": "22399", "country": "DE", "state": "HH", "display_address": ["Harksheider Str. 2", "22399 Hamburg", "Germany"]}, "phone": "+49406069873", "display_phone": "+49 40 6069873", "distance": 1721.5495311652833}, {"id": "3GdaGUoMpMJkqCRzpry9Pg", "alias": "thai-curry-delhi-hamburg", "name": "Thai Curry Delhi", "image_url": "https://s3-media1.fl.yelpcdn.com/bphoto/emFvKpLhxiN9B0PDGMc2wQ/o.jpg", "is_closed": false, "url": "https://www.yelp.com/biz/thai-curry-delhi-hamburg?adjust_creative=hBJOknVQJ58S5goQyjmwRw&utm_campaign=yelp_api_v3&utm_medium=api_v3_business_search&utm_source=hBJOknVQJ58S5goQyjmwRw", "review_count": 17, "categories": [{"alias": "thai", "title": "Thai"}, {"alias": "foodstands", "title": "Food Stands"}], "rating": 3.0, "coordinates": {"latitude": 53.65393, "longitude": 10.09115}, "transactions": [], "price": "\u20ac", "location": {"address1": "Heegbarg 31", "address2": "", "address3": "", "city": "Hamburg", "zip_code": "22391", "country": "DE", "state": "HH", "display_address": ["Heegbarg 31", "22391 Hamburg", "Germany"]}, "phone": "", "display_phone": "", "distance": 989.329591580996}, {"id": "4yetlOy70irj1wTh6xsYxA", "alias": "mundfein-hamburg-2", "name": "Mundfein", "image_url": "", "is_closed": false, "url": "https://www.yelp.com/biz/mundfein-hamburg-2?adjust_creative=hBJOknVQJ58S5goQyjmwRw&utm_campaign=yelp_api_v3&utm_medium=api_v3_business_search&utm_source=hBJOknVQJ58S5goQyjmwRw", "review_count": 3, "categories": [{"alias": "pizza", "title": "Pizza"}], "rating": 4.5, "coordinates": {"latitude": 53.6171999, "longitude": 10.07833}, "transactions": [], "location": {"address1": "Bramfelder Chaussee 296", "address2": "", "address3": "", "city": "Hamburg", "zip_code": "22177", "country": "DE", "state": "HH", "display_address": ["Bramfelder Chaussee 296", "22177 Hamburg", "Germany"]}, "phone": "+494063314390", "display_phone": "+49 40 63314390", "distance": 3205.995191790469}, {"id": "gZUFmSNq0a1Vte2SZCviSA", "alias": "thaicurrydelhi-k\u00f6ln-chorweiler-hamburg", "name": "ThaiCurryDelhi K\u00f6ln- Chorweiler", "image_url": "", "is_closed": false, "url": "https://www.yelp.com/biz/thaicurrydelhi-k%C3%B6ln-chorweiler-hamburg?adjust_creative=hBJOknVQJ58S5goQyjmwRw&utm_campaign=yelp_api_v3&utm_medium=api_v3_business_search&utm_source=hBJOknVQJ58S5goQyjmwRw", "review_count": 1, "categories": [{"alias": "realestateagents", "title": "Real Estate Agents"}, {"alias": "restaurants", "title": "Restaurants"}], "rating": 2.0, "coordinates": {"latitude": 53.6521546, "longitude": 10.0929026}, "transactions": [], "location": {"address1": "Heegbarg 2", "address2": null, "address3": null, "city": "Hamburg", "zip_code": "22391", "country": "DE", "state": "HH", "display_address": ["Heegbarg 2", "22391 Hamburg", "Germany"]}, "phone": "", "display_phone": "", "distance": 817.5766287937344}, {"id": "t2bkFox54IoryVQeUhjv8A", "alias": "alexis-pizza-factory-hamburg", "name": "Alexi's Pizza Factory", "image_url": "https://s3-media2.fl.yelpcdn.com/bphoto/T7Nhjyq3fhxYa2anBwm3ow/o.jpg", "is_closed": false, "url": "https://www.yelp.com/biz/alexis-pizza-factory-hamburg?adjust_creative=hBJOknVQJ58S5goQyjmwRw&utm_campaign=yelp_api_v3&utm_medium=api_v3_business_search&utm_source=hBJOknVQJ58S5goQyjmwRw", "review_count": 15, "categories": [{"alias": "pizza", "title": "Pizza"}, {"alias": "italian", "title": "Italian"}], "rating": 3.5, "coordinates": {"latitude": 53.6072564804072, "longitude": 10.0791299343109}, "transactions": [], "price": "\u20ac", "location": {"address1": "Maimoorweg 64", "address2": "", "address3": "", "city": "Hamburg", "zip_code": "22179", "country": "DE", "state": "HH", "display_address": ["Maimoorweg 64", "22179 Hamburg", "Germany"]}, "phone": "+494055503913", "display_phone": "+49 40 55503913", "distance": 4258.321965551194}, {"id": "f_zfxL1qoZMCtzbzHZcJ7Q", "alias": "kaminstube-hamburg", "name": "Kaminstube", "image_url": "https://s3-media2.fl.yelpcdn.com/bphoto/-RgOFCfUtEsPuFPGOxGqZw/o.jpg", "is_closed": false, "url": "https://www.yelp.com/biz/kaminstube-hamburg?adjust_creative=hBJOknVQJ58S5goQyjmwRw&utm_campaign=yelp_api_v3&utm_medium=api_v3_business_search&utm_source=hBJOknVQJ58S5goQyjmwRw", "review_count": 15, "categories": [{"alias": "austrian", "title": "Austrian"}, {"alias": "sushi", "title": "Sushi Bars"}], "rating": 4.0, "coordinates": {"latitude": 53.668978, "longitude": 10.091088}, "transactions": [], "price": "\u20ac\u20ac\u20ac", "location": {"address1": "An der Alsterschleife 3", "address2": "", "address3": "", "city": "Hamburg", "zip_code": "22399", "country": "DE", "state": "HH", "display_address": ["An der Alsterschleife 3", "22399 Hamburg", "Germany"]}, "phone": "+494061136217", "display_phone": "+49 40 61136217", "distance": 2683.843833168874}, {"id": "gwmc_oZaieNm-BjZP-HF4A", "alias": "burger-king-hamburg-4", "name": "Burger King", "image_url": "https://s3-media1.fl.yelpcdn.com/bphoto/J9hsVi15vDrPdibU3DSE2Q/o.jpg", "is_closed": false, "url": "https://www.yelp.com/biz/burger-king-hamburg-4?adjust_creative=hBJOknVQJ58S5goQyjmwRw&utm_campaign=yelp_api_v3&utm_medium=api_v3_business_search&utm_source=hBJOknVQJ58S5goQyjmwRw", "review_count": 19, "categories": [{"alias": "hotdogs", "title": "Fast Food"}, {"alias": "burgers", "title": "Burgers"}], "rating": 2.5, "coordinates": {"latitude": 53.62153, "longitude": 10.08334}, "transactions": [], "price": "\u20ac", "location": {"address1": "Bramfelder Chaussee 366", "address2": null, "address3": null, "city": "Hamburg", "zip_code": "22177", "country": "DE", "state": "HH", "display_address": ["Bramfelder Chaussee 366", "22177 Hamburg", "Germany"]}, "phone": "+494064221001", "display_phone": "+49 40 64221001", "distance": 2647.4616375965006}, {"id": "7JvYE1KReUVKVNfMtx4XEg", "alias": "subway-hamburg-16", "name": "Subway", "image_url": "https://s3-media1.fl.yelpcdn.com/bphoto/0oVCbiDA2RAJZmMiD3hcpA/o.jpg", "is_closed": false, "url": "https://www.yelp.com/biz/subway-hamburg-16?adjust_creative=hBJOknVQJ58S5goQyjmwRw&utm_campaign=yelp_api_v3&utm_medium=api_v3_business_search&utm_source=hBJOknVQJ58S5goQyjmwRw", "review_count": 11, "categories": [{"alias": "hotdogs", "title": "Fast Food"}, {"alias": "sandwiches", "title": "Sandwiches"}], "rating": 4.0, "coordinates": {"latitude": 53.6521509678249, "longitude": 10.0930232711639}, "transactions": [], "price": "\u20ac\u20ac", "location": {"address1": "Heegbarg 2", "address2": "", "address3": null, "city": "Hamburg", "zip_code": "22391", "country": "DE", "state": "HH", "display_address": ["Heegbarg 2", "22391 Hamburg", "Germany"]}, "phone": "+494060876670", "display_phone": "+49 40 60876670", "distance": 818.1972752174585}, {"id": "-jHCjAX-vQ48uUuiBPzS0A", "alias": "taverna-samos-vassili-massalis-vereinshaus-osterbek-hamburg", "name": "Taverna Samos Vassili Massalis Vereinshaus Osterbek", "image_url": "https://s3-media1.fl.yelpcdn.com/bphoto/O4n1B7F9Qtwjfe5U7179YA/o.jpg", "is_closed": false, "url": "https://www.yelp.com/biz/taverna-samos-vassili-massalis-vereinshaus-osterbek-hamburg?adjust_creative=hBJOknVQJ58S5goQyjmwRw&utm_campaign=yelp_api_v3&utm_medium=api_v3_business_search&utm_source=hBJOknVQJ58S5goQyjmwRw", "review_count": 8, "categories": [{"alias": "greek", "title": "Greek"}], "rating": 3.0, "coordinates": {"latitude": 53.6026, "longitude": 10.0854}, "transactions": [], "price": "\u20ac\u20ac\u20ac\u20ac", "location": {"address1": "Barmwisch 35", "address2": null, "address3": null, "city": "Hamburg", "zip_code": "22179", "country": "DE", "state": "HH", "display_address": ["Barmwisch 35", "22179 Hamburg", "Germany"]}, "phone": "+49406958519", "display_phone": "+49 40 6958519", "distance": 4715.367601031112}, {"id": "v854-nr4s49fiRLBZqDarQ", "alias": "kaya-restaurant-hamburg", "name": "Kaya Restaurant", "image_url": "https://s3-media2.fl.yelpcdn.com/bphoto/ulfJg1IAOU6SYx_MQwaABQ/o.jpg", "is_closed": false, "url": "https://www.yelp.com/biz/kaya-restaurant-hamburg?adjust_creative=hBJOknVQJ58S5goQyjmwRw&utm_campaign=yelp_api_v3&utm_medium=api_v3_business_search&utm_source=hBJOknVQJ58S5goQyjmwRw", "review_count": 1, "categories": [{"alias": "kebab", "title": "Kebab"}], "rating": 2.0, "coordinates": {"latitude": 53.61276, "longitude": 10.0779}, "transactions": [], "location": {"address1": "Kaufland", "address2": "Bramfelder Dorfplatz 18", "address3": "", "city": "Hamburg", "zip_code": "22179", "country": "DE", "state": "HH", "display_address": ["Kaufland", "Bramfelder Dorfplatz 18", "22179 Hamburg", "Germany"]}, "phone": "", "display_phone": "", "distance": 3705.9498014708115}, {"id": "-l_RNA2c163_SVwTu4n9Ww", "alias": "asia-kitchen-hamburg", "name": "Asia Kitchen", "image_url": "https://s3-media4.fl.yelpcdn.com/bphoto/QnNn3L-643W28T85CIlhcw/o.jpg", "is_closed": false, "url": "https://www.yelp.com/biz/asia-kitchen-hamburg?adjust_creative=hBJOknVQJ58S5goQyjmwRw&utm_campaign=yelp_api_v3&utm_medium=api_v3_business_search&utm_source=hBJOknVQJ58S5goQyjmwRw", "review_count": 12, "categories": [{"alias": "fooddeliveryservices", "title": "Food Delivery Services"}, {"alias": "panasian", "title": "Pan Asian"}, {"alias": "sushi", "title": "Sushi Bars"}], "rating": 2.0, "coordinates": {"latitude": 53.60762, "longitude": 10.07148}, "transactions": [], "price": "\u20ac\u20ac", "location": {"address1": "Bramfelder Chaussee 179", "address2": "", "address3": "", "city": "Hamburg", "zip_code": "22177", "country": "DE", "state": "HH", "display_address": ["Bramfelder Chaussee 179", "22177 Hamburg", "Germany"]}, "phone": "+494063973181", "display_phone": "+49 40 63973181", "distance": 4346.83637717586}, {"id": "cyqbUn_NPO1n621wzimR0Q", "alias": "asiahung-hamburg-10", "name": "asiahung", "image_url": "https://s3-media4.fl.yelpcdn.com/bphoto/pIHhUQl15Ze-vSO7kPI8pg/o.jpg", "is_closed": false, "url": "https://www.yelp.com/biz/asiahung-hamburg-10?adjust_creative=hBJOknVQJ58S5goQyjmwRw&utm_campaign=yelp_api_v3&utm_medium=api_v3_business_search&utm_source=hBJOknVQJ58S5goQyjmwRw", "review_count": 15, "categories": [{"alias": "hotdogs", "title": "Fast Food"}, {"alias": "panasian", "title": "Pan Asian"}], "rating": 3.5, "coordinates": {"latitude": 53.65393, "longitude": 10.09115}, "transactions": [], "price": "\u20ac", "location": {"address1": "Heegbarg 31", "address2": "", "address3": "", "city": "Hamburg", "zip_code": "22391", "country": "DE", "state": "HH", "display_address": ["Heegbarg 31", "22391 Hamburg", "Germany"]}, "phone": "+491723701230", "display_phone": "+49 172 3701230", "distance": 989.329591580996}, {"id": "onL_LBuNCJPqKnDVBTTojw", "alias": "mai-mai-asia-food-hamburg-2", "name": "Mai-Mai Asia Food", "image_url": "", "is_closed": false, "url": "https://www.yelp.com/biz/mai-mai-asia-food-hamburg-2?adjust_creative=hBJOknVQJ58S5goQyjmwRw&utm_campaign=yelp_api_v3&utm_medium=api_v3_business_search&utm_source=hBJOknVQJ58S5goQyjmwRw", "review_count": 4, "categories": [{"alias": "panasian", "title": "Pan Asian"}], "rating": 2.0, "coordinates": {"latitude": 53.6121, "longitude": 10.0749}, "transactions": [], "price": "\u20ac", "location": {"address1": "Bramfelder Chaussee 230", "address2": "", "address3": "", "city": "Hamburg", "zip_code": "22177", "country": "DE", "state": "HH", "display_address": ["Bramfelder Chaussee 230", "22177 Hamburg", "Germany"]}, "phone": "", "display_phone": "", "distance": 3801.0041744230643}, {"id": "1pIR6Fl5whNkeQjmQ1rK2w", "alias": "markthalle-im-aez-hamburg", "name": "Markthalle im AEZ", "image_url": "https://s3-media2.fl.yelpcdn.com/bphoto/XSOY7tC_9Ay-YXNkKPDynQ/o.jpg", "is_closed": false, "url": "https://www.yelp.com/biz/markthalle-im-aez-hamburg?adjust_creative=hBJOknVQJ58S5goQyjmwRw&utm_campaign=yelp_api_v3&utm_medium=api_v3_business_search&utm_source=hBJOknVQJ58S5goQyjmwRw", "review_count": 4, "categories": [{"alias": "food_court", "title": "Food Court"}], "rating": 4.0, "coordinates": {"latitude": 53.65393, "longitude": 10.09115}, "transactions": [], "price": "\u20ac\u20ac", "location": {"address1": "Heegbarg 31", "address2": "", "address3": "", "city": "Hamburg", "zip_code": "22391", "country": "DE", "state": "HH", "display_address": ["Heegbarg 31", "22391 Hamburg", "Germany"]}, "phone": "", "display_phone": "", "distance": 989.329591580996}, {"id": "zSNIGhj5NtIfyFxvzZDp7A", "alias": "pizza-max-hamburg-6", "name": "Pizza Max", "image_url": "https://s3-media2.fl.yelpcdn.com/bphoto/_pLL7A0gR7JC9YnJghE4xw/o.jpg", "is_closed": false, "url": "https://www.yelp.com/biz/pizza-max-hamburg-6?adjust_creative=hBJOknVQJ58S5goQyjmwRw&utm_campaign=yelp_api_v3&utm_medium=api_v3_business_search&utm_source=hBJOknVQJ58S5goQyjmwRw", "review_count": 11, "categories": [{"alias": "pizza", "title": "Pizza"}], "rating": 2.5, "coordinates": {"latitude": 53.6072, "longitude": 10.0716}, "transactions": [], "price": "\u20ac\u20ac", "location": {"address1": "Bramfelder Chaussee 175", "address2": null, "address3": null, "city": "Hamburg", "zip_code": "22177", "country": "DE", "state": "HH", "display_address": ["Bramfelder Chaussee 175", "22177 Hamburg", "Germany"]}, "phone": "+494060039455", "display_phone": "+49 40 60039455", "distance": 4385.660197779525}, {"id": "kD8Ix_dghW0M_aqCOxqcyQ", "alias": "hallo-pizza-hamburg-11", "name": "Hallo Pizza!", "image_url": "https://s3-media3.fl.yelpcdn.com/bphoto/irdJeeiQGZMEz6uhP_hTdQ/o.jpg", "is_closed": false, "url": "https://www.yelp.com/biz/hallo-pizza-hamburg-11?adjust_creative=hBJOknVQJ58S5goQyjmwRw&utm_campaign=yelp_api_v3&utm_medium=api_v3_business_search&utm_source=hBJOknVQJ58S5goQyjmwRw", "review_count": 14, "categories": [{"alias": "pizza", "title": "Pizza"}], "rating": 3.0, "coordinates": {"latitude": 53.62, "longitude": 10.0816}, "transactions": [], "price": "\u20ac\u20ac", "location": {"address1": "Bramfelder Chaussee 340", "address2": null, "address3": null, "city": "Hamburg", "zip_code": "22175", "country": "DE", "state": "HH", "display_address": ["Bramfelder Chaussee 340", "22175 Hamburg", "Germany"]}, "phone": "+49406364616", "display_phone": "+49 40 6364616", "distance": 2838.180271017332}, {"id": "fzEGjPIcjuxx_TVoEy9GVg", "alias": "weltladen-und-caf\u00e9-hamburg", "name": "Weltladen & Caf\u00e9", "image_url": "https://s3-media3.fl.yelpcdn.com/bphoto/dspuKA-13OlfLt_KHbjW_g/o.jpg", "is_closed": false, "url": "https://www.yelp.com/biz/weltladen-und-caf%C3%A9-hamburg?adjust_creative=hBJOknVQJ58S5goQyjmwRw&utm_campaign=yelp_api_v3&utm_medium=api_v3_business_search&utm_source=hBJOknVQJ58S5goQyjmwRw", "review_count": 2, "categories": [{"alias": "cafes", "title": "Cafes"}], "rating": 4.5, "coordinates": {"latitude": 53.6542200096796, "longitude": 10.1132201403379}, "transactions": [], "location": {"address1": "Saseler Markt 8", "address2": "", "address3": null, "city": "Hamburg", "zip_code": "22393", "country": "DE", "state": "HH", "display_address": ["Saseler Markt 8", "22393 Hamburg", "Germany"]}, "phone": "+494060011916", "display_phone": "+49 40 60011916", "distance": 1776.9519173795406}, {"id": "BBf28emT3PZT20SacrlPhw", "alias": "restaurant-seehof-hamburg-2", "name": "Restaurant  Seehof", "image_url": "https://s3-media1.fl.yelpcdn.com/bphoto/rrWnNBU9JjxefXeeJWtpqw/o.jpg", "is_closed": false, "url": "https://www.yelp.com/biz/restaurant-seehof-hamburg-2?adjust_creative=hBJOknVQJ58S5goQyjmwRw&utm_campaign=yelp_api_v3&utm_medium=api_v3_business_search&utm_source=hBJOknVQJ58S5goQyjmwRw", "review_count": 9, "categories": [{"alias": "german", "title": "German"}], "rating": 3.0, "coordinates": {"latitude": 53.6178, "longitude": 10.0729}, "transactions": [], "price": "\u20ac\u20ac\u20ac", "location": {"address1": "Fabriciusstr. 288", "address2": null, "address3": null, "city": "Hamburg", "zip_code": "22177", "country": "DE", "state": "HH", "display_address": ["Fabriciusstr. 288", "22177 Hamburg", "Germany"]}, "phone": "+49406426930", "display_phone": "+49 40 6426930", "distance": 3245.861125215662}, {"id": "xZgEJoV1fgi-jdQkHTJe6Q", "alias": "smileys-hamburg-12", "name": "Smiley's", "image_url": "https://s3-media4.fl.yelpcdn.com/bphoto/l8AuEvXYXnHPd4d86bnVWQ/o.jpg", "is_closed": false, "url": "https://www.yelp.com/biz/smileys-hamburg-12?adjust_creative=hBJOknVQJ58S5goQyjmwRw&utm_campaign=yelp_api_v3&utm_medium=api_v3_business_search&utm_source=hBJOknVQJ58S5goQyjmwRw", "review_count": 4, "categories": [{"alias": "pizza", "title": "Pizza"}], "rating": 3.5, "coordinates": {"latitude": 53.6536, "longitude": 10.1057}, "transactions": [], "price": "\u20ac\u20ac", "location": {"address1": "Stadtbahnstr. 32", "address2": null, "address3": null, "city": "Hamburg", "zip_code": "22393", "country": "DE", "state": "HH", "display_address": ["Stadtbahnstr. 32", "22393 Hamburg", "Germany"]}, "phone": "+49406017585", "display_phone": "+49 40 6017585", "distance": 1355.3232251163658}, {"id": "XHoJ8z8cZtNirkEusoeqXg", "alias": "die-croquemaker-hamburg-10", "name": "die croquemaker", "image_url": "https://s3-media1.fl.yelpcdn.com/bphoto/xhVsaUApPa08dYYZm4CL9g/o.jpg", "is_closed": false, "url": "https://www.yelp.com/biz/die-croquemaker-hamburg-10?adjust_creative=hBJOknVQJ58S5goQyjmwRw&utm_campaign=yelp_api_v3&utm_medium=api_v3_business_search&utm_source=hBJOknVQJ58S5goQyjmwRw", "review_count": 3, "categories": [{"alias": "salad", "title": "Salad"}, {"alias": "sandwiches", "title": "Sandwiches"}], "rating": 3.5, "coordinates": {"latitude": 53.66016, "longitude": 10.08344}, "transactions": [], "price": "\u20ac", "location": {"address1": "Harksheider Str. 6", "address2": "", "address3": "", "city": "Hamburg", "zip_code": "22399", "country": "DE", "state": "HH", "display_address": ["Harksheider Str. 6", "22399 Hamburg", "Germany"]}, "phone": "+494063669355", "display_phone": "+49 40 63669355", "distance": 1803.2331590448769}, {"id": "FaDAnhkh9AVB0nx0VLtFHQ", "alias": "croques-und-crepes-hamburg", "name": "Croques und Crepes", "image_url": "https://s3-media2.fl.yelpcdn.com/bphoto/5C8Dy8_FnwafyD5_FuqHnQ/o.jpg", "is_closed": false, "url": "https://www.yelp.com/biz/croques-und-crepes-hamburg?adjust_creative=hBJOknVQJ58S5goQyjmwRw&utm_campaign=yelp_api_v3&utm_medium=api_v3_business_search&utm_source=hBJOknVQJ58S5goQyjmwRw", "review_count": 14, "categories": [{"alias": "creperies", "title": "Creperies"}, {"alias": "sandwiches", "title": "Sandwiches"}], "rating": 3.5, "coordinates": {"latitude": 53.62124, "longitude": 10.08212}, "transactions": [], "price": "\u20ac\u20ac\u20ac", "location": {"address1": "Bramfelder Chaussee 371", "address2": null, "address3": null, "city": "Hamburg", "zip_code": "22175", "country": "DE", "state": "HH", "display_address": ["Bramfelder Chaussee 371", "22175 Hamburg", "Germany"]}, "phone": "+49406428784", "display_phone": "+49 40 6428784", "distance": 2703.1379898311634}, {"id": "vixzdPa4bSkp1j5WArZOIg", "alias": "nordsee-hamburg-9", "name": "Nordsee", "image_url": "https://s3-media2.fl.yelpcdn.com/bphoto/nGNBuu-SYtJ2QNrakRltBg/o.jpg", "is_closed": false, "url": "https://www.yelp.com/biz/nordsee-hamburg-9?adjust_creative=hBJOknVQJ58S5goQyjmwRw&utm_campaign=yelp_api_v3&utm_medium=api_v3_business_search&utm_source=hBJOknVQJ58S5goQyjmwRw", "review_count": 10, "categories": [{"alias": "fischbroetchen", "title": "Fischbroetchen"}, {"alias": "fishmonger", "title": "Fishmonger"}], "rating": 3.0, "coordinates": {"latitude": 53.65393, "longitude": 10.09115}, "transactions": [], "price": "\u20ac", "location": {"address1": "Heegbarg 31", "address2": "", "address3": "", "city": "Hamburg", "zip_code": "22391", "country": "DE", "state": "HH", "display_address": ["Heegbarg 31", "22391 Hamburg", "Germany"]}, "phone": "+494060679386", "display_phone": "+49 40 60679386", "distance": 989.329591580996}, {"id": "qj5bOPBNMeG7pF_tsz-3PA", "alias": "allcafe-hamburg-5", "name": "ALLcafe", "image_url": "https://s3-media2.fl.yelpcdn.com/bphoto/8oZBxkQpizsfrUsikY8pPg/o.jpg", "is_closed": false, "url": "https://www.yelp.com/biz/allcafe-hamburg-5?adjust_creative=hBJOknVQJ58S5goQyjmwRw&utm_campaign=yelp_api_v3&utm_medium=api_v3_business_search&utm_source=hBJOknVQJ58S5goQyjmwRw", "review_count": 3, "categories": [{"alias": "cafes", "title": "Cafes"}], "rating": 2.5, "coordinates": {"latitude": 53.6123638, "longitude": 10.0755506}, "transactions": [], "price": "\u20ac\u20ac\u20ac", "location": {"address1": "Bramfelder Chaussee 230", "address2": "", "address3": null, "city": "Hamburg", "zip_code": "22177", "country": "DE", "state": "HH", "display_address": ["Bramfelder Chaussee 230", "22177 Hamburg", "Germany"]}, "phone": "+494088178548", "display_phone": "+49 40 88178548", "distance": 3760.777717873178}, {"id": "pf_RiSbOuQKLkhDodWf4Zg", "alias": "schweinske-hamburg-15", "name": "Schweinske", "image_url": "https://s3-media4.fl.yelpcdn.com/bphoto/sCaYsSGos8klABFJQtC-Sg/o.jpg", "is_closed": false, "url": "https://www.yelp.com/biz/schweinske-hamburg-15?adjust_creative=hBJOknVQJ58S5goQyjmwRw&utm_campaign=yelp_api_v3&utm_medium=api_v3_business_search&utm_source=hBJOknVQJ58S5goQyjmwRw", "review_count": 61, "categories": [{"alias": "german", "title": "German"}, {"alias": "breakfast_brunch", "title": "Breakfast & Brunch"}], "rating": 3.0, "coordinates": {"latitude": 53.608071, "longitude": 10.11642}, "transactions": [], "price": "\u20ac\u20ac", "location": {"address1": "August-Krogmann-Str. 25", "address2": null, "address3": null, "city": "Hamburg", "zip_code": "22159", "country": "DE", "state": "HH", "display_address": ["August-Krogmann-Str. 25", "22159 Hamburg", "Germany"]}, "phone": "+494064537516", "display_phone": "+49 40 64537516", "distance": 4413.096767290337}, {"id": "c0O6LqqtdJgrIc-8_jm_gQ", "alias": "schlemmermeyer-hamburg", "name": "Schlemmermeyer", "image_url": "https://s3-media1.fl.yelpcdn.com/bphoto/fckByPFm5z8FkLxRyaVHGQ/o.jpg", "is_closed": false, "url": "https://www.yelp.com/biz/schlemmermeyer-hamburg?adjust_creative=hBJOknVQJ58S5goQyjmwRw&utm_campaign=yelp_api_v3&utm_medium=api_v3_business_search&utm_source=hBJOknVQJ58S5goQyjmwRw", "review_count": 7, "categories": [{"alias": "delicatessen", "title": "Delicatessen"}, {"alias": "foodstands", "title": "Food Stands"}], "rating": 3.5, "coordinates": {"latitude": 53.65393, "longitude": 10.09115}, "transactions": [], "price": "\u20ac\u20ac\u20ac", "location": {"address1": "Heegbarg 31", "address2": "", "address3": null, "city": "Hamburg", "zip_code": "22391", "country": "DE", "state": "HH", "display_address": ["Heegbarg 31", "22391 Hamburg", "Germany"]}, "phone": "+49406025483", "display_phone": "+49 40 6025483", "distance": 989.329591580996}, {"id": "o_LN9k-Z3QJkZvz0X4rBDA", "alias": "pizza-max-hamburg-12", "name": "Pizza Max", "image_url": "https://s3-media4.fl.yelpcdn.com/bphoto/_AzpobkYYDAl3_R92xh7iQ/o.jpg", "is_closed": false, "url": "https://www.yelp.com/biz/pizza-max-hamburg-12?adjust_creative=hBJOknVQJ58S5goQyjmwRw&utm_campaign=yelp_api_v3&utm_medium=api_v3_business_search&utm_source=hBJOknVQJ58S5goQyjmwRw", "review_count": 1, "categories": [{"alias": "pizza", "title": "Pizza"}], "rating": 1.0, "coordinates": {"latitude": 53.6513347185164, "longitude": 10.1057185789401}, "transactions": [], "price": "\u20ac\u20ac\u20ac", "location": {"address1": "Stadtbahnstr. 19 a", "address2": "", "address3": "", "city": "Hamburg", "zip_code": "22393", "country": "DE", "state": "HH", "display_address": ["Stadtbahnstr. 19 a", "22393 Hamburg", "Germany"]}, "phone": "+4940600886800", "display_phone": "+49 40 600886800", "distance": 1188.7078122017551}]