[{"id": "ELSgUz9uk7GUAYf3oVKVEA", "alias": "mediterran-rellingen", "name": "Mediterran", "image_url": "https://s3-media1.fl.yelpcdn.com/bphoto/RYt9YEiUqHKGRyWdOsvbKg/o.jpg", "is_closed": false, "url": "https://www.yelp.com/biz/mediterran-rellingen?adjust_creative=hBJOknVQJ58S5goQyjmwRw&utm_campaign=yelp_api_v3&utm_medium=api_v3_business_search&utm_source=hBJOknVQJ58S5goQyjmwRw", "review_count": 10, "categories": [{"alias": "mediterranean", "title": "Mediterranean"}, {"alias": "greek", "title": "Greek"}], "rating": 4.5, "coordinates": {"latitude": 53.6413, "longitude": 9.8707}, "transactions": [], "location": {"address1": "Kellerstr. 136", "address2": null, "address3": null, "city": "Rellingen", "zip_code": "25462", "country": "DE", "state": "SH", "display_address": ["Kellerstr. 136", "25462 Rellingen", "Germany"]}, "phone": "+4941017739088", "display_phone": "+49 4101 7739088", "distance": 832.4114696055314}, {"id": "YRasnJiv7h-b4tRn0KNpYg", "alias": "osteria-da-vino-due-ellerbek-2", "name": "Osteria da vino due", "image_url": "https://s3-media1.fl.yelpcdn.com/bphoto/BiR08U4iMiR6srOZCVnVbw/o.jpg", "is_closed": false, "url": "https://www.yelp.com/biz/osteria-da-vino-due-ellerbek-2?adjust_creative=hBJOknVQJ58S5goQyjmwRw&utm_campaign=yelp_api_v3&utm_medium=api_v3_business_search&utm_source=hBJOknVQJ58S5goQyjmwRw", "review_count": 9, "categories": [{"alias": "italian", "title": "Italian"}], "rating": 4.5, "coordinates": {"latitude": 53.6383, "longitude": 9.89487}, "transactions": [], "price": "\u20ac\u20ac", "location": {"address1": "Pinneberger Str. 167", "address2": null, "address3": null, "city": "Ellerbek", "zip_code": "25474", "country": "DE", "state": "SH", "display_address": ["Pinneberger Str. 167", "25474 Ellerbek", "Germany"]}, "phone": "+4941015389474", "display_phone": "+49 4101 5389474", "distance": 1364.9628118202756}, {"id": "_LUuKmNFXN6A4i20goDGUg", "alias": "ph\u00f6nix-halstenbek", "name": "Ph\u00f6nix", "image_url": "https://s3-media3.fl.yelpcdn.com/bphoto/SoEnGeDnEFAM1hsMO929BA/o.jpg", "is_closed": false, "url": "https://www.yelp.com/biz/ph%C3%B6nix-halstenbek?adjust_creative=hBJOknVQJ58S5goQyjmwRw&utm_campaign=yelp_api_v3&utm_medium=api_v3_business_search&utm_source=hBJOknVQJ58S5goQyjmwRw", "review_count": 28, "categories": [{"alias": "mongolian", "title": "Mongolian"}, {"alias": "chinese", "title": "Chinese"}], "rating": 4.0, "coordinates": {"latitude": 53.62784, "longitude": 9.86763}, "transactions": [], "price": "\u20ac\u20ac", "location": {"address1": "Seemoorweg 3", "address2": "", "address3": "", "city": "Halstenbek", "zip_code": "25469", "country": "DE", "state": "SH", "display_address": ["Seemoorweg 3", "25469 Halstenbek", "Germany"]}, "phone": "+4941017877168", "display_phone": "+49 4101 7877168", "distance": 2235.8003080194567}, {"id": "PaaxDcMwc1d3G-xo8DsSqQ", "alias": "a-vila-b\u00f6nningstedt", "name": "A Vila", "image_url": "https://s3-media2.fl.yelpcdn.com/bphoto/NecesgGDzoLQFnvY9kAFJg/o.jpg", "is_closed": false, "url": "https://www.yelp.com/biz/a-vila-b%C3%B6nningstedt?adjust_creative=hBJOknVQJ58S5goQyjmwRw&utm_campaign=yelp_api_v3&utm_medium=api_v3_business_search&utm_source=hBJOknVQJ58S5goQyjmwRw", "review_count": 1, "categories": [{"alias": "portuguese", "title": "Portuguese"}], "rating": 4.0, "coordinates": {"latitude": 53.66626, "longitude": 9.90408}, "transactions": [], "price": "\u20ac\u20ac", "location": {"address1": "Kieler Str. 108", "address2": "", "address3": null, "city": "B\u00f6nningstedt", "zip_code": "25474", "country": "DE", "state": "SH", "display_address": ["Kieler Str. 108", "25474 B\u00f6nningstedt", "Germany"]}, "phone": "+491627937275", "display_phone": "+49 162 7937275", "distance": 2719.792804385886}, {"id": "7a-Dyfunt-X_SJPspqXehw", "alias": "heinsens-ellerbek-2", "name": "Heinsen's", "image_url": "https://s3-media2.fl.yelpcdn.com/bphoto/0ZIo5c_ankkPINDYYFSOSg/o.jpg", "is_closed": false, "url": "https://www.yelp.com/biz/heinsens-ellerbek-2?adjust_creative=hBJOknVQJ58S5goQyjmwRw&utm_campaign=yelp_api_v3&utm_medium=api_v3_business_search&utm_source=hBJOknVQJ58S5goQyjmwRw", "review_count": 45, "categories": [{"alias": "beergarden", "title": "Beer Garden"}, {"alias": "german", "title": "German"}, {"alias": "cafes", "title": "Cafes"}], "rating": 4.0, "coordinates": {"latitude": 53.6574301268169, "longitude": 9.86982769226836}, "transactions": [], "price": "\u20ac\u20ac\u20ac", "location": {"address1": "Hauptstr. 1", "address2": "", "address3": null, "city": "Ellerbek", "zip_code": "25474", "country": "DE", "state": "SH", "display_address": ["Hauptstr. 1", "25474 Ellerbek", "Germany"]}, "phone": "+49410137770", "display_phone": "+49 4101 37770", "distance": 1366.0174223181975}, {"id": "OsNFTVOq1FNvKoX0qP4VYw", "alias": "asia-corner-rellingen", "name": "Asia Corner", "image_url": "https://s3-media2.fl.yelpcdn.com/bphoto/7M2nrMQMp_02G2extUal9w/o.jpg", "is_closed": false, "url": "https://www.yelp.com/biz/asia-corner-rellingen?adjust_creative=hBJOknVQJ58S5goQyjmwRw&utm_campaign=yelp_api_v3&utm_medium=api_v3_business_search&utm_source=hBJOknVQJ58S5goQyjmwRw", "review_count": 11, "categories": [{"alias": "panasian", "title": "Pan Asian"}], "rating": 4.5, "coordinates": {"latitude": 53.6313, "longitude": 9.87175}, "transactions": [], "price": "\u20ac", "location": {"address1": "Heidestr. 94-96", "address2": null, "address3": null, "city": "Rellingen", "zip_code": "25463", "country": "DE", "state": "SH", "display_address": ["Heidestr. 94-96", "25463 Rellingen", "Germany"]}, "phone": "+49410135615", "display_phone": "+49 4101 35615", "distance": 1778.705722337459}, {"id": "iJLghYawgo2EVAF9ZTUKcQ", "alias": "namaste-ji-halstenbek", "name": "Namaste Ji", "image_url": "https://s3-media2.fl.yelpcdn.com/bphoto/ARJwFj3mBrHNAAGpiMufvA/o.jpg", "is_closed": false, "url": "https://www.yelp.com/biz/namaste-ji-halstenbek?adjust_creative=hBJOknVQJ58S5goQyjmwRw&utm_campaign=yelp_api_v3&utm_medium=api_v3_business_search&utm_source=hBJOknVQJ58S5goQyjmwRw", "review_count": 21, "categories": [{"alias": "indpak", "title": "Indian"}], "rating": 4.0, "coordinates": {"latitude": 53.6114863, "longitude": 9.8675694}, "transactions": [], "price": "\u20ac\u20ac", "location": {"address1": "Heideweg 164", "address2": "", "address3": "", "city": "Halstenbek", "zip_code": "25469", "country": "DE", "state": "SH", "display_address": ["Heideweg 164", "25469 Halstenbek", "Germany"]}, "phone": "+4941018303486", "display_phone": "+49 4101 8303486", "distance": 3990.1734155819718}, {"id": "_-yghXnoHuCDkoJ1PITbRQ", "alias": "restaurant-krupunder-park-rellingen", "name": "Restaurant  Krupunder Park", "image_url": "https://s3-media2.fl.yelpcdn.com/bphoto/e_hYIcXMuOZ6wd2SLeOsPw/o.jpg", "is_closed": false, "url": "https://www.yelp.com/biz/restaurant-krupunder-park-rellingen?adjust_creative=hBJOknVQJ58S5goQyjmwRw&utm_campaign=yelp_api_v3&utm_medium=api_v3_business_search&utm_source=hBJOknVQJ58S5goQyjmwRw", "review_count": 2, "categories": [{"alias": "german", "title": "German"}], "rating": 2.5, "coordinates": {"latitude": 53.6256, "longitude": 9.87642}, "transactions": [], "location": {"address1": "Altonaer Str. 325", "address2": null, "address3": null, "city": "Rellingen", "zip_code": "25462", "country": "DE", "state": "SH", "display_address": ["Altonaer Str. 325", "25462 Rellingen", "Germany"]}, "phone": "+49410139190", "display_phone": "+49 4101 39190", "distance": 2344.7327955414708}, {"id": "zDTCnV42IWDiLU634mtuvw", "alias": "fisch-keyser-hamburg", "name": "Fisch Keyser", "image_url": "https://s3-media3.fl.yelpcdn.com/bphoto/FqasgwpXGPaetxfOzM2KLQ/o.jpg", "is_closed": false, "url": "https://www.yelp.com/biz/fisch-keyser-hamburg?adjust_creative=hBJOknVQJ58S5goQyjmwRw&utm_campaign=yelp_api_v3&utm_medium=api_v3_business_search&utm_source=hBJOknVQJ58S5goQyjmwRw", "review_count": 1, "categories": [{"alias": "seafood", "title": "Seafood"}, {"alias": "fishmonger", "title": "Fishmonger"}], "rating": 5.0, "coordinates": {"latitude": 53.6076, "longitude": 9.90247}, "transactions": [], "price": "\u20ac\u20ac\u20ac", "location": {"address1": "Ekenknick 7", "address2": null, "address3": null, "city": "Hamburg", "zip_code": "22523", "country": "DE", "state": "HH", "display_address": ["Ekenknick 7", "22523 Hamburg", "Germany"]}, "phone": "+49405709230", "display_phone": "+49 40 5709230", "distance": 4591.144282478348}, {"id": "XUcJ8_4fM5UYeIvddit8Cw", "alias": "salat-paradies-hamburg", "name": "Salat Paradies", "image_url": "https://s3-media2.fl.yelpcdn.com/bphoto/20oszzjcj1Do5jfzrffP-g/o.jpg", "is_closed": false, "url": "https://www.yelp.com/biz/salat-paradies-hamburg?adjust_creative=hBJOknVQJ58S5goQyjmwRw&utm_campaign=yelp_api_v3&utm_medium=api_v3_business_search&utm_source=hBJOknVQJ58S5goQyjmwRw", "review_count": 6, "categories": [{"alias": "salad", "title": "Salad"}], "rating": 5.0, "coordinates": {"latitude": 53.60903, "longitude": 9.90259}, "transactions": [], "price": "\u20ac", "location": {"address1": "Pinneberger Chaussee 9", "address2": "", "address3": "", "city": "Hamburg", "zip_code": "22523", "country": "DE", "state": "HH", "display_address": ["Pinneberger Chaussee 9", "22523 Hamburg", "Germany"]}, "phone": "", "display_phone": "", "distance": 4443.935641660322}, {"id": "GUrTjGeZPsfnFj9vYxZEAg", "alias": "taverna-naxos-hamburg", "name": "Taverna Naxos", "image_url": "https://s3-media4.fl.yelpcdn.com/bphoto/PdNpB6WagloBKcXoPFGL9w/o.jpg", "is_closed": false, "url": "https://www.yelp.com/biz/taverna-naxos-hamburg?adjust_creative=hBJOknVQJ58S5goQyjmwRw&utm_campaign=yelp_api_v3&utm_medium=api_v3_business_search&utm_source=hBJOknVQJ58S5goQyjmwRw", "review_count": 11, "categories": [{"alias": "greek", "title": "Greek"}], "rating": 4.0, "coordinates": {"latitude": 53.6064, "longitude": 9.8741}, "transactions": [], "price": "\u20ac\u20ac", "location": {"address1": "Franzosenkoppel 104", "address2": null, "address3": null, "city": "Hamburg", "zip_code": "22547", "country": "DE", "state": "HH", "display_address": ["Franzosenkoppel 104", "22547 Hamburg", "Germany"]}, "phone": "+494042903695", "display_phone": "+49 40 42903695", "distance": 4484.960989879854}, {"id": "KrElkJZG4z9o-Zq_6dld1w", "alias": "dritte-etage-halstenbek", "name": "dritte Etage", "image_url": "", "is_closed": false, "url": "https://www.yelp.com/biz/dritte-etage-halstenbek?adjust_creative=hBJOknVQJ58S5goQyjmwRw&utm_campaign=yelp_api_v3&utm_medium=api_v3_business_search&utm_source=hBJOknVQJ58S5goQyjmwRw", "review_count": 2, "categories": [{"alias": "restaurants", "title": "Restaurants"}], "rating": 4.5, "coordinates": {"latitude": 53.6311, "longitude": 9.86055}, "transactions": [], "price": "\u20ac\u20ac", "location": {"address1": "G\u00e4rtnerstr.  133-137", "address2": "Event GmbH", "address3": null, "city": "Halstenbek", "zip_code": "25469", "country": "DE", "state": "SH", "display_address": ["G\u00e4rtnerstr.  133-137", "Event GmbH", "25469 Halstenbek", "Germany"]}, "phone": "", "display_phone": "", "distance": 2133.285508394425}, {"id": "1mAxuvRfmAxDFnFi7_xNmQ", "alias": "montenegro-bei-sabina-b\u00f6nningstedt", "name": "Montenegro bei Sabina", "image_url": "https://s3-media3.fl.yelpcdn.com/bphoto/LtTQiS7DcXdoUTdaFMeAQw/o.jpg", "is_closed": false, "url": "https://www.yelp.com/biz/montenegro-bei-sabina-b%C3%B6nningstedt?adjust_creative=hBJOknVQJ58S5goQyjmwRw&utm_campaign=yelp_api_v3&utm_medium=api_v3_business_search&utm_source=hBJOknVQJ58S5goQyjmwRw", "review_count": 2, "categories": [{"alias": "mediterranean", "title": "Mediterranean"}], "rating": 3.0, "coordinates": {"latitude": 53.66233, "longitude": 9.89852}, "transactions": [], "price": "\u20ac\u20ac", "location": {"address1": "Rugenbergener Str. 50", "address2": "", "address3": "", "city": "B\u00f6nningstedt", "zip_code": "25474", "country": "DE", "state": "SH", "display_address": ["Rugenbergener Str. 50", "25474 B\u00f6nningstedt", "Germany"]}, "phone": "+494089804210", "display_phone": "+49 40 89804210", "distance": 2147.2588260976286}, {"id": "u3ub5f0MS4qY67Q8XF9ZoA", "alias": "sodemanns-fisch-kutter-nr-1-hamburg", "name": "Sodemann's Fisch-Kutter Nr. 1", "image_url": "https://s3-media3.fl.yelpcdn.com/bphoto/BlysP6fVPaL0eEjKvEbByw/o.jpg", "is_closed": false, "url": "https://www.yelp.com/biz/sodemanns-fisch-kutter-nr-1-hamburg?adjust_creative=hBJOknVQJ58S5goQyjmwRw&utm_campaign=yelp_api_v3&utm_medium=api_v3_business_search&utm_source=hBJOknVQJ58S5goQyjmwRw", "review_count": 3, "categories": [{"alias": "foodtrucks", "title": "Food Trucks"}, {"alias": "fischbroetchen", "title": "Fischbroetchen"}], "rating": 5.0, "coordinates": {"latitude": 53.5537490844727, "longitude": 9.99182987213135}, "transactions": [], "price": "\u20ac\u20ac", "location": {"address1": "", "address2": null, "address3": "", "city": "Hamburg", "zip_code": "", "country": "DE", "state": "HH", "display_address": ["Hamburg", "Germany"]}, "phone": "+491773606663", "display_phone": "+49 177 3606663", "distance": 13017.616581733339}, {"id": "YakI5g9afEFa3blR_bmDkw", "alias": "akropolis-grillimbi\u00df-halstenbek", "name": "Akropolis Grillimbi\u00df", "image_url": "https://s3-media3.fl.yelpcdn.com/bphoto/MWSRdjtPM1kiIFMvwhUFkw/o.jpg", "is_closed": false, "url": "https://www.yelp.com/biz/akropolis-grillimbi%C3%9F-halstenbek?adjust_creative=hBJOknVQJ58S5goQyjmwRw&utm_campaign=yelp_api_v3&utm_medium=api_v3_business_search&utm_source=hBJOknVQJ58S5goQyjmwRw", "review_count": 11, "categories": [{"alias": "greek", "title": "Greek"}], "rating": 4.5, "coordinates": {"latitude": 53.6152941320271, "longitude": 9.86543951083672}, "transactions": [], "price": "\u20ac", "location": {"address1": "Siebentunnelweg 2", "address2": "", "address3": "", "city": "Halstenbek", "zip_code": "25469", "country": "DE", "state": "SH", "display_address": ["Siebentunnelweg 2", "25469 Halstenbek", "Germany"]}, "phone": "+49410143135", "display_phone": "+49 4101 43135", "distance": 3604.5192637888417}, {"id": "cwCtFenHJchTmZJoGXUq1g", "alias": "al-amir-hamburg-2", "name": "Al Amir", "image_url": "https://s3-media4.fl.yelpcdn.com/bphoto/wS6Zm0JlJnXAVBXtF--e0g/o.jpg", "is_closed": false, "url": "https://www.yelp.com/biz/al-amir-hamburg-2?adjust_creative=hBJOknVQJ58S5goQyjmwRw&utm_campaign=yelp_api_v3&utm_medium=api_v3_business_search&utm_source=hBJOknVQJ58S5goQyjmwRw", "review_count": 1, "categories": [{"alias": "falafel", "title": "Falafel"}, {"alias": "arabian", "title": "Arabian"}], "rating": 4.0, "coordinates": {"latitude": 53.6064816604014, "longitude": 9.90122202783823}, "transactions": [], "location": {"address1": "Elbgaustr. 34", "address2": "", "address3": null, "city": "Hamburg", "zip_code": "22523", "country": "DE", "state": "HH", "display_address": ["Elbgaustr. 34", "22523 Hamburg", "Germany"]}, "phone": "+494030722934", "display_phone": "+49 40 30722934", "distance": 4683.10076550364}, {"id": "y99Dx16-iQnGbYewdY2avQ", "alias": "cafesito-hamburg", "name": "Cafesito", "image_url": "https://s3-media2.fl.yelpcdn.com/bphoto/Vhj9HucNteaHZLfXDDpQZQ/o.jpg", "is_closed": false, "url": "https://www.yelp.com/biz/cafesito-hamburg?adjust_creative=hBJOknVQJ58S5goQyjmwRw&utm_campaign=yelp_api_v3&utm_medium=api_v3_business_search&utm_source=hBJOknVQJ58S5goQyjmwRw", "review_count": 7, "categories": [{"alias": "cafes", "title": "Cafes"}], "rating": 4.5, "coordinates": {"latitude": 53.6076505056097, "longitude": 9.90251942255149}, "transactions": [], "price": "\u20ac", "location": {"address1": "Ekenknick 7", "address2": "", "address3": "", "city": "Hamburg", "zip_code": "22523", "country": "DE", "state": "HH", "display_address": ["Ekenknick 7", "22523 Hamburg", "Germany"]}, "phone": "+494020226583", "display_phone": "+49 40 20226583", "distance": 4586.911630268521}, {"id": "siT-6-1zcdDFGSsyXtgi9w", "alias": "schweinske-hamburg-30", "name": "Schweinske", "image_url": "https://s3-media1.fl.yelpcdn.com/bphoto/L9_gWi7d05Dd4xys2_gQmA/o.jpg", "is_closed": false, "url": "https://www.yelp.com/biz/schweinske-hamburg-30?adjust_creative=hBJOknVQJ58S5goQyjmwRw&utm_campaign=yelp_api_v3&utm_medium=api_v3_business_search&utm_source=hBJOknVQJ58S5goQyjmwRw", "review_count": 38, "categories": [{"alias": "german", "title": "German"}], "rating": 3.5, "coordinates": {"latitude": 53.60983, "longitude": 9.90431}, "transactions": [], "price": "\u20ac", "location": {"address1": "Nebenbahnstr. 3", "address2": "", "address3": "", "city": "Hamburg", "zip_code": "22523", "country": "DE", "state": "HH", "display_address": ["Nebenbahnstr. 3", "22523 Hamburg", "Germany"]}, "phone": "+494057260020", "display_phone": "+49 40 57260020", "distance": 4404.35102041024}, {"id": "L1dXoEQuJKUY-T8aWGmp3Q", "alias": "ess-bahn-hamburg", "name": "ESS-Bahn", "image_url": "https://s3-media1.fl.yelpcdn.com/bphoto/jGlgMnmbJsq9hAd_qHWLRQ/o.jpg", "is_closed": false, "url": "https://www.yelp.com/biz/ess-bahn-hamburg?adjust_creative=hBJOknVQJ58S5goQyjmwRw&utm_campaign=yelp_api_v3&utm_medium=api_v3_business_search&utm_source=hBJOknVQJ58S5goQyjmwRw", "review_count": 6, "categories": [{"alias": "kebab", "title": "Kebab"}, {"alias": "hotdogs", "title": "Fast Food"}], "rating": 3.5, "coordinates": {"latitude": 53.6035625910885, "longitude": 9.89310401951185}, "transactions": [], "price": "\u20ac", "location": {"address1": "Elbgaustr", "address2": null, "address3": null, "city": "Hamburg", "zip_code": "22523", "country": "DE", "state": "HH", "display_address": ["Elbgaustr", "22523 Hamburg", "Germany"]}, "phone": "", "display_phone": "", "distance": 4867.6475931365}, {"id": "_SeEoymbbIQPXSjviHH8ug", "alias": "barthmann-hamburg-2", "name": "Barthmann", "image_url": "https://s3-media4.fl.yelpcdn.com/bphoto/Igpa83CmHWZV3l8f8_aZeg/o.jpg", "is_closed": false, "url": "https://www.yelp.com/biz/barthmann-hamburg-2?adjust_creative=hBJOknVQJ58S5goQyjmwRw&utm_campaign=yelp_api_v3&utm_medium=api_v3_business_search&utm_source=hBJOknVQJ58S5goQyjmwRw", "review_count": 1, "categories": [{"alias": "german", "title": "German"}], "rating": 5.0, "coordinates": {"latitude": 53.608907, "longitude": 9.903056}, "transactions": [], "price": "\u20ac\u20ac", "location": {"address1": "Pinneberger Chaussee 5 - 7", "address2": null, "address3": null, "city": "Hamburg", "zip_code": "22523", "country": "DE", "state": "HH", "display_address": ["Pinneberger Chaussee 5 - 7", "22523 Hamburg", "Germany"]}, "phone": "+494024181792", "display_phone": "+49 40 24181792", "distance": 4467.335241010716}, {"id": "t2bfjk3lmkS4tJJnwkIdJg", "alias": "achillion-hamburg", "name": "Achillion", "image_url": "https://s3-media1.fl.yelpcdn.com/bphoto/3n7FSMvN_Ng2k3IULfhJzQ/o.jpg", "is_closed": false, "url": "https://www.yelp.com/biz/achillion-hamburg?adjust_creative=hBJOknVQJ58S5goQyjmwRw&utm_campaign=yelp_api_v3&utm_medium=api_v3_business_search&utm_source=hBJOknVQJ58S5goQyjmwRw", "review_count": 6, "categories": [{"alias": "greek", "title": "Greek"}], "rating": 4.5, "coordinates": {"latitude": 53.609, "longitude": 9.90392}, "transactions": [], "location": {"address1": "Pinneberger Chaussee  4", "address2": null, "address3": null, "city": "Hamburg", "zip_code": "22523", "country": "DE", "state": "HH", "display_address": ["Pinneberger Chaussee  4", "22523 Hamburg", "Germany"]}, "phone": "+494057260833", "display_phone": "+49 40 57260833", "distance": 4477.707886295394}, {"id": "z8o46mNLRqgkqKbuXQQ-Jg", "alias": "smileys-hamburg-3", "name": "Smiley's", "image_url": "https://s3-media4.fl.yelpcdn.com/bphoto/j5tSs1sC0Fdgv9AAe_Ko1A/o.jpg", "is_closed": false, "url": "https://www.yelp.com/biz/smileys-hamburg-3?adjust_creative=hBJOknVQJ58S5goQyjmwRw&utm_campaign=yelp_api_v3&utm_medium=api_v3_business_search&utm_source=hBJOknVQJ58S5goQyjmwRw", "review_count": 11, "categories": [{"alias": "pizza", "title": "Pizza"}], "rating": 2.5, "coordinates": {"latitude": 53.6054, "longitude": 9.87443}, "transactions": [], "price": "\u20ac\u20ac\u20ac\u20ac", "location": {"address1": "Franzosenkoppel 111", "address2": null, "address3": null, "city": "Hamburg", "zip_code": "22547", "country": "DE", "state": "HH", "display_address": ["Franzosenkoppel 111", "22547 Hamburg", "Germany"]}, "phone": "+49408400200", "display_phone": "+49 40 8400200", "distance": 4594.127433938984}, {"id": "F09QZ5eyYNif_4yxJ1R6xw", "alias": "restaurant-naxos-ellerbek", "name": "Restaurant Naxos", "image_url": "", "is_closed": false, "url": "https://www.yelp.com/biz/restaurant-naxos-ellerbek?adjust_creative=hBJOknVQJ58S5goQyjmwRw&utm_campaign=yelp_api_v3&utm_medium=api_v3_business_search&utm_source=hBJOknVQJ58S5goQyjmwRw", "review_count": 3, "categories": [{"alias": "restaurants", "title": "Restaurants"}], "rating": 4.5, "coordinates": {"latitude": 53.6486, "longitude": 9.89857}, "transactions": [], "price": "\u20ac\u20ac", "location": {"address1": "Tilsiter Str. 1", "address2": null, "address3": null, "city": "Ellerbek", "zip_code": "25474", "country": "DE", "state": "SH", "display_address": ["Tilsiter Str. 1", "25474 Ellerbek", "Germany"]}, "phone": "+49410132629", "display_phone": "+49 4101 32629", "distance": 1268.8762325749663}, {"id": "bLto2fbxF4Mn0J2e6NrElQ", "alias": "quick-imbiss-hamburg", "name": "Quick Imbiss", "image_url": "https://s3-media2.fl.yelpcdn.com/bphoto/7TxqeoxsfUqukMAh0iLiQg/o.jpg", "is_closed": false, "url": "https://www.yelp.com/biz/quick-imbiss-hamburg?adjust_creative=hBJOknVQJ58S5goQyjmwRw&utm_campaign=yelp_api_v3&utm_medium=api_v3_business_search&utm_source=hBJOknVQJ58S5goQyjmwRw", "review_count": 6, "categories": [{"alias": "foodstands", "title": "Food Stands"}], "rating": 3.0, "coordinates": {"latitude": 53.608484, "longitude": 9.903575}, "transactions": [], "price": "\u20ac\u20ac", "location": {"address1": "Eidelstedter Platz 9", "address2": "", "address3": "", "city": "Hamburg", "zip_code": "22523", "country": "DE", "state": "HH", "display_address": ["Eidelstedter Platz 9", "22523 Hamburg", "Germany"]}, "phone": "+49405705455", "display_phone": "+49 40 5705455", "distance": 4523.337260074221}, {"id": "ASfFYjn9SicRSavc1zrZPg", "alias": "hornbach-grill-hamburg", "name": "Hornbach Grill", "image_url": "https://s3-media4.fl.yelpcdn.com/bphoto/PkkwVnRH-lIuZSDEbDfuBQ/o.jpg", "is_closed": false, "url": "https://www.yelp.com/biz/hornbach-grill-hamburg?adjust_creative=hBJOknVQJ58S5goQyjmwRw&utm_campaign=yelp_api_v3&utm_medium=api_v3_business_search&utm_source=hBJOknVQJ58S5goQyjmwRw", "review_count": 1, "categories": [{"alias": "german", "title": "German"}], "rating": 4.0, "coordinates": {"latitude": 53.6145788717666, "longitude": 9.90395821630955}, "transactions": [], "location": {"address1": "Hornbach Baumarkt", "address2": "Hosteiner Chausee 49", "address3": "", "city": "Hamburg", "zip_code": "22523", "country": "DE", "state": "HH", "display_address": ["Hornbach Baumarkt", "Hosteiner Chausee 49", "22523 Hamburg", "Germany"]}, "phone": "+494025330180", "display_phone": "+49 40 25330180", "distance": 3905.7702017284782}, {"id": "kIa0M8MDb9HJZ6SCIfLDMQ", "alias": "croque-cafe-hamburg", "name": "Croque-Cafe", "image_url": "https://s3-media2.fl.yelpcdn.com/bphoto/2AhwyNGoChzZUxXhLizfgw/o.jpg", "is_closed": false, "url": "https://www.yelp.com/biz/croque-cafe-hamburg?adjust_creative=hBJOknVQJ58S5goQyjmwRw&utm_campaign=yelp_api_v3&utm_medium=api_v3_business_search&utm_source=hBJOknVQJ58S5goQyjmwRw", "review_count": 6, "categories": [{"alias": "hotdogs", "title": "Fast Food"}, {"alias": "sandwiches", "title": "Sandwiches"}, {"alias": "pizza", "title": "Pizza"}], "rating": 4.0, "coordinates": {"latitude": 53.61059, "longitude": 9.89978}, "transactions": [], "location": {"address1": "Pinneberger Chaussee 21 b", "address2": "", "address3": "", "city": "Hamburg", "zip_code": "22523", "country": "DE", "state": "HH", "display_address": ["Pinneberger Chaussee 21 b", "22523 Hamburg", "Germany"]}, "phone": "+494057144915", "display_phone": "+49 40 57144915", "distance": 4226.0227051036845}, {"id": "Ci897JLvU6ZQkLMXslVpOw", "alias": "welcome-india-hamburg-4", "name": "Welcome India", "image_url": "https://s3-media4.fl.yelpcdn.com/bphoto/2TPQa28fX1M6iq7T_d6oBA/o.jpg", "is_closed": false, "url": "https://www.yelp.com/biz/welcome-india-hamburg-4?adjust_creative=hBJOknVQJ58S5goQyjmwRw&utm_campaign=yelp_api_v3&utm_medium=api_v3_business_search&utm_source=hBJOknVQJ58S5goQyjmwRw", "review_count": 1, "categories": [{"alias": "indpak", "title": "Indian"}], "rating": 3.0, "coordinates": {"latitude": 53.61041, "longitude": 9.90013}, "transactions": [], "location": {"address1": "Pinneberger Chaussee 21", "address2": null, "address3": "", "city": "Hamburg", "zip_code": "22523", "country": "DE", "state": "HH", "display_address": ["Pinneberger Chaussee 21", "22523 Hamburg", "Germany"]}, "phone": "+494057002297", "display_phone": "+49 40 57002297", "distance": 4245.606865744402}, {"id": "zR-dbwR5pqF3-A9z48W-FA", "alias": "kings-d\u00f6ner-hamburg", "name": "King's D\u00f6ner", "image_url": "", "is_closed": false, "url": "https://www.yelp.com/biz/kings-d%C3%B6ner-hamburg?adjust_creative=hBJOknVQJ58S5goQyjmwRw&utm_campaign=yelp_api_v3&utm_medium=api_v3_business_search&utm_source=hBJOknVQJ58S5goQyjmwRw", "review_count": 2, "categories": [{"alias": "kebab", "title": "Kebab"}], "rating": 4.0, "coordinates": {"latitude": 53.6088, "longitude": 9.9017}, "transactions": [], "location": {"address1": "Lohkampstr. 11", "address2": null, "address3": null, "city": "Hamburg", "zip_code": "22523", "country": "DE", "state": "HH", "display_address": ["Lohkampstr. 11", "22523 Hamburg", "Germany"]}, "phone": "+49405709577", "display_phone": "+49 40 5709577", "distance": 4448.431940838481}, {"id": "XFxWQHvOryVof0btQgmYvw", "alias": "metaxa-grill-hamburg", "name": "Metaxa Grill", "image_url": "https://s3-media1.fl.yelpcdn.com/bphoto/byTSbl9HgDlzLbs2QnUPYQ/o.jpg", "is_closed": false, "url": "https://www.yelp.com/biz/metaxa-grill-hamburg?adjust_creative=hBJOknVQJ58S5goQyjmwRw&utm_campaign=yelp_api_v3&utm_medium=api_v3_business_search&utm_source=hBJOknVQJ58S5goQyjmwRw", "review_count": 16, "categories": [{"alias": "greek", "title": "Greek"}], "rating": 3.5, "coordinates": {"latitude": 53.6122532485485, "longitude": 9.89839999595038}, "transactions": [], "price": "\u20ac\u20ac", "location": {"address1": "Pinneberger Chaussee 46", "address2": "", "address3": "", "city": "Hamburg", "zip_code": "22523", "country": "DE", "state": "HH", "display_address": ["Pinneberger Chaussee 46", "22523 Hamburg", "Germany"]}, "phone": "+4940579747", "display_phone": "+49 40 579747", "distance": 4015.149547999739}, {"id": "3if8K7vRrE-cIFnKiGg_nw", "alias": "cafe-bistro-alfi-b\u00f6nningstedt", "name": "Cafe Bistro Alfi", "image_url": "", "is_closed": false, "url": "https://www.yelp.com/biz/cafe-bistro-alfi-b%C3%B6nningstedt?adjust_creative=hBJOknVQJ58S5goQyjmwRw&utm_campaign=yelp_api_v3&utm_medium=api_v3_business_search&utm_source=hBJOknVQJ58S5goQyjmwRw", "review_count": 1, "categories": [{"alias": "cafes", "title": "Cafes"}, {"alias": "coffee", "title": "Coffee & Tea"}, {"alias": "german", "title": "German"}], "rating": 2.0, "coordinates": {"latitude": 53.6704, "longitude": 9.90271}, "transactions": [], "location": {"address1": "Kieler Str. 185", "address2": null, "address3": null, "city": "B\u00f6nningstedt", "zip_code": "25474", "country": "DE", "state": "SH", "display_address": ["Kieler Str. 185", "25474 B\u00f6nningstedt", "Germany"]}, "phone": "+494055693700", "display_phone": "+49 40 55693700", "distance": 3052.6219280036353}, {"id": "wCu4eQoOsWynAadvGCkfWA", "alias": "block-house-hamburg-16", "name": "Block House", "image_url": "https://s3-media2.fl.yelpcdn.com/bphoto/fFeTmLZ458Kle4uUO_iizg/o.jpg", "is_closed": false, "url": "https://www.yelp.com/biz/block-house-hamburg-16?adjust_creative=hBJOknVQJ58S5goQyjmwRw&utm_campaign=yelp_api_v3&utm_medium=api_v3_business_search&utm_source=hBJOknVQJ58S5goQyjmwRw", "review_count": 45, "categories": [{"alias": "steak", "title": "Steakhouses"}], "rating": 4.0, "coordinates": {"latitude": 53.6067964922858, "longitude": 9.90292561421343}, "transactions": [], "price": "\u20ac\u20ac\u20ac", "location": {"address1": "Alte Elbgaustr. 9", "address2": null, "address3": null, "city": "Hamburg", "zip_code": "22523", "country": "DE", "state": "HH", "display_address": ["Alte Elbgaustr. 9", "22523 Hamburg", "Germany"]}, "phone": "+49405703434", "display_phone": "+49 40 5703434", "distance": 4685.406573002031}, {"id": "PRNi969cArwqNCpob8xw1w", "alias": "eisc\u00e1fe-kind-ellerbek-2", "name": "Eisc\u00e1fe Kind", "image_url": "", "is_closed": false, "url": "https://www.yelp.com/biz/eisc%C3%A1fe-kind-ellerbek-2?adjust_creative=hBJOknVQJ58S5goQyjmwRw&utm_campaign=yelp_api_v3&utm_medium=api_v3_business_search&utm_source=hBJOknVQJ58S5goQyjmwRw", "review_count": 4, "categories": [{"alias": "icecream", "title": "Ice Cream & Frozen Yogurt"}, {"alias": "restaurants", "title": "Restaurants"}], "rating": 4.0, "coordinates": {"latitude": 53.63892, "longitude": 9.89387}, "transactions": [], "price": "\u20ac", "location": {"address1": "Pinneberger Str. 157", "address2": null, "address3": null, "city": "Ellerbek", "zip_code": "25474", "country": "DE", "state": "SH", "display_address": ["Pinneberger Str. 157", "25474 Ellerbek", "Germany"]}, "phone": "+49410136239", "display_phone": "+49 4101 36239", "distance": 1270.0006029675367}, {"id": "1w_lWa-fLXN-3ghsDp09rw", "alias": "odysseus-hamburg-2", "name": "Odysseus", "image_url": "https://s3-media1.fl.yelpcdn.com/bphoto/387UO3-M0mSvzV3FSE8grQ/o.jpg", "is_closed": false, "url": "https://www.yelp.com/biz/odysseus-hamburg-2?adjust_creative=hBJOknVQJ58S5goQyjmwRw&utm_campaign=yelp_api_v3&utm_medium=api_v3_business_search&utm_source=hBJOknVQJ58S5goQyjmwRw", "review_count": 25, "categories": [{"alias": "greek", "title": "Greek"}], "rating": 4.0, "coordinates": {"latitude": 53.6069, "longitude": 9.903345}, "transactions": [], "price": "\u20ac\u20ac", "location": {"address1": "Alte Elbgaustr. 7", "address2": null, "address3": null, "city": "Hamburg", "zip_code": "22523", "country": "DE", "state": "HH", "display_address": ["Alte Elbgaustr. 7", "22523 Hamburg", "Germany"]}, "phone": "+494057260224", "display_phone": "+49 40 57260224", "distance": 4683.701641978054}, {"id": "c5OhJe-RTfgKH_EH94L6Cg", "alias": "city-pizza-und-d\u00f6ner-b\u00f6nningstedt", "name": "City Pizza und D\u00f6ner", "image_url": "https://s3-media1.fl.yelpcdn.com/bphoto/d68sANcKEDDblPHVwU4vRQ/o.jpg", "is_closed": false, "url": "https://www.yelp.com/biz/city-pizza-und-d%C3%B6ner-b%C3%B6nningstedt?adjust_creative=hBJOknVQJ58S5goQyjmwRw&utm_campaign=yelp_api_v3&utm_medium=api_v3_business_search&utm_source=hBJOknVQJ58S5goQyjmwRw", "review_count": 4, "categories": [{"alias": "hotdogs", "title": "Fast Food"}, {"alias": "kebab", "title": "Kebab"}], "rating": 3.0, "coordinates": {"latitude": 53.6653, "longitude": 9.90443}, "transactions": [], "price": "\u20ac", "location": {"address1": "Kielerstr. 109", "address2": null, "address3": null, "city": "B\u00f6nningstedt", "zip_code": "25474", "country": "DE", "state": "SH", "display_address": ["Kielerstr. 109", "25474 B\u00f6nningstedt", "Germany"]}, "phone": "+494097074666", "display_phone": "+49 40 97074666", "distance": 2645.151268859321}, {"id": "APvIA_7ssxgC0atmQEFMcg", "alias": "burgerkultour-food-truck-hamburg-2", "name": "BurgerKultour Food Truck", "image_url": "https://s3-media4.fl.yelpcdn.com/bphoto/KoAuwalMnlAO8139MmdYBQ/o.jpg", "is_closed": false, "url": "https://www.yelp.com/biz/burgerkultour-food-truck-hamburg-2?adjust_creative=hBJOknVQJ58S5goQyjmwRw&utm_campaign=yelp_api_v3&utm_medium=api_v3_business_search&utm_source=hBJOknVQJ58S5goQyjmwRw", "review_count": 3, "categories": [{"alias": "foodtrucks", "title": "Food Trucks"}, {"alias": "burgers", "title": "Burgers"}], "rating": 4.5, "coordinates": {"latitude": 53.57154, "longitude": 9.95575}, "transactions": [], "price": "\u20ac\u20ac", "location": {"address1": "", "address2": "", "address3": "", "city": "Hamburg", "zip_code": "20259", "country": "DE", "state": "HH", "display_address": ["20259 Hamburg", "Germany"]}, "phone": "+4917626055122", "display_phone": "+49 176 26055122", "distance": 9817.206579227048}, {"id": "n_Yio-a9VzssOtDbgezpRA", "alias": "subu-sushi-burrito-hamburg-3", "name": "Subu Sushi Burrito", "image_url": "https://s3-media3.fl.yelpcdn.com/bphoto/x2oh5mzvkzvrXjswE_MjXQ/o.jpg", "is_closed": false, "url": "https://www.yelp.com/biz/subu-sushi-burrito-hamburg-3?adjust_creative=hBJOknVQJ58S5goQyjmwRw&utm_campaign=yelp_api_v3&utm_medium=api_v3_business_search&utm_source=hBJOknVQJ58S5goQyjmwRw", "review_count": 3, "categories": [{"alias": "foodtrucks", "title": "Food Trucks"}, {"alias": "sushi", "title": "Sushi Bars"}], "rating": 5.0, "coordinates": {"latitude": 53.5526819869811, "longitude": 10.0010880455375}, "transactions": [], "price": "\u20ac", "location": {"address1": "", "address2": "", "address3": "", "city": "Hamburg", "zip_code": "", "country": "DE", "state": "HH", "display_address": ["Hamburg", "Germany"]}, "phone": "+4917670834316", "display_phone": "+49 176 70834316", "distance": 13164.730833409729}, {"id": "Z8J3OywtEHYtZhorPrkqgw", "alias": "stockhausen-imbiss-rellingen", "name": "Stockhausen Imbiss", "image_url": "https://s3-media1.fl.yelpcdn.com/bphoto/JCxpY7CA011oVtXuuwkI8w/o.jpg", "is_closed": false, "url": "https://www.yelp.com/biz/stockhausen-imbiss-rellingen?adjust_creative=hBJOknVQJ58S5goQyjmwRw&utm_campaign=yelp_api_v3&utm_medium=api_v3_business_search&utm_source=hBJOknVQJ58S5goQyjmwRw", "review_count": 10, "categories": [{"alias": "hotdogs", "title": "Fast Food"}], "rating": 4.0, "coordinates": {"latitude": 53.6302548, "longitude": 9.8798666}, "transactions": [], "price": "\u20ac", "location": {"address1": "Siemensstr. 43", "address2": "", "address3": null, "city": "Rellingen", "zip_code": "25462", "country": "DE", "state": "SH", "display_address": ["Siemensstr. 43", "25462 Rellingen", "Germany"]}, "phone": "+49410130200", "display_phone": "+49 4101 30200", "distance": 1817.730674713927}, {"id": "veek4OBOkG19MI_y4-kfcA", "alias": "r\u00fcya-restaurant-hamburg", "name": "R\u00fcya Restaurant", "image_url": "https://s3-media2.fl.yelpcdn.com/bphoto/-aQqEQcApNp2mRDDbL6l4Q/o.jpg", "is_closed": false, "url": "https://www.yelp.com/biz/r%C3%BCya-restaurant-hamburg?adjust_creative=hBJOknVQJ58S5goQyjmwRw&utm_campaign=yelp_api_v3&utm_medium=api_v3_business_search&utm_source=hBJOknVQJ58S5goQyjmwRw", "review_count": 3, "categories": [{"alias": "kebab", "title": "Kebab"}], "rating": 3.5, "coordinates": {"latitude": 53.6076, "longitude": 9.9025}, "transactions": [], "price": "\u20ac", "location": {"address1": "Ekenknick 5", "address2": null, "address3": null, "city": "Hamburg", "zip_code": "22523", "country": "DE", "state": "HH", "display_address": ["Ekenknick 5", "22523 Hamburg", "Germany"]}, "phone": "+4917657445616", "display_phone": "+49 176 57445616", "distance": 4591.79403555921}, {"id": "0bx1_ob51GPbGzPvBv8oTQ", "alias": "yak-asia-imbiss-hamburg-2", "name": "Yak Asia Imbiss", "image_url": "https://s3-media3.fl.yelpcdn.com/bphoto/kGHf_jVgeEF_MnvruU3yyA/o.jpg", "is_closed": false, "url": "https://www.yelp.com/biz/yak-asia-imbiss-hamburg-2?adjust_creative=hBJOknVQJ58S5goQyjmwRw&utm_campaign=yelp_api_v3&utm_medium=api_v3_business_search&utm_source=hBJOknVQJ58S5goQyjmwRw", "review_count": 18, "categories": [{"alias": "foodstands", "title": "Food Stands"}, {"alias": "panasian", "title": "Pan Asian"}], "rating": 2.5, "coordinates": {"latitude": 53.6067, "longitude": 9.90184}, "transactions": [], "price": "\u20ac\u20ac", "location": {"address1": "Elbgaustr. 28", "address2": null, "address3": null, "city": "Hamburg", "zip_code": "22523", "country": "DE", "state": "HH", "display_address": ["Elbgaustr. 28", "22523 Hamburg", "Germany"]}, "phone": "+494053206206", "display_phone": "+49 40 53206206", "distance": 4672.598732886272}, {"id": "SeodQIjOcsrznD7rwIB-Jw", "alias": "the-big-balmy-hamburg-2", "name": "The Big Balmy", "image_url": "https://s3-media2.fl.yelpcdn.com/bphoto/KWUCQvGDONs_iDxlKXzgvQ/o.jpg", "is_closed": false, "url": "https://www.yelp.com/biz/the-big-balmy-hamburg-2?adjust_creative=hBJOknVQJ58S5goQyjmwRw&utm_campaign=yelp_api_v3&utm_medium=api_v3_business_search&utm_source=hBJOknVQJ58S5goQyjmwRw", "review_count": 27, "categories": [{"alias": "burgers", "title": "Burgers"}, {"alias": "foodtrucks", "title": "Food Trucks"}], "rating": 3.5, "coordinates": {"latitude": 53.537786, "longitude": 10.028218}, "transactions": [], "price": "\u20ac\u20ac", "location": {"address1": "", "address2": null, "address3": null, "city": "Hamburg", "zip_code": "", "country": "DE", "state": "HH", "display_address": ["Hamburg", "Germany"]}, "phone": "+494069278630", "display_phone": "+49 40 69278630", "distance": 15575.178744355937}, {"id": "fNU2DnLXg9_k6bqsu0YoHQ", "alias": "nur-hier-hamburg-24", "name": "Nur Hier", "image_url": "https://s3-media1.fl.yelpcdn.com/bphoto/Q4m3Cxa12ZrcBvKBmoRR7w/o.jpg", "is_closed": false, "url": "https://www.yelp.com/biz/nur-hier-hamburg-24?adjust_creative=hBJOknVQJ58S5goQyjmwRw&utm_campaign=yelp_api_v3&utm_medium=api_v3_business_search&utm_source=hBJOknVQJ58S5goQyjmwRw", "review_count": 2, "categories": [{"alias": "bakeries", "title": "Bakeries"}, {"alias": "cafes", "title": "Cafes"}], "rating": 2.5, "coordinates": {"latitude": 53.608535, "longitude": 9.903662}, "transactions": [], "price": "\u20ac\u20ac\u20ac", "location": {"address1": "Eidelstedter Platz 9", "address2": "", "address3": null, "city": "Hamburg", "zip_code": "22523", "country": "DE", "state": "HH", "display_address": ["Eidelstedter Platz 9", "22523 Hamburg", "Germany"]}, "phone": "+49405707754", "display_phone": "+49 40 5707754", "distance": 4520.032920503817}]