[{"id": "MRdD8qB9IyiGvFTBs3spWQ", "alias": "gitano-appen", "name": "Gitano", "image_url": "https://s3-media2.fl.yelpcdn.com/bphoto/KQcoV2w2DVp_k7DrAAS4eg/o.jpg", "is_closed": false, "url": "https://www.yelp.com/biz/gitano-appen?adjust_creative=hBJOknVQJ58S5goQyjmwRw&utm_campaign=yelp_api_v3&utm_medium=api_v3_business_search&utm_source=hBJOknVQJ58S5goQyjmwRw", "review_count": 11, "categories": [{"alias": "steak", "title": "Steakhouses"}, {"alias": "italian", "title": "Italian"}, {"alias": "german", "title": "German"}], "rating": 4.5, "coordinates": {"latitude": 53.65929, "longitude": 9.74224}, "transactions": [], "price": "\u20ac\u20ac", "location": {"address1": "Eekhoff 1", "address2": "", "address3": "", "city": "Appen", "zip_code": "25482", "country": "DE", "state": "SH", "display_address": ["Eekhoff 1", "25482 Appen", "Germany"]}, "phone": "+4941018594858", "display_phone": "+49 4101 8594858", "distance": 1594.3383706864672}, {"id": "g7P4cznEKh4cfBw9J_B4iA", "alias": "28-bar-und-kitchen-appen", "name": "28 bar & kitchen", "image_url": "https://s3-media3.fl.yelpcdn.com/bphoto/_OCvDMZ-BAXrZw3806P_oQ/o.jpg", "is_closed": false, "url": "https://www.yelp.com/biz/28-bar-und-kitchen-appen?adjust_creative=hBJOknVQJ58S5goQyjmwRw&utm_campaign=yelp_api_v3&utm_medium=api_v3_business_search&utm_source=hBJOknVQJ58S5goQyjmwRw", "review_count": 1, "categories": [{"alias": "bars", "title": "Bars"}, {"alias": "international", "title": "International"}], "rating": 5.0, "coordinates": {"latitude": 53.65966, "longitude": 9.7507}, "transactions": [], "location": {"address1": "Hauptstr. 28", "address2": "", "address3": null, "city": "Appen", "zip_code": "25482", "country": "DE", "state": "SH", "display_address": ["Hauptstr. 28", "25482 Appen", "Germany"]}, "phone": "+4941015346020", "display_phone": "+49 4101 5346020", "distance": 1994.8418214017445}, {"id": "RBnruditDaiqKpy0QDFtJg", "alias": "almthof-appen", "name": "Almthof", "image_url": "https://s3-media3.fl.yelpcdn.com/bphoto/UNyWxDXT4dSVhdGvvF42mQ/o.jpg", "is_closed": false, "url": "https://www.yelp.com/biz/almthof-appen?adjust_creative=hBJOknVQJ58S5goQyjmwRw&utm_campaign=yelp_api_v3&utm_medium=api_v3_business_search&utm_source=hBJOknVQJ58S5goQyjmwRw", "review_count": 17, "categories": [{"alias": "kids_activities", "title": "Kids Activities"}, {"alias": "cafes", "title": "Cafes"}, {"alias": "attractionfarms", "title": "Attraction Farms"}], "rating": 4.0, "coordinates": {"latitude": 53.66443, "longitude": 9.72184}, "transactions": [], "price": "\u20ac\u20ac", "location": {"address1": "Almtweg 37", "address2": "", "address3": "", "city": "Appen", "zip_code": "25482", "country": "DE", "state": "SH", "display_address": ["Almtweg 37", "25482 Appen", "Germany"]}, "phone": "+494101208429", "display_phone": "+49 4101 208429", "distance": 1758.549692012613}, {"id": "ETO7FWjeaKWqclkOKM9U-Q", "alias": "restaurant-lindenkrug-tornesch", "name": "Restaurant Lindenkrug", "image_url": "https://s3-media1.fl.yelpcdn.com/bphoto/bhx02cZDxmd6pFyWhekxlA/o.jpg", "is_closed": false, "url": "https://www.yelp.com/biz/restaurant-lindenkrug-tornesch?adjust_creative=hBJOknVQJ58S5goQyjmwRw&utm_campaign=yelp_api_v3&utm_medium=api_v3_business_search&utm_source=hBJOknVQJ58S5goQyjmwRw", "review_count": 4, "categories": [{"alias": "greek", "title": "Greek"}], "rating": 4.5, "coordinates": {"latitude": 53.6853, "longitude": 9.7284}, "transactions": [], "price": "\u20ac\u20ac", "location": {"address1": "Hafenstr.  1", "address2": null, "address3": null, "city": "Tornesch", "zip_code": "25436", "country": "DE", "state": "SH", "display_address": ["Hafenstr.  1", "25436 Tornesch", "Germany"]}, "phone": "+494122954940", "display_phone": "+49 4122 954940", "distance": 4190.1369630350955}, {"id": "Axo7thop82ZVhjxDnhH-iA", "alias": "tower-restaurant-cafe-heist", "name": "Tower Restaurant Cafe", "image_url": "https://s3-media2.fl.yelpcdn.com/bphoto/nfC9sII36vPKSy5FbS2hGg/o.jpg", "is_closed": false, "url": "https://www.yelp.com/biz/tower-restaurant-cafe-heist?adjust_creative=hBJOknVQJ58S5goQyjmwRw&utm_campaign=yelp_api_v3&utm_medium=api_v3_business_search&utm_source=hBJOknVQJ58S5goQyjmwRw", "review_count": 14, "categories": [{"alias": "german", "title": "German"}, {"alias": "cafes", "title": "Cafes"}], "rating": 3.5, "coordinates": {"latitude": 53.6442639765515, "longitude": 9.70469087362289}, "transactions": [], "price": "\u20ac\u20ac", "location": {"address1": "B\u00fcltenkoppel 19 A", "address2": "", "address3": "", "city": "Heist", "zip_code": "25492", "country": "DE", "state": "SH", "display_address": ["B\u00fcltenkoppel 19 A", "25492 Heist", "Germany"]}, "phone": "+4941224030173", "display_phone": "+49 4122 4030173", "distance": 1603.4837892842509}, {"id": "2jzIbZsfzca5drJYk7JwbQ", "alias": "the-bao-bros-hamburg-2", "name": "The Bao Bros", "image_url": "https://s3-media1.fl.yelpcdn.com/bphoto/vUMA4Y35x3UwZk6fMJfZRw/o.jpg", "is_closed": false, "url": "https://www.yelp.com/biz/the-bao-bros-hamburg-2?adjust_creative=hBJOknVQJ58S5goQyjmwRw&utm_campaign=yelp_api_v3&utm_medium=api_v3_business_search&utm_source=hBJOknVQJ58S5goQyjmwRw", "review_count": 2, "categories": [{"alias": "foodtrucks", "title": "Food Trucks"}, {"alias": "burgers", "title": "Burgers"}], "rating": 4.0, "coordinates": {"latitude": 53.5533409118652, "longitude": 9.99246978759766}, "transactions": [], "price": "\u20ac", "location": {"address1": "", "address2": "", "address3": "", "city": "Hamburg", "zip_code": "", "country": "DE", "state": "HH", "display_address": ["Hamburg", "Germany"]}, "phone": "+4915140700076", "display_phone": "+49 1514 0700076", "distance": 20536.575415406936}]