[{"id": "ZQz5Ymoqjjg8NJ81EFATfA", "alias": "vietstreet-norderstedt", "name": "VietStreet", "image_url": "https://s3-media1.fl.yelpcdn.com/bphoto/LU4Uw_TTiF2IhCRSU4xZKw/o.jpg", "is_closed": false, "url": "https://www.yelp.com/biz/vietstreet-norderstedt?adjust_creative=hBJOknVQJ58S5goQyjmwRw&utm_campaign=yelp_api_v3&utm_medium=api_v3_business_search&utm_source=hBJOknVQJ58S5goQyjmwRw", "review_count": 6, "categories": [{"alias": "vietnamese", "title": "Vietnamese"}], "rating": 4.0, "coordinates": {"latitude": 53.687892795006, "longitude": 10.0393799319863}, "transactions": [], "price": "\u20ac", "location": {"address1": "Mittelstr. 60", "address2": "", "address3": null, "city": "Norderstedt", "zip_code": "22851", "country": "DE", "state": "SH", "display_address": ["Mittelstr. 60", "22851 Norderstedt", "Germany"]}, "phone": "+494080007488", "display_phone": "+49 40 80007488", "distance": 3119.9813371323758}, {"id": "X0BoKNuX9MbTV2iocJM4Dg", "alias": "l-aurora-hamburg", "name": "L'Aurora", "image_url": "https://s3-media1.fl.yelpcdn.com/bphoto/LXjU73iBR-DwNyAgeJCCUw/o.jpg", "is_closed": false, "url": "https://www.yelp.com/biz/l-aurora-hamburg?adjust_creative=hBJOknVQJ58S5goQyjmwRw&utm_campaign=yelp_api_v3&utm_medium=api_v3_business_search&utm_source=hBJOknVQJ58S5goQyjmwRw", "review_count": 43, "categories": [{"alias": "italian", "title": "Italian"}], "rating": 4.5, "coordinates": {"latitude": 53.64086, "longitude": 10.03673}, "transactions": [], "price": "\u20ac\u20ac", "location": {"address1": "Hummelsb\u00fcttler Hauptstr. 47", "address2": null, "address3": null, "city": "Hamburg", "zip_code": "22339", "country": "DE", "state": "HH", "display_address": ["Hummelsb\u00fcttler Hauptstr. 47", "22339 Hamburg", "Germany"]}, "phone": "+494053054689", "display_phone": "+49 40 53054689", "distance": 2967.1157850783993}, {"id": "GU1igRg9uzWm6CcpOViIFA", "alias": "la-differenza-hamburg", "name": "La Differenza", "image_url": "https://s3-media3.fl.yelpcdn.com/bphoto/-UfVYWvR3FgQjXJPNnPywQ/o.jpg", "is_closed": false, "url": "https://www.yelp.com/biz/la-differenza-hamburg?adjust_creative=hBJOknVQJ58S5goQyjmwRw&utm_campaign=yelp_api_v3&utm_medium=api_v3_business_search&utm_source=hBJOknVQJ58S5goQyjmwRw", "review_count": 17, "categories": [{"alias": "italian", "title": "Italian"}], "rating": 4.5, "coordinates": {"latitude": 53.64908, "longitude": 10.05227}, "transactions": [], "price": "\u20ac\u20ac", "location": {"address1": "Rehagen 29", "address2": null, "address3": null, "city": "Hamburg", "zip_code": "22339", "country": "DE", "state": "HH", "display_address": ["Rehagen 29", "22339 Hamburg", "Germany"]}, "phone": "+494053888573", "display_phone": "+49 40 53888573", "distance": 1624.5288445142544}, {"id": "DYFepTmhElYWxp0q8maI9Q", "alias": "khan-mongolei-hamburg", "name": "Khan Mongolei", "image_url": "https://s3-media1.fl.yelpcdn.com/bphoto/q2K-kQKbPvMY5N9SVtbV6A/o.jpg", "is_closed": false, "url": "https://www.yelp.com/biz/khan-mongolei-hamburg?adjust_creative=hBJOknVQJ58S5goQyjmwRw&utm_campaign=yelp_api_v3&utm_medium=api_v3_business_search&utm_source=hBJOknVQJ58S5goQyjmwRw", "review_count": 102, "categories": [{"alias": "mongolian", "title": "Mongolian"}, {"alias": "sushi", "title": "Sushi Bars"}, {"alias": "buffets", "title": "Buffets"}], "rating": 4.5, "coordinates": {"latitude": 53.642496696467, "longitude": 10.0465416388703}, "transactions": [], "price": "\u20ac\u20ac", "location": {"address1": "Hummelsb\u00fctteler Markt 2", "address2": "", "address3": null, "city": "Hamburg", "zip_code": "22339", "country": "DE", "state": "HH", "display_address": ["Hummelsb\u00fctteler Markt 2", "22339 Hamburg", "Germany"]}, "phone": "+494063679073", "display_phone": "+49 40 63679073", "distance": 2496.3608213464668}, {"id": "VbKiVGP2cCppm1x1ez_bBg", "alias": "san-daniele-hamburg", "name": "San Daniele", "image_url": "https://s3-media1.fl.yelpcdn.com/bphoto/wzgPp1VLVtYHabRYDzL22A/o.jpg", "is_closed": false, "url": "https://www.yelp.com/biz/san-daniele-hamburg?adjust_creative=hBJOknVQJ58S5goQyjmwRw&utm_campaign=yelp_api_v3&utm_medium=api_v3_business_search&utm_source=hBJOknVQJ58S5goQyjmwRw", "review_count": 43, "categories": [{"alias": "italian", "title": "Italian"}], "rating": 4.0, "coordinates": {"latitude": 53.6638351834504, "longitude": 10.0749372835047}, "transactions": [], "price": "\u20ac\u20ac\u20ac", "location": {"address1": "Langenhorner Stra\u00dfe-Ost 7", "address2": "", "address3": "", "city": "Hamburg", "zip_code": "22399", "country": "DE", "state": "HH", "display_address": ["Langenhorner Stra\u00dfe-Ost 7", "22399 Hamburg", "Germany"]}, "phone": "+494061164693", "display_phone": "+49 40 61164693", "distance": 884.3286339874782}, {"id": "iuPJKyKtsjHryy0xnZG4CA", "alias": "mazza-hamburg-3", "name": "Mazza", "image_url": "https://s3-media2.fl.yelpcdn.com/bphoto/5NCsz4dUUqIaLQQb-lrhPQ/o.jpg", "is_closed": false, "url": "https://www.yelp.com/biz/mazza-hamburg-3?adjust_creative=hBJOknVQJ58S5goQyjmwRw&utm_campaign=yelp_api_v3&utm_medium=api_v3_business_search&utm_source=hBJOknVQJ58S5goQyjmwRw", "review_count": 17, "categories": [{"alias": "oriental", "title": "Oriental"}, {"alias": "syrian", "title": "Syrian"}], "rating": 4.0, "coordinates": {"latitude": 53.6582646278701, "longitude": 10.0855578650344}, "transactions": [], "price": "\u20ac\u20ac\u20ac", "location": {"address1": "Poppenb\u00fctteler Weg 236", "address2": "", "address3": "", "city": "Hamburg", "zip_code": "22399", "country": "DE", "state": "HH", "display_address": ["Poppenb\u00fctteler Weg 236", "22399 Hamburg", "Germany"]}, "phone": "+494060878240", "display_phone": "+49 40 60878240", "distance": 1669.5340979207222}, {"id": "fsqoTlQ1pGsdfp_QG74qeA", "alias": "barolo-norderstedt", "name": "Barolo", "image_url": "https://s3-media2.fl.yelpcdn.com/bphoto/zNqdQDcNMjYHd6JfCa7S9g/o.jpg", "is_closed": false, "url": "https://www.yelp.com/biz/barolo-norderstedt?adjust_creative=hBJOknVQJ58S5goQyjmwRw&utm_campaign=yelp_api_v3&utm_medium=api_v3_business_search&utm_source=hBJOknVQJ58S5goQyjmwRw", "review_count": 35, "categories": [{"alias": "italian", "title": "Italian"}], "rating": 4.0, "coordinates": {"latitude": 53.6942, "longitude": 10.045}, "transactions": [], "price": "\u20ac\u20ac", "location": {"address1": "Segeberger Chaussee 241", "address2": null, "address3": null, "city": "Norderstedt", "zip_code": "22851", "country": "DE", "state": "SH", "display_address": ["Segeberger Chaussee 241", "22851 Norderstedt", "Germany"]}, "phone": "+494052901110", "display_phone": "+49 40 52901110", "distance": 3625.887099734039}, {"id": "bV705WPJtXyb5wXIFolr6w", "alias": "l-aurora-osteria-hamburg", "name": "L'Aurora Osteria", "image_url": "https://s3-media3.fl.yelpcdn.com/bphoto/zFLCwZ8h7MT7lme1-nnMXA/o.jpg", "is_closed": false, "url": "https://www.yelp.com/biz/l-aurora-osteria-hamburg?adjust_creative=hBJOknVQJ58S5goQyjmwRw&utm_campaign=yelp_api_v3&utm_medium=api_v3_business_search&utm_source=hBJOknVQJ58S5goQyjmwRw", "review_count": 1, "categories": [{"alias": "italian", "title": "Italian"}], "rating": 4.0, "coordinates": {"latitude": 53.65104, "longitude": 10.05286}, "transactions": [], "price": "\u20ac\u20ac", "location": {"address1": "Rehagen 20", "address2": "", "address3": "", "city": "Hamburg", "zip_code": "22339", "country": "DE", "state": "HH", "display_address": ["Rehagen 20", "22339 Hamburg", "Germany"]}, "phone": "+494052019050", "display_phone": "+49 40 52019050", "distance": 1486.1511669808049}, {"id": "d4iSYmQqtBJBTI1lVs66Xw", "alias": "china-restaurant-maixims-norderstedt", "name": "China Restaurant Maixims", "image_url": "https://s3-media3.fl.yelpcdn.com/bphoto/84313GFm4u_3mXIA3mfkAQ/o.jpg", "is_closed": false, "url": "https://www.yelp.com/biz/china-restaurant-maixims-norderstedt?adjust_creative=hBJOknVQJ58S5goQyjmwRw&utm_campaign=yelp_api_v3&utm_medium=api_v3_business_search&utm_source=hBJOknVQJ58S5goQyjmwRw", "review_count": 8, "categories": [{"alias": "chinese", "title": "Chinese"}], "rating": 4.0, "coordinates": {"latitude": 53.6948, "longitude": 10.0455}, "transactions": [], "price": "\u20ac", "location": {"address1": "Segeberger Chaussee 273", "address2": null, "address3": null, "city": "Norderstedt", "zip_code": "22851", "country": "DE", "state": "SH", "display_address": ["Segeberger Chaussee 273", "22851 Norderstedt", "Germany"]}, "phone": "+49405291628", "display_phone": "+49 40 5291628", "distance": 3679.954567255086}, {"id": "4LDu773rE99Tbdckn7XeSw", "alias": "restaurant-aretea-hamburg", "name": "Restaurant Aretea", "image_url": "https://s3-media2.fl.yelpcdn.com/bphoto/B0V75D9TXaFVr4i2EewzMw/o.jpg", "is_closed": false, "url": "https://www.yelp.com/biz/restaurant-aretea-hamburg?adjust_creative=hBJOknVQJ58S5goQyjmwRw&utm_campaign=yelp_api_v3&utm_medium=api_v3_business_search&utm_source=hBJOknVQJ58S5goQyjmwRw", "review_count": 24, "categories": [{"alias": "greek", "title": "Greek"}, {"alias": "italian", "title": "Italian"}], "rating": 4.0, "coordinates": {"latitude": 53.6424, "longitude": 10.0482}, "transactions": [], "price": "\u20ac\u20ac", "location": {"address1": "Hummelsb\u00fctteler Weg 52", "address2": null, "address3": null, "city": "Hamburg", "zip_code": "22339", "country": "DE", "state": "HH", "display_address": ["Hummelsb\u00fctteler Weg 52", "22339 Hamburg", "Germany"]}, "phone": "+49405388242", "display_phone": "+49 40 5388242", "distance": 2465.084554698677}, {"id": "c3W3dGZPa7ypn3dK9Egnuw", "alias": "trattoria-mondello-hamburg", "name": "Trattoria Mondello", "image_url": "https://s3-media1.fl.yelpcdn.com/bphoto/3wCpzWG0GuIRb2henRPbaw/o.jpg", "is_closed": false, "url": "https://www.yelp.com/biz/trattoria-mondello-hamburg?adjust_creative=hBJOknVQJ58S5goQyjmwRw&utm_campaign=yelp_api_v3&utm_medium=api_v3_business_search&utm_source=hBJOknVQJ58S5goQyjmwRw", "review_count": 1, "categories": [{"alias": "italian", "title": "Italian"}], "rating": 1.0, "coordinates": {"latitude": 53.66567, "longitude": 10.07862}, "transactions": [], "price": "\u20ac", "location": {"address1": "Kramer-Kray-Weg 1", "address2": "", "address3": null, "city": "Hamburg", "zip_code": "22399", "country": "DE", "state": "HH", "display_address": ["Kramer-Kray-Weg 1", "22399 Hamburg", "Germany"]}, "phone": "+49406021835", "display_phone": "+49 40 6021835", "distance": 1304.638515569187}, {"id": "pfIlDu9lscJcPY7UWGiq5A", "alias": "gastst\u00e4tte-zum-krombacher-hamburg", "name": "Gastst\u00e4tte Zum Krombacher", "image_url": "https://s3-media4.fl.yelpcdn.com/bphoto/aCdhDL4qJan_zjn5oPMCXA/o.jpg", "is_closed": false, "url": "https://www.yelp.com/biz/gastst%C3%A4tte-zum-krombacher-hamburg?adjust_creative=hBJOknVQJ58S5goQyjmwRw&utm_campaign=yelp_api_v3&utm_medium=api_v3_business_search&utm_source=hBJOknVQJ58S5goQyjmwRw", "review_count": 4, "categories": [{"alias": "restaurants", "title": "Restaurants"}], "rating": 4.0, "coordinates": {"latitude": 53.6395, "longitude": 10.0856}, "transactions": [], "location": {"address1": "Classenweg 1A", "address2": null, "address3": null, "city": "Hamburg", "zip_code": "22391", "country": "DE", "state": "HH", "display_address": ["Classenweg 1A", "22391 Hamburg", "Germany"]}, "phone": "+49405361881", "display_phone": "+49 40 5361881", "distance": 3065.3615025117724}, {"id": "i59YO-Z7DMbsZfuVJkHAbg", "alias": "caf\u00e9-im-herrenhaus-hamburg", "name": "Caf\u00e9 im Herrenhaus", "image_url": "https://s3-media4.fl.yelpcdn.com/bphoto/_O4BK-aezMWcfmA6NauPKg/o.jpg", "is_closed": false, "url": "https://www.yelp.com/biz/caf%C3%A9-im-herrenhaus-hamburg?adjust_creative=hBJOknVQJ58S5goQyjmwRw&utm_campaign=yelp_api_v3&utm_medium=api_v3_business_search&utm_source=hBJOknVQJ58S5goQyjmwRw", "review_count": 17, "categories": [{"alias": "german", "title": "German"}, {"alias": "cafes", "title": "Cafes"}], "rating": 4.0, "coordinates": {"latitude": 53.6435, "longitude": 10.072}, "transactions": [], "price": "\u20ac\u20ac", "location": {"address1": "Wellingsb\u00fcttler Weg 71", "address2": null, "address3": null, "city": "Hamburg", "zip_code": "22391", "country": "DE", "state": "HH", "display_address": ["Wellingsb\u00fcttler Weg 71", "22391 Hamburg", "Germany"]}, "phone": "+494097070980", "display_phone": "+49 40 97070980", "distance": 2285.6283586525547}, {"id": "jAog6reofXxNtjjvEn_gQA", "alias": "asia-wok-hamburg-4", "name": "Asia Wok", "image_url": "https://s3-media4.fl.yelpcdn.com/bphoto/e7-z1ZsXkMjO12pVsnUwDQ/o.jpg", "is_closed": false, "url": "https://www.yelp.com/biz/asia-wok-hamburg-4?adjust_creative=hBJOknVQJ58S5goQyjmwRw&utm_campaign=yelp_api_v3&utm_medium=api_v3_business_search&utm_source=hBJOknVQJ58S5goQyjmwRw", "review_count": 8, "categories": [{"alias": "panasian", "title": "Pan Asian"}], "rating": 4.0, "coordinates": {"latitude": 53.6230931, "longitude": 10.0843982}, "transactions": [], "price": "\u20ac\u20ac", "location": {"address1": "Bramfelder Chaussee 390", "address2": "", "address3": "", "city": "Hamburg", "zip_code": "22175", "country": "DE", "state": "HH", "display_address": ["Bramfelder Chaussee 390", "22175 Hamburg", "Germany"]}, "phone": "+494023848426", "display_phone": "+49 40 23848426", "distance": 4696.557333915439}, {"id": "pg4AgtCd0Kkm6hbAkSAyXw", "alias": "caf\u00e9-neumann-hamburg-2", "name": "Caf\u00e9 Neumann", "image_url": "https://s3-media2.fl.yelpcdn.com/bphoto/NjsWinMWnULVnr_UlLu2iw/o.jpg", "is_closed": false, "url": "https://www.yelp.com/biz/caf%C3%A9-neumann-hamburg-2?adjust_creative=hBJOknVQJ58S5goQyjmwRw&utm_campaign=yelp_api_v3&utm_medium=api_v3_business_search&utm_source=hBJOknVQJ58S5goQyjmwRw", "review_count": 3, "categories": [{"alias": "cafes", "title": "Cafes"}], "rating": 4.5, "coordinates": {"latitude": 53.64398, "longitude": 10.04788}, "transactions": [], "price": "\u20ac\u20ac", "location": {"address1": "Brillkamp 8", "address2": "", "address3": "", "city": "Hamburg", "zip_code": "22339", "country": "DE", "state": "HH", "display_address": ["Brillkamp 8", "22339 Hamburg", "Germany"]}, "phone": "+49405390080", "display_phone": "+49 40 5390080", "distance": 2305.3989416192444}, {"id": "_fv4mbLQKAirm4KW3s1j3g", "alias": "restaurant-athen-hamburg", "name": "Restaurant Athen", "image_url": "https://s3-media3.fl.yelpcdn.com/bphoto/T4ng9MvjFP6ciahw433ndw/o.jpg", "is_closed": false, "url": "https://www.yelp.com/biz/restaurant-athen-hamburg?adjust_creative=hBJOknVQJ58S5goQyjmwRw&utm_campaign=yelp_api_v3&utm_medium=api_v3_business_search&utm_source=hBJOknVQJ58S5goQyjmwRw", "review_count": 23, "categories": [{"alias": "greek", "title": "Greek"}], "rating": 4.0, "coordinates": {"latitude": 53.669765, "longitude": 10.061259}, "transactions": [], "price": "\u20ac\u20ac\u20ac", "location": {"address1": "Heimgarten 19", "address2": null, "address3": null, "city": "Hamburg", "zip_code": "22399", "country": "DE", "state": "HH", "display_address": ["Heimgarten 19", "22399 Hamburg", "Germany"]}, "phone": "+49406021192", "display_phone": "+49 40 6021192", "distance": 740.9514241335689}, {"id": "h4zh7SXgzaRVnGBKe1g-Fg", "alias": "vivere-hamburg", "name": "Vivere", "image_url": "https://s3-media3.fl.yelpcdn.com/bphoto/oo91eDTmHqgLNCwwdRfPew/o.jpg", "is_closed": false, "url": "https://www.yelp.com/biz/vivere-hamburg?adjust_creative=hBJOknVQJ58S5goQyjmwRw&utm_campaign=yelp_api_v3&utm_medium=api_v3_business_search&utm_source=hBJOknVQJ58S5goQyjmwRw", "review_count": 10, "categories": [{"alias": "italian", "title": "Italian"}], "rating": 3.5, "coordinates": {"latitude": 53.63324, "longitude": 10.05516}, "transactions": [], "price": "\u20ac\u20ac", "location": {"address1": "Tornberg 40", "address2": null, "address3": null, "city": "Hamburg", "zip_code": "22337", "country": "DE", "state": "HH", "display_address": ["Tornberg 40", "22337 Hamburg", "Germany"]}, "phone": "+494032034545", "display_phone": "+49 40 32034545", "distance": 3348.033777310172}, {"id": "wndlRXhLYSXU5z7gbGlAdg", "alias": "mama-hamburg-6", "name": "Mama", "image_url": "https://s3-media4.fl.yelpcdn.com/bphoto/k0U6R2baGg14JUzzA2nUrg/o.jpg", "is_closed": false, "url": "https://www.yelp.com/biz/mama-hamburg-6?adjust_creative=hBJOknVQJ58S5goQyjmwRw&utm_campaign=yelp_api_v3&utm_medium=api_v3_business_search&utm_source=hBJOknVQJ58S5goQyjmwRw", "review_count": 6, "categories": [{"alias": "italian", "title": "Italian"}], "rating": 3.0, "coordinates": {"latitude": 53.64165, "longitude": 10.08053}, "transactions": [], "price": "\u20ac\u20ac", "location": {"address1": "Wellingsb\u00fcttler Weg 119", "address2": "", "address3": null, "city": "Hamburg", "zip_code": "22391", "country": "DE", "state": "HH", "display_address": ["Wellingsb\u00fcttler Weg 119", "22391 Hamburg", "Germany"]}, "phone": "+494050798555", "display_phone": "+49 40 50798555", "distance": 2692.947099671702}, {"id": "OA35RtLMB9BiDiKiCcb5Mw", "alias": "the-locks-hamburg", "name": "The Locks", "image_url": "https://s3-media4.fl.yelpcdn.com/bphoto/p-uNr1rP23jAz01r4gwO_w/o.jpg", "is_closed": false, "url": "https://www.yelp.com/biz/the-locks-hamburg?adjust_creative=hBJOknVQJ58S5goQyjmwRw&utm_campaign=yelp_api_v3&utm_medium=api_v3_business_search&utm_source=hBJOknVQJ58S5goQyjmwRw", "review_count": 109, "categories": [{"alias": "german", "title": "German"}, {"alias": "lounges", "title": "Lounges"}], "rating": 3.5, "coordinates": {"latitude": 53.6573, "longitude": 10.0868}, "transactions": [], "price": "\u20ac\u20ac\u20ac", "location": {"address1": "Marienhof 6", "address2": null, "address3": null, "city": "Hamburg", "zip_code": "22399", "country": "DE", "state": "HH", "display_address": ["Marienhof 6", "22399 Hamburg", "Germany"]}, "phone": "+49406116600", "display_phone": "+49 40 6116600", "distance": 1783.1852584153157}, {"id": "tSKYzaFFS5n_IyA4B08gwA", "alias": "eiscuisine-hamburg", "name": "Eiscuisine", "image_url": "https://s3-media4.fl.yelpcdn.com/bphoto/9F86yyioKX_cTF6Db5s_Sw/o.jpg", "is_closed": false, "url": "https://www.yelp.com/biz/eiscuisine-hamburg?adjust_creative=hBJOknVQJ58S5goQyjmwRw&utm_campaign=yelp_api_v3&utm_medium=api_v3_business_search&utm_source=hBJOknVQJ58S5goQyjmwRw", "review_count": 8, "categories": [{"alias": "icecream", "title": "Ice Cream & Frozen Yogurt"}, {"alias": "bistros", "title": "Bistros"}], "rating": 4.5, "coordinates": {"latitude": 53.64035, "longitude": 10.08292}, "transactions": [], "price": "\u20ac\u20ac", "location": {"address1": "Rolfinckstr. 12 a", "address2": "", "address3": "", "city": "Hamburg", "zip_code": "22391", "country": "DE", "state": "HH", "display_address": ["Rolfinckstr. 12 a", "22391 Hamburg", "Germany"]}, "phone": "+494052733011", "display_phone": "+49 40 52733011", "distance": 2894.995084275035}, {"id": "OM_AaoDLC5413uortWkAaw", "alias": "restaurant-eichenstuben-norderstedt", "name": "Restaurant Eichenstuben", "image_url": "", "is_closed": false, "url": "https://www.yelp.com/biz/restaurant-eichenstuben-norderstedt?adjust_creative=hBJOknVQJ58S5goQyjmwRw&utm_campaign=yelp_api_v3&utm_medium=api_v3_business_search&utm_source=hBJOknVQJ58S5goQyjmwRw", "review_count": 2, "categories": [{"alias": "international", "title": "International"}, {"alias": "german", "title": "German"}], "rating": 4.0, "coordinates": {"latitude": 53.6868, "longitude": 10.0379}, "transactions": [], "location": {"address1": "Mittelstr. 54", "address2": null, "address3": null, "city": "Norderstedt", "zip_code": "22851", "country": "DE", "state": "SH", "display_address": ["Mittelstr. 54", "22851 Norderstedt", "Germany"]}, "phone": "+49405240046", "display_phone": "+49 40 5240046", "distance": 3061.652530090531}, {"id": "UTJZ3y5MpyODzQC61PpiMg", "alias": "mr-asia-hamburg", "name": "Mr. Asia", "image_url": "https://s3-media4.fl.yelpcdn.com/bphoto/IqCskPcuIlWk1BpRfgwrXw/o.jpg", "is_closed": false, "url": "https://www.yelp.com/biz/mr-asia-hamburg?adjust_creative=hBJOknVQJ58S5goQyjmwRw&utm_campaign=yelp_api_v3&utm_medium=api_v3_business_search&utm_source=hBJOknVQJ58S5goQyjmwRw", "review_count": 22, "categories": [{"alias": "panasian", "title": "Pan Asian"}], "rating": 4.5, "coordinates": {"latitude": 53.62137, "longitude": 10.08228}, "transactions": [], "price": "\u20ac\u20ac", "location": {"address1": "Bramfelder Chaussee 373", "address2": null, "address3": null, "city": "Hamburg", "zip_code": "22175", "country": "DE", "state": "HH", "display_address": ["Bramfelder Chaussee 373", "22175 Hamburg", "Germany"]}, "phone": "+494063648189", "display_phone": "+49 40 63648189", "distance": 4839.070930116208}, {"id": "lt8UcN8patkOB14upuMwxg", "alias": "wellingten-hamburg", "name": "Wellingten", "image_url": "https://s3-media3.fl.yelpcdn.com/bphoto/Ym5ZLgnRSknz2q18l055NA/o.jpg", "is_closed": false, "url": "https://www.yelp.com/biz/wellingten-hamburg?adjust_creative=hBJOknVQJ58S5goQyjmwRw&utm_campaign=yelp_api_v3&utm_medium=api_v3_business_search&utm_source=hBJOknVQJ58S5goQyjmwRw", "review_count": 48, "categories": [{"alias": "german", "title": "German"}], "rating": 3.0, "coordinates": {"latitude": 53.6424, "longitude": 10.07712}, "transactions": [], "price": "\u20ac\u20ac\u20ac", "location": {"address1": "Wellingsb\u00fcttler Weg 91", "address2": "", "address3": "", "city": "Hamburg", "zip_code": "22391", "country": "DE", "state": "HH", "display_address": ["Wellingsb\u00fcttler Weg 91", "22391 Hamburg", "Germany"]}, "phone": "+49405362402", "display_phone": "+49 40 5362402", "distance": 2517.9048899638024}, {"id": "Yrwc_8UIk35r5CD9zJocUg", "alias": "inci-g\u00f6kcen-hamburg", "name": "Inci G\u00f6kcen", "image_url": "https://s3-media1.fl.yelpcdn.com/bphoto/JBzUM-EV3ntZ_pyaPTSvww/o.jpg", "is_closed": false, "url": "https://www.yelp.com/biz/inci-g%C3%B6kcen-hamburg?adjust_creative=hBJOknVQJ58S5goQyjmwRw&utm_campaign=yelp_api_v3&utm_medium=api_v3_business_search&utm_source=hBJOknVQJ58S5goQyjmwRw", "review_count": 1, "categories": [{"alias": "food", "title": "Food"}, {"alias": "hotdogs", "title": "Fast Food"}], "rating": 4.0, "coordinates": {"latitude": 53.633, "longitude": 10.0552}, "transactions": [], "location": {"address1": "Tornberg 34", "address2": null, "address3": null, "city": "Hamburg", "zip_code": "22337", "country": "DE", "state": "HH", "display_address": ["Tornberg 34", "22337 Hamburg", "Germany"]}, "phone": "+494050099934", "display_phone": "+49 40 50099934", "distance": 3373.655708329187}, {"id": "yw31WMkRCKED6y_TLI-ZFw", "alias": "schweinske-hamburg-5", "name": "Schweinske", "image_url": "https://s3-media4.fl.yelpcdn.com/bphoto/kHTqMtN7y3Mw34yX35VRcw/o.jpg", "is_closed": false, "url": "https://www.yelp.com/biz/schweinske-hamburg-5?adjust_creative=hBJOknVQJ58S5goQyjmwRw&utm_campaign=yelp_api_v3&utm_medium=api_v3_business_search&utm_source=hBJOknVQJ58S5goQyjmwRw", "review_count": 24, "categories": [{"alias": "german", "title": "German"}], "rating": 3.5, "coordinates": {"latitude": 53.659892, "longitude": 10.085127}, "transactions": [], "price": "\u20ac\u20ac", "location": {"address1": "Harksheider Str. 2", "address2": "", "address3": "", "city": "Hamburg", "zip_code": "22399", "country": "DE", "state": "HH", "display_address": ["Harksheider Str. 2", "22399 Hamburg", "Germany"]}, "phone": "+49406069873", "display_phone": "+49 40 6069873", "distance": 1592.5812637754386}, {"id": "YjhBkyUE9deL6k0a6HyJkQ", "alias": "restaurant-wine-coffee-und-more-hamburg", "name": "Restaurant Wine, Coffee & More", "image_url": "https://s3-media4.fl.yelpcdn.com/bphoto/1HuRL5imgxSkRut-YwCjrg/o.jpg", "is_closed": false, "url": "https://www.yelp.com/biz/restaurant-wine-coffee-und-more-hamburg?adjust_creative=hBJOknVQJ58S5goQyjmwRw&utm_campaign=yelp_api_v3&utm_medium=api_v3_business_search&utm_source=hBJOknVQJ58S5goQyjmwRw", "review_count": 5, "categories": [{"alias": "wine_bars", "title": "Wine Bars"}, {"alias": "german", "title": "German"}, {"alias": "breakfast_brunch", "title": "Breakfast & Brunch"}], "rating": 5.0, "coordinates": {"latitude": 53.647713, "longitude": 10.05882}, "transactions": [], "price": "\u20ac\u20ac\u20ac", "location": {"address1": "Barkhausenweg 6", "address2": null, "address3": null, "city": "Hamburg", "zip_code": "22339", "country": "DE", "state": "HH", "display_address": ["Barkhausenweg 6", "22339 Hamburg", "Germany"]}, "phone": "+494053052803", "display_phone": "+49 40 53052803", "distance": 1720.985311948785}, {"id": "8-PLwQTPmKMoVuq1GqtYLA", "alias": "fidelio-hamburg", "name": "Fidelio", "image_url": "https://s3-media4.fl.yelpcdn.com/bphoto/8_ZhcnE47DVWPy-UxeLwaw/o.jpg", "is_closed": false, "url": "https://www.yelp.com/biz/fidelio-hamburg?adjust_creative=hBJOknVQJ58S5goQyjmwRw&utm_campaign=yelp_api_v3&utm_medium=api_v3_business_search&utm_source=hBJOknVQJ58S5goQyjmwRw", "review_count": 53, "categories": [{"alias": "gastropubs", "title": "Gastropubs"}, {"alias": "italian", "title": "Italian"}, {"alias": "bistros", "title": "Bistros"}], "rating": 2.5, "coordinates": {"latitude": 53.66038, "longitude": 10.0843399}, "transactions": [], "price": "\u20ac", "location": {"address1": "Moorhof 11", "address2": "", "address3": "", "city": "Hamburg", "zip_code": "22399", "country": "DE", "state": "HH", "display_address": ["Moorhof 11", "22399 Hamburg", "Germany"]}, "phone": "+494060875927", "display_phone": "+49 40 60875927", "distance": 1548.3365634204029}, {"id": "VMVS4cM_LEHCqCbVvCwSzg", "alias": "zur-schlachteplatte-hamburg", "name": "Zur Schlachteplatte", "image_url": "https://s3-media2.fl.yelpcdn.com/bphoto/q7Ht94B_Xnwd6ZKB3sjUsQ/o.jpg", "is_closed": false, "url": "https://www.yelp.com/biz/zur-schlachteplatte-hamburg?adjust_creative=hBJOknVQJ58S5goQyjmwRw&utm_campaign=yelp_api_v3&utm_medium=api_v3_business_search&utm_source=hBJOknVQJ58S5goQyjmwRw", "review_count": 21, "categories": [{"alias": "german", "title": "German"}], "rating": 3.5, "coordinates": {"latitude": 53.64797, "longitude": 10.03774}, "transactions": [], "price": "\u20ac\u20ac", "location": {"address1": "Lademannbogen 1", "address2": null, "address3": null, "city": "Hamburg", "zip_code": "22339", "country": "DE", "state": "HH", "display_address": ["Lademannbogen 1", "22339 Hamburg", "Germany"]}, "phone": "+49405382999", "display_phone": "+49 40 5382999", "distance": 2325.4232932802556}, {"id": "s8nByaYJIf-lwdhdp0WzYQ", "alias": "mr-wong-asia-bistro-hamburg", "name": "Mr. Wong Asia Bistro", "image_url": "", "is_closed": false, "url": "https://www.yelp.com/biz/mr-wong-asia-bistro-hamburg?adjust_creative=hBJOknVQJ58S5goQyjmwRw&utm_campaign=yelp_api_v3&utm_medium=api_v3_business_search&utm_source=hBJOknVQJ58S5goQyjmwRw", "review_count": 1, "categories": [{"alias": "bistros", "title": "Bistros"}, {"alias": "panasian", "title": "Pan Asian"}], "rating": 4.0, "coordinates": {"latitude": 53.6607, "longitude": 10.0823}, "transactions": [], "price": "\u20ac", "location": {"address1": "Harksheider Str. 10", "address2": null, "address3": null, "city": "Hamburg", "zip_code": "22399", "country": "DE", "state": "HH", "display_address": ["Harksheider Str. 10", "22399 Hamburg", "Germany"]}, "phone": "+494066872510", "display_phone": "+49 40 66872510", "distance": 1391.6488894906265}, {"id": "xxTQTfJsgzWGp8okZ2ygHw", "alias": "hummel-bistro-cafe-hamburg", "name": "Hummel Bistro Cafe", "image_url": "https://s3-media2.fl.yelpcdn.com/bphoto/8CAXUYj8Z54-_0OkZ8xh9A/o.jpg", "is_closed": false, "url": "https://www.yelp.com/biz/hummel-bistro-cafe-hamburg?adjust_creative=hBJOknVQJ58S5goQyjmwRw&utm_campaign=yelp_api_v3&utm_medium=api_v3_business_search&utm_source=hBJOknVQJ58S5goQyjmwRw", "review_count": 15, "categories": [{"alias": "bistros", "title": "Bistros"}], "rating": 4.0, "coordinates": {"latitude": 53.64967, "longitude": 10.03632}, "transactions": [], "price": "\u20ac", "location": {"address1": "Poppenb\u00fcttler Weg 15", "address2": "", "address3": "", "city": "Hamburg", "zip_code": "22339", "country": "DE", "state": "HH", "display_address": ["Poppenb\u00fcttler Weg 15", "22339 Hamburg", "Germany"]}, "phone": "+494053904933", "display_phone": "+49 40 53904933", "distance": 2194.6819026748967}, {"id": "Yv7-W_pf1dJFzw5PYuj72g", "alias": "zur-glash\u00fctte-norderstedt", "name": "Zur Glash\u00fctte", "image_url": "", "is_closed": false, "url": "https://www.yelp.com/biz/zur-glash%C3%BCtte-norderstedt?adjust_creative=hBJOknVQJ58S5goQyjmwRw&utm_campaign=yelp_api_v3&utm_medium=api_v3_business_search&utm_source=hBJOknVQJ58S5goQyjmwRw", "review_count": 6, "categories": [{"alias": "german", "title": "German"}], "rating": 4.0, "coordinates": {"latitude": 53.6975, "longitude": 10.0502}, "transactions": [], "location": {"address1": "Segeberger Chaussee 309", "address2": null, "address3": null, "city": "Norderstedt", "zip_code": "22851", "country": "DE", "state": "SH", "display_address": ["Segeberger Chaussee 309", "22851 Norderstedt", "Germany"]}, "phone": "+49405298660", "display_phone": "+49 40 5298660", "distance": 3897.293867436075}, {"id": "XHoJ8z8cZtNirkEusoeqXg", "alias": "die-croquemaker-hamburg-10", "name": "die croquemaker", "image_url": "https://s3-media1.fl.yelpcdn.com/bphoto/xhVsaUApPa08dYYZm4CL9g/o.jpg", "is_closed": false, "url": "https://www.yelp.com/biz/die-croquemaker-hamburg-10?adjust_creative=hBJOknVQJ58S5goQyjmwRw&utm_campaign=yelp_api_v3&utm_medium=api_v3_business_search&utm_source=hBJOknVQJ58S5goQyjmwRw", "review_count": 3, "categories": [{"alias": "salad", "title": "Salad"}, {"alias": "sandwiches", "title": "Sandwiches"}], "rating": 3.5, "coordinates": {"latitude": 53.66016, "longitude": 10.08344}, "transactions": [], "price": "\u20ac", "location": {"address1": "Harksheider Str. 6", "address2": "", "address3": "", "city": "Hamburg", "zip_code": "22399", "country": "DE", "state": "HH", "display_address": ["Harksheider Str. 6", "22399 Hamburg", "Germany"]}, "phone": "+494063669355", "display_phone": "+49 40 63669355", "distance": 1449.0230072623476}, {"id": "anhx-uaSrH8_9Ktcje3Vfg", "alias": "e-aktiv-markt-peter-jessen-hamburg", "name": "E aktiv markt Peter Jessen", "image_url": "", "is_closed": false, "url": "https://www.yelp.com/biz/e-aktiv-markt-peter-jessen-hamburg?adjust_creative=hBJOknVQJ58S5goQyjmwRw&utm_campaign=yelp_api_v3&utm_medium=api_v3_business_search&utm_source=hBJOknVQJ58S5goQyjmwRw", "review_count": 1, "categories": [{"alias": "grocery", "title": "Grocery"}, {"alias": "shopping", "title": "Shopping"}, {"alias": "delis", "title": "Delis"}], "rating": 2.0, "coordinates": {"latitude": 53.64306, "longitude": 10.04654}, "transactions": [], "location": {"address1": "Hummelsb\u00fctteler Markt 34", "address2": null, "address3": null, "city": "Hamburg", "zip_code": "22339", "country": "DE", "state": "HH", "display_address": ["Hummelsb\u00fctteler Markt 34", "22339 Hamburg", "Germany"]}, "phone": "+49405384068", "display_phone": "+49 40 5384068", "distance": 2415.1900419239205}, {"id": "YhlJNvznZqWqu4YBvJ3ysQ", "alias": "caf\u00e9-reinhardt-hamburg-4", "name": "Caf\u00e9 Reinhardt", "image_url": "https://s3-media4.fl.yelpcdn.com/bphoto/K_TmNNnmC3o5zoHUhdjv3g/o.jpg", "is_closed": false, "url": "https://www.yelp.com/biz/caf%C3%A9-reinhardt-hamburg-4?adjust_creative=hBJOknVQJ58S5goQyjmwRw&utm_campaign=yelp_api_v3&utm_medium=api_v3_business_search&utm_source=hBJOknVQJ58S5goQyjmwRw", "review_count": 7, "categories": [{"alias": "cafes", "title": "Cafes"}, {"alias": "cakeshop", "title": "Patisserie/Cake Shop"}, {"alias": "bakeries", "title": "Bakeries"}], "rating": 4.0, "coordinates": {"latitude": 53.64058, "longitude": 10.08246}, "transactions": [], "location": {"address1": "Rolfinckstr. 8 - 10", "address2": "", "address3": null, "city": "Hamburg", "zip_code": "22391", "country": "DE", "state": "HH", "display_address": ["Rolfinckstr. 8 - 10", "22391 Hamburg", "Germany"]}, "phone": "+494053908727", "display_phone": "+49 40 53908727", "distance": 2856.3828810265236}, {"id": "kD8Ix_dghW0M_aqCOxqcyQ", "alias": "hallo-pizza-hamburg-11", "name": "Hallo Pizza!", "image_url": "https://s3-media3.fl.yelpcdn.com/bphoto/irdJeeiQGZMEz6uhP_hTdQ/o.jpg", "is_closed": false, "url": "https://www.yelp.com/biz/hallo-pizza-hamburg-11?adjust_creative=hBJOknVQJ58S5goQyjmwRw&utm_campaign=yelp_api_v3&utm_medium=api_v3_business_search&utm_source=hBJOknVQJ58S5goQyjmwRw", "review_count": 14, "categories": [{"alias": "pizza", "title": "Pizza"}], "rating": 3.0, "coordinates": {"latitude": 53.62, "longitude": 10.0816}, "transactions": [], "price": "\u20ac\u20ac", "location": {"address1": "Bramfelder Chaussee 340", "address2": null, "address3": null, "city": "Hamburg", "zip_code": "22175", "country": "DE", "state": "HH", "display_address": ["Bramfelder Chaussee 340", "22175 Hamburg", "Germany"]}, "phone": "+49406364616", "display_phone": "+49 40 6364616", "distance": 4971.456339868944}, {"id": "SsK8p5Uktq4CHyeih0t9Yg", "alias": "rock-in-d\u00f6ner-hamburg", "name": "Rock In D\u00f6ner", "image_url": "", "is_closed": false, "url": "https://www.yelp.com/biz/rock-in-d%C3%B6ner-hamburg?adjust_creative=hBJOknVQJ58S5goQyjmwRw&utm_campaign=yelp_api_v3&utm_medium=api_v3_business_search&utm_source=hBJOknVQJ58S5goQyjmwRw", "review_count": 3, "categories": [{"alias": "kebab", "title": "Kebab"}, {"alias": "pizza", "title": "Pizza"}], "rating": 1.5, "coordinates": {"latitude": 53.641503, "longitude": 10.037266}, "transactions": [], "price": "\u20ac\u20ac", "location": {"address1": "Hummelsb\u00fcttler Hauptstr. 55", "address2": "", "address3": "", "city": "Hamburg", "zip_code": "22339", "country": "DE", "state": "HH", "display_address": ["Hummelsb\u00fcttler Hauptstr. 55", "22339 Hamburg", "Germany"]}, "phone": "+494053104977", "display_phone": "+49 40 53104977", "distance": 2892.9151478304393}, {"id": "FaDAnhkh9AVB0nx0VLtFHQ", "alias": "croques-und-crepes-hamburg", "name": "Croques und Crepes", "image_url": "https://s3-media2.fl.yelpcdn.com/bphoto/5C8Dy8_FnwafyD5_FuqHnQ/o.jpg", "is_closed": false, "url": "https://www.yelp.com/biz/croques-und-crepes-hamburg?adjust_creative=hBJOknVQJ58S5goQyjmwRw&utm_campaign=yelp_api_v3&utm_medium=api_v3_business_search&utm_source=hBJOknVQJ58S5goQyjmwRw", "review_count": 14, "categories": [{"alias": "creperies", "title": "Creperies"}, {"alias": "sandwiches", "title": "Sandwiches"}], "rating": 3.5, "coordinates": {"latitude": 53.62124, "longitude": 10.08212}, "transactions": [], "price": "\u20ac\u20ac\u20ac", "location": {"address1": "Bramfelder Chaussee 371", "address2": null, "address3": null, "city": "Hamburg", "zip_code": "22175", "country": "DE", "state": "HH", "display_address": ["Bramfelder Chaussee 371", "22175 Hamburg", "Germany"]}, "phone": "+49406428784", "display_phone": "+49 40 6428784", "distance": 4850.895177099514}, {"id": "k0iOvwN2gIN8rMIFEowIqA", "alias": "mcdonalds-hamburg-36", "name": "McDonald's", "image_url": "https://s3-media1.fl.yelpcdn.com/bphoto/IJpfXUCIbammVOWulK0yaw/o.jpg", "is_closed": false, "url": "https://www.yelp.com/biz/mcdonalds-hamburg-36?adjust_creative=hBJOknVQJ58S5goQyjmwRw&utm_campaign=yelp_api_v3&utm_medium=api_v3_business_search&utm_source=hBJOknVQJ58S5goQyjmwRw", "review_count": 14, "categories": [{"alias": "hotdogs", "title": "Fast Food"}, {"alias": "burgers", "title": "Burgers"}], "rating": 3.5, "coordinates": {"latitude": 53.64803, "longitude": 10.05823}, "transactions": [], "price": "\u20ac\u20ac", "location": {"address1": "Poppenb\u00fctteler Weg 94", "address2": null, "address3": null, "city": "Hamburg", "zip_code": "22339", "country": "DE", "state": "HH", "display_address": ["Poppenb\u00fctteler Weg 94", "22339 Hamburg", "Germany"]}, "phone": "+494053897564", "display_phone": "+49 40 53897564", "distance": 1698.5377272732453}, {"id": "gwmc_oZaieNm-BjZP-HF4A", "alias": "burger-king-hamburg-4", "name": "Burger King", "image_url": "https://s3-media1.fl.yelpcdn.com/bphoto/J9hsVi15vDrPdibU3DSE2Q/o.jpg", "is_closed": false, "url": "https://www.yelp.com/biz/burger-king-hamburg-4?adjust_creative=hBJOknVQJ58S5goQyjmwRw&utm_campaign=yelp_api_v3&utm_medium=api_v3_business_search&utm_source=hBJOknVQJ58S5goQyjmwRw", "review_count": 19, "categories": [{"alias": "hotdogs", "title": "Fast Food"}, {"alias": "burgers", "title": "Burgers"}], "rating": 2.5, "coordinates": {"latitude": 53.62153, "longitude": 10.08334}, "transactions": [], "price": "\u20ac", "location": {"address1": "Bramfelder Chaussee 366", "address2": null, "address3": null, "city": "Hamburg", "zip_code": "22177", "country": "DE", "state": "HH", "display_address": ["Bramfelder Chaussee 366", "22177 Hamburg", "Germany"]}, "phone": "+494064221001", "display_phone": "+49 40 64221001", "distance": 4840.396939980761}, {"id": "Qdx9lhz1NXiLqvcxuKIrRQ", "alias": "caf\u00e9-alsterwiesen-hamburg", "name": "Caf\u00e9 Alsterwiesen", "image_url": "https://s3-media3.fl.yelpcdn.com/bphoto/aaFnyIOsig8zPuTtkxBo0w/o.jpg", "is_closed": false, "url": "https://www.yelp.com/biz/caf%C3%A9-alsterwiesen-hamburg?adjust_creative=hBJOknVQJ58S5goQyjmwRw&utm_campaign=yelp_api_v3&utm_medium=api_v3_business_search&utm_source=hBJOknVQJ58S5goQyjmwRw", "review_count": 14, "categories": [{"alias": "cafes", "title": "Cafes"}], "rating": 3.0, "coordinates": {"latitude": 53.6295993, "longitude": 10.0367008}, "transactions": [], "price": "\u20ac", "location": {"address1": "Wellingsb\u00fctteler Landstr. 75", "address2": "", "address3": "", "city": "Hamburg", "zip_code": "22337", "country": "DE", "state": "HH", "display_address": ["Wellingsb\u00fctteler Landstr. 75", "22337 Hamburg", "Germany"]}, "phone": "+491736086826", "display_phone": "+49 173 6086826", "distance": 4070.274796901093}]