[{"id": "7a-Dyfunt-X_SJPspqXehw", "alias": "heinsens-ellerbek-2", "name": "Heinsen's", "image_url": "https://s3-media2.fl.yelpcdn.com/bphoto/0ZIo5c_ankkPINDYYFSOSg/o.jpg", "is_closed": false, "url": "https://www.yelp.com/biz/heinsens-ellerbek-2?adjust_creative=hBJOknVQJ58S5goQyjmwRw&utm_campaign=yelp_api_v3&utm_medium=api_v3_business_search&utm_source=hBJOknVQJ58S5goQyjmwRw", "review_count": 45, "categories": [{"alias": "beergarden", "title": "Beer Garden"}, {"alias": "german", "title": "German"}, {"alias": "cafes", "title": "Cafes"}], "rating": 4.0, "coordinates": {"latitude": 53.6574301268169, "longitude": 9.86982769226836}, "transactions": [], "price": "\u20ac\u20ac\u20ac", "location": {"address1": "Hauptstr. 1", "address2": "", "address3": null, "city": "Ellerbek", "zip_code": "25474", "country": "DE", "state": "SH", "display_address": ["Hauptstr. 1", "25474 Ellerbek", "Germany"]}, "phone": "+49410137770", "display_phone": "+49 4101 37770", "distance": 1039.1236599758736}, {"id": "PaaxDcMwc1d3G-xo8DsSqQ", "alias": "a-vila-b\u00f6nningstedt", "name": "A Vila", "image_url": "https://s3-media2.fl.yelpcdn.com/bphoto/NecesgGDzoLQFnvY9kAFJg/o.jpg", "is_closed": false, "url": "https://www.yelp.com/biz/a-vila-b%C3%B6nningstedt?adjust_creative=hBJOknVQJ58S5goQyjmwRw&utm_campaign=yelp_api_v3&utm_medium=api_v3_business_search&utm_source=hBJOknVQJ58S5goQyjmwRw", "review_count": 1, "categories": [{"alias": "portuguese", "title": "Portuguese"}], "rating": 4.0, "coordinates": {"latitude": 53.66626, "longitude": 9.90408}, "transactions": [], "price": "\u20ac\u20ac", "location": {"address1": "Kieler Str. 108", "address2": "", "address3": null, "city": "B\u00f6nningstedt", "zip_code": "25474", "country": "DE", "state": "SH", "display_address": ["Kieler Str. 108", "25474 B\u00f6nningstedt", "Germany"]}, "phone": "+491627937275", "display_phone": "+49 162 7937275", "distance": 1607.0010604937445}, {"id": "YRasnJiv7h-b4tRn0KNpYg", "alias": "osteria-da-vino-due-ellerbek-2", "name": "Osteria da vino due", "image_url": "https://s3-media1.fl.yelpcdn.com/bphoto/BiR08U4iMiR6srOZCVnVbw/o.jpg", "is_closed": false, "url": "https://www.yelp.com/biz/osteria-da-vino-due-ellerbek-2?adjust_creative=hBJOknVQJ58S5goQyjmwRw&utm_campaign=yelp_api_v3&utm_medium=api_v3_business_search&utm_source=hBJOknVQJ58S5goQyjmwRw", "review_count": 9, "categories": [{"alias": "italian", "title": "Italian"}], "rating": 4.5, "coordinates": {"latitude": 53.6383, "longitude": 9.89487}, "transactions": [], "price": "\u20ac\u20ac", "location": {"address1": "Pinneberger Str. 167", "address2": null, "address3": null, "city": "Ellerbek", "zip_code": "25474", "country": "DE", "state": "SH", "display_address": ["Pinneberger Str. 167", "25474 Ellerbek", "Germany"]}, "phone": "+4941015389474", "display_phone": "+49 4101 5389474", "distance": 3081.9453337507443}, {"id": "ELSgUz9uk7GUAYf3oVKVEA", "alias": "mediterran-rellingen", "name": "Mediterran", "image_url": "https://s3-media1.fl.yelpcdn.com/bphoto/RYt9YEiUqHKGRyWdOsvbKg/o.jpg", "is_closed": false, "url": "https://www.yelp.com/biz/mediterran-rellingen?adjust_creative=hBJOknVQJ58S5goQyjmwRw&utm_campaign=yelp_api_v3&utm_medium=api_v3_business_search&utm_source=hBJOknVQJ58S5goQyjmwRw", "review_count": 10, "categories": [{"alias": "mediterranean", "title": "Mediterranean"}, {"alias": "greek", "title": "Greek"}], "rating": 4.5, "coordinates": {"latitude": 53.6413, "longitude": 9.8707}, "transactions": [], "location": {"address1": "Kellerstr. 136", "address2": null, "address3": null, "city": "Rellingen", "zip_code": "25462", "country": "DE", "state": "SH", "display_address": ["Kellerstr. 136", "25462 Rellingen", "Germany"]}, "phone": "+4941017739088", "display_phone": "+49 4101 7739088", "distance": 2659.618038248211}, {"id": "OsNFTVOq1FNvKoX0qP4VYw", "alias": "asia-corner-rellingen", "name": "Asia Corner", "image_url": "https://s3-media2.fl.yelpcdn.com/bphoto/7M2nrMQMp_02G2extUal9w/o.jpg", "is_closed": false, "url": "https://www.yelp.com/biz/asia-corner-rellingen?adjust_creative=hBJOknVQJ58S5goQyjmwRw&utm_campaign=yelp_api_v3&utm_medium=api_v3_business_search&utm_source=hBJOknVQJ58S5goQyjmwRw", "review_count": 11, "categories": [{"alias": "panasian", "title": "Pan Asian"}], "rating": 4.5, "coordinates": {"latitude": 53.6313, "longitude": 9.87175}, "transactions": [], "price": "\u20ac", "location": {"address1": "Heidestr. 94-96", "address2": null, "address3": null, "city": "Rellingen", "zip_code": "25463", "country": "DE", "state": "SH", "display_address": ["Heidestr. 94-96", "25463 Rellingen", "Germany"]}, "phone": "+49410135615", "display_phone": "+49 4101 35615", "distance": 3739.783064487939}, {"id": "1mAxuvRfmAxDFnFi7_xNmQ", "alias": "montenegro-bei-sabina-b\u00f6nningstedt", "name": "Montenegro bei Sabina", "image_url": "https://s3-media3.fl.yelpcdn.com/bphoto/LtTQiS7DcXdoUTdaFMeAQw/o.jpg", "is_closed": false, "url": "https://www.yelp.com/biz/montenegro-bei-sabina-b%C3%B6nningstedt?adjust_creative=hBJOknVQJ58S5goQyjmwRw&utm_campaign=yelp_api_v3&utm_medium=api_v3_business_search&utm_source=hBJOknVQJ58S5goQyjmwRw", "review_count": 2, "categories": [{"alias": "mediterranean", "title": "Mediterranean"}], "rating": 3.0, "coordinates": {"latitude": 53.66233, "longitude": 9.89852}, "transactions": [], "price": "\u20ac\u20ac", "location": {"address1": "Rugenbergener Str. 50", "address2": "", "address3": "", "city": "B\u00f6nningstedt", "zip_code": "25474", "country": "DE", "state": "SH", "display_address": ["Rugenbergener Str. 50", "25474 B\u00f6nningstedt", "Germany"]}, "phone": "+494089804210", "display_phone": "+49 40 89804210", "distance": 1246.1255600695201}, {"id": "F09QZ5eyYNif_4yxJ1R6xw", "alias": "restaurant-naxos-ellerbek", "name": "Restaurant Naxos", "image_url": "", "is_closed": false, "url": "https://www.yelp.com/biz/restaurant-naxos-ellerbek?adjust_creative=hBJOknVQJ58S5goQyjmwRw&utm_campaign=yelp_api_v3&utm_medium=api_v3_business_search&utm_source=hBJOknVQJ58S5goQyjmwRw", "review_count": 3, "categories": [{"alias": "restaurants", "title": "Restaurants"}], "rating": 4.5, "coordinates": {"latitude": 53.6486, "longitude": 9.89857}, "transactions": [], "price": "\u20ac\u20ac", "location": {"address1": "Tilsiter Str. 1", "address2": null, "address3": null, "city": "Ellerbek", "zip_code": "25474", "country": "DE", "state": "SH", "display_address": ["Tilsiter Str. 1", "25474 Ellerbek", "Germany"]}, "phone": "+49410132629", "display_phone": "+49 4101 32629", "distance": 2157.502132889141}, {"id": "_LUuKmNFXN6A4i20goDGUg", "alias": "ph\u00f6nix-halstenbek", "name": "Ph\u00f6nix", "image_url": "https://s3-media3.fl.yelpcdn.com/bphoto/SoEnGeDnEFAM1hsMO929BA/o.jpg", "is_closed": false, "url": "https://www.yelp.com/biz/ph%C3%B6nix-halstenbek?adjust_creative=hBJOknVQJ58S5goQyjmwRw&utm_campaign=yelp_api_v3&utm_medium=api_v3_business_search&utm_source=hBJOknVQJ58S5goQyjmwRw", "review_count": 28, "categories": [{"alias": "mongolian", "title": "Mongolian"}, {"alias": "chinese", "title": "Chinese"}], "rating": 4.0, "coordinates": {"latitude": 53.62784, "longitude": 9.86763}, "transactions": [], "price": "\u20ac\u20ac", "location": {"address1": "Seemoorweg 3", "address2": "", "address3": "", "city": "Halstenbek", "zip_code": "25469", "country": "DE", "state": "SH", "display_address": ["Seemoorweg 3", "25469 Halstenbek", "Germany"]}, "phone": "+4941017877168", "display_phone": "+49 4101 7877168", "distance": 4174.493359753658}, {"id": "KrElkJZG4z9o-Zq_6dld1w", "alias": "dritte-etage-halstenbek", "name": "dritte Etage", "image_url": "", "is_closed": false, "url": "https://www.yelp.com/biz/dritte-etage-halstenbek?adjust_creative=hBJOknVQJ58S5goQyjmwRw&utm_campaign=yelp_api_v3&utm_medium=api_v3_business_search&utm_source=hBJOknVQJ58S5goQyjmwRw", "review_count": 2, "categories": [{"alias": "restaurants", "title": "Restaurants"}], "rating": 4.5, "coordinates": {"latitude": 53.6311, "longitude": 9.86055}, "transactions": [], "price": "\u20ac\u20ac", "location": {"address1": "G\u00e4rtnerstr.  133-137", "address2": "Event GmbH", "address3": null, "city": "Halstenbek", "zip_code": "25469", "country": "DE", "state": "SH", "display_address": ["G\u00e4rtnerstr.  133-137", "Event GmbH", "25469 Halstenbek", "Germany"]}, "phone": "", "display_phone": "", "distance": 3936.7309254757633}, {"id": "u3ub5f0MS4qY67Q8XF9ZoA", "alias": "sodemanns-fisch-kutter-nr-1-hamburg", "name": "Sodemann's Fisch-Kutter Nr. 1", "image_url": "https://s3-media3.fl.yelpcdn.com/bphoto/BlysP6fVPaL0eEjKvEbByw/o.jpg", "is_closed": false, "url": "https://www.yelp.com/biz/sodemanns-fisch-kutter-nr-1-hamburg?adjust_creative=hBJOknVQJ58S5goQyjmwRw&utm_campaign=yelp_api_v3&utm_medium=api_v3_business_search&utm_source=hBJOknVQJ58S5goQyjmwRw", "review_count": 3, "categories": [{"alias": "foodtrucks", "title": "Food Trucks"}, {"alias": "fischbroetchen", "title": "Fischbroetchen"}], "rating": 5.0, "coordinates": {"latitude": 53.5537490844727, "longitude": 9.99182987213135}, "transactions": [], "price": "\u20ac\u20ac", "location": {"address1": "", "address2": null, "address3": "", "city": "Hamburg", "zip_code": "", "country": "DE", "state": "HH", "display_address": ["Hamburg", "Germany"]}, "phone": "+491773606663", "display_phone": "+49 177 3606663", "distance": 14680.402844510849}, {"id": "_-yghXnoHuCDkoJ1PITbRQ", "alias": "restaurant-krupunder-park-rellingen", "name": "Restaurant  Krupunder Park", "image_url": "https://s3-media2.fl.yelpcdn.com/bphoto/e_hYIcXMuOZ6wd2SLeOsPw/o.jpg", "is_closed": false, "url": "https://www.yelp.com/biz/restaurant-krupunder-park-rellingen?adjust_creative=hBJOknVQJ58S5goQyjmwRw&utm_campaign=yelp_api_v3&utm_medium=api_v3_business_search&utm_source=hBJOknVQJ58S5goQyjmwRw", "review_count": 2, "categories": [{"alias": "german", "title": "German"}], "rating": 2.5, "coordinates": {"latitude": 53.6256, "longitude": 9.87642}, "transactions": [], "location": {"address1": "Altonaer Str. 325", "address2": null, "address3": null, "city": "Rellingen", "zip_code": "25462", "country": "DE", "state": "SH", "display_address": ["Altonaer Str. 325", "25462 Rellingen", "Germany"]}, "phone": "+49410139190", "display_phone": "+49 4101 39190", "distance": 4340.3293294548175}, {"id": "APvIA_7ssxgC0atmQEFMcg", "alias": "burgerkultour-food-truck-hamburg-2", "name": "BurgerKultour Food Truck", "image_url": "https://s3-media4.fl.yelpcdn.com/bphoto/KoAuwalMnlAO8139MmdYBQ/o.jpg", "is_closed": false, "url": "https://www.yelp.com/biz/burgerkultour-food-truck-hamburg-2?adjust_creative=hBJOknVQJ58S5goQyjmwRw&utm_campaign=yelp_api_v3&utm_medium=api_v3_business_search&utm_source=hBJOknVQJ58S5goQyjmwRw", "review_count": 3, "categories": [{"alias": "foodtrucks", "title": "Food Trucks"}, {"alias": "burgers", "title": "Burgers"}], "rating": 4.5, "coordinates": {"latitude": 53.57154, "longitude": 9.95575}, "transactions": [], "price": "\u20ac\u20ac", "location": {"address1": "", "address2": "", "address3": "", "city": "Hamburg", "zip_code": "20259", "country": "DE", "state": "HH", "display_address": ["20259 Hamburg", "Germany"]}, "phone": "+4917626055122", "display_phone": "+49 176 26055122", "distance": 11564.315636610041}, {"id": "c5OhJe-RTfgKH_EH94L6Cg", "alias": "city-pizza-und-d\u00f6ner-b\u00f6nningstedt", "name": "City Pizza und D\u00f6ner", "image_url": "https://s3-media1.fl.yelpcdn.com/bphoto/d68sANcKEDDblPHVwU4vRQ/o.jpg", "is_closed": false, "url": "https://www.yelp.com/biz/city-pizza-und-d%C3%B6ner-b%C3%B6nningstedt?adjust_creative=hBJOknVQJ58S5goQyjmwRw&utm_campaign=yelp_api_v3&utm_medium=api_v3_business_search&utm_source=hBJOknVQJ58S5goQyjmwRw", "review_count": 4, "categories": [{"alias": "hotdogs", "title": "Fast Food"}, {"alias": "kebab", "title": "Kebab"}], "rating": 3.0, "coordinates": {"latitude": 53.6653, "longitude": 9.90443}, "transactions": [], "price": "\u20ac", "location": {"address1": "Kielerstr. 109", "address2": null, "address3": null, "city": "B\u00f6nningstedt", "zip_code": "25474", "country": "DE", "state": "SH", "display_address": ["Kielerstr. 109", "25474 B\u00f6nningstedt", "Germany"]}, "phone": "+494097074666", "display_phone": "+49 40 97074666", "distance": 1612.1792399009184}, {"id": "n_Yio-a9VzssOtDbgezpRA", "alias": "subu-sushi-burrito-hamburg-3", "name": "Subu Sushi Burrito", "image_url": "https://s3-media3.fl.yelpcdn.com/bphoto/x2oh5mzvkzvrXjswE_MjXQ/o.jpg", "is_closed": false, "url": "https://www.yelp.com/biz/subu-sushi-burrito-hamburg-3?adjust_creative=hBJOknVQJ58S5goQyjmwRw&utm_campaign=yelp_api_v3&utm_medium=api_v3_business_search&utm_source=hBJOknVQJ58S5goQyjmwRw", "review_count": 3, "categories": [{"alias": "foodtrucks", "title": "Food Trucks"}, {"alias": "sushi", "title": "Sushi Bars"}], "rating": 5.0, "coordinates": {"latitude": 53.5526819869811, "longitude": 10.0010880455375}, "transactions": [], "price": "\u20ac", "location": {"address1": "", "address2": "", "address3": "", "city": "Hamburg", "zip_code": "", "country": "DE", "state": "HH", "display_address": ["Hamburg", "Germany"]}, "phone": "+4917670834316", "display_phone": "+49 176 70834316", "distance": 14786.096568146984}, {"id": "3if8K7vRrE-cIFnKiGg_nw", "alias": "cafe-bistro-alfi-b\u00f6nningstedt", "name": "Cafe Bistro Alfi", "image_url": "", "is_closed": false, "url": "https://www.yelp.com/biz/cafe-bistro-alfi-b%C3%B6nningstedt?adjust_creative=hBJOknVQJ58S5goQyjmwRw&utm_campaign=yelp_api_v3&utm_medium=api_v3_business_search&utm_source=hBJOknVQJ58S5goQyjmwRw", "review_count": 1, "categories": [{"alias": "cafes", "title": "Cafes"}, {"alias": "coffee", "title": "Coffee & Tea"}, {"alias": "german", "title": "German"}], "rating": 2.0, "coordinates": {"latitude": 53.6704, "longitude": 9.90271}, "transactions": [], "location": {"address1": "Kieler Str. 185", "address2": null, "address3": null, "city": "B\u00f6nningstedt", "zip_code": "25474", "country": "DE", "state": "SH", "display_address": ["Kieler Str. 185", "25474 B\u00f6nningstedt", "Germany"]}, "phone": "+494055693700", "display_phone": "+49 40 55693700", "distance": 1630.8430873882808}, {"id": "Z8J3OywtEHYtZhorPrkqgw", "alias": "stockhausen-imbiss-rellingen", "name": "Stockhausen Imbiss", "image_url": "https://s3-media1.fl.yelpcdn.com/bphoto/JCxpY7CA011oVtXuuwkI8w/o.jpg", "is_closed": false, "url": "https://www.yelp.com/biz/stockhausen-imbiss-rellingen?adjust_creative=hBJOknVQJ58S5goQyjmwRw&utm_campaign=yelp_api_v3&utm_medium=api_v3_business_search&utm_source=hBJOknVQJ58S5goQyjmwRw", "review_count": 10, "categories": [{"alias": "hotdogs", "title": "Fast Food"}], "rating": 4.0, "coordinates": {"latitude": 53.6302548, "longitude": 9.8798666}, "transactions": [], "price": "\u20ac", "location": {"address1": "Siemensstr. 43", "address2": "", "address3": null, "city": "Rellingen", "zip_code": "25462", "country": "DE", "state": "SH", "display_address": ["Siemensstr. 43", "25462 Rellingen", "Germany"]}, "phone": "+49410130200", "display_phone": "+49 4101 30200", "distance": 3816.3634060545664}, {"id": "SeodQIjOcsrznD7rwIB-Jw", "alias": "the-big-balmy-hamburg-2", "name": "The Big Balmy", "image_url": "https://s3-media2.fl.yelpcdn.com/bphoto/KWUCQvGDONs_iDxlKXzgvQ/o.jpg", "is_closed": false, "url": "https://www.yelp.com/biz/the-big-balmy-hamburg-2?adjust_creative=hBJOknVQJ58S5goQyjmwRw&utm_campaign=yelp_api_v3&utm_medium=api_v3_business_search&utm_source=hBJOknVQJ58S5goQyjmwRw", "review_count": 27, "categories": [{"alias": "burgers", "title": "Burgers"}, {"alias": "foodtrucks", "title": "Food Trucks"}], "rating": 3.5, "coordinates": {"latitude": 53.537786, "longitude": 10.028218}, "transactions": [], "price": "\u20ac\u20ac", "location": {"address1": "", "address2": null, "address3": null, "city": "Hamburg", "zip_code": "", "country": "DE", "state": "HH", "display_address": ["Hamburg", "Germany"]}, "phone": "+494069278630", "display_phone": "+49 40 69278630", "distance": 17158.777928730127}, {"id": "PRNi969cArwqNCpob8xw1w", "alias": "eisc\u00e1fe-kind-ellerbek-2", "name": "Eisc\u00e1fe Kind", "image_url": "", "is_closed": false, "url": "https://www.yelp.com/biz/eisc%C3%A1fe-kind-ellerbek-2?adjust_creative=hBJOknVQJ58S5goQyjmwRw&utm_campaign=yelp_api_v3&utm_medium=api_v3_business_search&utm_source=hBJOknVQJ58S5goQyjmwRw", "review_count": 4, "categories": [{"alias": "icecream", "title": "Ice Cream & Frozen Yogurt"}, {"alias": "restaurants", "title": "Restaurants"}], "rating": 4.0, "coordinates": {"latitude": 53.63892, "longitude": 9.89387}, "transactions": [], "price": "\u20ac", "location": {"address1": "Pinneberger Str. 157", "address2": null, "address3": null, "city": "Ellerbek", "zip_code": "25474", "country": "DE", "state": "SH", "display_address": ["Pinneberger Str. 157", "25474 Ellerbek", "Germany"]}, "phone": "+49410136239", "display_phone": "+49 4101 36239", "distance": 2993.4694491707533}]