[{"id": "PaaxDcMwc1d3G-xo8DsSqQ", "alias": "a-vila-b\u00f6nningstedt", "name": "A Vila", "image_url": "https://s3-media2.fl.yelpcdn.com/bphoto/NecesgGDzoLQFnvY9kAFJg/o.jpg", "is_closed": false, "url": "https://www.yelp.com/biz/a-vila-b%C3%B6nningstedt?adjust_creative=hBJOknVQJ58S5goQyjmwRw&utm_campaign=yelp_api_v3&utm_medium=api_v3_business_search&utm_source=hBJOknVQJ58S5goQyjmwRw", "review_count": 1, "categories": [{"alias": "portuguese", "title": "Portuguese"}], "rating": 4.0, "coordinates": {"latitude": 53.66626, "longitude": 9.90408}, "transactions": [], "price": "\u20ac\u20ac", "location": {"address1": "Kieler Str. 108", "address2": "", "address3": null, "city": "B\u00f6nningstedt", "zip_code": "25474", "country": "DE", "state": "SH", "display_address": ["Kieler Str. 108", "25474 B\u00f6nningstedt", "Germany"]}, "phone": "+491627937275", "display_phone": "+49 162 7937275", "distance": 449.73901106590813}, {"id": "zaR5yCUNiVbofbciH46tTQ", "alias": "montgomery-champs-hamburg-2", "name": "Montgomery Champs", "image_url": "https://s3-media1.fl.yelpcdn.com/bphoto/APKqvOnmSjrLokmzeQPwWw/o.jpg", "is_closed": false, "url": "https://www.yelp.com/biz/montgomery-champs-hamburg-2?adjust_creative=hBJOknVQJ58S5goQyjmwRw&utm_campaign=yelp_api_v3&utm_medium=api_v3_business_search&utm_source=hBJOknVQJ58S5goQyjmwRw", "review_count": 187, "categories": [{"alias": "bars", "title": "Bars"}, {"alias": "tradamerican", "title": "American (Traditional)"}], "rating": 3.5, "coordinates": {"latitude": 53.6475099, "longitude": 9.90794}, "transactions": [], "price": "\u20ac\u20ac", "location": {"address1": "Holsteiner Chaussee 402", "address2": null, "address3": null, "city": "Hamburg", "zip_code": "22457", "country": "DE", "state": "HH", "display_address": ["Holsteiner Chaussee 402", "22457 Hamburg", "Germany"]}, "phone": "+494055979x10", "display_phone": "+49 40 55979 ext. 10", "distance": 1876.9058083234324}, {"id": "1mAxuvRfmAxDFnFi7_xNmQ", "alias": "montenegro-bei-sabina-b\u00f6nningstedt", "name": "Montenegro bei Sabina", "image_url": "https://s3-media3.fl.yelpcdn.com/bphoto/LtTQiS7DcXdoUTdaFMeAQw/o.jpg", "is_closed": false, "url": "https://www.yelp.com/biz/montenegro-bei-sabina-b%C3%B6nningstedt?adjust_creative=hBJOknVQJ58S5goQyjmwRw&utm_campaign=yelp_api_v3&utm_medium=api_v3_business_search&utm_source=hBJOknVQJ58S5goQyjmwRw", "review_count": 2, "categories": [{"alias": "mediterranean", "title": "Mediterranean"}], "rating": 3.0, "coordinates": {"latitude": 53.66233, "longitude": 9.89852}, "transactions": [], "price": "\u20ac\u20ac", "location": {"address1": "Rugenbergener Str. 50", "address2": "", "address3": "", "city": "B\u00f6nningstedt", "zip_code": "25474", "country": "DE", "state": "SH", "display_address": ["Rugenbergener Str. 50", "25474 B\u00f6nningstedt", "Germany"]}, "phone": "+494089804210", "display_phone": "+49 40 89804210", "distance": 805.1423806963965}, {"id": "YRasnJiv7h-b4tRn0KNpYg", "alias": "osteria-da-vino-due-ellerbek-2", "name": "Osteria da vino due", "image_url": "https://s3-media1.fl.yelpcdn.com/bphoto/BiR08U4iMiR6srOZCVnVbw/o.jpg", "is_closed": false, "url": "https://www.yelp.com/biz/osteria-da-vino-due-ellerbek-2?adjust_creative=hBJOknVQJ58S5goQyjmwRw&utm_campaign=yelp_api_v3&utm_medium=api_v3_business_search&utm_source=hBJOknVQJ58S5goQyjmwRw", "review_count": 9, "categories": [{"alias": "italian", "title": "Italian"}], "rating": 4.5, "coordinates": {"latitude": 53.6383, "longitude": 9.89487}, "transactions": [], "price": "\u20ac\u20ac", "location": {"address1": "Pinneberger Str. 167", "address2": null, "address3": null, "city": "Ellerbek", "zip_code": "25474", "country": "DE", "state": "SH", "display_address": ["Pinneberger Str. 167", "25474 Ellerbek", "Germany"]}, "phone": "+4941015389474", "display_phone": "+49 4101 5389474", "distance": 3068.9536663045405}, {"id": "ytQgWTQXCQ-5chP6bV4muQ", "alias": "china-restaurant-kokker-goh-b\u00f6nningstedt", "name": "China - Restaurant Kokker Goh", "image_url": "https://s3-media2.fl.yelpcdn.com/bphoto/5GxBGqyQLPYcmmyn0mRyDA/o.jpg", "is_closed": false, "url": "https://www.yelp.com/biz/china-restaurant-kokker-goh-b%C3%B6nningstedt?adjust_creative=hBJOknVQJ58S5goQyjmwRw&utm_campaign=yelp_api_v3&utm_medium=api_v3_business_search&utm_source=hBJOknVQJ58S5goQyjmwRw", "review_count": 10, "categories": [{"alias": "chinese", "title": "Chinese"}, {"alias": "malaysian", "title": "Malaysian"}], "rating": 4.0, "coordinates": {"latitude": 53.6638, "longitude": 9.90585}, "transactions": [], "price": "\u20ac\u20ac", "location": {"address1": "Bahnhofstr. 2", "address2": null, "address3": null, "city": "B\u00f6nningstedt", "zip_code": "25474", "country": "DE", "state": "SH", "display_address": ["Bahnhofstr. 2", "25474 B\u00f6nningstedt", "Germany"]}, "phone": "+49405566848", "display_phone": "+49 40 5566848", "distance": 296.60133239576527}, {"id": "zKyHWJSARvZG1rKvKqRL6w", "alias": "athina-hamburg", "name": "Athina", "image_url": "https://s3-media1.fl.yelpcdn.com/bphoto/36so5xs6iI1wF8fSaA9ifA/o.jpg", "is_closed": false, "url": "https://www.yelp.com/biz/athina-hamburg?adjust_creative=hBJOknVQJ58S5goQyjmwRw&utm_campaign=yelp_api_v3&utm_medium=api_v3_business_search&utm_source=hBJOknVQJ58S5goQyjmwRw", "review_count": 18, "categories": [{"alias": "greek", "title": "Greek"}], "rating": 4.5, "coordinates": {"latitude": 53.62741, "longitude": 9.90948}, "transactions": [], "price": "\u20ac\u20ac", "location": {"address1": "Holsteiner Chaussee 211", "address2": null, "address3": null, "city": "Hamburg", "zip_code": "22457", "country": "DE", "state": "HH", "display_address": ["Holsteiner Chaussee 211", "22457 Hamburg", "Germany"]}, "phone": "+49405509376", "display_phone": "+49 40 5509376", "distance": 4107.84353692147}, {"id": "o2T6iyuombynllX-qGb-AQ", "alias": "hellas-hamburg-2", "name": "Hellas", "image_url": "https://s3-media3.fl.yelpcdn.com/bphoto/w2DIGy_eKDVLfLWp_HTF0A/o.jpg", "is_closed": false, "url": "https://www.yelp.com/biz/hellas-hamburg-2?adjust_creative=hBJOknVQJ58S5goQyjmwRw&utm_campaign=yelp_api_v3&utm_medium=api_v3_business_search&utm_source=hBJOknVQJ58S5goQyjmwRw", "review_count": 28, "categories": [{"alias": "greek", "title": "Greek"}], "rating": 4.5, "coordinates": {"latitude": 53.6333, "longitude": 9.91477}, "transactions": [], "price": "\u20ac\u20ac", "location": {"address1": "Riekbornweg 16", "address2": null, "address3": null, "city": "Hamburg", "zip_code": "22457", "country": "DE", "state": "HH", "display_address": ["Riekbornweg 16", "22457 Hamburg", "Germany"]}, "phone": "+494097078235", "display_phone": "+49 40 97078235", "distance": 3465.388249910793}, {"id": "v7pzQnz0d0xs8fFyLXFP5g", "alias": "joks-steakhouse-hamburg", "name": "Jok's Steakhouse", "image_url": "https://s3-media2.fl.yelpcdn.com/bphoto/7P1RhkDr4svJE6oEe69NsA/o.jpg", "is_closed": false, "url": "https://www.yelp.com/biz/joks-steakhouse-hamburg?adjust_creative=hBJOknVQJ58S5goQyjmwRw&utm_campaign=yelp_api_v3&utm_medium=api_v3_business_search&utm_source=hBJOknVQJ58S5goQyjmwRw", "review_count": 71, "categories": [{"alias": "steak", "title": "Steakhouses"}], "rating": 4.0, "coordinates": {"latitude": 53.63533, "longitude": 9.91884}, "transactions": [], "price": "\u20ac\u20ac", "location": {"address1": "Frohmestr. 11", "address2": null, "address3": null, "city": "Hamburg", "zip_code": "22457", "country": "DE", "state": "HH", "display_address": ["Frohmestr. 11", "22457 Hamburg", "Germany"]}, "phone": "+49405594459", "display_phone": "+49 40 5594459", "distance": 3269.267800225862}, {"id": "8LAxLlweKVtus23DrB4Rcg", "alias": "china-restaurant-ho-schnelsen-hamburg-3", "name": "China-Restaurant Ho Schnelsen", "image_url": "https://s3-media3.fl.yelpcdn.com/bphoto/4qydCYSzwz_4WE6qo_Qj5A/o.jpg", "is_closed": false, "url": "https://www.yelp.com/biz/china-restaurant-ho-schnelsen-hamburg-3?adjust_creative=hBJOknVQJ58S5goQyjmwRw&utm_campaign=yelp_api_v3&utm_medium=api_v3_business_search&utm_source=hBJOknVQJ58S5goQyjmwRw", "review_count": 29, "categories": [{"alias": "chinese", "title": "Chinese"}], "rating": 4.5, "coordinates": {"latitude": 53.6358, "longitude": 9.91842}, "transactions": [], "price": "\u20ac\u20ac", "location": {"address1": "Frohmestr. 7", "address2": null, "address3": null, "city": "Hamburg", "zip_code": "22457", "country": "DE", "state": "HH", "display_address": ["Frohmestr. 7", "22457 Hamburg", "Germany"]}, "phone": "+49405504454", "display_phone": "+49 40 5504454", "distance": 3219.8866895213773}, {"id": "guZahoBDeSMSGSTpqd5GhA", "alias": "freiluft-hasloh-2", "name": "Freiluft", "image_url": "https://s3-media3.fl.yelpcdn.com/bphoto/4db8pfegMwzeKBDJxNc6aQ/o.jpg", "is_closed": false, "url": "https://www.yelp.com/biz/freiluft-hasloh-2?adjust_creative=hBJOknVQJ58S5goQyjmwRw&utm_campaign=yelp_api_v3&utm_medium=api_v3_business_search&utm_source=hBJOknVQJ58S5goQyjmwRw", "review_count": 3, "categories": [{"alias": "cafes", "title": "Cafes"}, {"alias": "breakfast_brunch", "title": "Breakfast & Brunch"}], "rating": 5.0, "coordinates": {"latitude": 53.6922063607989, "longitude": 9.92644350975752}, "transactions": [], "location": {"address1": "Garstedter Weg 36 A", "address2": null, "address3": null, "city": "Hasloh", "zip_code": "25474", "country": "DE", "state": "SH", "display_address": ["Garstedter Weg 36 A", "25474 Hasloh", "Germany"]}, "phone": "+4941069779025", "display_phone": "+49 4106 9779025", "distance": 3275.86203505296}, {"id": "iP9KRcc3ROup85hZLPtmlA", "alias": "palmencaf\u00e9-hasloh-3", "name": "Palmencaf\u00e9", "image_url": "https://s3-media1.fl.yelpcdn.com/bphoto/BibwdTZyZn0ksSPOCTPd0Q/o.jpg", "is_closed": false, "url": "https://www.yelp.com/biz/palmencaf%C3%A9-hasloh-3?adjust_creative=hBJOknVQJ58S5goQyjmwRw&utm_campaign=yelp_api_v3&utm_medium=api_v3_business_search&utm_source=hBJOknVQJ58S5goQyjmwRw", "review_count": 6, "categories": [{"alias": "cafes", "title": "Cafes"}], "rating": 4.0, "coordinates": {"latitude": 53.6907914, "longitude": 9.9101964}, "transactions": [], "price": "\u20ac\u20ac", "location": {"address1": "Kieler Str. 5", "address2": null, "address3": null, "city": "Hasloh", "zip_code": "25474", "country": "DE", "state": "SH", "display_address": ["Kieler Str. 5", "25474 Hasloh", "Germany"]}, "phone": "+4941066402666", "display_phone": "+49 4106 6402666", "distance": 2872.851852956464}, {"id": "qUJfOZZ4S69Amwf8J8SS8w", "alias": "osteria-da-vino-hamburg", "name": "Osteria da Vino", "image_url": "https://s3-media3.fl.yelpcdn.com/bphoto/p7gn9gWX4XVKALvT-dZGOA/o.jpg", "is_closed": false, "url": "https://www.yelp.com/biz/osteria-da-vino-hamburg?adjust_creative=hBJOknVQJ58S5goQyjmwRw&utm_campaign=yelp_api_v3&utm_medium=api_v3_business_search&utm_source=hBJOknVQJ58S5goQyjmwRw", "review_count": 25, "categories": [{"alias": "italian", "title": "Italian"}], "rating": 4.0, "coordinates": {"latitude": 53.6289366, "longitude": 9.92505}, "transactions": [], "price": "\u20ac\u20ac", "location": {"address1": "Heidlohstr. 20", "address2": null, "address3": null, "city": "Hamburg", "zip_code": "22459", "country": "DE", "state": "HH", "display_address": ["Heidlohstr. 20", "22459 Hamburg", "Germany"]}, "phone": "+49405592696", "display_phone": "+49 40 5592696", "distance": 4056.725806654292}, {"id": "qAIUokSR7-diqB_3ecp_JQ", "alias": "taverna-kronos-hamburg", "name": "Taverna Kronos", "image_url": "https://s3-media3.fl.yelpcdn.com/bphoto/YcOLKxFk8Li3tGRPjV6V9A/o.jpg", "is_closed": false, "url": "https://www.yelp.com/biz/taverna-kronos-hamburg?adjust_creative=hBJOknVQJ58S5goQyjmwRw&utm_campaign=yelp_api_v3&utm_medium=api_v3_business_search&utm_source=hBJOknVQJ58S5goQyjmwRw", "review_count": 12, "categories": [{"alias": "mediterranean", "title": "Mediterranean"}, {"alias": "greek", "title": "Greek"}], "rating": 4.0, "coordinates": {"latitude": 53.624055, "longitude": 9.908812}, "transactions": [], "price": "\u20ac\u20ac", "location": {"address1": "Holsteiner Chaussee 177", "address2": null, "address3": "", "city": "Hamburg", "zip_code": "22457", "country": "DE", "state": "HH", "display_address": ["Holsteiner Chaussee 177", "22457 Hamburg", "Germany"]}, "phone": "+494055009337", "display_phone": "+49 40 55009337", "distance": 4481.594016549967}, {"id": "BQdrXWu6EZznHBDNu3C3aA", "alias": "qur-thai-drei-jai-hamburg", "name": "Qur Thai drei Jai", "image_url": "https://s3-media1.fl.yelpcdn.com/bphoto/qEn2kdcFTkh16Ue7jtdSqg/o.jpg", "is_closed": false, "url": "https://www.yelp.com/biz/qur-thai-drei-jai-hamburg?adjust_creative=hBJOknVQJ58S5goQyjmwRw&utm_campaign=yelp_api_v3&utm_medium=api_v3_business_search&utm_source=hBJOknVQJ58S5goQyjmwRw", "review_count": 4, "categories": [{"alias": "thai", "title": "Thai"}], "rating": 4.0, "coordinates": {"latitude": 53.63584, "longitude": 9.91656}, "transactions": [], "location": {"address1": "Oldesloer Str. 33", "address2": "", "address3": null, "city": "Hamburg", "zip_code": "22457", "country": "DE", "state": "HH", "display_address": ["Oldesloer Str. 33", "22457 Hamburg", "Germany"]}, "phone": "+4957148736", "display_phone": "+49 571 48736", "distance": 3194.6010007598634}, {"id": "sjYZERZfg44QTFTtefyGzQ", "alias": "grill-imbiss-zur-bratkartoffel-hamburg", "name": "Grill Imbiss Zur Bratkartoffel", "image_url": "https://s3-media3.fl.yelpcdn.com/bphoto/K04pCVoERBJs2fSRkRXR0A/o.jpg", "is_closed": false, "url": "https://www.yelp.com/biz/grill-imbiss-zur-bratkartoffel-hamburg?adjust_creative=hBJOknVQJ58S5goQyjmwRw&utm_campaign=yelp_api_v3&utm_medium=api_v3_business_search&utm_source=hBJOknVQJ58S5goQyjmwRw", "review_count": 14, "categories": [{"alias": "currysausage", "title": "Curry Sausage"}, {"alias": "hotdogs", "title": "Fast Food"}], "rating": 4.5, "coordinates": {"latitude": 53.63296, "longitude": 9.90983}, "transactions": [], "price": "\u20ac", "location": {"address1": "Pinneberger Str. 2a", "address2": null, "address3": null, "city": "Hamburg", "zip_code": "22457", "country": "DE", "state": "HH", "display_address": ["Pinneberger Str. 2a", "22457 Hamburg", "Germany"]}, "phone": "+49405505801", "display_phone": "+49 40 5505801", "distance": 3490.5071150635076}, {"id": "-mN4eGrBTgb2vdMbx8EYTg", "alias": "restaurant-ausspann-hamburg", "name": "Restaurant Ausspann", "image_url": "https://s3-media4.fl.yelpcdn.com/bphoto/6a5UlFlWwnbYa6N7TU0-GQ/o.jpg", "is_closed": false, "url": "https://www.yelp.com/biz/restaurant-ausspann-hamburg?adjust_creative=hBJOknVQJ58S5goQyjmwRw&utm_campaign=yelp_api_v3&utm_medium=api_v3_business_search&utm_source=hBJOknVQJ58S5goQyjmwRw", "review_count": 5, "categories": [{"alias": "modern_european", "title": "Modern European"}, {"alias": "german", "title": "German"}], "rating": 4.5, "coordinates": {"latitude": 53.6507, "longitude": 9.90749}, "transactions": [], "location": {"address1": "Holsteiner Chaussee 428", "address2": null, "address3": null, "city": "Hamburg", "zip_code": "22457", "country": "DE", "state": "HH", "display_address": ["Holsteiner Chaussee 428", "22457 Hamburg", "Germany"]}, "phone": "+494055987010", "display_phone": "+49 40 55987010", "distance": 1528.6964077457949}, {"id": "vImYVDX2a0kYn92XZpOa6g", "alias": "zum-zeppelin-hamburg-3", "name": "Zum Zeppelin", "image_url": "https://s3-media2.fl.yelpcdn.com/bphoto/RXga_Eqzb-_AFkA-Grgi3A/o.jpg", "is_closed": false, "url": "https://www.yelp.com/biz/zum-zeppelin-hamburg-3?adjust_creative=hBJOknVQJ58S5goQyjmwRw&utm_campaign=yelp_api_v3&utm_medium=api_v3_business_search&utm_source=hBJOknVQJ58S5goQyjmwRw", "review_count": 4, "categories": [{"alias": "german", "title": "German"}], "rating": 4.0, "coordinates": {"latitude": 53.62855, "longitude": 9.93248}, "transactions": [], "price": "\u20ac\u20ac\u20ac", "location": {"address1": "Frohmestr. 123-125", "address2": null, "address3": null, "city": "Hamburg", "zip_code": "22459", "country": "DE", "state": "HH", "display_address": ["Frohmestr. 123-125", "22459 Hamburg", "Germany"]}, "phone": "+4940559060", "display_phone": "+49 40 559060", "distance": 4239.983745849906}, {"id": "n-AURQpw5qG2Oow99UuPFw", "alias": "grando-sukredo-hamburg-5", "name": "Grando Sukredo", "image_url": "https://s3-media3.fl.yelpcdn.com/bphoto/YpW8gUEvHP1WhTo3qpdghA/o.jpg", "is_closed": false, "url": "https://www.yelp.com/biz/grando-sukredo-hamburg-5?adjust_creative=hBJOknVQJ58S5goQyjmwRw&utm_campaign=yelp_api_v3&utm_medium=api_v3_business_search&utm_source=hBJOknVQJ58S5goQyjmwRw", "review_count": 5, "categories": [{"alias": "steak", "title": "Steakhouses"}], "rating": 3.5, "coordinates": {"latitude": 53.6335867874537, "longitude": 9.90645425352155}, "transactions": [], "price": "\u20ac\u20ac", "location": {"address1": "Pinneberger Str. 28", "address2": "", "address3": "", "city": "Hamburg", "zip_code": "22457", "country": "DE", "state": "HH", "display_address": ["Pinneberger Str. 28", "22457 Hamburg", "Germany"]}, "phone": "+494054805430", "display_phone": "+49 40 54805430", "distance": 3429.8596462176133}, {"id": "XPjnWZ9ddKKn2w_T_pdNww", "alias": "ristorante-la-costa-smeralda-hamburg", "name": "Ristorante La Costa Smeralda", "image_url": "https://s3-media1.fl.yelpcdn.com/bphoto/plMHtB6o48u_Z8rmcJQj1A/o.jpg", "is_closed": false, "url": "https://www.yelp.com/biz/ristorante-la-costa-smeralda-hamburg?adjust_creative=hBJOknVQJ58S5goQyjmwRw&utm_campaign=yelp_api_v3&utm_medium=api_v3_business_search&utm_source=hBJOknVQJ58S5goQyjmwRw", "review_count": 12, "categories": [{"alias": "italian", "title": "Italian"}], "rating": 3.0, "coordinates": {"latitude": 53.6339, "longitude": 9.91975}, "transactions": [], "price": "\u20ac\u20ac", "location": {"address1": "Frohmestr. 29", "address2": null, "address3": null, "city": "Hamburg", "zip_code": "22457", "country": "DE", "state": "HH", "display_address": ["Frohmestr. 29", "22457 Hamburg", "Germany"]}, "phone": "+49405591041", "display_phone": "+49 40 5591041", "distance": 3443.216950466978}, {"id": "c5OhJe-RTfgKH_EH94L6Cg", "alias": "city-pizza-und-d\u00f6ner-b\u00f6nningstedt", "name": "City Pizza und D\u00f6ner", "image_url": "https://s3-media1.fl.yelpcdn.com/bphoto/d68sANcKEDDblPHVwU4vRQ/o.jpg", "is_closed": false, "url": "https://www.yelp.com/biz/city-pizza-und-d%C3%B6ner-b%C3%B6nningstedt?adjust_creative=hBJOknVQJ58S5goQyjmwRw&utm_campaign=yelp_api_v3&utm_medium=api_v3_business_search&utm_source=hBJOknVQJ58S5goQyjmwRw", "review_count": 4, "categories": [{"alias": "hotdogs", "title": "Fast Food"}, {"alias": "kebab", "title": "Kebab"}], "rating": 3.0, "coordinates": {"latitude": 53.6653, "longitude": 9.90443}, "transactions": [], "price": "\u20ac", "location": {"address1": "Kielerstr. 109", "address2": null, "address3": null, "city": "B\u00f6nningstedt", "zip_code": "25474", "country": "DE", "state": "SH", "display_address": ["Kielerstr. 109", "25474 B\u00f6nningstedt", "Germany"]}, "phone": "+494097074666", "display_phone": "+49 40 97074666", "distance": 398.0550333917202}, {"id": "u3ub5f0MS4qY67Q8XF9ZoA", "alias": "sodemanns-fisch-kutter-nr-1-hamburg", "name": "Sodemann's Fisch-Kutter Nr. 1", "image_url": "https://s3-media3.fl.yelpcdn.com/bphoto/BlysP6fVPaL0eEjKvEbByw/o.jpg", "is_closed": false, "url": "https://www.yelp.com/biz/sodemanns-fisch-kutter-nr-1-hamburg?adjust_creative=hBJOknVQJ58S5goQyjmwRw&utm_campaign=yelp_api_v3&utm_medium=api_v3_business_search&utm_source=hBJOknVQJ58S5goQyjmwRw", "review_count": 3, "categories": [{"alias": "foodtrucks", "title": "Food Trucks"}, {"alias": "fischbroetchen", "title": "Fischbroetchen"}], "rating": 5.0, "coordinates": {"latitude": 53.5537490844727, "longitude": 9.99182987213135}, "transactions": [], "price": "\u20ac\u20ac", "location": {"address1": "", "address2": null, "address3": "", "city": "Hamburg", "zip_code": "", "country": "DE", "state": "HH", "display_address": ["Hamburg", "Germany"]}, "phone": "+491773606663", "display_phone": "+49 177 3606663", "distance": 13744.629422656928}, {"id": "v9ZEwpx6nakbsvaJrFp-Bw", "alias": "fischhaus-timm-hamburg", "name": "Fischhaus Timm", "image_url": "https://s3-media2.fl.yelpcdn.com/bphoto/f62XnNQgC3zmAAJZA6vFPA/o.jpg", "is_closed": false, "url": "https://www.yelp.com/biz/fischhaus-timm-hamburg?adjust_creative=hBJOknVQJ58S5goQyjmwRw&utm_campaign=yelp_api_v3&utm_medium=api_v3_business_search&utm_source=hBJOknVQJ58S5goQyjmwRw", "review_count": 3, "categories": [{"alias": "seafood", "title": "Seafood"}, {"alias": "fishnchips", "title": "Fish & Chips"}], "rating": 3.5, "coordinates": {"latitude": 53.6352, "longitude": 9.917}, "transactions": [], "location": {"address1": "Gli\u00dfmannweg 11", "address2": null, "address3": null, "city": "Hamburg", "zip_code": "22457", "country": "DE", "state": "HH", "display_address": ["Gli\u00dfmannweg 11", "22457 Hamburg", "Germany"]}, "phone": "+49405592213", "display_phone": "+49 40 5592213", "distance": 3271.659909000156}, {"id": "tEEGKkgP0IHjMxXlhZuV8g", "alias": "d\u00f6ner-pavillon-hamburg", "name": "D\u00f6ner Pavillon", "image_url": "https://s3-media1.fl.yelpcdn.com/bphoto/zymlHwZCyYFWuL_WKs6stw/o.jpg", "is_closed": false, "url": "https://www.yelp.com/biz/d%C3%B6ner-pavillon-hamburg?adjust_creative=hBJOknVQJ58S5goQyjmwRw&utm_campaign=yelp_api_v3&utm_medium=api_v3_business_search&utm_source=hBJOknVQJ58S5goQyjmwRw", "review_count": 16, "categories": [{"alias": "cafes", "title": "Cafes"}, {"alias": "kebab", "title": "Kebab"}, {"alias": "sportsbars", "title": "Sports Bars"}], "rating": 4.5, "coordinates": {"latitude": 53.6327876988814, "longitude": 9.91132510004275}, "transactions": [], "price": "\u20ac", "location": {"address1": "Oldesloer Str. 2", "address2": "", "address3": "", "city": "Hamburg", "zip_code": "22457", "country": "DE", "state": "HH", "display_address": ["Oldesloer Str. 2", "22457 Hamburg", "Germany"]}, "phone": "+494018107415", "display_phone": "+49 40 18107415", "distance": 3510.2621425402945}, {"id": "Kstf0jpypvRgDTtwb2-i4Q", "alias": "gastst\u00e4tte-marathon-hamburg-2", "name": "Gastst\u00e4tte Marathon", "image_url": "https://s3-media3.fl.yelpcdn.com/bphoto/nKvIePm1Ek2iU7u_fJt-BA/o.jpg", "is_closed": false, "url": "https://www.yelp.com/biz/gastst%C3%A4tte-marathon-hamburg-2?adjust_creative=hBJOknVQJ58S5goQyjmwRw&utm_campaign=yelp_api_v3&utm_medium=api_v3_business_search&utm_source=hBJOknVQJ58S5goQyjmwRw", "review_count": 7, "categories": [{"alias": "greek", "title": "Greek"}], "rating": 3.0, "coordinates": {"latitude": 53.6473, "longitude": 9.90971}, "transactions": [], "price": "\u20ac\u20ac", "location": {"address1": "Roman-Zeller-Platz 2", "address2": null, "address3": null, "city": "Hamburg", "zip_code": "22457", "country": "DE", "state": "HH", "display_address": ["Roman-Zeller-Platz 2", "22457 Hamburg", "Germany"]}, "phone": "+49405583003", "display_phone": "+49 40 5583003", "distance": 1896.201452399994}, {"id": "aeUdh5cEwbXG9_HIi16qcg", "alias": "mr-fresh-hamburg", "name": "Mr. Fresh", "image_url": "https://s3-media2.fl.yelpcdn.com/bphoto/lLnY1KY0usrvrFYqL-PQPg/o.jpg", "is_closed": false, "url": "https://www.yelp.com/biz/mr-fresh-hamburg?adjust_creative=hBJOknVQJ58S5goQyjmwRw&utm_campaign=yelp_api_v3&utm_medium=api_v3_business_search&utm_source=hBJOknVQJ58S5goQyjmwRw", "review_count": 13, "categories": [{"alias": "salad", "title": "Salad"}, {"alias": "creperies", "title": "Creperies"}], "rating": 4.0, "coordinates": {"latitude": 53.6316, "longitude": 9.92009}, "transactions": [], "price": "\u20ac\u20ac", "location": {"address1": "W\u00e4hlingsallee 11", "address2": null, "address3": null, "city": "Hamburg", "zip_code": "22459", "country": "DE", "state": "HH", "display_address": ["W\u00e4hlingsallee 11", "22459 Hamburg", "Germany"]}, "phone": "+49405583400", "display_phone": "+49 40 5583400", "distance": 3698.8622238588405}, {"id": "h6XSC8n7UsQ5pEeI6N871w", "alias": "hallo-pizza-hamburg-14", "name": "Hallo Pizza!", "image_url": "https://s3-media3.fl.yelpcdn.com/bphoto/rPETS0HqHtwEcK_oVYi7dA/o.jpg", "is_closed": false, "url": "https://www.yelp.com/biz/hallo-pizza-hamburg-14?adjust_creative=hBJOknVQJ58S5goQyjmwRw&utm_campaign=yelp_api_v3&utm_medium=api_v3_business_search&utm_source=hBJOknVQJ58S5goQyjmwRw", "review_count": 2, "categories": [{"alias": "pizza", "title": "Pizza"}], "rating": 5.0, "coordinates": {"latitude": 53.6303085, "longitude": 9.9266974}, "transactions": [], "price": "\u20ac", "location": {"address1": "Frohmestr. 86", "address2": null, "address3": null, "city": "Hamburg", "zip_code": "22459", "country": "DE", "state": "HH", "display_address": ["Frohmestr. 86", "22459 Hamburg", "Germany"]}, "phone": "+494059354300", "display_phone": "+49 40 59354300", "distance": 3937.311351465467}, {"id": "U9QJwMx3RNOPy7Ce0xn4fA", "alias": "brimborium-hamburg-2", "name": "Brimborium", "image_url": "https://s3-media2.fl.yelpcdn.com/bphoto/ccorPrrGnaj__ntjefe2Ww/o.jpg", "is_closed": false, "url": "https://www.yelp.com/biz/brimborium-hamburg-2?adjust_creative=hBJOknVQJ58S5goQyjmwRw&utm_campaign=yelp_api_v3&utm_medium=api_v3_business_search&utm_source=hBJOknVQJ58S5goQyjmwRw", "review_count": 6, "categories": [{"alias": "international", "title": "International"}], "rating": 3.5, "coordinates": {"latitude": 53.6289, "longitude": 9.93144}, "transactions": [], "location": {"address1": "Frohmestr. 110", "address2": null, "address3": null, "city": "Hamburg", "zip_code": "22459", "country": "DE", "state": "HH", "display_address": ["Frohmestr. 110", "22459 Hamburg", "Germany"]}, "phone": "+49405590621535", "display_phone": "+49 40 5590621535", "distance": 4181.856434772904}, {"id": "563I0YNmkeOoaH2WXqJymQ", "alias": "grill-stop-hamburg-hamburg", "name": "Grill Stop Hamburg", "image_url": "https://s3-media3.fl.yelpcdn.com/bphoto/VlBYayXXEelJyPQbvMThJQ/o.jpg", "is_closed": false, "url": "https://www.yelp.com/biz/grill-stop-hamburg-hamburg?adjust_creative=hBJOknVQJ58S5goQyjmwRw&utm_campaign=yelp_api_v3&utm_medium=api_v3_business_search&utm_source=hBJOknVQJ58S5goQyjmwRw", "review_count": 2, "categories": [{"alias": "foodstands", "title": "Food Stands"}], "rating": 3.5, "coordinates": {"latitude": 53.632113, "longitude": 9.922267}, "transactions": [], "price": "\u20ac", "location": {"address1": "Frohmestr. 53", "address2": null, "address3": null, "city": "Hamburg", "zip_code": "22457", "country": "DE", "state": "HH", "display_address": ["Frohmestr. 53", "22457 Hamburg", "Germany"]}, "phone": "+49405507225", "display_phone": "+49 40 5507225", "distance": 3676.5715182530225}, {"id": "hkQRtzqajHTR6AZsbr7IOg", "alias": "mi-pho-hamburg", "name": "Mi PHO", "image_url": "https://s3-media1.fl.yelpcdn.com/bphoto/psyZCrp0EecR0fjzImb-jA/o.jpg", "is_closed": false, "url": "https://www.yelp.com/biz/mi-pho-hamburg?adjust_creative=hBJOknVQJ58S5goQyjmwRw&utm_campaign=yelp_api_v3&utm_medium=api_v3_business_search&utm_source=hBJOknVQJ58S5goQyjmwRw", "review_count": 1, "categories": [{"alias": "vietnamese", "title": "Vietnamese"}], "rating": 5.0, "coordinates": {"latitude": 53.63248, "longitude": 9.90905}, "transactions": [], "location": {"address1": "Pinneberger Str. 9", "address2": null, "address3": "", "city": "Hamburg", "zip_code": "22457", "country": "DE", "state": "HH", "display_address": ["Pinneberger Str. 9", "22457 Hamburg", "Germany"]}, "phone": "+494066873124", "display_phone": "+49 40 66873124", "distance": 3549.622592948417}, {"id": "f8Iq441eBFQ2H6l44iUYNA", "alias": "call-a-pizza-hamburg-5", "name": "Call a Pizza", "image_url": "https://s3-media4.fl.yelpcdn.com/bphoto/VKKfI_x3McuKKuUSy6MW1Q/o.jpg", "is_closed": false, "url": "https://www.yelp.com/biz/call-a-pizza-hamburg-5?adjust_creative=hBJOknVQJ58S5goQyjmwRw&utm_campaign=yelp_api_v3&utm_medium=api_v3_business_search&utm_source=hBJOknVQJ58S5goQyjmwRw", "review_count": 15, "categories": [{"alias": "pizza", "title": "Pizza"}], "rating": 3.5, "coordinates": {"latitude": 53.63051, "longitude": 9.92599}, "transactions": [], "price": "\u20ac\u20ac", "location": {"address1": "Frohmestr. 78D", "address2": "", "address3": null, "city": "Hamburg", "zip_code": "22459", "country": "DE", "state": "HH", "display_address": ["Frohmestr. 78D", "22459 Hamburg", "Germany"]}, "phone": "+49405592047", "display_phone": "+49 40 5592047", "distance": 3905.0179797380015}, {"id": "0bRB2Dk1RuO_XYvigryCrw", "alias": "hamaliya-pizzaservice-hamburg", "name": "Hamaliya Pizzaservice", "image_url": "", "is_closed": false, "url": "https://www.yelp.com/biz/hamaliya-pizzaservice-hamburg?adjust_creative=hBJOknVQJ58S5goQyjmwRw&utm_campaign=yelp_api_v3&utm_medium=api_v3_business_search&utm_source=hBJOknVQJ58S5goQyjmwRw", "review_count": 3, "categories": [{"alias": "pizza", "title": "Pizza"}], "rating": 3.5, "coordinates": {"latitude": 53.63412, "longitude": 9.91615}, "transactions": [], "location": {"address1": "Riekbornweg 2", "address2": "", "address3": "", "city": "Hamburg", "zip_code": "22457", "country": "DE", "state": "HH", "display_address": ["Riekbornweg 2", "22457 Hamburg", "Germany"]}, "phone": "+494055505719", "display_phone": "+49 40 55505719", "distance": 3379.820506740161}, {"id": "3if8K7vRrE-cIFnKiGg_nw", "alias": "cafe-bistro-alfi-b\u00f6nningstedt", "name": "Cafe Bistro Alfi", "image_url": "", "is_closed": false, "url": "https://www.yelp.com/biz/cafe-bistro-alfi-b%C3%B6nningstedt?adjust_creative=hBJOknVQJ58S5goQyjmwRw&utm_campaign=yelp_api_v3&utm_medium=api_v3_business_search&utm_source=hBJOknVQJ58S5goQyjmwRw", "review_count": 1, "categories": [{"alias": "cafes", "title": "Cafes"}, {"alias": "coffee", "title": "Coffee & Tea"}, {"alias": "german", "title": "German"}], "rating": 2.0, "coordinates": {"latitude": 53.6704, "longitude": 9.90271}, "transactions": [], "location": {"address1": "Kieler Str. 185", "address2": null, "address3": null, "city": "B\u00f6nningstedt", "zip_code": "25474", "country": "DE", "state": "SH", "display_address": ["Kieler Str. 185", "25474 B\u00f6nningstedt", "Germany"]}, "phone": "+494055693700", "display_phone": "+49 40 55693700", "distance": 836.4543142531732}, {"id": "pdCpaunO_IsJx9egvbp4vg", "alias": "asia-pfanne-hamburg", "name": "Asia Pfanne", "image_url": "https://s3-media2.fl.yelpcdn.com/bphoto/4Dr3ceAn6V1xIJvsGkT15w/o.jpg", "is_closed": false, "url": "https://www.yelp.com/biz/asia-pfanne-hamburg?adjust_creative=hBJOknVQJ58S5goQyjmwRw&utm_campaign=yelp_api_v3&utm_medium=api_v3_business_search&utm_source=hBJOknVQJ58S5goQyjmwRw", "review_count": 1, "categories": [{"alias": "panasian", "title": "Pan Asian"}], "rating": 3.0, "coordinates": {"latitude": 53.632113, "longitude": 9.922267}, "transactions": [], "location": {"address1": "Frohmestr. 53", "address2": "", "address3": "", "city": "Hamburg", "zip_code": "22457", "country": "DE", "state": "HH", "display_address": ["Frohmestr. 53", "22457 Hamburg", "Germany"]}, "phone": "+49405507225", "display_phone": "+49 40 5507225", "distance": 3676.5715182530225}, {"id": "1N0RoHYpRany3cen0il2VA", "alias": "restaurant-omyros-hamburg", "name": "Restaurant Omyros", "image_url": "https://s3-media1.fl.yelpcdn.com/bphoto/2uhIyQIgkOb82pZmUEMzwg/o.jpg", "is_closed": false, "url": "https://www.yelp.com/biz/restaurant-omyros-hamburg?adjust_creative=hBJOknVQJ58S5goQyjmwRw&utm_campaign=yelp_api_v3&utm_medium=api_v3_business_search&utm_source=hBJOknVQJ58S5goQyjmwRw", "review_count": 11, "categories": [{"alias": "greek", "title": "Greek"}, {"alias": "international", "title": "International"}], "rating": 3.0, "coordinates": {"latitude": 53.6318, "longitude": 9.92008}, "transactions": [], "price": "\u20ac\u20ac", "location": {"address1": "W\u00e4hlingsallee 8", "address2": null, "address3": null, "city": "Hamburg", "zip_code": "22459", "country": "DE", "state": "HH", "display_address": ["W\u00e4hlingsallee 8", "22459 Hamburg", "Germany"]}, "phone": "+494067044630", "display_phone": "+49 40 67044630", "distance": 3676.853085786198}, {"id": "hXrSBcr_JxcaWG0hTSkwPA", "alias": "landhaus-schadendorf-hasloh", "name": "Landhaus Schadendorf", "image_url": "https://s3-media4.fl.yelpcdn.com/bphoto/zJNxqe6yQY7YQ_G9FqUmtw/o.jpg", "is_closed": false, "url": "https://www.yelp.com/biz/landhaus-schadendorf-hasloh?adjust_creative=hBJOknVQJ58S5goQyjmwRw&utm_campaign=yelp_api_v3&utm_medium=api_v3_business_search&utm_source=hBJOknVQJ58S5goQyjmwRw", "review_count": 3, "categories": [{"alias": "greek", "title": "Greek"}], "rating": 3.0, "coordinates": {"latitude": 53.6925, "longitude": 9.9114}, "transactions": [], "price": "\u20ac\u20ac", "location": {"address1": "Kieler Str. 34", "address2": null, "address3": null, "city": "Hasloh", "zip_code": "25474", "country": "DE", "state": "SH", "display_address": ["Kieler Str. 34", "25474 Hasloh", "Germany"]}, "phone": "+494106658933", "display_phone": "+49 4106 658933", "distance": 3131.0520677319473}, {"id": "F09QZ5eyYNif_4yxJ1R6xw", "alias": "restaurant-naxos-ellerbek", "name": "Restaurant Naxos", "image_url": "", "is_closed": false, "url": "https://www.yelp.com/biz/restaurant-naxos-ellerbek?adjust_creative=hBJOknVQJ58S5goQyjmwRw&utm_campaign=yelp_api_v3&utm_medium=api_v3_business_search&utm_source=hBJOknVQJ58S5goQyjmwRw", "review_count": 3, "categories": [{"alias": "restaurants", "title": "Restaurants"}], "rating": 4.5, "coordinates": {"latitude": 53.6486, "longitude": 9.89857}, "transactions": [], "price": "\u20ac\u20ac", "location": {"address1": "Tilsiter Str. 1", "address2": null, "address3": null, "city": "Ellerbek", "zip_code": "25474", "country": "DE", "state": "SH", "display_address": ["Tilsiter Str. 1", "25474 Ellerbek", "Germany"]}, "phone": "+49410132629", "display_phone": "+49 4101 32629", "distance": 1913.1118287047552}, {"id": "fTQyh9kb6XbWJEygoWC5LQ", "alias": "bennys-hamburg-2", "name": "Bennys", "image_url": "", "is_closed": false, "url": "https://www.yelp.com/biz/bennys-hamburg-2?adjust_creative=hBJOknVQJ58S5goQyjmwRw&utm_campaign=yelp_api_v3&utm_medium=api_v3_business_search&utm_source=hBJOknVQJ58S5goQyjmwRw", "review_count": 3, "categories": [{"alias": "restaurants", "title": "Restaurants"}], "rating": 1.0, "coordinates": {"latitude": 53.6528179, "longitude": 9.9200587}, "transactions": [], "location": {"address1": "K\u00f6nigskinderweg 200", "address2": "", "address3": null, "city": "Hamburg", "zip_code": "22457", "country": "DE", "state": "HH", "display_address": ["K\u00f6nigskinderweg 200", "22457 Hamburg", "Germany"]}, "phone": "+49405598790", "display_phone": "+49 40 5598790", "distance": 1435.8272438398199}, {"id": "APvIA_7ssxgC0atmQEFMcg", "alias": "burgerkultour-food-truck-hamburg-2", "name": "BurgerKultour Food Truck", "image_url": "https://s3-media4.fl.yelpcdn.com/bphoto/KoAuwalMnlAO8139MmdYBQ/o.jpg", "is_closed": false, "url": "https://www.yelp.com/biz/burgerkultour-food-truck-hamburg-2?adjust_creative=hBJOknVQJ58S5goQyjmwRw&utm_campaign=yelp_api_v3&utm_medium=api_v3_business_search&utm_source=hBJOknVQJ58S5goQyjmwRw", "review_count": 3, "categories": [{"alias": "foodtrucks", "title": "Food Trucks"}, {"alias": "burgers", "title": "Burgers"}], "rating": 4.5, "coordinates": {"latitude": 53.57154, "longitude": 9.95575}, "transactions": [], "price": "\u20ac\u20ac", "location": {"address1": "", "address2": "", "address3": "", "city": "Hamburg", "zip_code": "20259", "country": "DE", "state": "HH", "display_address": ["20259 Hamburg", "Germany"]}, "phone": "+4917626055122", "display_phone": "+49 176 26055122", "distance": 10820.52837611131}, {"id": "fwdDE_9CO6RJ9uFQKa6nUQ", "alias": "schnelsener-kebap-house-hamburg", "name": "Schnelsener Kebap House", "image_url": "", "is_closed": false, "url": "https://www.yelp.com/biz/schnelsener-kebap-house-hamburg?adjust_creative=hBJOknVQJ58S5goQyjmwRw&utm_campaign=yelp_api_v3&utm_medium=api_v3_business_search&utm_source=hBJOknVQJ58S5goQyjmwRw", "review_count": 9, "categories": [{"alias": "kebab", "title": "Kebab"}], "rating": 4.5, "coordinates": {"latitude": 53.6362, "longitude": 9.91752}, "transactions": [], "price": "\u20ac", "location": {"address1": "Oldesloer Str. 41", "address2": null, "address3": null, "city": "Hamburg", "zip_code": "22457", "country": "DE", "state": "HH", "display_address": ["Oldesloer Str. 41", "22457 Hamburg", "Germany"]}, "phone": "+494055009130", "display_phone": "+49 40 55009130", "distance": 3166.5322854437254}, {"id": "cGIKCcR0wZszz8VldC2-7g", "alias": "currywerk-hamburg", "name": "curryWERK", "image_url": "https://s3-media4.fl.yelpcdn.com/bphoto/j_ZPQAB6JrAru84VDuLiRA/o.jpg", "is_closed": false, "url": "https://www.yelp.com/biz/currywerk-hamburg?adjust_creative=hBJOknVQJ58S5goQyjmwRw&utm_campaign=yelp_api_v3&utm_medium=api_v3_business_search&utm_source=hBJOknVQJ58S5goQyjmwRw", "review_count": 1, "categories": [{"alias": "foodtrucks", "title": "Food Trucks"}, {"alias": "currysausage", "title": "Curry Sausage"}], "rating": 4.0, "coordinates": {"latitude": 53.5498886108398, "longitude": 9.94732189178467}, "transactions": [], "price": "\u20ac\u20ac", "location": {"address1": "", "address2": "", "address3": "", "city": "Hamburg", "zip_code": "22767", "country": "DE", "state": "HH", "display_address": ["22767 Hamburg", "Germany"]}, "phone": "+4917632443433", "display_phone": "+49 176 32443433", "distance": 13014.922684665811}, {"id": "PRNi969cArwqNCpob8xw1w", "alias": "eisc\u00e1fe-kind-ellerbek-2", "name": "Eisc\u00e1fe Kind", "image_url": "", "is_closed": false, "url": "https://www.yelp.com/biz/eisc%C3%A1fe-kind-ellerbek-2?adjust_creative=hBJOknVQJ58S5goQyjmwRw&utm_campaign=yelp_api_v3&utm_medium=api_v3_business_search&utm_source=hBJOknVQJ58S5goQyjmwRw", "review_count": 4, "categories": [{"alias": "icecream", "title": "Ice Cream & Frozen Yogurt"}, {"alias": "restaurants", "title": "Restaurants"}], "rating": 4.0, "coordinates": {"latitude": 53.63892, "longitude": 9.89387}, "transactions": [], "price": "\u20ac", "location": {"address1": "Pinneberger Str. 157", "address2": null, "address3": null, "city": "Ellerbek", "zip_code": "25474", "country": "DE", "state": "SH", "display_address": ["Pinneberger Str. 157", "25474 Ellerbek", "Germany"]}, "phone": "+49410136239", "display_phone": "+49 4101 36239", "distance": 3022.07986310737}, {"id": "SeodQIjOcsrznD7rwIB-Jw", "alias": "the-big-balmy-hamburg-2", "name": "The Big Balmy", "image_url": "https://s3-media2.fl.yelpcdn.com/bphoto/KWUCQvGDONs_iDxlKXzgvQ/o.jpg", "is_closed": false, "url": "https://www.yelp.com/biz/the-big-balmy-hamburg-2?adjust_creative=hBJOknVQJ58S5goQyjmwRw&utm_campaign=yelp_api_v3&utm_medium=api_v3_business_search&utm_source=hBJOknVQJ58S5goQyjmwRw", "review_count": 27, "categories": [{"alias": "burgers", "title": "Burgers"}, {"alias": "foodtrucks", "title": "Food Trucks"}], "rating": 3.5, "coordinates": {"latitude": 53.537786, "longitude": 10.028218}, "transactions": [], "price": "\u20ac\u20ac", "location": {"address1": "", "address2": null, "address3": null, "city": "Hamburg", "zip_code": "", "country": "DE", "state": "HH", "display_address": ["Hamburg", "Germany"]}, "phone": "+494069278630", "display_phone": "+49 40 69278630", "distance": 16082.30498563445}, {"id": "gLx6Vz_0Tht17upmrAVfbQ", "alias": "xxl-croque-hamburg", "name": "XXL Croque", "image_url": "https://s3-media1.fl.yelpcdn.com/bphoto/WI-0DoqAWwvayUaAfxUu6Q/o.jpg", "is_closed": false, "url": "https://www.yelp.com/biz/xxl-croque-hamburg?adjust_creative=hBJOknVQJ58S5goQyjmwRw&utm_campaign=yelp_api_v3&utm_medium=api_v3_business_search&utm_source=hBJOknVQJ58S5goQyjmwRw", "review_count": 2, "categories": [{"alias": "sandwiches", "title": "Sandwiches"}], "rating": 2.0, "coordinates": {"latitude": 53.63412, "longitude": 9.91615}, "transactions": [], "price": "\u20ac\u20ac", "location": {"address1": "Riekbornweg 2", "address2": "", "address3": "", "city": "Hamburg", "zip_code": "22457", "country": "DE", "state": "HH", "display_address": ["Riekbornweg 2", "22457 Hamburg", "Germany"]}, "phone": "+494055505880", "display_phone": "+49 40 55505880", "distance": 3379.820506740161}]