[{"id": "zbx5XQPAttXM1JAwhDgpbA", "alias": "dieter-sanchez-hamburg", "name": "Dieter Sanchez", "image_url": "https://s3-media4.fl.yelpcdn.com/bphoto/CJQdX_eQC4dNJkJuSRBFjQ/o.jpg", "is_closed": false, "url": "https://www.yelp.com/biz/dieter-sanchez-hamburg?adjust_creative=hBJOknVQJ58S5goQyjmwRw&utm_campaign=yelp_api_v3&utm_medium=api_v3_business_search&utm_source=hBJOknVQJ58S5goQyjmwRw", "review_count": 171, "categories": [{"alias": "hotdogs", "title": "Fast Food"}, {"alias": "burgers", "title": "Burgers"}, {"alias": "tapasmallplates", "title": "Tapas/Small Plates"}], "rating": 4.5, "coordinates": {"latitude": 53.6465968, "longitude": 10.0123018}, "transactions": [], "price": "\u20ac\u20ac", "location": {"address1": "Langenhorner Chaussee 174", "address2": "", "address3": "", "city": "Hamburg", "zip_code": "22415", "country": "DE", "state": "HH", "display_address": ["Langenhorner Chaussee 174", "22415 Hamburg", "Germany"]}, "phone": "+494098234744", "display_phone": "+49 40 98234744", "distance": 2246.540553299353}, {"id": "CZgqrTbEDzgf0L2gu02aOw", "alias": "the-vegan-eagle-hamburg", "name": "The Vegan Eagle", "image_url": "https://s3-media2.fl.yelpcdn.com/bphoto/9vsd52fqOr6t2cCjQIp26w/o.jpg", "is_closed": false, "url": "https://www.yelp.com/biz/the-vegan-eagle-hamburg?adjust_creative=hBJOknVQJ58S5goQyjmwRw&utm_campaign=yelp_api_v3&utm_medium=api_v3_business_search&utm_source=hBJOknVQJ58S5goQyjmwRw", "review_count": 43, "categories": [{"alias": "vegan", "title": "Vegan"}], "rating": 4.5, "coordinates": {"latitude": 53.64449, "longitude": 10.01236}, "transactions": [], "price": "\u20ac\u20ac", "location": {"address1": "Wischh\u00f6fen 4", "address2": null, "address3": "", "city": "Hamburg", "zip_code": "22415", "country": "DE", "state": "HH", "display_address": ["Wischh\u00f6fen 4", "22415 Hamburg", "Germany"]}, "phone": "+494028478767", "display_phone": "+49 40 28478767", "distance": 2442.3930673463883}, {"id": "EuUXnJ0w0KVlmK-JiUgLHw", "alias": "la-cucina-hamburg", "name": "La Cucina", "image_url": "https://s3-media4.fl.yelpcdn.com/bphoto/dvdqBsc7TMAYIcRsyzcctA/o.jpg", "is_closed": false, "url": "https://www.yelp.com/biz/la-cucina-hamburg?adjust_creative=hBJOknVQJ58S5goQyjmwRw&utm_campaign=yelp_api_v3&utm_medium=api_v3_business_search&utm_source=hBJOknVQJ58S5goQyjmwRw", "review_count": 9, "categories": [{"alias": "italian", "title": "Italian"}], "rating": 4.0, "coordinates": {"latitude": 53.6616578, "longitude": 10.022459}, "transactions": [], "price": "\u20ac\u20ac", "location": {"address1": "Tangstedter Landstr. 208", "address2": "", "address3": "", "city": "Hamburg", "zip_code": "22417", "country": "DE", "state": "HH", "display_address": ["Tangstedter Landstr. 208", "22417 Hamburg", "Germany"]}, "phone": "+49405209920", "display_phone": "+49 40 5209920", "distance": 613.3806963514647}, {"id": "DvpKJIVQcmVY2_HH1c8VOQ", "alias": "china-restaurant-happy-palace-hamburg", "name": "China Restaurant Happy Palace", "image_url": "https://s3-media3.fl.yelpcdn.com/bphoto/anMatxs3mWtyupZa6SO6SQ/o.jpg", "is_closed": false, "url": "https://www.yelp.com/biz/china-restaurant-happy-palace-hamburg?adjust_creative=hBJOknVQJ58S5goQyjmwRw&utm_campaign=yelp_api_v3&utm_medium=api_v3_business_search&utm_source=hBJOknVQJ58S5goQyjmwRw", "review_count": 17, "categories": [{"alias": "chinese", "title": "Chinese"}], "rating": 4.0, "coordinates": {"latitude": 53.6653239, "longitude": 10.0242332}, "transactions": [], "price": "\u20ac\u20ac", "location": {"address1": "Tangstedter Landstr. 244", "address2": "", "address3": null, "city": "Hamburg", "zip_code": "22417", "country": "DE", "state": "HH", "display_address": ["Tangstedter Landstr. 244", "22417 Hamburg", "Germany"]}, "phone": "+49405208388", "display_phone": "+49 40 5208388", "distance": 514.4301717554505}, {"id": "HfF4qFTfpRxncLGVAwQ1pw", "alias": "amfipolis-norderstedt", "name": "Amfipolis", "image_url": "https://s3-media2.fl.yelpcdn.com/bphoto/8AUpLJXgTDlBVoA3zZ8row/o.jpg", "is_closed": false, "url": "https://www.yelp.com/biz/amfipolis-norderstedt?adjust_creative=hBJOknVQJ58S5goQyjmwRw&utm_campaign=yelp_api_v3&utm_medium=api_v3_business_search&utm_source=hBJOknVQJ58S5goQyjmwRw", "review_count": 13, "categories": [{"alias": "greek", "title": "Greek"}], "rating": 4.5, "coordinates": {"latitude": 53.6857, "longitude": 10.0252}, "transactions": [], "price": "\u20ac\u20ac", "location": {"address1": "Segeberger Chaussee 156", "address2": null, "address3": null, "city": "Norderstedt", "zip_code": "22851", "country": "DE", "state": "SH", "display_address": ["Segeberger Chaussee 156", "22851 Norderstedt", "Germany"]}, "phone": "+494064668103", "display_phone": "+49 40 64668103", "distance": 2515.5441687225148}, {"id": "ZQz5Ymoqjjg8NJ81EFATfA", "alias": "vietstreet-norderstedt", "name": "VietStreet", "image_url": "https://s3-media1.fl.yelpcdn.com/bphoto/LU4Uw_TTiF2IhCRSU4xZKw/o.jpg", "is_closed": false, "url": "https://www.yelp.com/biz/vietstreet-norderstedt?adjust_creative=hBJOknVQJ58S5goQyjmwRw&utm_campaign=yelp_api_v3&utm_medium=api_v3_business_search&utm_source=hBJOknVQJ58S5goQyjmwRw", "review_count": 6, "categories": [{"alias": "vietnamese", "title": "Vietnamese"}], "rating": 4.0, "coordinates": {"latitude": 53.687892795006, "longitude": 10.0393799319863}, "transactions": [], "price": "\u20ac", "location": {"address1": "Mittelstr. 60", "address2": "", "address3": null, "city": "Norderstedt", "zip_code": "22851", "country": "DE", "state": "SH", "display_address": ["Mittelstr. 60", "22851 Norderstedt", "Germany"]}, "phone": "+494080007488", "display_phone": "+49 40 80007488", "distance": 2778.3003518828796}, {"id": "-pgy27zFndFK3aOBsoAb8Q", "alias": "gastst\u00e4tte-zum-krokodil-hamburg", "name": "Gastst\u00e4tte Zum Krokodil", "image_url": "https://s3-media2.fl.yelpcdn.com/bphoto/MirjgROQKDm7edI8nzvxxA/o.jpg", "is_closed": false, "url": "https://www.yelp.com/biz/gastst%C3%A4tte-zum-krokodil-hamburg?adjust_creative=hBJOknVQJ58S5goQyjmwRw&utm_campaign=yelp_api_v3&utm_medium=api_v3_business_search&utm_source=hBJOknVQJ58S5goQyjmwRw", "review_count": 18, "categories": [{"alias": "german", "title": "German"}], "rating": 4.5, "coordinates": {"latitude": 53.66422, "longitude": 10.02386}, "transactions": [], "price": "\u20ac\u20ac", "location": {"address1": "Tangstedter Landstr. 232", "address2": null, "address3": null, "city": "Hamburg", "zip_code": "22417", "country": "DE", "state": "HH", "display_address": ["Tangstedter Landstr. 232", "22417 Hamburg", "Germany"]}, "phone": "+49405202227", "display_phone": "+49 40 5202227", "distance": 498.4548737675091}, {"id": "X0BoKNuX9MbTV2iocJM4Dg", "alias": "l-aurora-hamburg", "name": "L'Aurora", "image_url": "https://s3-media1.fl.yelpcdn.com/bphoto/LXjU73iBR-DwNyAgeJCCUw/o.jpg", "is_closed": false, "url": "https://www.yelp.com/biz/l-aurora-hamburg?adjust_creative=hBJOknVQJ58S5goQyjmwRw&utm_campaign=yelp_api_v3&utm_medium=api_v3_business_search&utm_source=hBJOknVQJ58S5goQyjmwRw", "review_count": 43, "categories": [{"alias": "italian", "title": "Italian"}], "rating": 4.5, "coordinates": {"latitude": 53.64086, "longitude": 10.03673}, "transactions": [], "price": "\u20ac\u20ac", "location": {"address1": "Hummelsb\u00fcttler Hauptstr. 47", "address2": null, "address3": null, "city": "Hamburg", "zip_code": "22339", "country": "DE", "state": "HH", "display_address": ["Hummelsb\u00fcttler Hauptstr. 47", "22339 Hamburg", "Germany"]}, "phone": "+494053054689", "display_phone": "+49 40 53054689", "distance": 2526.7504872386935}, {"id": "rA_B4cSv33VKfaNF4Y37jw", "alias": "hallo-pizza-hamburg-9", "name": "Hallo Pizza!", "image_url": "https://s3-media2.fl.yelpcdn.com/bphoto/fu9_B_MNMxudv9vgkO6yHQ/o.jpg", "is_closed": false, "url": "https://www.yelp.com/biz/hallo-pizza-hamburg-9?adjust_creative=hBJOknVQJ58S5goQyjmwRw&utm_campaign=yelp_api_v3&utm_medium=api_v3_business_search&utm_source=hBJOknVQJ58S5goQyjmwRw", "review_count": 9, "categories": [{"alias": "pizza", "title": "Pizza"}], "rating": 5.0, "coordinates": {"latitude": 53.647585, "longitude": 10.01465}, "transactions": [], "price": "\u20ac\u20ac", "location": {"address1": "Tangstedter Landstr. 25", "address2": "", "address3": "", "city": "Hamburg", "zip_code": "22415", "country": "DE", "state": "HH", "display_address": ["Tangstedter Landstr. 25", "22415 Hamburg", "Germany"]}, "phone": "+494053908583", "display_phone": "+49 40 53908583", "distance": 2065.954633942254}, {"id": "GU1igRg9uzWm6CcpOViIFA", "alias": "la-differenza-hamburg", "name": "La Differenza", "image_url": "https://s3-media3.fl.yelpcdn.com/bphoto/-UfVYWvR3FgQjXJPNnPywQ/o.jpg", "is_closed": false, "url": "https://www.yelp.com/biz/la-differenza-hamburg?adjust_creative=hBJOknVQJ58S5goQyjmwRw&utm_campaign=yelp_api_v3&utm_medium=api_v3_business_search&utm_source=hBJOknVQJ58S5goQyjmwRw", "review_count": 17, "categories": [{"alias": "italian", "title": "Italian"}], "rating": 4.5, "coordinates": {"latitude": 53.64908, "longitude": 10.05227}, "transactions": [], "price": "\u20ac\u20ac", "location": {"address1": "Rehagen 29", "address2": null, "address3": null, "city": "Hamburg", "zip_code": "22339", "country": "DE", "state": "HH", "display_address": ["Rehagen 29", "22339 Hamburg", "Germany"]}, "phone": "+494053888573", "display_phone": "+49 40 53888573", "distance": 2023.862521585783}, {"id": "TKz2hECyw1FjvTU3bVGgkw", "alias": "wattkorn-hamburg", "name": "Wattkorn", "image_url": "https://s3-media4.fl.yelpcdn.com/bphoto/ImqOG545zAFvz5Lgi5ADqA/o.jpg", "is_closed": false, "url": "https://www.yelp.com/biz/wattkorn-hamburg?adjust_creative=hBJOknVQJ58S5goQyjmwRw&utm_campaign=yelp_api_v3&utm_medium=api_v3_business_search&utm_source=hBJOknVQJ58S5goQyjmwRw", "review_count": 154, "categories": [{"alias": "german", "title": "German"}, {"alias": "sushi", "title": "Sushi Bars"}], "rating": 3.5, "coordinates": {"latitude": 53.66379, "longitude": 10.0236699}, "transactions": [], "price": "\u20ac\u20ac\u20ac", "location": {"address1": "Tangstedter Landstr. 230", "address2": null, "address3": null, "city": "Hamburg", "zip_code": "22417", "country": "DE", "state": "HH", "display_address": ["Tangstedter Landstr. 230", "22417 Hamburg", "Germany"]}, "phone": "+49405203797", "display_phone": "+49 40 5203797", "distance": 501.5401065146555}, {"id": "25oe-rzOVBbXSyCDfgYJVg", "alias": "odysseus-norderstedt-2", "name": "Odysseus", "image_url": "https://s3-media1.fl.yelpcdn.com/bphoto/mDXyu342Nb2eSJH5XTFbhA/o.jpg", "is_closed": false, "url": "https://www.yelp.com/biz/odysseus-norderstedt-2?adjust_creative=hBJOknVQJ58S5goQyjmwRw&utm_campaign=yelp_api_v3&utm_medium=api_v3_business_search&utm_source=hBJOknVQJ58S5goQyjmwRw", "review_count": 21, "categories": [{"alias": "greek", "title": "Greek"}], "rating": 4.0, "coordinates": {"latitude": 53.683336, "longitude": 10.031087}, "transactions": [], "price": "\u20ac\u20ac", "location": {"address1": "Tangstedter Landstr. 559", "address2": "", "address3": "", "city": "Norderstedt", "zip_code": "22851", "country": "DE", "state": "SH", "display_address": ["Tangstedter Landstr. 559", "22851 Norderstedt", "Germany"]}, "phone": "+49405243912", "display_phone": "+49 40 5243912", "distance": 2217.4316689442776}, {"id": "DYFepTmhElYWxp0q8maI9Q", "alias": "khan-mongolei-hamburg", "name": "Khan Mongolei", "image_url": "https://s3-media1.fl.yelpcdn.com/bphoto/q2K-kQKbPvMY5N9SVtbV6A/o.jpg", "is_closed": false, "url": "https://www.yelp.com/biz/khan-mongolei-hamburg?adjust_creative=hBJOknVQJ58S5goQyjmwRw&utm_campaign=yelp_api_v3&utm_medium=api_v3_business_search&utm_source=hBJOknVQJ58S5goQyjmwRw", "review_count": 102, "categories": [{"alias": "mongolian", "title": "Mongolian"}, {"alias": "sushi", "title": "Sushi Bars"}, {"alias": "buffets", "title": "Buffets"}], "rating": 4.5, "coordinates": {"latitude": 53.642496696467, "longitude": 10.0465416388703}, "transactions": [], "price": "\u20ac\u20ac", "location": {"address1": "Hummelsb\u00fctteler Markt 2", "address2": "", "address3": null, "city": "Hamburg", "zip_code": "22339", "country": "DE", "state": "HH", "display_address": ["Hummelsb\u00fctteler Markt 2", "22339 Hamburg", "Germany"]}, "phone": "+494063679073", "display_phone": "+49 40 63679073", "distance": 2528.6281148623793}, {"id": "m_ktEGsfE3wB4DLq2jLnjQ", "alias": "baba-papa-hamburg", "name": "baba papa", "image_url": "https://s3-media1.fl.yelpcdn.com/bphoto/wFMjBwrP8-dPRKLXbrrS-A/o.jpg", "is_closed": false, "url": "https://www.yelp.com/biz/baba-papa-hamburg?adjust_creative=hBJOknVQJ58S5goQyjmwRw&utm_campaign=yelp_api_v3&utm_medium=api_v3_business_search&utm_source=hBJOknVQJ58S5goQyjmwRw", "review_count": 3, "categories": [{"alias": "persian", "title": "Persian/Iranian"}, {"alias": "italian", "title": "Italian"}], "rating": 4.5, "coordinates": {"latitude": 53.6403885, "longitude": 10.0192003}, "transactions": [], "price": "\u20ac\u20ac", "location": {"address1": "Flughafenstr. 83", "address2": "", "address3": "", "city": "Hamburg", "zip_code": "22415", "country": "DE", "state": "HH", "display_address": ["Flughafenstr. 83", "22415 Hamburg", "Germany"]}, "phone": "+494031992677", "display_phone": "+49 40 31992677", "distance": 2675.4187441548065}, {"id": "0AJR6GQ2Fos9vEHoyisS6A", "alias": "restaurant-thessaloniki-hamburg-3", "name": "Restaurant Thessaloniki", "image_url": "https://s3-media2.fl.yelpcdn.com/bphoto/pHBR0cr0R3eS0yULM46hqw/o.jpg", "is_closed": false, "url": "https://www.yelp.com/biz/restaurant-thessaloniki-hamburg-3?adjust_creative=hBJOknVQJ58S5goQyjmwRw&utm_campaign=yelp_api_v3&utm_medium=api_v3_business_search&utm_source=hBJOknVQJ58S5goQyjmwRw", "review_count": 14, "categories": [{"alias": "greek", "title": "Greek"}], "rating": 4.5, "coordinates": {"latitude": 53.6727, "longitude": 10.0167}, "transactions": [], "price": "\u20ac\u20ac", "location": {"address1": "Fibigerstr. 259", "address2": null, "address3": null, "city": "Hamburg", "zip_code": "22419", "country": "DE", "state": "HH", "display_address": ["Fibigerstr. 259", "22419 Hamburg", "Germany"]}, "phone": "+49405321384", "display_phone": "+49 40 5321384", "distance": 1415.2630125465182}, {"id": "Z0NWpeBQJUtr4QnZasp0aA", "alias": "wong-hamburg", "name": "Wong", "image_url": "https://s3-media4.fl.yelpcdn.com/bphoto/Kol5NsD50dkzXQUY5xcgtw/o.jpg", "is_closed": false, "url": "https://www.yelp.com/biz/wong-hamburg?adjust_creative=hBJOknVQJ58S5goQyjmwRw&utm_campaign=yelp_api_v3&utm_medium=api_v3_business_search&utm_source=hBJOknVQJ58S5goQyjmwRw", "review_count": 23, "categories": [{"alias": "chinese", "title": "Chinese"}, {"alias": "seafood", "title": "Seafood"}], "rating": 4.0, "coordinates": {"latitude": 53.64363, "longitude": 10.012409}, "transactions": [], "price": "\u20ac\u20ac", "location": {"address1": "Langenhorner Chaussee 131", "address2": "", "address3": "", "city": "Hamburg", "zip_code": "22415", "country": "DE", "state": "HH", "display_address": ["Langenhorner Chaussee 131", "22415 Hamburg", "Germany"]}, "phone": "+49405317260", "display_phone": "+49 40 5317260", "distance": 2521.6696820336106}, {"id": "1sM4FY6Np9zY7ua8G1tSXQ", "alias": "good-morning-vietnam-hamburg", "name": "Good Morning Vietnam", "image_url": "https://s3-media1.fl.yelpcdn.com/bphoto/trxUjfwW36Np93Xchls6wg/o.jpg", "is_closed": false, "url": "https://www.yelp.com/biz/good-morning-vietnam-hamburg?adjust_creative=hBJOknVQJ58S5goQyjmwRw&utm_campaign=yelp_api_v3&utm_medium=api_v3_business_search&utm_source=hBJOknVQJ58S5goQyjmwRw", "review_count": 25, "categories": [{"alias": "vietnamese", "title": "Vietnamese"}], "rating": 4.0, "coordinates": {"latitude": 53.6308784, "longitude": 10.02141}, "transactions": [], "price": "\u20ac\u20ac", "location": {"address1": "Erdkampsweg 68", "address2": "", "address3": "", "city": "Hamburg", "zip_code": "22335", "country": "DE", "state": "HH", "display_address": ["Erdkampsweg 68", "22335 Hamburg", "Germany"]}, "phone": "+494084704533", "display_phone": "+49 40 84704533", "distance": 3672.8857095945064}, {"id": "fsqoTlQ1pGsdfp_QG74qeA", "alias": "barolo-norderstedt", "name": "Barolo", "image_url": "https://s3-media2.fl.yelpcdn.com/bphoto/zNqdQDcNMjYHd6JfCa7S9g/o.jpg", "is_closed": false, "url": "https://www.yelp.com/biz/barolo-norderstedt?adjust_creative=hBJOknVQJ58S5goQyjmwRw&utm_campaign=yelp_api_v3&utm_medium=api_v3_business_search&utm_source=hBJOknVQJ58S5goQyjmwRw", "review_count": 35, "categories": [{"alias": "italian", "title": "Italian"}], "rating": 4.0, "coordinates": {"latitude": 53.6942, "longitude": 10.045}, "transactions": [], "price": "\u20ac\u20ac", "location": {"address1": "Segeberger Chaussee 241", "address2": null, "address3": null, "city": "Norderstedt", "zip_code": "22851", "country": "DE", "state": "SH", "display_address": ["Segeberger Chaussee 241", "22851 Norderstedt", "Germany"]}, "phone": "+494052901110", "display_phone": "+49 40 52901110", "distance": 3544.8951533939735}, {"id": "4Dz-MLoIclcYYRbIKiOROg", "alias": "oxpark-hamburg", "name": "Oxpark", "image_url": "https://s3-media2.fl.yelpcdn.com/bphoto/mPH9oDK8FGTbXTqTkhoWig/o.jpg", "is_closed": false, "url": "https://www.yelp.com/biz/oxpark-hamburg?adjust_creative=hBJOknVQJ58S5goQyjmwRw&utm_campaign=yelp_api_v3&utm_medium=api_v3_business_search&utm_source=hBJOknVQJ58S5goQyjmwRw", "review_count": 1, "categories": [{"alias": "cafes", "title": "Cafes"}], "rating": 5.0, "coordinates": {"latitude": 53.67034, "longitude": 10.00819}, "transactions": [], "location": {"address1": "J\u00fctlandring 12", "address2": "", "address3": null, "city": "Hamburg", "zip_code": "22419", "country": "DE", "state": "HH", "display_address": ["J\u00fctlandring 12", "22419 Hamburg", "Germany"]}, "phone": "+494063735404", "display_phone": "+49 40 63735404", "distance": 1817.4837732273618}, {"id": "_gOdAzcyH8il_pC7ej_oXw", "alias": "grill-zum-griechen-hamburg", "name": "Grill zum Griechen", "image_url": "https://s3-media4.fl.yelpcdn.com/bphoto/Zplu9BlnRNqd6QhKpYna_Q/o.jpg", "is_closed": false, "url": "https://www.yelp.com/biz/grill-zum-griechen-hamburg?adjust_creative=hBJOknVQJ58S5goQyjmwRw&utm_campaign=yelp_api_v3&utm_medium=api_v3_business_search&utm_source=hBJOknVQJ58S5goQyjmwRw", "review_count": 53, "categories": [{"alias": "greek", "title": "Greek"}], "rating": 4.5, "coordinates": {"latitude": 53.6299336, "longitude": 10.0225325}, "transactions": [], "price": "\u20ac", "location": {"address1": "Wacholderweg 3", "address2": "", "address3": null, "city": "Hamburg", "zip_code": "22335", "country": "DE", "state": "HH", "display_address": ["Wacholderweg 3", "22335 Hamburg", "Germany"]}, "phone": "+494038663487", "display_phone": "+49 40 38663487", "distance": 3762.528997125854}, {"id": "NqrTCWIKvp_lO19wmwiv4A", "alias": "filini-hamburg-3", "name": "Filini", "image_url": "https://s3-media2.fl.yelpcdn.com/bphoto/9o4Fn4fpt-cky_z7C_F2aw/o.jpg", "is_closed": false, "url": "https://www.yelp.com/biz/filini-hamburg-3?adjust_creative=hBJOknVQJ58S5goQyjmwRw&utm_campaign=yelp_api_v3&utm_medium=api_v3_business_search&utm_source=hBJOknVQJ58S5goQyjmwRw", "review_count": 1, "categories": [{"alias": "italian", "title": "Italian"}], "rating": 4.0, "coordinates": {"latitude": 53.631, "longitude": 10.007}, "transactions": [], "location": {"address1": "Flughafenstr. 1 - 3", "address2": null, "address3": null, "city": "Hamburg", "zip_code": "22335", "country": "DE", "state": "HH", "display_address": ["Flughafenstr. 1 - 3", "22335 Hamburg", "Germany"]}, "phone": "+49403003003402", "display_phone": "+49 40 3003003402", "distance": 3939.7456371575427}, {"id": "P4OW83tz2C2OV5levdfxKw", "alias": "rice-und-roll-hamburg", "name": "Rice & Roll", "image_url": "https://s3-media3.fl.yelpcdn.com/bphoto/g5snCHtdlYD9d2U_A6ezrQ/o.jpg", "is_closed": false, "url": "https://www.yelp.com/biz/rice-und-roll-hamburg?adjust_creative=hBJOknVQJ58S5goQyjmwRw&utm_campaign=yelp_api_v3&utm_medium=api_v3_business_search&utm_source=hBJOknVQJ58S5goQyjmwRw", "review_count": 4, "categories": [{"alias": "indpak", "title": "Indian"}], "rating": 4.5, "coordinates": {"latitude": 53.64824, "longitude": 10.00669}, "transactions": [], "price": "\u20ac\u20ac", "location": {"address1": "Krohnstieg 69", "address2": "", "address3": "", "city": "Hamburg", "zip_code": "22415", "country": "DE", "state": "HH", "display_address": ["Krohnstieg 69", "22415 Hamburg", "Germany"]}, "phone": "+494053327598", "display_phone": "+49 40 53327598", "distance": 2335.216199503265}, {"id": "OxICk_fucHc0SwL_3hi1Kw", "alias": "taj-mahal-hamburg-3", "name": "Taj Mahal", "image_url": "https://s3-media4.fl.yelpcdn.com/bphoto/DIJ_dAjAcdIhvso1dWH8vw/o.jpg", "is_closed": false, "url": "https://www.yelp.com/biz/taj-mahal-hamburg-3?adjust_creative=hBJOknVQJ58S5goQyjmwRw&utm_campaign=yelp_api_v3&utm_medium=api_v3_business_search&utm_source=hBJOknVQJ58S5goQyjmwRw", "review_count": 20, "categories": [{"alias": "indpak", "title": "Indian"}], "rating": 4.5, "coordinates": {"latitude": 53.6359, "longitude": 10.0156}, "transactions": [], "price": "\u20ac\u20ac", "location": {"address1": "Langenhorner Chaussee 11", "address2": null, "address3": null, "city": "Hamburg", "zip_code": "22335", "country": "DE", "state": "HH", "display_address": ["Langenhorner Chaussee 11", "22335 Hamburg", "Germany"]}, "phone": "+494053050550", "display_phone": "+49 40 53050550", "distance": 3225.072275778708}, {"id": "AijQhw1eNZEtX9oLSnlO0A", "alias": "ngon-hamburg", "name": "NGON", "image_url": "https://s3-media3.fl.yelpcdn.com/bphoto/BACd0NyJ7ZwrHwvSe5hICA/o.jpg", "is_closed": false, "url": "https://www.yelp.com/biz/ngon-hamburg?adjust_creative=hBJOknVQJ58S5goQyjmwRw&utm_campaign=yelp_api_v3&utm_medium=api_v3_business_search&utm_source=hBJOknVQJ58S5goQyjmwRw", "review_count": 2, "categories": [{"alias": "vietnamese", "title": "Vietnamese"}, {"alias": "bistros", "title": "Bistros"}, {"alias": "panasian", "title": "Pan Asian"}], "rating": 5.0, "coordinates": {"latitude": 53.649768, "longitude": 10.016989}, "transactions": [], "price": "\u20ac", "location": {"address1": "Krohnstieg 2", "address2": "", "address3": "", "city": "Hamburg", "zip_code": "22415", "country": "DE", "state": "HH", "display_address": ["Krohnstieg 2", "22415 Hamburg", "Germany"]}, "phone": "+494052739888", "display_phone": "+49 40 52739888", "distance": 1782.580612890731}, {"id": "djaEw9aDrgcDtbNpFSaYew", "alias": "shanghai-hamburg-3", "name": "Shanghai", "image_url": "https://s3-media2.fl.yelpcdn.com/bphoto/J4vNE-Xo2Ye09Cmm4HqN0g/o.jpg", "is_closed": false, "url": "https://www.yelp.com/biz/shanghai-hamburg-3?adjust_creative=hBJOknVQJ58S5goQyjmwRw&utm_campaign=yelp_api_v3&utm_medium=api_v3_business_search&utm_source=hBJOknVQJ58S5goQyjmwRw", "review_count": 17, "categories": [{"alias": "chinese", "title": "Chinese"}], "rating": 4.0, "coordinates": {"latitude": 53.6323, "longitude": 10.02549}, "transactions": [], "price": "\u20ac\u20ac", "location": {"address1": "Kleekamp  1", "address2": null, "address3": null, "city": "Hamburg", "zip_code": "22339", "country": "DE", "state": "HH", "display_address": ["Kleekamp  1", "22339 Hamburg", "Germany"]}, "phone": "+4940596638", "display_phone": "+49 40 596638", "distance": 3475.884794479646}, {"id": "jWlpEI6ro6s6x8fNdaCH0w", "alias": "caf\u00e9-vero-hamburg-2", "name": "Caf\u00e9 Vero", "image_url": "https://s3-media3.fl.yelpcdn.com/bphoto/3kd94Wi_f69O3BHCJuU_jg/o.jpg", "is_closed": false, "url": "https://www.yelp.com/biz/caf%C3%A9-vero-hamburg-2?adjust_creative=hBJOknVQJ58S5goQyjmwRw&utm_campaign=yelp_api_v3&utm_medium=api_v3_business_search&utm_source=hBJOknVQJ58S5goQyjmwRw", "review_count": 1, "categories": [{"alias": "cafes", "title": "Cafes"}], "rating": 4.0, "coordinates": {"latitude": 53.674004070684, "longitude": 10.0289766490459}, "transactions": [], "price": "\u20ac\u20ac", "location": {"address1": "Asklepios Klinik Nord - Heidberg", "address2": "Tangstedter Landstr. 400", "address3": "", "city": "Hamburg", "zip_code": "22417", "country": "DE", "state": "HH", "display_address": ["Asklepios Klinik Nord - Heidberg", "Tangstedter Landstr. 400", "22417 Hamburg", "Germany"]}, "phone": "", "display_phone": "", "distance": 1192.5638164957666}, {"id": "1Z141RqkiFPyIgnwlHL_Wg", "alias": "filini-bar-und-restaurant-hamburg", "name": "Filini Bar & Restaurant", "image_url": "https://s3-media1.fl.yelpcdn.com/bphoto/28qRR24_yCdBvfAfzkW-ZQ/o.jpg", "is_closed": false, "url": "https://www.yelp.com/biz/filini-bar-und-restaurant-hamburg?adjust_creative=hBJOknVQJ58S5goQyjmwRw&utm_campaign=yelp_api_v3&utm_medium=api_v3_business_search&utm_source=hBJOknVQJ58S5goQyjmwRw", "review_count": 9, "categories": [{"alias": "italian", "title": "Italian"}, {"alias": "gastropubs", "title": "Gastropubs"}], "rating": 4.0, "coordinates": {"latitude": 53.6324, "longitude": 10.0085}, "transactions": [], "price": "\u20ac\u20ac\u20ac", "location": {"address1": "Flughafenstr. 1 - 3", "address2": "", "address3": null, "city": "Hamburg", "zip_code": "22335", "country": "DE", "state": "HH", "display_address": ["Flughafenstr. 1 - 3", "22335 Hamburg", "Germany"]}, "phone": "", "display_phone": "", "distance": 3757.40700591092}, {"id": "d4iSYmQqtBJBTI1lVs66Xw", "alias": "china-restaurant-maixims-norderstedt", "name": "China Restaurant Maixims", "image_url": "https://s3-media3.fl.yelpcdn.com/bphoto/84313GFm4u_3mXIA3mfkAQ/o.jpg", "is_closed": false, "url": "https://www.yelp.com/biz/china-restaurant-maixims-norderstedt?adjust_creative=hBJOknVQJ58S5goQyjmwRw&utm_campaign=yelp_api_v3&utm_medium=api_v3_business_search&utm_source=hBJOknVQJ58S5goQyjmwRw", "review_count": 8, "categories": [{"alias": "chinese", "title": "Chinese"}], "rating": 4.0, "coordinates": {"latitude": 53.6948, "longitude": 10.0455}, "transactions": [], "price": "\u20ac", "location": {"address1": "Segeberger Chaussee 273", "address2": null, "address3": null, "city": "Norderstedt", "zip_code": "22851", "country": "DE", "state": "SH", "display_address": ["Segeberger Chaussee 273", "22851 Norderstedt", "Germany"]}, "phone": "+49405291628", "display_phone": "+49 40 5291628", "distance": 3617.8228891515564}, {"id": "uhCQe6idjYOJsXZT7qoJaA", "alias": "trattoria-da-pindinello-hamburg", "name": "Trattoria da Pindinello", "image_url": "https://s3-media4.fl.yelpcdn.com/bphoto/U2xUsetnJHKKBJW74VTk5A/o.jpg", "is_closed": false, "url": "https://www.yelp.com/biz/trattoria-da-pindinello-hamburg?adjust_creative=hBJOknVQJ58S5goQyjmwRw&utm_campaign=yelp_api_v3&utm_medium=api_v3_business_search&utm_source=hBJOknVQJ58S5goQyjmwRw", "review_count": 8, "categories": [{"alias": "italian", "title": "Italian"}], "rating": 4.5, "coordinates": {"latitude": 53.63384, "longitude": 10.02244}, "transactions": [], "price": "\u20ac\u20ac", "location": {"address1": "Bergkoppelweg 70", "address2": null, "address3": null, "city": "Hamburg", "zip_code": "22335", "country": "DE", "state": "HH", "display_address": ["Bergkoppelweg 70", "22335 Hamburg", "Germany"]}, "phone": "+4940505981", "display_phone": "+49 40 505981", "distance": 3335.0504589333236}, {"id": "bV705WPJtXyb5wXIFolr6w", "alias": "l-aurora-osteria-hamburg", "name": "L'Aurora Osteria", "image_url": "https://s3-media3.fl.yelpcdn.com/bphoto/zFLCwZ8h7MT7lme1-nnMXA/o.jpg", "is_closed": false, "url": "https://www.yelp.com/biz/l-aurora-osteria-hamburg?adjust_creative=hBJOknVQJ58S5goQyjmwRw&utm_campaign=yelp_api_v3&utm_medium=api_v3_business_search&utm_source=hBJOknVQJ58S5goQyjmwRw", "review_count": 1, "categories": [{"alias": "italian", "title": "Italian"}], "rating": 4.0, "coordinates": {"latitude": 53.65104, "longitude": 10.05286}, "transactions": [], "price": "\u20ac\u20ac", "location": {"address1": "Rehagen 20", "address2": "", "address3": "", "city": "Hamburg", "zip_code": "22339", "country": "DE", "state": "HH", "display_address": ["Rehagen 20", "22339 Hamburg", "Germany"]}, "phone": "+494052019050", "display_phone": "+49 40 52019050", "distance": 2009.4828195262526}, {"id": "4LDu773rE99Tbdckn7XeSw", "alias": "restaurant-aretea-hamburg", "name": "Restaurant Aretea", "image_url": "https://s3-media2.fl.yelpcdn.com/bphoto/B0V75D9TXaFVr4i2EewzMw/o.jpg", "is_closed": false, "url": "https://www.yelp.com/biz/restaurant-aretea-hamburg?adjust_creative=hBJOknVQJ58S5goQyjmwRw&utm_campaign=yelp_api_v3&utm_medium=api_v3_business_search&utm_source=hBJOknVQJ58S5goQyjmwRw", "review_count": 24, "categories": [{"alias": "greek", "title": "Greek"}, {"alias": "italian", "title": "Italian"}], "rating": 4.0, "coordinates": {"latitude": 53.6424, "longitude": 10.0482}, "transactions": [], "price": "\u20ac\u20ac", "location": {"address1": "Hummelsb\u00fctteler Weg 52", "address2": null, "address3": null, "city": "Hamburg", "zip_code": "22339", "country": "DE", "state": "HH", "display_address": ["Hummelsb\u00fctteler Weg 52", "22339 Hamburg", "Germany"]}, "phone": "+49405388242", "display_phone": "+49 40 5388242", "distance": 2583.669514046683}, {"id": "JgHRcsg2of-3wKDrJDLxUg", "alias": "restaurant-concorde-hamburg", "name": "Restaurant Concorde", "image_url": "https://s3-media2.fl.yelpcdn.com/bphoto/cXr6KLFsEGOsOeeBEXN7Tw/o.jpg", "is_closed": false, "url": "https://www.yelp.com/biz/restaurant-concorde-hamburg?adjust_creative=hBJOknVQJ58S5goQyjmwRw&utm_campaign=yelp_api_v3&utm_medium=api_v3_business_search&utm_source=hBJOknVQJ58S5goQyjmwRw", "review_count": 7, "categories": [{"alias": "breakfast_brunch", "title": "Breakfast & Brunch"}, {"alias": "mediterranean", "title": "Mediterranean"}], "rating": 3.5, "coordinates": {"latitude": 53.64009, "longitude": 10.01213}, "transactions": [], "price": "\u20ac\u20ac\u20ac", "location": {"address1": "Courtyard Hamburg Airport", "address2": "Flughafenstr. 47", "address3": null, "city": "Hamburg", "zip_code": "22415", "country": "DE", "state": "HH", "display_address": ["Courtyard Hamburg Airport", "Flughafenstr. 47", "22415 Hamburg", "Germany"]}, "phone": "+494053102357", "display_phone": "+49 40 53102357", "distance": 2866.0984700982262}, {"id": "NMvG0SF5Xx7bbGoUfOIV8g", "alias": "gastst\u00e4tte-lindos-hamburg", "name": "Gastst\u00e4tte Lindos", "image_url": "https://s3-media1.fl.yelpcdn.com/bphoto/TXjiTvZ2QJsVGi_D2Yapfw/o.jpg", "is_closed": false, "url": "https://www.yelp.com/biz/gastst%C3%A4tte-lindos-hamburg?adjust_creative=hBJOknVQJ58S5goQyjmwRw&utm_campaign=yelp_api_v3&utm_medium=api_v3_business_search&utm_source=hBJOknVQJ58S5goQyjmwRw", "review_count": 24, "categories": [{"alias": "greek", "title": "Greek"}], "rating": 4.0, "coordinates": {"latitude": 53.62375, "longitude": 10.0183}, "transactions": [], "price": "\u20ac\u20ac", "location": {"address1": "R\u00f6ntgenstr. 61", "address2": null, "address3": null, "city": "Hamburg", "zip_code": "22335", "country": "DE", "state": "HH", "display_address": ["R\u00f6ntgenstr. 61", "22335 Hamburg", "Germany"]}, "phone": "+4940595211", "display_phone": "+49 40 595211", "distance": 4472.508896060364}, {"id": "FKq85JQhwziHYt00mgYYyA", "alias": "la-toscana-hamburg-2", "name": "La Toscana", "image_url": "https://s3-media4.fl.yelpcdn.com/bphoto/UrB-aRZoYOG37X57Hr45tg/o.jpg", "is_closed": false, "url": "https://www.yelp.com/biz/la-toscana-hamburg-2?adjust_creative=hBJOknVQJ58S5goQyjmwRw&utm_campaign=yelp_api_v3&utm_medium=api_v3_business_search&utm_source=hBJOknVQJ58S5goQyjmwRw", "review_count": 2, "categories": [{"alias": "italian", "title": "Italian"}], "rating": 5.0, "coordinates": {"latitude": 53.6491, "longitude": 10.0134}, "transactions": [], "price": "\u20ac", "location": {"address1": "Krohstieg 41", "address2": "", "address3": null, "city": "Hamburg", "zip_code": "22415", "country": "DE", "state": "HH", "display_address": ["Krohstieg 41", "22415 Hamburg", "Germany"]}, "phone": "+494053203066", "display_phone": "+49 40 53203066", "distance": 1977.3958597125763}, {"id": "Zz8Xev7eKclAxStc0e5V2Q", "alias": "paradeis-caf\u00e9-hamburg", "name": "Paradeis Caf\u00e9", "image_url": "https://s3-media1.fl.yelpcdn.com/bphoto/r9tuAqipF-p133NiUK6EhA/o.jpg", "is_closed": false, "url": "https://www.yelp.com/biz/paradeis-caf%C3%A9-hamburg?adjust_creative=hBJOknVQJ58S5goQyjmwRw&utm_campaign=yelp_api_v3&utm_medium=api_v3_business_search&utm_source=hBJOknVQJ58S5goQyjmwRw", "review_count": 3, "categories": [{"alias": "cafes", "title": "Cafes"}, {"alias": "icecream", "title": "Ice Cream & Frozen Yogurt"}], "rating": 4.5, "coordinates": {"latitude": 53.64738, "longitude": 10.01178}, "transactions": [], "price": "\u20ac", "location": {"address1": "Langenhorner Chaussee 184", "address2": null, "address3": "", "city": "Hamburg", "zip_code": "22415", "country": "DE", "state": "HH", "display_address": ["Langenhorner Chaussee 184", "22415 Hamburg", "Germany"]}, "phone": "+494042903692", "display_phone": "+49 40 42903692", "distance": 2190.311747048005}, {"id": "LNZ7Gv0FnfUEgtvBRRV6BA", "alias": "alter-reporter-norderstedt", "name": "Alter Reporter", "image_url": "https://s3-media2.fl.yelpcdn.com/bphoto/U_7Q6I97b89z5VMKSV7Q2A/o.jpg", "is_closed": false, "url": "https://www.yelp.com/biz/alter-reporter-norderstedt?adjust_creative=hBJOknVQJ58S5goQyjmwRw&utm_campaign=yelp_api_v3&utm_medium=api_v3_business_search&utm_source=hBJOknVQJ58S5goQyjmwRw", "review_count": 73, "categories": [{"alias": "german", "title": "German"}, {"alias": "beergarden", "title": "Beer Garden"}, {"alias": "bowling", "title": "Bowling"}], "rating": 3.5, "coordinates": {"latitude": 53.6916, "longitude": 10.0227}, "transactions": [], "price": "\u20ac\u20ac", "location": {"address1": "J\u00e4gerlauf 1", "address2": null, "address3": null, "city": "Norderstedt", "zip_code": "22851", "country": "DE", "state": "SH", "display_address": ["J\u00e4gerlauf 1", "22851 Norderstedt", "Germany"]}, "phone": "+49405240807", "display_phone": "+49 40 5240807", "distance": 3190.0006659768364}, {"id": "vviOvLVDnUx70bxMKCBQLg", "alias": "restaurant-el-greco-norderstedt-2", "name": "Restaurant El Greco", "image_url": "https://s3-media1.fl.yelpcdn.com/bphoto/DGmJTXk4jUddIrv4SxSr1w/o.jpg", "is_closed": false, "url": "https://www.yelp.com/biz/restaurant-el-greco-norderstedt-2?adjust_creative=hBJOknVQJ58S5goQyjmwRw&utm_campaign=yelp_api_v3&utm_medium=api_v3_business_search&utm_source=hBJOknVQJ58S5goQyjmwRw", "review_count": 1, "categories": [{"alias": "greek", "title": "Greek"}], "rating": 4.0, "coordinates": {"latitude": 53.6831089791004, "longitude": 10.0079860165715}, "transactions": [], "location": {"address1": "Segeberger Chaussee 51 A", "address2": "", "address3": null, "city": "Norderstedt", "zip_code": "22850", "country": "DE", "state": "SH", "display_address": ["Segeberger Chaussee 51 A", "22850 Norderstedt", "Germany"]}, "phone": "+49405296180", "display_phone": "+49 40 5296180", "distance": 2679.2759195051085}, {"id": "pg4AgtCd0Kkm6hbAkSAyXw", "alias": "caf\u00e9-neumann-hamburg-2", "name": "Caf\u00e9 Neumann", "image_url": "https://s3-media2.fl.yelpcdn.com/bphoto/NjsWinMWnULVnr_UlLu2iw/o.jpg", "is_closed": false, "url": "https://www.yelp.com/biz/caf%C3%A9-neumann-hamburg-2?adjust_creative=hBJOknVQJ58S5goQyjmwRw&utm_campaign=yelp_api_v3&utm_medium=api_v3_business_search&utm_source=hBJOknVQJ58S5goQyjmwRw", "review_count": 3, "categories": [{"alias": "cafes", "title": "Cafes"}], "rating": 4.5, "coordinates": {"latitude": 53.64398, "longitude": 10.04788}, "transactions": [], "price": "\u20ac\u20ac", "location": {"address1": "Brillkamp 8", "address2": "", "address3": "", "city": "Hamburg", "zip_code": "22339", "country": "DE", "state": "HH", "display_address": ["Brillkamp 8", "22339 Hamburg", "Germany"]}, "phone": "+49405390080", "display_phone": "+49 40 5390080", "distance": 2415.508320061404}, {"id": "M1rqw4ENl5a5sxImTeZk7Q", "alias": "schweinske-hamburg-19", "name": "Schweinske", "image_url": "https://s3-media2.fl.yelpcdn.com/bphoto/H8tWP4UNNWuf6neEwT3S6g/o.jpg", "is_closed": false, "url": "https://www.yelp.com/biz/schweinske-hamburg-19?adjust_creative=hBJOknVQJ58S5goQyjmwRw&utm_campaign=yelp_api_v3&utm_medium=api_v3_business_search&utm_source=hBJOknVQJ58S5goQyjmwRw", "review_count": 36, "categories": [{"alias": "german", "title": "German"}], "rating": 3.5, "coordinates": {"latitude": 53.675067376075, "longitude": 10.0277330528637}, "transactions": [], "price": "\u20ac\u20ac", "location": {"address1": "Tangstedter Landstr. 465", "address2": null, "address3": null, "city": "Hamburg", "zip_code": "22417", "country": "DE", "state": "HH", "display_address": ["Tangstedter Landstr. 465", "22417 Hamburg", "Germany"]}, "phone": "+49405373378", "display_phone": "+49 40 5373378", "distance": 1322.0179321235762}, {"id": "7TFBVnQaSRk9JDdwfnHXFg", "alias": "alibaba-norderstedt", "name": "Alibaba", "image_url": "https://s3-media4.fl.yelpcdn.com/bphoto/yCk50Yb8nSqiA9rjdCVYfw/o.jpg", "is_closed": false, "url": "https://www.yelp.com/biz/alibaba-norderstedt?adjust_creative=hBJOknVQJ58S5goQyjmwRw&utm_campaign=yelp_api_v3&utm_medium=api_v3_business_search&utm_source=hBJOknVQJ58S5goQyjmwRw", "review_count": 13, "categories": [{"alias": "hotdogs", "title": "Fast Food"}], "rating": 4.0, "coordinates": {"latitude": 53.7047, "longitude": 10.007}, "transactions": [], "price": "\u20ac\u20ac", "location": {"address1": "Alter Kirchenweg 37", "address2": null, "address3": null, "city": "Norderstedt", "zip_code": "22844", "country": "DE", "state": "SH", "display_address": ["Alter Kirchenweg 37", "22844 Norderstedt", "Germany"]}, "phone": "+494051328377", "display_phone": "+49 40 51328377", "distance": 4866.683993905399}, {"id": "MUw8f3f_MmeUrV0owVoiBQ", "alias": "istasyon-hamburg", "name": "ISTASYON", "image_url": "https://s3-media2.fl.yelpcdn.com/bphoto/8iI6Y5CHh86CmHccsk_7Ng/o.jpg", "is_closed": false, "url": "https://www.yelp.com/biz/istasyon-hamburg?adjust_creative=hBJOknVQJ58S5goQyjmwRw&utm_campaign=yelp_api_v3&utm_medium=api_v3_business_search&utm_source=hBJOknVQJ58S5goQyjmwRw", "review_count": 4, "categories": [{"alias": "turkish", "title": "Turkish"}], "rating": 3.5, "coordinates": {"latitude": 53.6489915960947, "longitude": 10.0169978783157}, "transactions": [], "location": {"address1": "Tangstedter Landstr. 44", "address2": "", "address3": "", "city": "Hamburg", "zip_code": "22415", "country": "DE", "state": "HH", "display_address": ["Tangstedter Landstr. 44", "22415 Hamburg", "Germany"]}, "phone": "+494028463158", "display_phone": "+49 40 28463158", "distance": 1856.0927651258246}, {"id": "OM_AaoDLC5413uortWkAaw", "alias": "restaurant-eichenstuben-norderstedt", "name": "Restaurant Eichenstuben", "image_url": "", "is_closed": false, "url": "https://www.yelp.com/biz/restaurant-eichenstuben-norderstedt?adjust_creative=hBJOknVQJ58S5goQyjmwRw&utm_campaign=yelp_api_v3&utm_medium=api_v3_business_search&utm_source=hBJOknVQJ58S5goQyjmwRw", "review_count": 2, "categories": [{"alias": "international", "title": "International"}, {"alias": "german", "title": "German"}], "rating": 4.0, "coordinates": {"latitude": 53.6868, "longitude": 10.0379}, "transactions": [], "location": {"address1": "Mittelstr. 54", "address2": null, "address3": null, "city": "Norderstedt", "zip_code": "22851", "country": "DE", "state": "SH", "display_address": ["Mittelstr. 54", "22851 Norderstedt", "Germany"]}, "phone": "+49405240046", "display_phone": "+49 40 5240046", "distance": 2641.375682992987}, {"id": "h4zh7SXgzaRVnGBKe1g-Fg", "alias": "vivere-hamburg", "name": "Vivere", "image_url": "https://s3-media3.fl.yelpcdn.com/bphoto/oo91eDTmHqgLNCwwdRfPew/o.jpg", "is_closed": false, "url": "https://www.yelp.com/biz/vivere-hamburg?adjust_creative=hBJOknVQJ58S5goQyjmwRw&utm_campaign=yelp_api_v3&utm_medium=api_v3_business_search&utm_source=hBJOknVQJ58S5goQyjmwRw", "review_count": 10, "categories": [{"alias": "italian", "title": "Italian"}], "rating": 3.5, "coordinates": {"latitude": 53.63324, "longitude": 10.05516}, "transactions": [], "price": "\u20ac\u20ac", "location": {"address1": "Tornberg 40", "address2": null, "address3": null, "city": "Hamburg", "zip_code": "22337", "country": "DE", "state": "HH", "display_address": ["Tornberg 40", "22337 Hamburg", "Germany"]}, "phone": "+494032034545", "display_phone": "+49 40 32034545", "distance": 3703.575889750981}, {"id": "FgsoUxIl9-17gdd7tS0yLA", "alias": "sunay-hamburg", "name": "Sunay", "image_url": "https://s3-media2.fl.yelpcdn.com/bphoto/e7Zo_5ete0yUqG3KMFFYHQ/o.jpg", "is_closed": false, "url": "https://www.yelp.com/biz/sunay-hamburg?adjust_creative=hBJOknVQJ58S5goQyjmwRw&utm_campaign=yelp_api_v3&utm_medium=api_v3_business_search&utm_source=hBJOknVQJ58S5goQyjmwRw", "review_count": 2, "categories": [{"alias": "kebab", "title": "Kebab"}, {"alias": "burgers", "title": "Burgers"}], "rating": 4.5, "coordinates": {"latitude": 53.6385942333518, "longitude": 10.0278994068503}, "transactions": [], "price": "\u20ac", "location": {"address1": "Lentersweg 38", "address2": "", "address3": null, "city": "Hamburg", "zip_code": "22339", "country": "DE", "state": "HH", "display_address": ["Lentersweg 38", "22339 Hamburg", "Germany"]}, "phone": "", "display_phone": "", "distance": 2763.9230308871956}, {"id": "A2JDuFMGidvfYQ-s4if87g", "alias": "ribling-hamburg", "name": "Ribling", "image_url": "https://s3-media2.fl.yelpcdn.com/bphoto/-1gYlnqcsauXICciX5B3xw/o.jpg", "is_closed": false, "url": "https://www.yelp.com/biz/ribling-hamburg?adjust_creative=hBJOknVQJ58S5goQyjmwRw&utm_campaign=yelp_api_v3&utm_medium=api_v3_business_search&utm_source=hBJOknVQJ58S5goQyjmwRw", "review_count": 25, "categories": [{"alias": "international", "title": "International"}], "rating": 3.5, "coordinates": {"latitude": 53.62054, "longitude": 10.03323}, "transactions": [], "price": "\u20ac\u20ac\u20ac", "location": {"address1": "Fuhlsb\u00fcttler Str. 757", "address2": "", "address3": "", "city": "Hamburg", "zip_code": "22337", "country": "DE", "state": "HH", "display_address": ["Fuhlsb\u00fcttler Str. 757", "22337 Hamburg", "Germany"]}, "phone": "+494050790790", "display_phone": "+49 40 50790790", "distance": 4775.980996329009}, {"id": "kQ17hKzGVF6mFjDthwwZCQ", "alias": "gastst\u00e4tte-rotbuche-hamburg", "name": "Gastst\u00e4tte Rotbuche", "image_url": "https://s3-media4.fl.yelpcdn.com/bphoto/Qw3RsyzhZu9cDToKOtSDtA/o.jpg", "is_closed": false, "url": "https://www.yelp.com/biz/gastst%C3%A4tte-rotbuche-hamburg?adjust_creative=hBJOknVQJ58S5goQyjmwRw&utm_campaign=yelp_api_v3&utm_medium=api_v3_business_search&utm_source=hBJOknVQJ58S5goQyjmwRw", "review_count": 13, "categories": [{"alias": "restaurants", "title": "Restaurants"}], "rating": 3.5, "coordinates": {"latitude": 53.64392, "longitude": 10.01394}, "transactions": [], "price": "\u20ac\u20ac", "location": {"address1": "Tannenweg 4", "address2": null, "address3": null, "city": "Hamburg", "zip_code": "22415", "country": "DE", "state": "HH", "display_address": ["Tannenweg 4", "22415 Hamburg", "Germany"]}, "phone": "+49405317613", "display_phone": "+49 40 5317613", "distance": 2444.5995155447954}, {"id": "_aS-eUlaMRw-KFHD6BxkDw", "alias": "restaurant-alsterpark-hamburg", "name": "Restaurant Alsterpark", "image_url": "https://s3-media2.fl.yelpcdn.com/bphoto/qDqVgtPSDrRcxInMFfRSfQ/o.jpg", "is_closed": false, "url": "https://www.yelp.com/biz/restaurant-alsterpark-hamburg?adjust_creative=hBJOknVQJ58S5goQyjmwRw&utm_campaign=yelp_api_v3&utm_medium=api_v3_business_search&utm_source=hBJOknVQJ58S5goQyjmwRw", "review_count": 11, "categories": [{"alias": "french", "title": "French"}, {"alias": "mediterranean", "title": "Mediterranean"}], "rating": 3.5, "coordinates": {"latitude": 53.6288383, "longitude": 10.0270475}, "transactions": [], "price": "\u20ac\u20ac\u20ac", "location": {"address1": "Brombeerweg 12c", "address2": null, "address3": null, "city": "Hamburg", "zip_code": "22335", "country": "DE", "state": "HH", "display_address": ["Brombeerweg 12c", "22335 Hamburg", "Germany"]}, "phone": "+4940596534", "display_phone": "+49 40 596534", "distance": 3849.8426599392933}, {"id": "EKUadj48qNOum-sH6jy75Q", "alias": "oliva-hamburg", "name": "Oliva", "image_url": "https://s3-media3.fl.yelpcdn.com/bphoto/GHyhdXDbWPipb8ZZyMSk9w/o.jpg", "is_closed": false, "url": "https://www.yelp.com/biz/oliva-hamburg?adjust_creative=hBJOknVQJ58S5goQyjmwRw&utm_campaign=yelp_api_v3&utm_medium=api_v3_business_search&utm_source=hBJOknVQJ58S5goQyjmwRw", "review_count": 4, "categories": [{"alias": "mediterranean", "title": "Mediterranean"}], "rating": 4.0, "coordinates": {"latitude": 53.6318886, "longitude": 10.0061854}, "transactions": [], "price": "\u20ac\u20ac", "location": {"address1": "Hamburg Airport", "address2": "Terminal 1, Ebene 4", "address3": "Flughafenstr. 1-3", "city": "Hamburg", "zip_code": "22335", "country": "DE", "state": "HH", "display_address": ["Hamburg Airport", "Terminal 1, Ebene 4", "Flughafenstr. 1-3", "22335 Hamburg", "Germany"]}, "phone": "+494050753465", "display_phone": "+49 40 50753465", "distance": 3872.335365521369}, {"id": "wJkHtjecNfN4JtJSdf0gVg", "alias": "zur-ratsm\u00fchle-hamburg", "name": "Zur Ratsm\u00fchle", "image_url": "https://s3-media1.fl.yelpcdn.com/bphoto/BWqQZo2o99Di1vVOfNrF8Q/o.jpg", "is_closed": false, "url": "https://www.yelp.com/biz/zur-ratsm%C3%BChle-hamburg?adjust_creative=hBJOknVQJ58S5goQyjmwRw&utm_campaign=yelp_api_v3&utm_medium=api_v3_business_search&utm_source=hBJOknVQJ58S5goQyjmwRw", "review_count": 25, "categories": [{"alias": "german", "title": "German"}], "rating": 3.5, "coordinates": {"latitude": 53.6266, "longitude": 10.0299}, "transactions": [], "price": "\u20ac\u20ac", "location": {"address1": "Ratsm\u00fchlendamm 2", "address2": null, "address3": null, "city": "Hamburg", "zip_code": "22335", "country": "DE", "state": "HH", "display_address": ["Ratsm\u00fchlendamm 2", "22335 Hamburg", "Germany"]}, "phone": "+4940505554", "display_phone": "+49 40 505554", "distance": 4089.5222771774247}, {"id": "rGaqMOmvTGIyDslRwCGBwQ", "alias": "bella-italia-norderstedt", "name": "Bella Italia", "image_url": "", "is_closed": false, "url": "https://www.yelp.com/biz/bella-italia-norderstedt?adjust_creative=hBJOknVQJ58S5goQyjmwRw&utm_campaign=yelp_api_v3&utm_medium=api_v3_business_search&utm_source=hBJOknVQJ58S5goQyjmwRw", "review_count": 2, "categories": [{"alias": "italian", "title": "Italian"}], "rating": 4.5, "coordinates": {"latitude": 53.693756, "longitude": 10.027747}, "transactions": [], "price": "\u20ac\u20ac", "location": {"address1": "Poppenb\u00fcttelerstr. 180", "address2": "", "address3": "", "city": "Norderstedt", "zip_code": "22851", "country": "DE", "state": "SH", "display_address": ["Poppenb\u00fcttelerstr. 180", "22851 Norderstedt", "Germany"]}, "phone": "+494053008629", "display_phone": "+49 40 53008629", "distance": 3385.3714011417437}, {"id": "BBnxzRUVfrtqPXX2izd94g", "alias": "va-bene-hamburg-2", "name": "Va Bene", "image_url": "https://s3-media3.fl.yelpcdn.com/bphoto/-LVge5rFDPftTtx2QAUneA/o.jpg", "is_closed": false, "url": "https://www.yelp.com/biz/va-bene-hamburg-2?adjust_creative=hBJOknVQJ58S5goQyjmwRw&utm_campaign=yelp_api_v3&utm_medium=api_v3_business_search&utm_source=hBJOknVQJ58S5goQyjmwRw", "review_count": 20, "categories": [{"alias": "italian", "title": "Italian"}, {"alias": "cafes", "title": "Cafes"}], "rating": 4.0, "coordinates": {"latitude": 53.63006, "longitude": 10.0224}, "transactions": [], "price": "\u20ac\u20ac", "location": {"address1": "Erdkampsweg 52", "address2": null, "address3": null, "city": "Hamburg", "zip_code": "22335", "country": "DE", "state": "HH", "display_address": ["Erdkampsweg 52", "22335 Hamburg", "Germany"]}, "phone": "+49405007502", "display_phone": "+49 40 5007502", "distance": 3746.955245103434}, {"id": "nCHAWid7qqzNXgYucmQRqQ", "alias": "gastst\u00e4tte-landhaus-fuhlsb\u00fcttel-hamburg", "name": "Gastst\u00e4tte Landhaus Fuhlsb\u00fcttel", "image_url": "https://s3-media2.fl.yelpcdn.com/bphoto/RW0NDh5bHUB7MTv6TM1j2g/o.jpg", "is_closed": false, "url": "https://www.yelp.com/biz/gastst%C3%A4tte-landhaus-fuhlsb%C3%BCttel-hamburg?adjust_creative=hBJOknVQJ58S5goQyjmwRw&utm_campaign=yelp_api_v3&utm_medium=api_v3_business_search&utm_source=hBJOknVQJ58S5goQyjmwRw", "review_count": 3, "categories": [{"alias": "german", "title": "German"}, {"alias": "venues", "title": "Venues & Event Spaces"}], "rating": 4.5, "coordinates": {"latitude": 53.62667, "longitude": 10.02628}, "transactions": [], "price": "\u20ac\u20ac", "location": {"address1": "Brombeerweg 1", "address2": null, "address3": null, "city": "Hamburg", "zip_code": "22335", "country": "DE", "state": "HH", "display_address": ["Brombeerweg 1", "22335 Hamburg", "Germany"]}, "phone": "+4940596238", "display_phone": "+49 40 596238", "distance": 4082.90995398828}, {"id": "qYwmepiVClDSJcYIgJzXKw", "alias": "hauptsache-meins-hamburg", "name": "Hauptsache Meins", "image_url": "https://s3-media2.fl.yelpcdn.com/bphoto/agXDEjJDQEUMK1uOhjzw6g/o.jpg", "is_closed": false, "url": "https://www.yelp.com/biz/hauptsache-meins-hamburg?adjust_creative=hBJOknVQJ58S5goQyjmwRw&utm_campaign=yelp_api_v3&utm_medium=api_v3_business_search&utm_source=hBJOknVQJ58S5goQyjmwRw", "review_count": 1, "categories": [{"alias": "cafes", "title": "Cafes"}, {"alias": "cakeshop", "title": "Patisserie/Cake Shop"}], "rating": 5.0, "coordinates": {"latitude": 53.627337, "longitude": 10.033044}, "transactions": [], "location": {"address1": "Wellingsb\u00fctteler Landstr. 43", "address2": "", "address3": null, "city": "Hamburg", "zip_code": "22337", "country": "DE", "state": "HH", "display_address": ["Wellingsb\u00fctteler Landstr. 43", "22337 Hamburg", "Germany"]}, "phone": "+491724122877", "display_phone": "+49 172 4122877", "distance": 4008.1469546056646}, {"id": "C3yZ02CiH9IPRgLLl6qkFA", "alias": "jim-block-hamburg-14", "name": "Jim Block", "image_url": "https://s3-media2.fl.yelpcdn.com/bphoto/jrhmwfnBtBT-BaquA5OREg/o.jpg", "is_closed": false, "url": "https://www.yelp.com/biz/jim-block-hamburg-14?adjust_creative=hBJOknVQJ58S5goQyjmwRw&utm_campaign=yelp_api_v3&utm_medium=api_v3_business_search&utm_source=hBJOknVQJ58S5goQyjmwRw", "review_count": 11, "categories": [{"alias": "burgers", "title": "Burgers"}], "rating": 2.0, "coordinates": {"latitude": 53.64904, "longitude": 10.01596}, "transactions": [], "price": "\u20ac\u20ac", "location": {"address1": "Tangstedter Landstr. 49", "address2": "", "address3": null, "city": "Hamburg", "zip_code": "22415", "country": "DE", "state": "HH", "display_address": ["Tangstedter Landstr. 49", "22415 Hamburg", "Germany"]}, "phone": "+494052732874", "display_phone": "+49 40 52732874", "distance": 1907.4716824933462}, {"id": "8A98fbIrEVTBK6Z2QXndKw", "alias": "la-trattoria-hamburg", "name": "La Trattoria", "image_url": "https://s3-media1.fl.yelpcdn.com/bphoto/NQg6LzNSPVf0iiDubpPi3g/o.jpg", "is_closed": false, "url": "https://www.yelp.com/biz/la-trattoria-hamburg?adjust_creative=hBJOknVQJ58S5goQyjmwRw&utm_campaign=yelp_api_v3&utm_medium=api_v3_business_search&utm_source=hBJOknVQJ58S5goQyjmwRw", "review_count": 40, "categories": [{"alias": "italian", "title": "Italian"}, {"alias": "bistros", "title": "Bistros"}], "rating": 4.0, "coordinates": {"latitude": 53.6282883, "longitude": 10.0240297}, "transactions": [], "price": "\u20ac\u20ac", "location": {"address1": "Erdkampsweg 33", "address2": "", "address3": "", "city": "Hamburg", "zip_code": "22335", "country": "DE", "state": "HH", "display_address": ["Erdkampsweg 33", "22335 Hamburg", "Germany"]}, "phone": "+494038640461", "display_phone": "+49 40 38640461", "distance": 3933.2575570164267}, {"id": "hbZ9aRxGMu5yo11A_97wDg", "alias": "dinos-norderstedt", "name": "Dino's", "image_url": "https://s3-media3.fl.yelpcdn.com/bphoto/DzOfnKmB1D4TdY6RnpIrJA/o.jpg", "is_closed": false, "url": "https://www.yelp.com/biz/dinos-norderstedt?adjust_creative=hBJOknVQJ58S5goQyjmwRw&utm_campaign=yelp_api_v3&utm_medium=api_v3_business_search&utm_source=hBJOknVQJ58S5goQyjmwRw", "review_count": 19, "categories": [{"alias": "pizza", "title": "Pizza"}], "rating": 3.5, "coordinates": {"latitude": 53.7047, "longitude": 10.0077}, "transactions": [], "price": "\u20ac\u20ac", "location": {"address1": "Alter Kirchenweg 45", "address2": null, "address3": null, "city": "Norderstedt", "zip_code": "22844", "country": "DE", "state": "SH", "display_address": ["Alter Kirchenweg 45", "22844 Norderstedt", "Germany"]}, "phone": "+49405257778", "display_phone": "+49 40 5257778", "distance": 4851.71568131482}, {"id": "Ft872oWNJczX0n7A5tFJtg", "alias": "cafe-luise-hamburg-3", "name": "Cafe Luise", "image_url": "https://s3-media4.fl.yelpcdn.com/bphoto/sTLdWQe8FhFBcB2ihverIQ/o.jpg", "is_closed": false, "url": "https://www.yelp.com/biz/cafe-luise-hamburg-3?adjust_creative=hBJOknVQJ58S5goQyjmwRw&utm_campaign=yelp_api_v3&utm_medium=api_v3_business_search&utm_source=hBJOknVQJ58S5goQyjmwRw", "review_count": 81, "categories": [{"alias": "bakeries", "title": "Bakeries"}, {"alias": "cafes", "title": "Cafes"}], "rating": 4.5, "coordinates": {"latitude": 53.6273, "longitude": 10.0251}, "transactions": [], "price": "\u20ac\u20ac", "location": {"address1": "Erdkampsweg 12", "address2": "", "address3": "", "city": "Hamburg", "zip_code": "22335", "country": "DE", "state": "HH", "display_address": ["Erdkampsweg 12", "22335 Hamburg", "Germany"]}, "phone": "+494028575466", "display_phone": "+49 40 28575466", "distance": 4031.4613255241775}, {"id": "Yrwc_8UIk35r5CD9zJocUg", "alias": "inci-g\u00f6kcen-hamburg", "name": "Inci G\u00f6kcen", "image_url": "https://s3-media1.fl.yelpcdn.com/bphoto/JBzUM-EV3ntZ_pyaPTSvww/o.jpg", "is_closed": false, "url": "https://www.yelp.com/biz/inci-g%C3%B6kcen-hamburg?adjust_creative=hBJOknVQJ58S5goQyjmwRw&utm_campaign=yelp_api_v3&utm_medium=api_v3_business_search&utm_source=hBJOknVQJ58S5goQyjmwRw", "review_count": 1, "categories": [{"alias": "food", "title": "Food"}, {"alias": "hotdogs", "title": "Fast Food"}], "rating": 4.0, "coordinates": {"latitude": 53.633, "longitude": 10.0552}, "transactions": [], "location": {"address1": "Tornberg 34", "address2": null, "address3": null, "city": "Hamburg", "zip_code": "22337", "country": "DE", "state": "HH", "display_address": ["Tornberg 34", "22337 Hamburg", "Germany"]}, "phone": "+494050099934", "display_phone": "+49 40 50099934", "distance": 3725.899356213598}, {"id": "SWmIH08JrfNVcV8jiRXsAA", "alias": "bakery-und-deli-hamburg-6", "name": "Bakery & Deli", "image_url": "https://s3-media3.fl.yelpcdn.com/bphoto/AJidb-m6ooMH_-HPkoXDOg/o.jpg", "is_closed": false, "url": "https://www.yelp.com/biz/bakery-und-deli-hamburg-6?adjust_creative=hBJOknVQJ58S5goQyjmwRw&utm_campaign=yelp_api_v3&utm_medium=api_v3_business_search&utm_source=hBJOknVQJ58S5goQyjmwRw", "review_count": 2, "categories": [{"alias": "cafes", "title": "Cafes"}, {"alias": "breakfast_brunch", "title": "Breakfast & Brunch"}], "rating": 5.0, "coordinates": {"latitude": 53.6294041525073, "longitude": 10.0226204842329}, "transactions": [], "location": {"address1": "Erdkampsweg 51", "address2": "", "address3": null, "city": "Hamburg", "zip_code": "22335", "country": "DE", "state": "HH", "display_address": ["Erdkampsweg 51", "22335 Hamburg", "Germany"]}, "phone": "+494059351274", "display_phone": "+49 40 59351274", "distance": 3819.8382160190235}, {"id": "CusXXdWcoXkoKh3zO24MWQ", "alias": "christas-hamburg", "name": "Christas", "image_url": "https://s3-media3.fl.yelpcdn.com/bphoto/R3MFEv__65NyD0zfEEHipA/o.jpg", "is_closed": false, "url": "https://www.yelp.com/biz/christas-hamburg?adjust_creative=hBJOknVQJ58S5goQyjmwRw&utm_campaign=yelp_api_v3&utm_medium=api_v3_business_search&utm_source=hBJOknVQJ58S5goQyjmwRw", "review_count": 10, "categories": [{"alias": "cafes", "title": "Cafes"}, {"alias": "icecream", "title": "Ice Cream & Frozen Yogurt"}], "rating": 4.0, "coordinates": {"latitude": 53.6322459994187, "longitude": 10.0261361896992}, "transactions": [], "price": "\u20ac", "location": {"address1": "Kleekamp 4", "address2": "", "address3": null, "city": "Hamburg", "zip_code": "22339", "country": "DE", "state": "HH", "display_address": ["Kleekamp 4", "22339 Hamburg", "Germany"]}, "phone": "+494051319480", "display_phone": "+49 40 51319480", "distance": 3477.418585909641}, {"id": "oGv4o6GxasfDnCXtdRjing", "alias": "mongolei-norderstedt", "name": "Mongolei", "image_url": "https://s3-media2.fl.yelpcdn.com/bphoto/qQFh-roeX3yScoEP_iAbVw/o.jpg", "is_closed": false, "url": "https://www.yelp.com/biz/mongolei-norderstedt?adjust_creative=hBJOknVQJ58S5goQyjmwRw&utm_campaign=yelp_api_v3&utm_medium=api_v3_business_search&utm_source=hBJOknVQJ58S5goQyjmwRw", "review_count": 67, "categories": [{"alias": "chinese", "title": "Chinese"}], "rating": 3.5, "coordinates": {"latitude": 53.7040821482736, "longitude": 10.0087121963809}, "transactions": [], "price": "\u20ac\u20ac", "location": {"address1": "Marktplatz 3", "address2": null, "address3": null, "city": "Norderstedt", "zip_code": "22844", "country": "DE", "state": "SH", "display_address": ["Marktplatz 3", "22844 Norderstedt", "Germany"]}, "phone": "+494055440598", "display_phone": "+49 40 55440598", "distance": 4765.457001649849}, {"id": "2c30Xco7VzQJnM5AQn8snw", "alias": "dein-d\u00f6ner-hamburg", "name": "dein D\u00f6ner", "image_url": "https://s3-media4.fl.yelpcdn.com/bphoto/HB6A14WWFvDoR7kmHmoDtg/o.jpg", "is_closed": false, "url": "https://www.yelp.com/biz/dein-d%C3%B6ner-hamburg?adjust_creative=hBJOknVQJ58S5goQyjmwRw&utm_campaign=yelp_api_v3&utm_medium=api_v3_business_search&utm_source=hBJOknVQJ58S5goQyjmwRw", "review_count": 3, "categories": [{"alias": "kebab", "title": "Kebab"}], "rating": 2.0, "coordinates": {"latitude": 53.64835, "longitude": 10.01551}, "transactions": [], "price": "\u20ac", "location": {"address1": "Tangstedter Landstr. 37", "address2": "", "address3": "", "city": "Hamburg", "zip_code": "22415", "country": "DE", "state": "HH", "display_address": ["Tangstedter Landstr. 37", "22415 Hamburg", "Germany"]}, "phone": "+494038645751", "display_phone": "+49 40 38645751", "distance": 1970.5743543058636}, {"id": "VMVS4cM_LEHCqCbVvCwSzg", "alias": "zur-schlachteplatte-hamburg", "name": "Zur Schlachteplatte", "image_url": "https://s3-media2.fl.yelpcdn.com/bphoto/q7Ht94B_Xnwd6ZKB3sjUsQ/o.jpg", "is_closed": false, "url": "https://www.yelp.com/biz/zur-schlachteplatte-hamburg?adjust_creative=hBJOknVQJ58S5goQyjmwRw&utm_campaign=yelp_api_v3&utm_medium=api_v3_business_search&utm_source=hBJOknVQJ58S5goQyjmwRw", "review_count": 21, "categories": [{"alias": "german", "title": "German"}], "rating": 3.5, "coordinates": {"latitude": 53.64797, "longitude": 10.03774}, "transactions": [], "price": "\u20ac\u20ac", "location": {"address1": "Lademannbogen 1", "address2": null, "address3": null, "city": "Hamburg", "zip_code": "22339", "country": "DE", "state": "HH", "display_address": ["Lademannbogen 1", "22339 Hamburg", "Germany"]}, "phone": "+49405382999", "display_phone": "+49 40 5382999", "distance": 1771.8593813018997}, {"id": "X60Q2WLhesuugaV2z_W21A", "alias": "asia-wok-hamburg", "name": "Asia Wok", "image_url": "https://s3-media2.fl.yelpcdn.com/bphoto/fUpBRqvGdkBt-ADdJl0hfg/o.jpg", "is_closed": false, "url": "https://www.yelp.com/biz/asia-wok-hamburg?adjust_creative=hBJOknVQJ58S5goQyjmwRw&utm_campaign=yelp_api_v3&utm_medium=api_v3_business_search&utm_source=hBJOknVQJ58S5goQyjmwRw", "review_count": 18, "categories": [{"alias": "chinese", "title": "Chinese"}], "rating": 3.0, "coordinates": {"latitude": 53.6304299, "longitude": 10.01459}, "transactions": [], "price": "\u20ac\u20ac", "location": {"address1": "Alsterkrugchaussee 576", "address2": null, "address3": null, "city": "Hamburg", "zip_code": "22335", "country": "DE", "state": "HH", "display_address": ["Alsterkrugchaussee 576", "22335 Hamburg", "Germany"]}, "phone": "+494050090131", "display_phone": "+49 40 50090131", "distance": 3828.345093126293}, {"id": "xxTQTfJsgzWGp8okZ2ygHw", "alias": "hummel-bistro-cafe-hamburg", "name": "Hummel Bistro Cafe", "image_url": "https://s3-media2.fl.yelpcdn.com/bphoto/8CAXUYj8Z54-_0OkZ8xh9A/o.jpg", "is_closed": false, "url": "https://www.yelp.com/biz/hummel-bistro-cafe-hamburg?adjust_creative=hBJOknVQJ58S5goQyjmwRw&utm_campaign=yelp_api_v3&utm_medium=api_v3_business_search&utm_source=hBJOknVQJ58S5goQyjmwRw", "review_count": 15, "categories": [{"alias": "bistros", "title": "Bistros"}], "rating": 4.0, "coordinates": {"latitude": 53.64967, "longitude": 10.03632}, "transactions": [], "price": "\u20ac", "location": {"address1": "Poppenb\u00fcttler Weg 15", "address2": "", "address3": "", "city": "Hamburg", "zip_code": "22339", "country": "DE", "state": "HH", "display_address": ["Poppenb\u00fcttler Weg 15", "22339 Hamburg", "Germany"]}, "phone": "+494053904933", "display_phone": "+49 40 53904933", "distance": 1502.747711330232}, {"id": "xZP6cPbOVMd21T6Yi6D9NQ", "alias": "bei-angelo-norderstedt", "name": "Bei Angelo", "image_url": "", "is_closed": false, "url": "https://www.yelp.com/biz/bei-angelo-norderstedt?adjust_creative=hBJOknVQJ58S5goQyjmwRw&utm_campaign=yelp_api_v3&utm_medium=api_v3_business_search&utm_source=hBJOknVQJ58S5goQyjmwRw", "review_count": 6, "categories": [{"alias": "greek", "title": "Greek"}], "rating": 2.5, "coordinates": {"latitude": 53.6828, "longitude": 10.0082}, "transactions": [], "price": "\u20ac\u20ac", "location": {"address1": "Segeberger Chaussee 51a", "address2": null, "address3": null, "city": "Norderstedt", "zip_code": "22850", "country": "DE", "state": "SH", "display_address": ["Segeberger Chaussee 51a", "22850 Norderstedt", "Germany"]}, "phone": "+49405296180", "display_phone": "+49 40 5296180", "distance": 2643.0619086001666}, {"id": "5ENa7iURHxD9aLMK9fSAyA", "alias": "schnellimbiss-ohlsdorf-hamburg", "name": "Schnellimbiss Ohlsdorf", "image_url": "", "is_closed": false, "url": "https://www.yelp.com/biz/schnellimbiss-ohlsdorf-hamburg?adjust_creative=hBJOknVQJ58S5goQyjmwRw&utm_campaign=yelp_api_v3&utm_medium=api_v3_business_search&utm_source=hBJOknVQJ58S5goQyjmwRw", "review_count": 6, "categories": [{"alias": "foodstands", "title": "Food Stands"}], "rating": 4.0, "coordinates": {"latitude": 53.62092, "longitude": 10.03245}, "transactions": [], "location": {"address1": "(S-/U-Bahnstation)", "address2": "Fuhlsb\u00fcttler Stra\u00dfe 761", "address3": null, "city": "Hamburg", "zip_code": "22337", "country": "DE", "state": "HH", "display_address": ["(S-/U-Bahnstation)", "Fuhlsb\u00fcttler Stra\u00dfe 761", "22337 Hamburg", "Germany"]}, "phone": "", "display_phone": "", "distance": 4744.3711156379195}, {"id": "OPJ4YJFG9frCl3nR1Jp63g", "alias": "dialog-hamburg", "name": "Dialog", "image_url": "https://s3-media1.fl.yelpcdn.com/bphoto/VVVx9pqKJMUVud7FSEJo4g/o.jpg", "is_closed": false, "url": "https://www.yelp.com/biz/dialog-hamburg?adjust_creative=hBJOknVQJ58S5goQyjmwRw&utm_campaign=yelp_api_v3&utm_medium=api_v3_business_search&utm_source=hBJOknVQJ58S5goQyjmwRw", "review_count": 27, "categories": [{"alias": "italian", "title": "Italian"}, {"alias": "bistros", "title": "Bistros"}, {"alias": "cafes", "title": "Cafes"}], "rating": 3.0, "coordinates": {"latitude": 53.64842, "longitude": 10.01626}, "transactions": [], "price": "\u20ac", "location": {"address1": "Tangstedter Landstr. 38", "address2": null, "address3": null, "city": "Hamburg", "zip_code": "22415", "country": "DE", "state": "HH", "display_address": ["Tangstedter Landstr. 38", "22415 Hamburg", "Germany"]}, "phone": "+49405321237", "display_phone": "+49 40 5321237", "distance": 1936.058110923603}, {"id": "YNkID11YZnYy9uz7LlQH6A", "alias": "croque-h\u00fctte-hamburg-3", "name": "Croque H\u00fctte", "image_url": "", "is_closed": false, "url": "https://www.yelp.com/biz/croque-h%C3%BCtte-hamburg-3?adjust_creative=hBJOknVQJ58S5goQyjmwRw&utm_campaign=yelp_api_v3&utm_medium=api_v3_business_search&utm_source=hBJOknVQJ58S5goQyjmwRw", "review_count": 1, "categories": [{"alias": "pizza", "title": "Pizza"}, {"alias": "burgers", "title": "Burgers"}, {"alias": "sandwiches", "title": "Sandwiches"}], "rating": 4.0, "coordinates": {"latitude": 53.6615212060624, "longitude": 10.0180835288774}, "transactions": [], "location": {"address1": "Immenh\u00f6ven 2", "address2": "", "address3": "", "city": "Hamburg", "zip_code": "22417", "country": "DE", "state": "HH", "display_address": ["Immenh\u00f6ven 2", "22417 Hamburg", "Germany"]}, "phone": "+494053326909", "display_phone": "+49 40 53326909", "distance": 895.3113292925223}, {"id": "8eAANWYmYg9F6nxMNqJ1bQ", "alias": "eiscafe-jacobs-hamburg-2", "name": "Eiscafe Jacobs", "image_url": "https://s3-media4.fl.yelpcdn.com/bphoto/H_UjiEfhAHXX8Y-l1Go0Ig/o.jpg", "is_closed": false, "url": "https://www.yelp.com/biz/eiscafe-jacobs-hamburg-2?adjust_creative=hBJOknVQJ58S5goQyjmwRw&utm_campaign=yelp_api_v3&utm_medium=api_v3_business_search&utm_source=hBJOknVQJ58S5goQyjmwRw", "review_count": 61, "categories": [{"alias": "icecream", "title": "Ice Cream & Frozen Yogurt"}, {"alias": "cafes", "title": "Cafes"}], "rating": 3.5, "coordinates": {"latitude": 53.660965, "longitude": 10.021473}, "transactions": [], "price": "\u20ac\u20ac", "location": {"address1": "Immenh\u00f6ven 23", "address2": null, "address3": null, "city": "Hamburg", "zip_code": "22417", "country": "DE", "state": "HH", "display_address": ["Immenh\u00f6ven 23", "22417 Hamburg", "Germany"]}, "phone": "+49405205599", "display_phone": "+49 40 5205599", "distance": 701.0511794130605}, {"id": "epCr8ppmcw2Owqo_iwRVtQ", "alias": "reina-hamburg", "name": "reina", "image_url": "https://s3-media1.fl.yelpcdn.com/bphoto/3iNk03GN8JsaxSSnBBct4Q/o.jpg", "is_closed": false, "url": "https://www.yelp.com/biz/reina-hamburg?adjust_creative=hBJOknVQJ58S5goQyjmwRw&utm_campaign=yelp_api_v3&utm_medium=api_v3_business_search&utm_source=hBJOknVQJ58S5goQyjmwRw", "review_count": 3, "categories": [{"alias": "turkish", "title": "Turkish"}, {"alias": "bars", "title": "Bars"}], "rating": 3.5, "coordinates": {"latitude": 53.6499, "longitude": 10.0139}, "transactions": [], "price": "\u20ac\u20ac", "location": {"address1": "Langenhorner Markt 6", "address2": null, "address3": null, "city": "Hamburg", "zip_code": "22415", "country": "DE", "state": "HH", "display_address": ["Langenhorner Markt 6", "22415 Hamburg", "Germany"]}, "phone": "+494053035897", "display_phone": "+49 40 53035897", "distance": 1886.5378876793875}, {"id": "nSnobRFEjg5aeKd3Mn0KwQ", "alias": "golden-cup-norderstedt", "name": "Golden Cup", "image_url": "https://s3-media2.fl.yelpcdn.com/bphoto/UQ_yrHwxGkB3L_5duZ55fg/o.jpg", "is_closed": false, "url": "https://www.yelp.com/biz/golden-cup-norderstedt?adjust_creative=hBJOknVQJ58S5goQyjmwRw&utm_campaign=yelp_api_v3&utm_medium=api_v3_business_search&utm_source=hBJOknVQJ58S5goQyjmwRw", "review_count": 19, "categories": [{"alias": "sportsbars", "title": "Sports Bars"}, {"alias": "tapasmallplates", "title": "Tapas/Small Plates"}], "rating": 2.5, "coordinates": {"latitude": 53.6868679, "longitude": 10.0309449}, "transactions": [], "price": "\u20ac\u20ac", "location": {"address1": "Segeberger Chaussee 188 A", "address2": null, "address3": null, "city": "Norderstedt", "zip_code": "22851", "country": "DE", "state": "SH", "display_address": ["Segeberger Chaussee 188 A", "22851 Norderstedt", "Germany"]}, "phone": "+494064667799", "display_phone": "+49 40 64667799", "distance": 2613.120939854655}, {"id": "47M_xRTAzN9YuyMFmh_NHw", "alias": "istanbul-kebab-hamburg", "name": "Istanbul Kebab", "image_url": "https://s3-media4.fl.yelpcdn.com/bphoto/DeAvr0VYxownSL2qyLfKMw/o.jpg", "is_closed": false, "url": "https://www.yelp.com/biz/istanbul-kebab-hamburg?adjust_creative=hBJOknVQJ58S5goQyjmwRw&utm_campaign=yelp_api_v3&utm_medium=api_v3_business_search&utm_source=hBJOknVQJ58S5goQyjmwRw", "review_count": 3, "categories": [{"alias": "turkish", "title": "Turkish"}], "rating": 4.5, "coordinates": {"latitude": 53.6327725332782, "longitude": 10.025880812234}, "transactions": [], "price": "\u20ac", "location": {"address1": "Kleekamp 10", "address2": "", "address3": "", "city": "Hamburg", "zip_code": "22339", "country": "DE", "state": "HH", "display_address": ["Kleekamp 10", "22339 Hamburg", "Germany"]}, "phone": "+494055203991", "display_phone": "+49 40 55203991", "distance": 3420.8770685920094}, {"id": "jEkVzFjywsNowLC67xdQaQ", "alias": "pizzaliebe-hamburg-2", "name": "Pizzaliebe", "image_url": "https://s3-media3.fl.yelpcdn.com/bphoto/Q8QQLaWjs9dwWcRsGriUWA/o.jpg", "is_closed": false, "url": "https://www.yelp.com/biz/pizzaliebe-hamburg-2?adjust_creative=hBJOknVQJ58S5goQyjmwRw&utm_campaign=yelp_api_v3&utm_medium=api_v3_business_search&utm_source=hBJOknVQJ58S5goQyjmwRw", "review_count": 12, "categories": [{"alias": "pizza", "title": "Pizza"}], "rating": 4.0, "coordinates": {"latitude": 53.6326, "longitude": 10.0256}, "transactions": [], "price": "\u20ac", "location": {"address1": "Kleekamp 5", "address2": null, "address3": null, "city": "Hamburg", "zip_code": "22339", "country": "DE", "state": "HH", "display_address": ["Kleekamp 5", "22339 Hamburg", "Germany"]}, "phone": "+494051320955", "display_phone": "+49 40 51320955", "distance": 3441.931681752079}, {"id": "Yv7-W_pf1dJFzw5PYuj72g", "alias": "zur-glash\u00fctte-norderstedt", "name": "Zur Glash\u00fctte", "image_url": "", "is_closed": false, "url": "https://www.yelp.com/biz/zur-glash%C3%BCtte-norderstedt?adjust_creative=hBJOknVQJ58S5goQyjmwRw&utm_campaign=yelp_api_v3&utm_medium=api_v3_business_search&utm_source=hBJOknVQJ58S5goQyjmwRw", "review_count": 6, "categories": [{"alias": "german", "title": "German"}], "rating": 4.0, "coordinates": {"latitude": 53.6975, "longitude": 10.0502}, "transactions": [], "location": {"address1": "Segeberger Chaussee 309", "address2": null, "address3": null, "city": "Norderstedt", "zip_code": "22851", "country": "DE", "state": "SH", "display_address": ["Segeberger Chaussee 309", "22851 Norderstedt", "Germany"]}, "phone": "+49405298660", "display_phone": "+49 40 5298660", "distance": 3993.9581984196275}, {"id": "KxFF5hos21vekomWh9opDg", "alias": "call-a-pizza-hamburg-2", "name": "Call a Pizza", "image_url": "https://s3-media3.fl.yelpcdn.com/bphoto/sRrPVVYMqcdLvsiXSZgt3w/o.jpg", "is_closed": false, "url": "https://www.yelp.com/biz/call-a-pizza-hamburg-2?adjust_creative=hBJOknVQJ58S5goQyjmwRw&utm_campaign=yelp_api_v3&utm_medium=api_v3_business_search&utm_source=hBJOknVQJ58S5goQyjmwRw", "review_count": 13, "categories": [{"alias": "pizza", "title": "Pizza"}], "rating": 2.0, "coordinates": {"latitude": 53.6321, "longitude": 10.02702}, "transactions": [], "price": "\u20ac\u20ac", "location": {"address1": "Fuhlsb\u00fcttler Passage 3", "address2": "", "address3": null, "city": "Hamburg", "zip_code": "22339", "country": "DE", "state": "HH", "display_address": ["Fuhlsb\u00fcttler Passage 3", "22339 Hamburg", "Germany"]}, "phone": "+4940505050", "display_phone": "+49 40 505050", "distance": 3493.3386354964946}, {"id": "Ieom70P4qS7oj3Nf5xATBQ", "alias": "smileys-hamburg-11", "name": "Smiley's", "image_url": "", "is_closed": false, "url": "https://www.yelp.com/biz/smileys-hamburg-11?adjust_creative=hBJOknVQJ58S5goQyjmwRw&utm_campaign=yelp_api_v3&utm_medium=api_v3_business_search&utm_source=hBJOknVQJ58S5goQyjmwRw", "review_count": 15, "categories": [{"alias": "pizza", "title": "Pizza"}], "rating": 2.5, "coordinates": {"latitude": 53.6464, "longitude": 10.0123}, "transactions": [], "price": "\u20ac\u20ac", "location": {"address1": "Langenhorner Chaussee 159", "address2": null, "address3": null, "city": "Hamburg", "zip_code": "22415", "country": "DE", "state": "HH", "display_address": ["Langenhorner Chaussee 159", "22415 Hamburg", "Germany"]}, "phone": "+49405314344", "display_phone": "+49 40 5314344", "distance": 2264.806551142523}, {"id": "iMZ0Z6KDQA2wBVjMI8ncag", "alias": "die-stube-norderstedt", "name": "Die Stube", "image_url": "", "is_closed": false, "url": "https://www.yelp.com/biz/die-stube-norderstedt?adjust_creative=hBJOknVQJ58S5goQyjmwRw&utm_campaign=yelp_api_v3&utm_medium=api_v3_business_search&utm_source=hBJOknVQJ58S5goQyjmwRw", "review_count": 1, "categories": [{"alias": "international", "title": "International"}], "rating": 5.0, "coordinates": {"latitude": 53.6831, "longitude": 10.0066}, "transactions": [], "location": {"address1": "Wilhelm-Busch-Platz 45", "address2": null, "address3": null, "city": "Norderstedt", "zip_code": "22850", "country": "DE", "state": "SH", "display_address": ["Wilhelm-Busch-Platz 45", "22850 Norderstedt", "Germany"]}, "phone": "+494052990019", "display_phone": "+49 40 52990019", "distance": 2731.8494153432466}, {"id": "XNJdvehptdGeyoRYzehyKw", "alias": "snoopys-lieferservice-hamburg", "name": "Snoopys Lieferservice", "image_url": "", "is_closed": false, "url": "https://www.yelp.com/biz/snoopys-lieferservice-hamburg?adjust_creative=hBJOknVQJ58S5goQyjmwRw&utm_campaign=yelp_api_v3&utm_medium=api_v3_business_search&utm_source=hBJOknVQJ58S5goQyjmwRw", "review_count": 4, "categories": [{"alias": "international", "title": "International"}, {"alias": "greek", "title": "Greek"}, {"alias": "indpak", "title": "Indian"}], "rating": 2.0, "coordinates": {"latitude": 53.6354, "longitude": 10.0157}, "transactions": [], "price": "\u20ac\u20ac", "location": {"address1": "Langenhorner Chaussee 5", "address2": null, "address3": null, "city": "Hamburg", "zip_code": "22335", "country": "DE", "state": "HH", "display_address": ["Langenhorner Chaussee 5", "22335 Hamburg", "Germany"]}, "phone": "+49405313039", "display_phone": "+49 40 5313039", "distance": 3275.7012706580736}, {"id": "lkRxGDaf4WKBj9UE3zhgKA", "alias": "schweinske-hamburg-32", "name": "Schweinske", "image_url": "https://s3-media3.fl.yelpcdn.com/bphoto/dsQ6Am_9JpHrt997WW2EoQ/o.jpg", "is_closed": false, "url": "https://www.yelp.com/biz/schweinske-hamburg-32?adjust_creative=hBJOknVQJ58S5goQyjmwRw&utm_campaign=yelp_api_v3&utm_medium=api_v3_business_search&utm_source=hBJOknVQJ58S5goQyjmwRw", "review_count": 47, "categories": [{"alias": "german", "title": "German"}, {"alias": "breakfast_brunch", "title": "Breakfast & Brunch"}], "rating": 3.5, "coordinates": {"latitude": 53.62759, "longitude": 10.02418}, "transactions": [], "price": "\u20ac", "location": {"address1": "Hummelsb\u00fctteler Landstr. 15", "address2": null, "address3": null, "city": "Hamburg", "zip_code": "22335", "country": "DE", "state": "HH", "display_address": ["Hummelsb\u00fctteler Landstr. 15", "22335 Hamburg", "Germany"]}, "phone": "+494050016935", "display_phone": "+49 40 50016935", "distance": 4006.042819241342}, {"id": "C2BmPZFx0Sqawv3BFk9u-Q", "alias": "braaker-m\u00fchle-hamburg-9", "name": "Braaker M\u00fchle", "image_url": "https://s3-media2.fl.yelpcdn.com/bphoto/9HbVMZGNSALm3-xoqpf_Tw/o.jpg", "is_closed": false, "url": "https://www.yelp.com/biz/braaker-m%C3%BChle-hamburg-9?adjust_creative=hBJOknVQJ58S5goQyjmwRw&utm_campaign=yelp_api_v3&utm_medium=api_v3_business_search&utm_source=hBJOknVQJ58S5goQyjmwRw", "review_count": 3, "categories": [{"alias": "bakeries", "title": "Bakeries"}, {"alias": "cakeshop", "title": "Patisserie/Cake Shop"}, {"alias": "cafes", "title": "Cafes"}], "rating": 4.5, "coordinates": {"latitude": 53.6294059, "longitude": 10.0191736}, "transactions": [], "location": {"address1": "Etzestr. 40", "address2": null, "address3": null, "city": "Hamburg", "zip_code": "22335", "country": "DE", "state": "HH", "display_address": ["Etzestr. 40", "22335 Hamburg", "Germany"]}, "phone": "+494050090169", "display_phone": "+49 40 50090169", "distance": 3860.252392006131}, {"id": "anhx-uaSrH8_9Ktcje3Vfg", "alias": "e-aktiv-markt-peter-jessen-hamburg", "name": "E aktiv markt Peter Jessen", "image_url": "", "is_closed": false, "url": "https://www.yelp.com/biz/e-aktiv-markt-peter-jessen-hamburg?adjust_creative=hBJOknVQJ58S5goQyjmwRw&utm_campaign=yelp_api_v3&utm_medium=api_v3_business_search&utm_source=hBJOknVQJ58S5goQyjmwRw", "review_count": 1, "categories": [{"alias": "grocery", "title": "Grocery"}, {"alias": "shopping", "title": "Shopping"}, {"alias": "delis", "title": "Delis"}], "rating": 2.0, "coordinates": {"latitude": 53.64306, "longitude": 10.04654}, "transactions": [], "location": {"address1": "Hummelsb\u00fctteler Markt 34", "address2": null, "address3": null, "city": "Hamburg", "zip_code": "22339", "country": "DE", "state": "HH", "display_address": ["Hummelsb\u00fctteler Markt 34", "22339 Hamburg", "Germany"]}, "phone": "+49405384068", "display_phone": "+49 40 5384068", "distance": 2463.407237079851}, {"id": "uy08WtAVhrHwj4BKjx3h4A", "alias": "mai-mai-hamburg-5", "name": "mai-mai", "image_url": "https://s3-media2.fl.yelpcdn.com/bphoto/ROmfxCZABmQpSK_hE0wtgQ/o.jpg", "is_closed": false, "url": "https://www.yelp.com/biz/mai-mai-hamburg-5?adjust_creative=hBJOknVQJ58S5goQyjmwRw&utm_campaign=yelp_api_v3&utm_medium=api_v3_business_search&utm_source=hBJOknVQJ58S5goQyjmwRw", "review_count": 9, "categories": [{"alias": "chinese", "title": "Chinese"}, {"alias": "hotdogs", "title": "Fast Food"}], "rating": 3.5, "coordinates": {"latitude": 53.6496, "longitude": 10.0148}, "transactions": [], "price": "\u20ac", "location": {"address1": "Langenhorner Markt 1a", "address2": null, "address3": null, "city": "Hamburg", "zip_code": "22415", "country": "DE", "state": "HH", "display_address": ["Langenhorner Markt 1a", "22415 Hamburg", "Germany"]}, "phone": "+494053054505", "display_phone": "+49 40 53054505", "distance": 1878.1649059709553}, {"id": "HwLasa0KVJq7p6VIEraoUg", "alias": "esszimmer73-cafe-catering-partyservice-hamburg", "name": "EssZimmer73 Cafe - Catering - Partyservice", "image_url": "https://s3-media2.fl.yelpcdn.com/bphoto/fb7mKlT74Pm0qnySc_sGmA/o.jpg", "is_closed": false, "url": "https://www.yelp.com/biz/esszimmer73-cafe-catering-partyservice-hamburg?adjust_creative=hBJOknVQJ58S5goQyjmwRw&utm_campaign=yelp_api_v3&utm_medium=api_v3_business_search&utm_source=hBJOknVQJ58S5goQyjmwRw", "review_count": 1, "categories": [{"alias": "cafes", "title": "Cafes"}, {"alias": "coffee", "title": "Coffee & Tea"}], "rating": 3.0, "coordinates": {"latitude": 53.65569, "longitude": 10.00699}, "transactions": [], "location": {"address1": "Wulffsgrund 6", "address2": null, "address3": null, "city": "Hamburg", "zip_code": "22419", "country": "DE", "state": "HH", "display_address": ["Wulffsgrund 6", "22419 Hamburg", "Germany"]}, "phone": "+494068890299", "display_phone": "+49 40 68890299", "distance": 1815.7329268523404}, {"id": "SsK8p5Uktq4CHyeih0t9Yg", "alias": "rock-in-d\u00f6ner-hamburg", "name": "Rock In D\u00f6ner", "image_url": "", "is_closed": false, "url": "https://www.yelp.com/biz/rock-in-d%C3%B6ner-hamburg?adjust_creative=hBJOknVQJ58S5goQyjmwRw&utm_campaign=yelp_api_v3&utm_medium=api_v3_business_search&utm_source=hBJOknVQJ58S5goQyjmwRw", "review_count": 3, "categories": [{"alias": "kebab", "title": "Kebab"}, {"alias": "pizza", "title": "Pizza"}], "rating": 1.5, "coordinates": {"latitude": 53.641503, "longitude": 10.037266}, "transactions": [], "price": "\u20ac\u20ac", "location": {"address1": "Hummelsb\u00fcttler Hauptstr. 55", "address2": "", "address3": "", "city": "Hamburg", "zip_code": "22339", "country": "DE", "state": "HH", "display_address": ["Hummelsb\u00fcttler Hauptstr. 55", "22339 Hamburg", "Germany"]}, "phone": "+494053104977", "display_phone": "+49 40 53104977", "distance": 2466.117937483508}, {"id": "JqHYpjL2i8fujOlSlWsC0g", "alias": "cafe-fritz-hamburg", "name": "Cafe Fritz", "image_url": "https://s3-media1.fl.yelpcdn.com/bphoto/nwJ10TW8QJkzRf_0dfFlMQ/o.jpg", "is_closed": false, "url": "https://www.yelp.com/biz/cafe-fritz-hamburg?adjust_creative=hBJOknVQJ58S5goQyjmwRw&utm_campaign=yelp_api_v3&utm_medium=api_v3_business_search&utm_source=hBJOknVQJ58S5goQyjmwRw", "review_count": 25, "categories": [{"alias": "german", "title": "German"}, {"alias": "venues", "title": "Venues & Event Spaces"}, {"alias": "cafes", "title": "Cafes"}], "rating": 3.0, "coordinates": {"latitude": 53.623198, "longitude": 10.033282}, "transactions": [], "price": "\u20ac\u20ac\u20ac", "location": {"address1": "Fuhlsb\u00fcttler Str. 756", "address2": "", "address3": null, "city": "Hamburg", "zip_code": "22337", "country": "DE", "state": "HH", "display_address": ["Fuhlsb\u00fcttler Str. 756", "22337 Hamburg", "Germany"]}, "phone": "+494059355340", "display_phone": "+49 40 59355340", "distance": 4468.643365413279}, {"id": "xR5I7Wif-hDVQ05C9n3MJw", "alias": "scoom-hamburg-2", "name": "scoom", "image_url": "https://s3-media2.fl.yelpcdn.com/bphoto/4jcLyhPk6d1Etg5mlqXJ4g/o.jpg", "is_closed": false, "url": "https://www.yelp.com/biz/scoom-hamburg-2?adjust_creative=hBJOknVQJ58S5goQyjmwRw&utm_campaign=yelp_api_v3&utm_medium=api_v3_business_search&utm_source=hBJOknVQJ58S5goQyjmwRw", "review_count": 9, "categories": [{"alias": "sandwiches", "title": "Sandwiches"}], "rating": 2.5, "coordinates": {"latitude": 53.6331443999365, "longitude": 10.0061248987913}, "transactions": [], "price": "\u20ac\u20ac", "location": {"address1": "Flughafenstr. 1 - 3", "address2": "", "address3": "Terminal 1", "city": "Hamburg", "zip_code": "22335", "country": "DE", "state": "HH", "display_address": ["Flughafenstr. 1 - 3", "Terminal 1", "22335 Hamburg", "Germany"]}, "phone": "+494541898677", "display_phone": "+49 4541 898677", "distance": 3748.3382318432073}, {"id": "R98eCcYZqkNhwaLoZR4xzg", "alias": "mr-mutsch-hamburg-2", "name": "mr mutsch", "image_url": "https://s3-media2.fl.yelpcdn.com/bphoto/SyJK4CnSDu6jlaYH6QqNBQ/o.jpg", "is_closed": false, "url": "https://www.yelp.com/biz/mr-mutsch-hamburg-2?adjust_creative=hBJOknVQJ58S5goQyjmwRw&utm_campaign=yelp_api_v3&utm_medium=api_v3_business_search&utm_source=hBJOknVQJ58S5goQyjmwRw", "review_count": 24, "categories": [{"alias": "icecream", "title": "Ice Cream & Frozen Yogurt"}, {"alias": "cafes", "title": "Cafes"}], "rating": 4.5, "coordinates": {"latitude": 53.628158, "longitude": 10.024867}, "transactions": [], "price": "\u20ac", "location": {"address1": "Erdkampsweg 18", "address2": "", "address3": "", "city": "Hamburg", "zip_code": "22335", "country": "DE", "state": "HH", "display_address": ["Erdkampsweg 18", "22335 Hamburg", "Germany"]}, "phone": "+494035968796", "display_phone": "+49 40 35968796", "distance": 3951.713096390265}, {"id": "r5jdVtFyrZH2_ViENOETpw", "alias": "caf\u00e9-am-markt-hamburg-3", "name": "Caf\u00e9 am Markt", "image_url": "https://s3-media3.fl.yelpcdn.com/bphoto/rgSUuXEdIBKMXYxnR-sTlQ/o.jpg", "is_closed": false, "url": "https://www.yelp.com/biz/caf%C3%A9-am-markt-hamburg-3?adjust_creative=hBJOknVQJ58S5goQyjmwRw&utm_campaign=yelp_api_v3&utm_medium=api_v3_business_search&utm_source=hBJOknVQJ58S5goQyjmwRw", "review_count": 7, "categories": [{"alias": "cafes", "title": "Cafes"}], "rating": 3.5, "coordinates": {"latitude": 53.6265644, "longitude": 10.0235264}, "transactions": [], "price": "\u20ac", "location": {"address1": "Hummelsb\u00fcttel Landstr. 1", "address2": null, "address3": null, "city": "Hamburg", "zip_code": "22335", "country": "DE", "state": "HH", "display_address": ["Hummelsb\u00fcttel Landstr. 1", "22335 Hamburg", "Germany"]}, "phone": "+494037420094", "display_phone": "+49 40 37420094", "distance": 4124.456190484916}, {"id": "8dbub5uLYWcD3hV-QJlsHQ", "alias": "strehmel-hamburg-2", "name": "Strehmel", "image_url": "https://s3-media1.fl.yelpcdn.com/bphoto/Mrs4ai3ejMnG6Z9aWetEKQ/o.jpg", "is_closed": false, "url": "https://www.yelp.com/biz/strehmel-hamburg-2?adjust_creative=hBJOknVQJ58S5goQyjmwRw&utm_campaign=yelp_api_v3&utm_medium=api_v3_business_search&utm_source=hBJOknVQJ58S5goQyjmwRw", "review_count": 2, "categories": [{"alias": "cafes", "title": "Cafes"}, {"alias": "coffee", "title": "Coffee & Tea"}], "rating": 3.5, "coordinates": {"latitude": 53.6329, "longitude": 10.0151}, "transactions": [], "location": {"address1": null, "address2": null, "address3": null, "city": "Hamburg", "zip_code": "22335", "country": "DE", "state": "HH", "display_address": ["22335 Hamburg", "Germany"]}, "phone": "", "display_phone": "", "distance": 3552.4001038116494}, {"id": "q2pqrlNA06gTi0lXSY3QCA", "alias": "restaurant-hof-immenhorst-norderstedt", "name": "Restaurant Hof Immenhorst", "image_url": "", "is_closed": false, "url": "https://www.yelp.com/biz/restaurant-hof-immenhorst-norderstedt?adjust_creative=hBJOknVQJ58S5goQyjmwRw&utm_campaign=yelp_api_v3&utm_medium=api_v3_business_search&utm_source=hBJOknVQJ58S5goQyjmwRw", "review_count": 3, "categories": [{"alias": "international", "title": "International"}, {"alias": "german", "title": "German"}], "rating": 3.5, "coordinates": {"latitude": 53.6883, "longitude": 10.0065}, "transactions": [], "location": {"address1": "Immenhorst 22", "address2": null, "address3": null, "city": "Norderstedt", "zip_code": "22850", "country": "DE", "state": "SH", "display_address": ["Immenhorst 22", "22850 Norderstedt", "Germany"]}, "phone": "+494052983167", "display_phone": "+49 40 52983167", "distance": 3218.0323465055853}, {"id": "F4tRoeWuvlZHC8V861JOuA", "alias": "alfredo-caf\u00e9bar-hamburg", "name": "Alfredo Caf\u00e9bar", "image_url": "https://s3-media3.fl.yelpcdn.com/bphoto/-WVSf_14_slz_fS1lbLzQA/o.jpg", "is_closed": false, "url": "https://www.yelp.com/biz/alfredo-caf%C3%A9bar-hamburg?adjust_creative=hBJOknVQJ58S5goQyjmwRw&utm_campaign=yelp_api_v3&utm_medium=api_v3_business_search&utm_source=hBJOknVQJ58S5goQyjmwRw", "review_count": 1, "categories": [{"alias": "cafes", "title": "Cafes"}, {"alias": "coffee", "title": "Coffee & Tea"}], "rating": 4.0, "coordinates": {"latitude": 53.6318886, "longitude": 10.0061854}, "transactions": [], "location": {"address1": "Airport Hamburg", "address2": "Terminal 1, Ebene 4", "address3": "Flughafenstr. 1-3", "city": "Hamburg", "zip_code": "22335", "country": "DE", "state": "HH", "display_address": ["Airport Hamburg", "Terminal 1, Ebene 4", "Flughafenstr. 1-3", "22335 Hamburg", "Germany"]}, "phone": "+494050753462", "display_phone": "+49 40 50753462", "distance": 3872.335365521369}, {"id": "54oh6soXqJOEs0MsQZ8Ujw", "alias": "das-kaffeehaus-hamburg", "name": "Das Kaffeehaus", "image_url": "https://s3-media2.fl.yelpcdn.com/bphoto/k54wrjQNo8T191ZLaHhi2A/o.jpg", "is_closed": false, "url": "https://www.yelp.com/biz/das-kaffeehaus-hamburg?adjust_creative=hBJOknVQJ58S5goQyjmwRw&utm_campaign=yelp_api_v3&utm_medium=api_v3_business_search&utm_source=hBJOknVQJ58S5goQyjmwRw", "review_count": 35, "categories": [{"alias": "cafes", "title": "Cafes"}, {"alias": "breakfast_brunch", "title": "Breakfast & Brunch"}], "rating": 3.5, "coordinates": {"latitude": 53.6257846, "longitude": 10.027777}, "transactions": [], "price": "\u20ac", "location": {"address1": "Woermannsweg 20", "address2": "", "address3": "", "city": "Hamburg", "zip_code": "22335", "country": "DE", "state": "HH", "display_address": ["Woermannsweg 20", "22335 Hamburg", "Germany"]}, "phone": "+494085109000", "display_phone": "+49 40 85109000", "distance": 4185.6167886149215}, {"id": "Qdx9lhz1NXiLqvcxuKIrRQ", "alias": "caf\u00e9-alsterwiesen-hamburg", "name": "Caf\u00e9 Alsterwiesen", "image_url": "https://s3-media3.fl.yelpcdn.com/bphoto/aaFnyIOsig8zPuTtkxBo0w/o.jpg", "is_closed": false, "url": "https://www.yelp.com/biz/caf%C3%A9-alsterwiesen-hamburg?adjust_creative=hBJOknVQJ58S5goQyjmwRw&utm_campaign=yelp_api_v3&utm_medium=api_v3_business_search&utm_source=hBJOknVQJ58S5goQyjmwRw", "review_count": 14, "categories": [{"alias": "cafes", "title": "Cafes"}], "rating": 3.0, "coordinates": {"latitude": 53.6295993, "longitude": 10.0367008}, "transactions": [], "price": "\u20ac", "location": {"address1": "Wellingsb\u00fctteler Landstr. 75", "address2": "", "address3": "", "city": "Hamburg", "zip_code": "22337", "country": "DE", "state": "HH", "display_address": ["Wellingsb\u00fctteler Landstr. 75", "22337 Hamburg", "Germany"]}, "phone": "+491736086826", "display_phone": "+49 173 6086826", "distance": 3771.7370024885895}, {"id": "WGeBtPx7ZR5oGEePvHyT_A", "alias": "croque-house-norderstedt", "name": "Croque House", "image_url": "https://s3-media2.fl.yelpcdn.com/bphoto/RWF7cBkEWAWjy7ssODZ3WQ/o.jpg", "is_closed": false, "url": "https://www.yelp.com/biz/croque-house-norderstedt?adjust_creative=hBJOknVQJ58S5goQyjmwRw&utm_campaign=yelp_api_v3&utm_medium=api_v3_business_search&utm_source=hBJOknVQJ58S5goQyjmwRw", "review_count": 12, "categories": [{"alias": "sandwiches", "title": "Sandwiches"}], "rating": 2.5, "coordinates": {"latitude": 53.6848997, "longitude": 10.0193}, "transactions": [], "price": "\u20ac", "location": {"address1": "Segeberger Chaussee 115", "address2": null, "address3": null, "city": "Norderstedt", "zip_code": "22850", "country": "DE", "state": "SH", "display_address": ["Segeberger Chaussee 115", "22850 Norderstedt", "Germany"]}, "phone": "+49405246302", "display_phone": "+49 40 5246302", "distance": 2521.4604296548673}]