[{"id": "AttT9OA_lJLsAEl8EuGJRg", "alias": "taverna-galini-gro\u00dfhansdorf", "name": "Taverna Galini", "image_url": "https://s3-media2.fl.yelpcdn.com/bphoto/81u8wRoQU-FGVmkV9dVFNA/o.jpg", "is_closed": false, "url": "https://www.yelp.com/biz/taverna-galini-gro%C3%9Fhansdorf?adjust_creative=hBJOknVQJ58S5goQyjmwRw&utm_campaign=yelp_api_v3&utm_medium=api_v3_business_search&utm_source=hBJOknVQJ58S5goQyjmwRw", "review_count": 19, "categories": [{"alias": "greek", "title": "Greek"}], "rating": 4.5, "coordinates": {"latitude": 53.663, "longitude": 10.2858}, "transactions": [], "price": "\u20ac\u20ac", "location": {"address1": "Schaapkamp 3", "address2": null, "address3": null, "city": "Gro\u00dfhansdorf", "zip_code": "22927", "country": "DE", "state": "SH", "display_address": ["Schaapkamp 3", "22927 Gro\u00dfhansdorf", "Germany"]}, "phone": "+494102458981", "display_phone": "+49 4102 458981", "distance": 2124.2303951867657}, {"id": "1nP5vF2m326gzfg6FG5xxQ", "alias": "landhaus-hoisdorf-hoisdorf-2", "name": "Landhaus Hoisdorf", "image_url": "https://s3-media2.fl.yelpcdn.com/bphoto/-UsuH3OV0pv4GSWvAyyXvw/o.jpg", "is_closed": false, "url": "https://www.yelp.com/biz/landhaus-hoisdorf-hoisdorf-2?adjust_creative=hBJOknVQJ58S5goQyjmwRw&utm_campaign=yelp_api_v3&utm_medium=api_v3_business_search&utm_source=hBJOknVQJ58S5goQyjmwRw", "review_count": 1, "categories": [{"alias": "international", "title": "International"}, {"alias": "german", "title": "German"}], "rating": 4.0, "coordinates": {"latitude": 53.653, "longitude": 10.3276}, "transactions": [], "location": {"address1": "Dorfstr. 14", "address2": null, "address3": null, "city": "Hoisdorf", "zip_code": "22955", "country": "DE", "state": "SH", "display_address": ["Dorfstr. 14", "22955 Hoisdorf", "Germany"]}, "phone": "+494107851910", "display_phone": "+49 4107 851910", "distance": 3245.3288081867026}, {"id": "LG1nmHX3eRTDH7sLZQUhLA", "alias": "klassenzimmer-hammoor", "name": "Klassenzimmer", "image_url": "https://s3-media3.fl.yelpcdn.com/bphoto/DQqkVR8qPqCw4t8fjoLUrg/o.jpg", "is_closed": false, "url": "https://www.yelp.com/biz/klassenzimmer-hammoor?adjust_creative=hBJOknVQJ58S5goQyjmwRw&utm_campaign=yelp_api_v3&utm_medium=api_v3_business_search&utm_source=hBJOknVQJ58S5goQyjmwRw", "review_count": 20, "categories": [{"alias": "international", "title": "International"}], "rating": 4.0, "coordinates": {"latitude": 53.7139, "longitude": 10.32197}, "transactions": [], "price": "\u20ac\u20ac\u20ac", "location": {"address1": "Hauptstr. 14", "address2": "", "address3": "", "city": "Hammoor", "zip_code": "22941", "country": "DE", "state": "SH", "display_address": ["Hauptstr. 14", "22941 Hammoor", "Germany"]}, "phone": "+494532278641", "display_phone": "+49 4532 278641", "distance": 4089.531354922935}, {"id": "Rj6tJEeuE6iFoaqp6LPlmA", "alias": "kosch-svg-vereinsgastst\u00e4tte-des-svg-gro\u00dfhansdorf", "name": "Kosch Svg - Vereinsgastst\u00e4tte des Svg", "image_url": "", "is_closed": false, "url": "https://www.yelp.com/biz/kosch-svg-vereinsgastst%C3%A4tte-des-svg-gro%C3%9Fhansdorf?adjust_creative=hBJOknVQJ58S5goQyjmwRw&utm_campaign=yelp_api_v3&utm_medium=api_v3_business_search&utm_source=hBJOknVQJ58S5goQyjmwRw", "review_count": 1, "categories": [{"alias": "restaurants", "title": "Restaurants"}], "rating": 5.0, "coordinates": {"latitude": 53.6496, "longitude": 10.2792}, "transactions": [], "price": "\u20ac", "location": {"address1": "Kortenkamp 6A", "address2": null, "address3": null, "city": "Gro\u00dfhansdorf", "zip_code": "22927", "country": "DE", "state": "SH", "display_address": ["Kortenkamp 6A", "22927 Gro\u00dfhansdorf", "Germany"]}, "phone": "+494102204340", "display_phone": "+49 4102 204340", "distance": 3629.639956472944}, {"id": "1KhFPqm78JrA_-xRxR3hnA", "alias": "il-grappolo-gro\u00dfhansdorf-2", "name": "Il Grappolo", "image_url": "https://s3-media3.fl.yelpcdn.com/bphoto/HUsE8uJh6x6fOnhbUC_3iw/o.jpg", "is_closed": false, "url": "https://www.yelp.com/biz/il-grappolo-gro%C3%9Fhansdorf-2?adjust_creative=hBJOknVQJ58S5goQyjmwRw&utm_campaign=yelp_api_v3&utm_medium=api_v3_business_search&utm_source=hBJOknVQJ58S5goQyjmwRw", "review_count": 29, "categories": [{"alias": "pizza", "title": "Pizza"}, {"alias": "italian", "title": "Italian"}], "rating": 4.0, "coordinates": {"latitude": 53.6534, "longitude": 10.2809}, "transactions": [], "price": "\u20ac\u20ac\u20ac", "location": {"address1": "Barkholt 65", "address2": null, "address3": null, "city": "Gro\u00dfhansdorf", "zip_code": "22927", "country": "DE", "state": "SH", "display_address": ["Barkholt 65", "22927 Gro\u00dfhansdorf", "Germany"]}, "phone": "+494102691140", "display_phone": "+49 4102 691140", "distance": 3203.588164392216}, {"id": "3K_iiDB33h1e_CAva006fQ", "alias": "ristorante-dante-gro\u00dfhansdorf-2", "name": "Ristorante Dante", "image_url": "https://s3-media2.fl.yelpcdn.com/bphoto/OR6fzH4xgh-zjGjE1iev1A/o.jpg", "is_closed": false, "url": "https://www.yelp.com/biz/ristorante-dante-gro%C3%9Fhansdorf-2?adjust_creative=hBJOknVQJ58S5goQyjmwRw&utm_campaign=yelp_api_v3&utm_medium=api_v3_business_search&utm_source=hBJOknVQJ58S5goQyjmwRw", "review_count": 19, "categories": [{"alias": "italian", "title": "Italian"}, {"alias": "lounges", "title": "Lounges"}], "rating": 4.0, "coordinates": {"latitude": 53.6627329728685, "longitude": 10.2840678334669}, "transactions": [], "price": "\u20ac\u20ac\u20ac\u20ac", "location": {"address1": "Eilbergweg 2", "address2": null, "address3": null, "city": "Gro\u00dfhansdorf", "zip_code": "22927", "country": "DE", "state": "SH", "display_address": ["Eilbergweg 2", "22927 Gro\u00dfhansdorf", "Germany"]}, "phone": "+49410261320", "display_phone": "+49 4102 61320", "distance": 2215.0779742655413}, {"id": "4mTRKEA4CFNgln7iDX4lPA", "alias": "burger-king-todendorf-3", "name": "Burger King", "image_url": "https://s3-media3.fl.yelpcdn.com/bphoto/ee0IUoPtnO7NOQGLFtXE6w/o.jpg", "is_closed": false, "url": "https://www.yelp.com/biz/burger-king-todendorf-3?adjust_creative=hBJOknVQJ58S5goQyjmwRw&utm_campaign=yelp_api_v3&utm_medium=api_v3_business_search&utm_source=hBJOknVQJ58S5goQyjmwRw", "review_count": 2, "categories": [{"alias": "hotdogs", "title": "Fast Food"}, {"alias": "burgers", "title": "Burgers"}], "rating": 3.0, "coordinates": {"latitude": 53.694286333028, "longitude": 10.3243524596638}, "transactions": [], "price": "\u20ac\u20ac", "location": {"address1": "Herbertweg 1 / BAB1", "address2": "", "address3": "", "city": "Todendorf", "zip_code": "22965", "country": "DE", "state": "SH", "display_address": ["Herbertweg 1 / BAB1", "22965 Todendorf", "Germany"]}, "phone": "", "display_phone": "", "distance": 2183.816386038417}, {"id": "WZuBXku7RhG8bSEa6oDGag", "alias": "miranda-siek-2", "name": "Miranda", "image_url": "https://s3-media1.fl.yelpcdn.com/bphoto/uRm74V8Dzx4mH9-mtxlzMA/o.jpg", "is_closed": false, "url": "https://www.yelp.com/biz/miranda-siek-2?adjust_creative=hBJOknVQJ58S5goQyjmwRw&utm_campaign=yelp_api_v3&utm_medium=api_v3_business_search&utm_source=hBJOknVQJ58S5goQyjmwRw", "review_count": 3, "categories": [{"alias": "german", "title": "German"}, {"alias": "steak", "title": "Steakhouses"}, {"alias": "mediterranean", "title": "Mediterranean"}], "rating": 2.5, "coordinates": {"latitude": 53.6393, "longitude": 10.2856}, "transactions": [], "location": {"address1": "Hauptstr. 1", "address2": null, "address3": null, "city": "Siek", "zip_code": "22962", "country": "DE", "state": "SH", "display_address": ["Hauptstr. 1", "22962 Siek", "Germany"]}, "phone": "+494107333860", "display_phone": "+49 4107 333860", "distance": 4547.835837951313}, {"id": "KwnWGUzxBUH7Edy9t-_u9g", "alias": "mcdonalds-todendorf", "name": "McDonald's", "image_url": "https://s3-media3.fl.yelpcdn.com/bphoto/-agfYV3u5cM6XRjCC4enww/o.jpg", "is_closed": false, "url": "https://www.yelp.com/biz/mcdonalds-todendorf?adjust_creative=hBJOknVQJ58S5goQyjmwRw&utm_campaign=yelp_api_v3&utm_medium=api_v3_business_search&utm_source=hBJOknVQJ58S5goQyjmwRw", "review_count": 3, "categories": [{"alias": "hotdogs", "title": "Fast Food"}, {"alias": "burgers", "title": "Burgers"}], "rating": 2.0, "coordinates": {"latitude": 53.6934834504299, "longitude": 10.321371294558}, "transactions": [], "price": "\u20ac\u20ac", "location": {"address1": "E22", "address2": "", "address3": "", "city": "Todendorf", "zip_code": "22965", "country": "DE", "state": "SH", "display_address": ["E22", "22965 Todendorf", "Germany"]}, "phone": "+4945342049623", "display_phone": "+49 4534 2049623", "distance": 1996.252220186076}, {"id": "APvIA_7ssxgC0atmQEFMcg", "alias": "burgerkultour-food-truck-hamburg-2", "name": "BurgerKultour Food Truck", "image_url": "https://s3-media4.fl.yelpcdn.com/bphoto/KoAuwalMnlAO8139MmdYBQ/o.jpg", "is_closed": false, "url": "https://www.yelp.com/biz/burgerkultour-food-truck-hamburg-2?adjust_creative=hBJOknVQJ58S5goQyjmwRw&utm_campaign=yelp_api_v3&utm_medium=api_v3_business_search&utm_source=hBJOknVQJ58S5goQyjmwRw", "review_count": 3, "categories": [{"alias": "foodtrucks", "title": "Food Trucks"}, {"alias": "burgers", "title": "Burgers"}], "rating": 4.5, "coordinates": {"latitude": 53.57154, "longitude": 9.95575}, "transactions": [], "price": "\u20ac\u20ac", "location": {"address1": "", "address2": "", "address3": "", "city": "Hamburg", "zip_code": "20259", "country": "DE", "state": "HH", "display_address": ["20259 Hamburg", "Germany"]}, "phone": "+4917626055122", "display_phone": "+49 176 26055122", "distance": 25878.08831335524}, {"id": "u21FcA9109JVW9jBbflhPQ", "alias": "rastst\u00e4tte-buddikate-ost-todendorf-2", "name": "Rastst\u00e4tte Buddikate Ost", "image_url": "https://s3-media1.fl.yelpcdn.com/bphoto/yjVQbzfggZz6dAJtffertA/o.jpg", "is_closed": false, "url": "https://www.yelp.com/biz/rastst%C3%A4tte-buddikate-ost-todendorf-2?adjust_creative=hBJOknVQJ58S5goQyjmwRw&utm_campaign=yelp_api_v3&utm_medium=api_v3_business_search&utm_source=hBJOknVQJ58S5goQyjmwRw", "review_count": 4, "categories": [{"alias": "hotdogs", "title": "Fast Food"}, {"alias": "german", "title": "German"}, {"alias": "cafes", "title": "Cafes"}], "rating": 2.5, "coordinates": {"latitude": 53.6943389348779, "longitude": 10.3242511267833}, "transactions": [], "price": "\u20ac\u20ac\u20ac\u20ac", "location": {"address1": "Herbertweg 1", "address2": "", "address3": "", "city": "Todendorf", "zip_code": "22965", "country": "DE", "state": "SH", "display_address": ["Herbertweg 1", "22965 Todendorf", "Germany"]}, "phone": "+494534204847", "display_phone": "+49 4534 204847", "distance": 2184.426907617119}, {"id": "cGIKCcR0wZszz8VldC2-7g", "alias": "currywerk-hamburg", "name": "curryWERK", "image_url": "https://s3-media4.fl.yelpcdn.com/bphoto/j_ZPQAB6JrAru84VDuLiRA/o.jpg", "is_closed": false, "url": "https://www.yelp.com/biz/currywerk-hamburg?adjust_creative=hBJOknVQJ58S5goQyjmwRw&utm_campaign=yelp_api_v3&utm_medium=api_v3_business_search&utm_source=hBJOknVQJ58S5goQyjmwRw", "review_count": 1, "categories": [{"alias": "foodtrucks", "title": "Food Trucks"}, {"alias": "currysausage", "title": "Curry Sausage"}], "rating": 4.0, "coordinates": {"latitude": 53.5498886108398, "longitude": 9.94732189178467}, "transactions": [], "price": "\u20ac\u20ac", "location": {"address1": "", "address2": "", "address3": "", "city": "Hamburg", "zip_code": "22767", "country": "DE", "state": "HH", "display_address": ["22767 Hamburg", "Germany"]}, "phone": "+4917632443433", "display_phone": "+49 176 32443433", "distance": 27879.033680916626}]