[{"id": "9BoptuqV6JKp816-hL0rxw", "alias": "kroatien-restaurant-mediterraneo-ahrensburg-4", "name": "Kroatien Restaurant Mediterraneo", "image_url": "https://s3-media1.fl.yelpcdn.com/bphoto/0l52YvMZbBZdSOww8rigOA/o.jpg", "is_closed": false, "url": "https://www.yelp.com/biz/kroatien-restaurant-mediterraneo-ahrensburg-4?adjust_creative=hBJOknVQJ58S5goQyjmwRw&utm_campaign=yelp_api_v3&utm_medium=api_v3_business_search&utm_source=hBJOknVQJ58S5goQyjmwRw", "review_count": 9, "categories": [{"alias": "bowling", "title": "Bowling"}, {"alias": "mediterranean", "title": "Mediterranean"}], "rating": 4.0, "coordinates": {"latitude": 53.6803176227514, "longitude": 10.2351419627666}, "transactions": [], "price": "\u20ac\u20ac\u20ac", "location": {"address1": "Reeshoop 48", "address2": null, "address3": "", "city": "Ahrensburg", "zip_code": "22926", "country": "DE", "state": "SH", "display_address": ["Reeshoop 48", "22926 Ahrensburg", "Germany"]}, "phone": "+4941024737184", "display_phone": "+49 4102 4737184", "distance": 1434.3679669460585}, {"id": "ePi8qRlsS0yIj-vusvLwyw", "alias": "zum-griechen-ahrensburg", "name": "Zum Griechen", "image_url": "https://s3-media2.fl.yelpcdn.com/bphoto/0iWuNO5GwTcWCmPWnTvOSA/o.jpg", "is_closed": false, "url": "https://www.yelp.com/biz/zum-griechen-ahrensburg?adjust_creative=hBJOknVQJ58S5goQyjmwRw&utm_campaign=yelp_api_v3&utm_medium=api_v3_business_search&utm_source=hBJOknVQJ58S5goQyjmwRw", "review_count": 35, "categories": [{"alias": "greek", "title": "Greek"}], "rating": 4.0, "coordinates": {"latitude": 53.665075, "longitude": 10.220437}, "transactions": [], "price": "\u20ac\u20ac", "location": {"address1": "Ohlendamm 1", "address2": "", "address3": "", "city": "Ahrensburg", "zip_code": "22926", "country": "DE", "state": "SH", "display_address": ["Ohlendamm 1", "22926 Ahrensburg", "Germany"]}, "phone": "+4941021404", "display_phone": "+49 4102 1404", "distance": 1685.9839566087371}, {"id": "4GkNM5czryu7wrLurCrnSA", "alias": "restaurant-strehl-ahrensburg-2", "name": "Restaurant Strehl", "image_url": "https://s3-media2.fl.yelpcdn.com/bphoto/opzw9-5TgccXmJ2ddbJA_A/o.jpg", "is_closed": false, "url": "https://www.yelp.com/biz/restaurant-strehl-ahrensburg-2?adjust_creative=hBJOknVQJ58S5goQyjmwRw&utm_campaign=yelp_api_v3&utm_medium=api_v3_business_search&utm_source=hBJOknVQJ58S5goQyjmwRw", "review_count": 13, "categories": [{"alias": "catering", "title": "Caterers"}, {"alias": "german", "title": "German"}], "rating": 3.5, "coordinates": {"latitude": 53.6804, "longitude": 10.235}, "transactions": [], "price": "\u20ac\u20ac", "location": {"address1": "Reeshoop 50", "address2": null, "address3": null, "city": "Ahrensburg", "zip_code": "22926", "country": "DE", "state": "SH", "display_address": ["Reeshoop 50", "22926 Ahrensburg", "Germany"]}, "phone": "+49410241261", "display_phone": "+49 4102 41261", "distance": 1425.5437134904305}, {"id": "xSZO3bg3cyXdB3cEAblykQ", "alias": "la-casetta-ahrensburg", "name": "La Casetta", "image_url": "https://s3-media4.fl.yelpcdn.com/bphoto/LljVDlDhmpcwSsRQeyK1XA/o.jpg", "is_closed": false, "url": "https://www.yelp.com/biz/la-casetta-ahrensburg?adjust_creative=hBJOknVQJ58S5goQyjmwRw&utm_campaign=yelp_api_v3&utm_medium=api_v3_business_search&utm_source=hBJOknVQJ58S5goQyjmwRw", "review_count": 4, "categories": [{"alias": "italian", "title": "Italian"}, {"alias": "venues", "title": "Venues & Event Spaces"}], "rating": 4.0, "coordinates": {"latitude": 53.6670299, "longitude": 10.22166}, "transactions": [], "location": {"address1": "Rantzaustr. 136", "address2": null, "address3": "", "city": "Ahrensburg", "zip_code": "22926", "country": "DE", "state": "SH", "display_address": ["Rantzaustr. 136", "22926 Ahrensburg", "Germany"]}, "phone": "+494102205573", "display_phone": "+49 4102 205573", "distance": 1505.0006462335805}, {"id": "tkdvEE9lZEpTGbs1UW0ONw", "alias": "zum-dorfkrug-ammersbek", "name": "Zum Dorfkrug", "image_url": "https://s3-media2.fl.yelpcdn.com/bphoto/dFTx2L-DcN8hFsLO7bpA_Q/o.jpg", "is_closed": false, "url": "https://www.yelp.com/biz/zum-dorfkrug-ammersbek?adjust_creative=hBJOknVQJ58S5goQyjmwRw&utm_campaign=yelp_api_v3&utm_medium=api_v3_business_search&utm_source=hBJOknVQJ58S5goQyjmwRw", "review_count": 23, "categories": [{"alias": "german", "title": "German"}, {"alias": "guesthouses", "title": "Guest Houses"}], "rating": 4.5, "coordinates": {"latitude": 53.70817, "longitude": 10.21122}, "transactions": [], "price": "\u20ac", "location": {"address1": "Alte Landstr. 47", "address2": "", "address3": "", "city": "Ammersbek", "zip_code": "22949", "country": "DE", "state": "SH", "display_address": ["Alte Landstr. 47", "22949 Ammersbek", "Germany"]}, "phone": "+4945326115", "display_phone": "+49 4532 6115", "distance": 3177.8153273121193}, {"id": "QX604mZjK4BAUJhAXs5DYQ", "alias": "rio-grande-ahrensburg", "name": "Rio Grande", "image_url": "https://s3-media4.fl.yelpcdn.com/bphoto/MvZCsqphOAfbxVRfodhgFQ/o.jpg", "is_closed": false, "url": "https://www.yelp.com/biz/rio-grande-ahrensburg?adjust_creative=hBJOknVQJ58S5goQyjmwRw&utm_campaign=yelp_api_v3&utm_medium=api_v3_business_search&utm_source=hBJOknVQJ58S5goQyjmwRw", "review_count": 34, "categories": [{"alias": "steak", "title": "Steakhouses"}, {"alias": "international", "title": "International"}], "rating": 4.0, "coordinates": {"latitude": 53.65755, "longitude": 10.2114999}, "transactions": [], "price": "\u20ac\u20ac", "location": {"address1": "Hamburger Str. 190", "address2": "", "address3": "", "city": "Ahrensburg", "zip_code": "22926", "country": "DE", "state": "SH", "display_address": ["Hamburger Str. 190", "22926 Ahrensburg", "Germany"]}, "phone": "+494102465328", "display_phone": "+49 4102 465328", "distance": 2449.1709515032244}, {"id": "f4QeydE1uJaPgmdO0zyr3w", "alias": "china-restaurant-huy-hoang-ahrensburg", "name": "China-Restaurant Huy-Hoang", "image_url": "https://s3-media2.fl.yelpcdn.com/bphoto/WMEMhl81BMPyjWDWQlqrzQ/o.jpg", "is_closed": false, "url": "https://www.yelp.com/biz/china-restaurant-huy-hoang-ahrensburg?adjust_creative=hBJOknVQJ58S5goQyjmwRw&utm_campaign=yelp_api_v3&utm_medium=api_v3_business_search&utm_source=hBJOknVQJ58S5goQyjmwRw", "review_count": 7, "categories": [{"alias": "chinese", "title": "Chinese"}], "rating": 4.5, "coordinates": {"latitude": 53.6735, "longitude": 10.2388}, "transactions": [], "price": "\u20ac\u20ac", "location": {"address1": "Rathausplatz 25", "address2": null, "address3": null, "city": "Ahrensburg", "zip_code": "22926", "country": "DE", "state": "SH", "display_address": ["Rathausplatz 25", "22926 Ahrensburg", "Germany"]}, "phone": "+49410259528", "display_phone": "+49 4102 59528", "distance": 1807.3465928777828}, {"id": "JOq6siJT8d6dz-C3EICOyA", "alias": "go-asia-ahrensburg", "name": "Go-Asia", "image_url": "https://s3-media4.fl.yelpcdn.com/bphoto/UTJ0dTyRXZe60puNdE_Vng/o.jpg", "is_closed": false, "url": "https://www.yelp.com/biz/go-asia-ahrensburg?adjust_creative=hBJOknVQJ58S5goQyjmwRw&utm_campaign=yelp_api_v3&utm_medium=api_v3_business_search&utm_source=hBJOknVQJ58S5goQyjmwRw", "review_count": 4, "categories": [{"alias": "panasian", "title": "Pan Asian"}], "rating": 5.0, "coordinates": {"latitude": 53.6743852, "longitude": 10.2381118}, "transactions": [], "price": "\u20ac\u20ac", "location": {"address1": "Gro\u00dfe Str. 24", "address2": "", "address3": "", "city": "Ahrensburg", "zip_code": "22926", "country": "DE", "state": "SH", "display_address": ["Gro\u00dfe Str. 24", "22926 Ahrensburg", "Germany"]}, "phone": "+494102667875", "display_phone": "+49 4102 667875", "distance": 1729.7633031252765}, {"id": "3dssdPg3sB9-IpZOh8s-1w", "alias": "hofladen-gut-wulfsdorf-ahrensburg", "name": "Hofladen Gut Wulfsdorf", "image_url": "https://s3-media1.fl.yelpcdn.com/bphoto/M0qSCGfCGzuo-VdDwiOtQg/o.jpg", "is_closed": false, "url": "https://www.yelp.com/biz/hofladen-gut-wulfsdorf-ahrensburg?adjust_creative=hBJOknVQJ58S5goQyjmwRw&utm_campaign=yelp_api_v3&utm_medium=api_v3_business_search&utm_source=hBJOknVQJ58S5goQyjmwRw", "review_count": 6, "categories": [{"alias": "organic_stores", "title": "Organic Stores"}, {"alias": "convenience", "title": "Convenience Stores"}, {"alias": "cafes", "title": "Cafes"}], "rating": 4.5, "coordinates": {"latitude": 53.6592, "longitude": 10.1925}, "transactions": [], "price": "\u20ac\u20ac", "location": {"address1": "Bornkampsweg 39", "address2": null, "address3": null, "city": "Ahrensburg", "zip_code": "22926", "country": "DE", "state": "SH", "display_address": ["Bornkampsweg 39", "22926 Ahrensburg", "Germany"]}, "phone": "+49410232587", "display_phone": "+49 4102 32587", "distance": 2657.0646073793723}, {"id": "55-UTI9pN-jA98ZXgrETBA", "alias": "il-grappolo-ammersbek", "name": "Il Grappolo", "image_url": "https://s3-media2.fl.yelpcdn.com/bphoto/KFZidx5vgxXx5uV8NwHM1g/o.jpg", "is_closed": false, "url": "https://www.yelp.com/biz/il-grappolo-ammersbek?adjust_creative=hBJOknVQJ58S5goQyjmwRw&utm_campaign=yelp_api_v3&utm_medium=api_v3_business_search&utm_source=hBJOknVQJ58S5goQyjmwRw", "review_count": 7, "categories": [{"alias": "italian", "title": "Italian"}], "rating": 4.5, "coordinates": {"latitude": 53.7087343, "longitude": 10.2123374}, "transactions": [], "location": {"address1": "Weg zu den Tannen 5", "address2": null, "address3": null, "city": "Ammersbek", "zip_code": "22949", "country": "DE", "state": "SH", "display_address": ["Weg zu den Tannen 5", "22949 Ammersbek", "Germany"]}, "phone": "+4945322678950", "display_phone": "+49 4532 2678950", "distance": 3218.1448098091046}, {"id": "CB428jsOtLG8E4jiQlkB4w", "alias": "dailyfresh-ahrensburg", "name": "Dailyfresh", "image_url": "https://s3-media2.fl.yelpcdn.com/bphoto/wWniJ4FP-e8k28543rWi3Q/o.jpg", "is_closed": false, "url": "https://www.yelp.com/biz/dailyfresh-ahrensburg?adjust_creative=hBJOknVQJ58S5goQyjmwRw&utm_campaign=yelp_api_v3&utm_medium=api_v3_business_search&utm_source=hBJOknVQJ58S5goQyjmwRw", "review_count": 4, "categories": [{"alias": "salad", "title": "Salad"}, {"alias": "bistros", "title": "Bistros"}], "rating": 5.0, "coordinates": {"latitude": 53.6724892, "longitude": 10.2382803}, "transactions": [], "price": "\u20ac", "location": {"address1": "Hamburger Str. 3-5", "address2": "", "address3": "", "city": "Ahrensburg", "zip_code": "22926", "country": "DE", "state": "SH", "display_address": ["Hamburger Str. 3-5", "22926 Ahrensburg", "Germany"]}, "phone": "+494102824431", "display_phone": "+49 4102 824431", "distance": 1818.312847510046}, {"id": "3emsLbdBi4PHclK8kuFhPg", "alias": "schlemmerst\u00fcbchen-ahrensburg", "name": "Schlemmerst\u00fcbchen", "image_url": "", "is_closed": false, "url": "https://www.yelp.com/biz/schlemmerst%C3%BCbchen-ahrensburg?adjust_creative=hBJOknVQJ58S5goQyjmwRw&utm_campaign=yelp_api_v3&utm_medium=api_v3_business_search&utm_source=hBJOknVQJ58S5goQyjmwRw", "review_count": 1, "categories": [{"alias": "foodstands", "title": "Food Stands"}], "rating": 5.0, "coordinates": {"latitude": 53.673183095609, "longitude": 10.2374708429222}, "transactions": [], "location": {"address1": "Rathausstr. 24", "address2": "", "address3": null, "city": "Ahrensburg", "zip_code": "22926", "country": "DE", "state": "SH", "display_address": ["Rathausstr. 24", "22926 Ahrensburg", "Germany"]}, "phone": "+4941021330", "display_phone": "+49 4102 1330", "distance": 1740.8438514265918}, {"id": "a9zTyvX_iY0jygqIfuqjJg", "alias": "d\u00f6ner-harem-ahrensburg", "name": "D\u00f6ner-Harem", "image_url": "https://s3-media2.fl.yelpcdn.com/bphoto/KoLUsGxu4aVGI6jLjjB02A/o.jpg", "is_closed": false, "url": "https://www.yelp.com/biz/d%C3%B6ner-harem-ahrensburg?adjust_creative=hBJOknVQJ58S5goQyjmwRw&utm_campaign=yelp_api_v3&utm_medium=api_v3_business_search&utm_source=hBJOknVQJ58S5goQyjmwRw", "review_count": 6, "categories": [{"alias": "kebab", "title": "Kebab"}], "rating": 3.0, "coordinates": {"latitude": 53.6729, "longitude": 10.2362}, "transactions": [], "price": "\u20ac\u20ac", "location": {"address1": "Manfred-Samusch-Str. 1", "address2": null, "address3": null, "city": "Ahrensburg", "zip_code": "22926", "country": "DE", "state": "SH", "display_address": ["Manfred-Samusch-Str. 1", "22926 Ahrensburg", "Germany"]}, "phone": "+49410253091", "display_phone": "+49 4102 53091", "distance": 1678.7658983102658}, {"id": "X7fr91R--0fQuyBL7gaOEw", "alias": "rockefeller-ahrensburg", "name": "Rockefeller", "image_url": "https://s3-media3.fl.yelpcdn.com/bphoto/c90wOI-L3my0rGvBkfNmLg/o.jpg", "is_closed": false, "url": "https://www.yelp.com/biz/rockefeller-ahrensburg?adjust_creative=hBJOknVQJ58S5goQyjmwRw&utm_campaign=yelp_api_v3&utm_medium=api_v3_business_search&utm_source=hBJOknVQJ58S5goQyjmwRw", "review_count": 20, "categories": [{"alias": "international", "title": "International"}], "rating": 3.5, "coordinates": {"latitude": 53.669829751765, "longitude": 10.236160818777}, "transactions": [], "price": "\u20ac\u20ac", "location": {"address1": "Stormarnstr. 2", "address2": null, "address3": null, "city": "Ahrensburg", "zip_code": "22926", "country": "DE", "state": "SH", "display_address": ["Stormarnstr. 2", "22926 Ahrensburg", "Germany"]}, "phone": "+494102823483", "display_phone": "+49 4102 823483", "distance": 1854.4346728284065}, {"id": "xBWobvwGsxbkIR2QC5CXZg", "alias": "b\u00fcrgervereinshaus-ahrensburg", "name": "B\u00fcrgervereinshaus", "image_url": "", "is_closed": false, "url": "https://www.yelp.com/biz/b%C3%BCrgervereinshaus-ahrensburg?adjust_creative=hBJOknVQJ58S5goQyjmwRw&utm_campaign=yelp_api_v3&utm_medium=api_v3_business_search&utm_source=hBJOknVQJ58S5goQyjmwRw", "review_count": 1, "categories": [{"alias": "cafes", "title": "Cafes"}, {"alias": "coffee", "title": "Coffee & Tea"}], "rating": 4.0, "coordinates": {"latitude": 53.68, "longitude": 10.2388}, "transactions": [], "location": {"address1": "Bagatelle", "address2": null, "address3": null, "city": "Ahrensburg", "zip_code": "22926", "country": "DE", "state": "SH", "display_address": ["Bagatelle", "22926 Ahrensburg", "Germany"]}, "phone": "", "display_phone": "", "distance": 1673.7906791092187}, {"id": "TAfqyQEh0__QlLylFOTaGw", "alias": "china-restaurant-yau-ahrensburg", "name": "China-Restaurant Yau", "image_url": "", "is_closed": false, "url": "https://www.yelp.com/biz/china-restaurant-yau-ahrensburg?adjust_creative=hBJOknVQJ58S5goQyjmwRw&utm_campaign=yelp_api_v3&utm_medium=api_v3_business_search&utm_source=hBJOknVQJ58S5goQyjmwRw", "review_count": 1, "categories": [{"alias": "chinese", "title": "Chinese"}], "rating": 5.0, "coordinates": {"latitude": 53.6757, "longitude": 10.2369}, "transactions": [], "price": "\u20ac\u20ac\u20ac", "location": {"address1": "Reeshoop 16", "address2": null, "address3": null, "city": "Ahrensburg", "zip_code": "22926", "country": "DE", "state": "SH", "display_address": ["Reeshoop 16", "22926 Ahrensburg", "Germany"]}, "phone": "+49410257800", "display_phone": "+49 4102 57800", "distance": 1609.04160101588}, {"id": "QuEmoW_Y7Vqhh1qWPreNog", "alias": "fr\u00fchst\u00fccks-stube-ahrensburg", "name": "Fr\u00fchst\u00fccks-Stube", "image_url": "", "is_closed": false, "url": "https://www.yelp.com/biz/fr%C3%BChst%C3%BCcks-stube-ahrensburg?adjust_creative=hBJOknVQJ58S5goQyjmwRw&utm_campaign=yelp_api_v3&utm_medium=api_v3_business_search&utm_source=hBJOknVQJ58S5goQyjmwRw", "review_count": 4, "categories": [{"alias": "cafes", "title": "Cafes"}, {"alias": "coffee", "title": "Coffee & Tea"}], "rating": 5.0, "coordinates": {"latitude": 53.66487, "longitude": 10.22024}, "transactions": [], "location": {"address1": "Waldemar-Bonselsweg 168", "address2": null, "address3": null, "city": "Ahrensburg", "zip_code": "22926", "country": "DE", "state": "SH", "display_address": ["Waldemar-Bonselsweg 168", "22926 Ahrensburg", "Germany"]}, "phone": "+49410230295", "display_phone": "+49 4102 30295", "distance": 1703.130998607897}, {"id": "KX5viLCOnnASgNtKgZNfdg", "alias": "big-d\u00f6ner-ahrensburg", "name": "Big-D\u00f6ner", "image_url": "https://s3-media1.fl.yelpcdn.com/bphoto/s5NisHTc_gtpmwDNvA4BLQ/o.jpg", "is_closed": false, "url": "https://www.yelp.com/biz/big-d%C3%B6ner-ahrensburg?adjust_creative=hBJOknVQJ58S5goQyjmwRw&utm_campaign=yelp_api_v3&utm_medium=api_v3_business_search&utm_source=hBJOknVQJ58S5goQyjmwRw", "review_count": 3, "categories": [{"alias": "kebab", "title": "Kebab"}], "rating": 4.0, "coordinates": {"latitude": 53.6743852, "longitude": 10.2381118}, "transactions": [], "price": "\u20ac\u20ac", "location": {"address1": "Klaus-Groth-Str. 2 - 4", "address2": "", "address3": "", "city": "Ahrensburg", "zip_code": "22926", "country": "DE", "state": "SH", "display_address": ["Klaus-Groth-Str. 2 - 4", "22926 Ahrensburg", "Germany"]}, "phone": "+4917647049817", "display_phone": "+49 176 47049817", "distance": 1729.7633031252765}, {"id": "vYzdcrNTGdpLbSbgCWeTaQ", "alias": "leckere-bratwurst-bude-ahrensburg", "name": "Leckere Bratwurst Bude", "image_url": "", "is_closed": false, "url": "https://www.yelp.com/biz/leckere-bratwurst-bude-ahrensburg?adjust_creative=hBJOknVQJ58S5goQyjmwRw&utm_campaign=yelp_api_v3&utm_medium=api_v3_business_search&utm_source=hBJOknVQJ58S5goQyjmwRw", "review_count": 1, "categories": [{"alias": "currysausage", "title": "Curry Sausage"}], "rating": 4.0, "coordinates": {"latitude": 53.6764136, "longitude": 10.2378854}, "transactions": [], "price": "\u20ac", "location": {"address1": "Kornkamp 34", "address2": "", "address3": "", "city": "Ahrensburg", "zip_code": "22926", "country": "DE", "state": "SH", "display_address": ["Kornkamp 34", "22926 Ahrensburg", "Germany"]}, "phone": "", "display_phone": "", "distance": 1652.5514864185589}, {"id": "xLilx-iD9unLXTOgGRa5_w", "alias": "bierstein-ahrensburg", "name": "Bierstein", "image_url": "https://s3-media1.fl.yelpcdn.com/bphoto/-05QMTtkK7DmqfDGdwFlhg/o.jpg", "is_closed": false, "url": "https://www.yelp.com/biz/bierstein-ahrensburg?adjust_creative=hBJOknVQJ58S5goQyjmwRw&utm_campaign=yelp_api_v3&utm_medium=api_v3_business_search&utm_source=hBJOknVQJ58S5goQyjmwRw", "review_count": 1, "categories": [{"alias": "restaurants", "title": "Restaurants"}, {"alias": "musicvenues", "title": "Music Venues"}], "rating": 4.0, "coordinates": {"latitude": 53.6408144411685, "longitude": 10.2171700833979}, "transactions": [], "location": {"address1": "D\u00e4nenweg 10", "address2": "", "address3": null, "city": "Ahrensburg", "zip_code": "22926", "country": "DE", "state": "SH", "display_address": ["D\u00e4nenweg 10", "22926 Ahrensburg", "Germany"]}, "phone": "+491712447081", "display_phone": "+49 171 2447081", "distance": 4324.345862210452}, {"id": "iSws6BKVmcB6RTBkKY-XVw", "alias": "restaurant-pomodoro-ahrensburg", "name": "Restaurant pomodoro", "image_url": "", "is_closed": false, "url": "https://www.yelp.com/biz/restaurant-pomodoro-ahrensburg?adjust_creative=hBJOknVQJ58S5goQyjmwRw&utm_campaign=yelp_api_v3&utm_medium=api_v3_business_search&utm_source=hBJOknVQJ58S5goQyjmwRw", "review_count": 1, "categories": [{"alias": "italian", "title": "Italian"}], "rating": 5.0, "coordinates": {"latitude": 53.64002, "longitude": 10.21673}, "transactions": [], "location": {"address1": "D\u00e4nenweg 2", "address2": "", "address3": null, "city": "Ahrensburg", "zip_code": "22926", "country": "DE", "state": "SH", "display_address": ["D\u00e4nenweg 2", "22926 Ahrensburg", "Germany"]}, "phone": "+4941029830677", "display_phone": "+49 4102 9830677", "distance": 4432.95050678416}, {"id": "CRVbrc10xodwSwr8o-L2lQ", "alias": "taverne-rigani-ahrensburg", "name": "Taverne Rigani", "image_url": "https://s3-media4.fl.yelpcdn.com/bphoto/bZCBUKdDDowz0A79g5J2qw/o.jpg", "is_closed": false, "url": "https://www.yelp.com/biz/taverne-rigani-ahrensburg?adjust_creative=hBJOknVQJ58S5goQyjmwRw&utm_campaign=yelp_api_v3&utm_medium=api_v3_business_search&utm_source=hBJOknVQJ58S5goQyjmwRw", "review_count": 9, "categories": [{"alias": "greek", "title": "Greek"}], "rating": 3.5, "coordinates": {"latitude": 53.6698029592347, "longitude": 10.2354253055572}, "transactions": [], "price": "\u20ac\u20ac\u20ac", "location": {"address1": "Stormarnstr. 15", "address2": null, "address3": null, "city": "Ahrensburg", "zip_code": "22926", "country": "DE", "state": "SH", "display_address": ["Stormarnstr. 15", "22926 Ahrensburg", "Germany"]}, "phone": "+494102666969", "display_phone": "+49 4102 666969", "distance": 1817.2713936146995}, {"id": "_8hddWhYIY_DPFMc5yOolg", "alias": "restaurant-rhodos-ahrensburg", "name": "Restaurant Rhodos", "image_url": "https://s3-media2.fl.yelpcdn.com/bphoto/18xUk0FqqKs_o4qeeMDyXg/o.jpg", "is_closed": false, "url": "https://www.yelp.com/biz/restaurant-rhodos-ahrensburg?adjust_creative=hBJOknVQJ58S5goQyjmwRw&utm_campaign=yelp_api_v3&utm_medium=api_v3_business_search&utm_source=hBJOknVQJ58S5goQyjmwRw", "review_count": 26, "categories": [{"alias": "greek", "title": "Greek"}], "rating": 3.0, "coordinates": {"latitude": 53.660141, "longitude": 10.213659}, "transactions": [], "price": "\u20ac\u20ac", "location": {"address1": "Hamburger Str. 170", "address2": "", "address3": "", "city": "Ahrensburg", "zip_code": "22926", "country": "DE", "state": "SH", "display_address": ["Hamburger Str. 170", "22926 Ahrensburg", "Germany"]}, "phone": "+49410258979", "display_phone": "+49 4102 58979", "distance": 2164.8595905176044}, {"id": "otXAU9fFRpqLYMZYoEgrXQ", "alias": "mcdonalds-ahrensburg", "name": "McDonald's", "image_url": "https://s3-media3.fl.yelpcdn.com/bphoto/oN01eTrfJbmbPw2ErphhjQ/o.jpg", "is_closed": false, "url": "https://www.yelp.com/biz/mcdonalds-ahrensburg?adjust_creative=hBJOknVQJ58S5goQyjmwRw&utm_campaign=yelp_api_v3&utm_medium=api_v3_business_search&utm_source=hBJOknVQJ58S5goQyjmwRw", "review_count": 12, "categories": [{"alias": "hotdogs", "title": "Fast Food"}, {"alias": "burgers", "title": "Burgers"}], "rating": 3.0, "coordinates": {"latitude": 53.6635599, "longitude": 10.2212099}, "transactions": [], "price": "\u20ac\u20ac", "location": {"address1": "Hamburger Str. 159", "address2": null, "address3": null, "city": "Ahrensburg", "zip_code": "22926", "country": "DE", "state": "SH", "display_address": ["Hamburger Str. 159", "22926 Ahrensburg", "Germany"]}, "phone": "+494102821707", "display_phone": "+49 4102 821707", "distance": 1865.0823652536346}, {"id": "tKyHGeLv00xm-NtJGra3Kg", "alias": "eis-cafe-chocolat-ahrensburg", "name": "Eis Cafe Chocolat", "image_url": "https://s3-media1.fl.yelpcdn.com/bphoto/wqmYbDRV1BIpTlJFWnLSmg/o.jpg", "is_closed": false, "url": "https://www.yelp.com/biz/eis-cafe-chocolat-ahrensburg?adjust_creative=hBJOknVQJ58S5goQyjmwRw&utm_campaign=yelp_api_v3&utm_medium=api_v3_business_search&utm_source=hBJOknVQJ58S5goQyjmwRw", "review_count": 3, "categories": [{"alias": "cafes", "title": "Cafes"}, {"alias": "coffee", "title": "Coffee & Tea"}], "rating": 4.5, "coordinates": {"latitude": 53.664, "longitude": 10.2206}, "transactions": [], "location": {"address1": "Waldemar-Bonsels-Weg", "address2": null, "address3": null, "city": "Ahrensburg", "zip_code": "22926", "country": "DE", "state": "SH", "display_address": ["Waldemar-Bonsels-Weg", "22926 Ahrensburg", "Germany"]}, "phone": "", "display_phone": "", "distance": 1802.6999964328763}, {"id": "APvIA_7ssxgC0atmQEFMcg", "alias": "burgerkultour-food-truck-hamburg-2", "name": "BurgerKultour Food Truck", "image_url": "https://s3-media4.fl.yelpcdn.com/bphoto/KoAuwalMnlAO8139MmdYBQ/o.jpg", "is_closed": false, "url": "https://www.yelp.com/biz/burgerkultour-food-truck-hamburg-2?adjust_creative=hBJOknVQJ58S5goQyjmwRw&utm_campaign=yelp_api_v3&utm_medium=api_v3_business_search&utm_source=hBJOknVQJ58S5goQyjmwRw", "review_count": 3, "categories": [{"alias": "foodtrucks", "title": "Food Trucks"}, {"alias": "burgers", "title": "Burgers"}], "rating": 4.5, "coordinates": {"latitude": 53.57154, "longitude": 9.95575}, "transactions": [], "price": "\u20ac\u20ac", "location": {"address1": "", "address2": "", "address3": "", "city": "Hamburg", "zip_code": "20259", "country": "DE", "state": "HH", "display_address": ["20259 Hamburg", "Germany"]}, "phone": "+4917626055122", "display_phone": "+49 176 26055122", "distance": 20816.642198307934}, {"id": "7DT39R64fx3OxYm5ahIt9g", "alias": "eiscafe-la-volpe-ahrensburg", "name": "Eiscafe La Volpe", "image_url": "https://s3-media3.fl.yelpcdn.com/bphoto/OvND0RyZjqRIh-2o67kaog/o.jpg", "is_closed": false, "url": "https://www.yelp.com/biz/eiscafe-la-volpe-ahrensburg?adjust_creative=hBJOknVQJ58S5goQyjmwRw&utm_campaign=yelp_api_v3&utm_medium=api_v3_business_search&utm_source=hBJOknVQJ58S5goQyjmwRw", "review_count": 7, "categories": [{"alias": "icecream", "title": "Ice Cream & Frozen Yogurt"}, {"alias": "cafes", "title": "Cafes"}, {"alias": "coffee", "title": "Coffee & Tea"}], "rating": 5.0, "coordinates": {"latitude": 53.6732, "longitude": 10.2376}, "transactions": [], "price": "\u20ac\u20ac", "location": {"address1": "Rathausplatz 25", "address2": null, "address3": null, "city": "Ahrensburg", "zip_code": "22926", "country": "DE", "state": "SH", "display_address": ["Rathausplatz 25", "22926 Ahrensburg", "Germany"]}, "phone": "+49410250130", "display_phone": "+49 4102 50130", "distance": 1747.8260020365535}, {"id": "2d5gxj1HG4Ze-tUDiYwwRQ", "alias": "holsteiner-backdiele-ahrensburg", "name": "Holsteiner Backdiele", "image_url": "https://s3-media2.fl.yelpcdn.com/bphoto/-wE8Dh0qNAUN_6BbPtSPXQ/o.jpg", "is_closed": false, "url": "https://www.yelp.com/biz/holsteiner-backdiele-ahrensburg?adjust_creative=hBJOknVQJ58S5goQyjmwRw&utm_campaign=yelp_api_v3&utm_medium=api_v3_business_search&utm_source=hBJOknVQJ58S5goQyjmwRw", "review_count": 1, "categories": [{"alias": "cafes", "title": "Cafes"}, {"alias": "coffee", "title": "Coffee & Tea"}], "rating": 4.0, "coordinates": {"latitude": 53.657, "longitude": 10.2112}, "transactions": [], "location": {"address1": "Hamburger Stra\u00dfe", "address2": null, "address3": null, "city": "Ahrensburg", "zip_code": "22926", "country": "DE", "state": "SH", "display_address": ["Hamburger Stra\u00dfe", "22926 Ahrensburg", "Germany"]}, "phone": "", "display_phone": "", "distance": 2521.570574986228}, {"id": "aj5KdLaad35-HlAVQc-bCQ", "alias": "schweinske-ahrensburg", "name": "Schweinske", "image_url": "https://s3-media1.fl.yelpcdn.com/bphoto/5VHx6hmwYNum6iLPwqZZqg/o.jpg", "is_closed": false, "url": "https://www.yelp.com/biz/schweinske-ahrensburg?adjust_creative=hBJOknVQJ58S5goQyjmwRw&utm_campaign=yelp_api_v3&utm_medium=api_v3_business_search&utm_source=hBJOknVQJ58S5goQyjmwRw", "review_count": 28, "categories": [{"alias": "german", "title": "German"}], "rating": 3.0, "coordinates": {"latitude": 53.6695, "longitude": 10.2363}, "transactions": [], "price": "\u20ac\u20ac", "location": {"address1": "Bahnhofstr. 9", "address2": null, "address3": null, "city": "Ahrensburg", "zip_code": "22926", "country": "DE", "state": "SH", "display_address": ["Bahnhofstr. 9", "22926 Ahrensburg", "Germany"]}, "phone": "+494102208058", "display_phone": "+49 4102 208058", "distance": 1883.577761930253}, {"id": "eXJVATOCTFSv2jhsQWGUCQ", "alias": "croque-shop-imbi\u00dfbetriebe-ahrensburg-3", "name": "Croque Shop Imbi\u00dfbetriebe", "image_url": "https://s3-media3.fl.yelpcdn.com/bphoto/zwaPBOkqWJxDozfezOtAoQ/o.jpg", "is_closed": false, "url": "https://www.yelp.com/biz/croque-shop-imbi%C3%9Fbetriebe-ahrensburg-3?adjust_creative=hBJOknVQJ58S5goQyjmwRw&utm_campaign=yelp_api_v3&utm_medium=api_v3_business_search&utm_source=hBJOknVQJ58S5goQyjmwRw", "review_count": 1, "categories": [{"alias": "hotdogs", "title": "Fast Food"}], "rating": 1.0, "coordinates": {"latitude": 53.6726717117947, "longitude": 10.2387651559083}, "transactions": [], "location": {"address1": "Rondeel 8", "address2": null, "address3": null, "city": "Ahrensburg", "zip_code": "22926", "country": "DE", "state": "SH", "display_address": ["Rondeel 8", "22926 Ahrensburg", "Germany"]}, "phone": "+49410232200", "display_phone": "+49 4102 32200", "distance": 1842.0426571900728}, {"id": "CR51HLNSeD-eXFOhb2k42w", "alias": "smileys-ahrensburg", "name": "Smiley's", "image_url": "", "is_closed": false, "url": "https://www.yelp.com/biz/smileys-ahrensburg?adjust_creative=hBJOknVQJ58S5goQyjmwRw&utm_campaign=yelp_api_v3&utm_medium=api_v3_business_search&utm_source=hBJOknVQJ58S5goQyjmwRw", "review_count": 6, "categories": [{"alias": "pizza", "title": "Pizza"}], "rating": 4.0, "coordinates": {"latitude": 53.6703, "longitude": 10.2353}, "transactions": [], "price": "\u20ac\u20ac\u20ac", "location": {"address1": "Stormarnstr. 6", "address2": null, "address3": null, "city": "Ahrensburg", "zip_code": "22926", "country": "DE", "state": "SH", "display_address": ["Stormarnstr. 6", "22926 Ahrensburg", "Germany"]}, "phone": "+49410250519", "display_phone": "+49 4102 50519", "distance": 1777.839101200222}, {"id": "NIdJO-hwFoXefYWkIxenMA", "alias": "pizza-max-ahrensburg", "name": "Pizza Max", "image_url": "https://s3-media1.fl.yelpcdn.com/bphoto/A8hNCkw27N6kxu7EbFdLuw/o.jpg", "is_closed": false, "url": "https://www.yelp.com/biz/pizza-max-ahrensburg?adjust_creative=hBJOknVQJ58S5goQyjmwRw&utm_campaign=yelp_api_v3&utm_medium=api_v3_business_search&utm_source=hBJOknVQJ58S5goQyjmwRw", "review_count": 10, "categories": [{"alias": "pizza", "title": "Pizza"}], "rating": 3.5, "coordinates": {"latitude": 53.670595, "longitude": 10.234687}, "transactions": [], "price": "\u20ac\u20ac", "location": {"address1": "Hamburger Str. 37", "address2": "", "address3": "", "city": "Ahrensburg", "zip_code": "22926", "country": "DE", "state": "SH", "display_address": ["Hamburger Str. 37", "22926 Ahrensburg", "Germany"]}, "phone": "+494102888834", "display_phone": "+49 4102 888834", "distance": 1724.255860109533}, {"id": "YlY659TTaSuESJD36fDtYA", "alias": "asia-haus-ahrensburg", "name": "Asia Haus", "image_url": "", "is_closed": false, "url": "https://www.yelp.com/biz/asia-haus-ahrensburg?adjust_creative=hBJOknVQJ58S5goQyjmwRw&utm_campaign=yelp_api_v3&utm_medium=api_v3_business_search&utm_source=hBJOknVQJ58S5goQyjmwRw", "review_count": 5, "categories": [{"alias": "panasian", "title": "Pan Asian"}], "rating": 2.5, "coordinates": {"latitude": 53.6699598, "longitude": 10.2356106}, "transactions": [], "price": "\u20ac\u20ac", "location": {"address1": "Stormarnstr. 4", "address2": null, "address3": null, "city": "Ahrensburg", "zip_code": "22926", "country": "DE", "state": "SH", "display_address": ["Stormarnstr. 4", "22926 Ahrensburg", "Germany"]}, "phone": "+494102458830", "display_phone": "+49 4102 458830", "distance": 1816.6434328571845}, {"id": "d2mtc7YgETaFKEbli95msg", "alias": "bambusgarten-hamburg-3", "name": "Bambusgarten", "image_url": "https://s3-media4.fl.yelpcdn.com/bphoto/QBICO3wxOhAUOB0f56We9g/o.jpg", "is_closed": false, "url": "https://www.yelp.com/biz/bambusgarten-hamburg-3?adjust_creative=hBJOknVQJ58S5goQyjmwRw&utm_campaign=yelp_api_v3&utm_medium=api_v3_business_search&utm_source=hBJOknVQJ58S5goQyjmwRw", "review_count": 29, "categories": [{"alias": "cafes", "title": "Cafes"}], "rating": 2.5, "coordinates": {"latitude": 53.6444, "longitude": 10.19}, "transactions": [], "price": "\u20ac\u20ac", "location": {"address1": "Eulenkrugstr. 190", "address2": null, "address3": null, "city": "Hamburg", "zip_code": "22359", "country": "DE", "state": "HH", "display_address": ["Eulenkrugstr. 190", "22359 Hamburg", "Germany"]}, "phone": "+49405330449190", "display_phone": "+49 40 5330449190", "distance": 4210.723109893782}, {"id": "32oc98cbPR8STNDUnoPCSg", "alias": "cafe-gerads-ahrensburg", "name": "Cafe-Gerads", "image_url": "", "is_closed": false, "url": "https://www.yelp.com/biz/cafe-gerads-ahrensburg?adjust_creative=hBJOknVQJ58S5goQyjmwRw&utm_campaign=yelp_api_v3&utm_medium=api_v3_business_search&utm_source=hBJOknVQJ58S5goQyjmwRw", "review_count": 5, "categories": [{"alias": "cafes", "title": "Cafes"}, {"alias": "coffee", "title": "Coffee & Tea"}], "rating": 3.0, "coordinates": {"latitude": 53.6723419, "longitude": 10.2379449}, "transactions": [], "location": {"address1": "Hamburger Str.  7", "address2": null, "address3": null, "city": "Ahrensburg", "zip_code": "22926", "country": "DE", "state": "SH", "display_address": ["Hamburger Str.  7", "22926 Ahrensburg", "Germany"]}, "phone": "", "display_phone": "", "distance": 1809.3257831992178}, {"id": "cGIKCcR0wZszz8VldC2-7g", "alias": "currywerk-hamburg", "name": "curryWERK", "image_url": "https://s3-media4.fl.yelpcdn.com/bphoto/j_ZPQAB6JrAru84VDuLiRA/o.jpg", "is_closed": false, "url": "https://www.yelp.com/biz/currywerk-hamburg?adjust_creative=hBJOknVQJ58S5goQyjmwRw&utm_campaign=yelp_api_v3&utm_medium=api_v3_business_search&utm_source=hBJOknVQJ58S5goQyjmwRw", "review_count": 1, "categories": [{"alias": "foodtrucks", "title": "Food Trucks"}, {"alias": "currysausage", "title": "Curry Sausage"}], "rating": 4.0, "coordinates": {"latitude": 53.5498886108398, "longitude": 9.94732189178467}, "transactions": [], "price": "\u20ac\u20ac", "location": {"address1": "", "address2": "", "address3": "", "city": "Hamburg", "zip_code": "22767", "country": "DE", "state": "HH", "display_address": ["22767 Hamburg", "Germany"]}, "phone": "+4917632443433", "display_phone": "+49 176 32443433", "distance": 23030.866652383876}]