[{"id": "sPVuIokwJuuOouU4ikYlXQ", "alias": "da-lui-gro\u00dfhansdorf", "name": "Da Lui", "image_url": "https://s3-media4.fl.yelpcdn.com/bphoto/JpJVDiIliCQrQmL2sICjBw/o.jpg", "is_closed": false, "url": "https://www.yelp.com/biz/da-lui-gro%C3%9Fhansdorf?adjust_creative=hBJOknVQJ58S5goQyjmwRw&utm_campaign=yelp_api_v3&utm_medium=api_v3_business_search&utm_source=hBJOknVQJ58S5goQyjmwRw", "review_count": 6, "categories": [{"alias": "italian", "title": "Italian"}, {"alias": "pizza", "title": "Pizza"}], "rating": 4.5, "coordinates": {"latitude": 53.65245, "longitude": 10.25994}, "transactions": [], "price": "\u20ac\u20ac", "location": {"address1": "Ahrensfelder Weg 10", "address2": "", "address3": "", "city": "Gro\u00dfhansdorf", "zip_code": "22927", "country": "DE", "state": "SH", "display_address": ["Ahrensfelder Weg 10", "22927 Gro\u00dfhansdorf", "Germany"]}, "phone": "+4941028034179", "display_phone": "+49 4102 8034179", "distance": 3092.364545180648}, {"id": "Rj6tJEeuE6iFoaqp6LPlmA", "alias": "kosch-svg-vereinsgastst\u00e4tte-des-svg-gro\u00dfhansdorf", "name": "Kosch Svg - Vereinsgastst\u00e4tte des Svg", "image_url": "", "is_closed": false, "url": "https://www.yelp.com/biz/kosch-svg-vereinsgastst%C3%A4tte-des-svg-gro%C3%9Fhansdorf?adjust_creative=hBJOknVQJ58S5goQyjmwRw&utm_campaign=yelp_api_v3&utm_medium=api_v3_business_search&utm_source=hBJOknVQJ58S5goQyjmwRw", "review_count": 1, "categories": [{"alias": "restaurants", "title": "Restaurants"}], "rating": 5.0, "coordinates": {"latitude": 53.6496, "longitude": 10.2792}, "transactions": [], "price": "\u20ac", "location": {"address1": "Kortenkamp 6A", "address2": null, "address3": null, "city": "Gro\u00dfhansdorf", "zip_code": "22927", "country": "DE", "state": "SH", "display_address": ["Kortenkamp 6A", "22927 Gro\u00dfhansdorf", "Germany"]}, "phone": "+494102204340", "display_phone": "+49 4102 204340", "distance": 3288.6897573786223}, {"id": "AttT9OA_lJLsAEl8EuGJRg", "alias": "taverna-galini-gro\u00dfhansdorf", "name": "Taverna Galini", "image_url": "https://s3-media2.fl.yelpcdn.com/bphoto/81u8wRoQU-FGVmkV9dVFNA/o.jpg", "is_closed": false, "url": "https://www.yelp.com/biz/taverna-galini-gro%C3%9Fhansdorf?adjust_creative=hBJOknVQJ58S5goQyjmwRw&utm_campaign=yelp_api_v3&utm_medium=api_v3_business_search&utm_source=hBJOknVQJ58S5goQyjmwRw", "review_count": 19, "categories": [{"alias": "greek", "title": "Greek"}], "rating": 4.5, "coordinates": {"latitude": 53.663, "longitude": 10.2858}, "transactions": [], "price": "\u20ac\u20ac", "location": {"address1": "Schaapkamp 3", "address2": null, "address3": null, "city": "Gro\u00dfhansdorf", "zip_code": "22927", "country": "DE", "state": "SH", "display_address": ["Schaapkamp 3", "22927 Gro\u00dfhansdorf", "Germany"]}, "phone": "+494102458981", "display_phone": "+49 4102 458981", "distance": 1944.3091868465062}, {"id": "3K_iiDB33h1e_CAva006fQ", "alias": "ristorante-dante-gro\u00dfhansdorf-2", "name": "Ristorante Dante", "image_url": "https://s3-media2.fl.yelpcdn.com/bphoto/OR6fzH4xgh-zjGjE1iev1A/o.jpg", "is_closed": false, "url": "https://www.yelp.com/biz/ristorante-dante-gro%C3%9Fhansdorf-2?adjust_creative=hBJOknVQJ58S5goQyjmwRw&utm_campaign=yelp_api_v3&utm_medium=api_v3_business_search&utm_source=hBJOknVQJ58S5goQyjmwRw", "review_count": 19, "categories": [{"alias": "italian", "title": "Italian"}, {"alias": "lounges", "title": "Lounges"}], "rating": 4.0, "coordinates": {"latitude": 53.6627329728685, "longitude": 10.2840678334669}, "transactions": [], "price": "\u20ac\u20ac\u20ac\u20ac", "location": {"address1": "Eilbergweg 2", "address2": null, "address3": null, "city": "Gro\u00dfhansdorf", "zip_code": "22927", "country": "DE", "state": "SH", "display_address": ["Eilbergweg 2", "22927 Gro\u00dfhansdorf", "Germany"]}, "phone": "+49410261320", "display_phone": "+49 4102 61320", "distance": 1929.1517692056898}, {"id": "1KhFPqm78JrA_-xRxR3hnA", "alias": "il-grappolo-gro\u00dfhansdorf-2", "name": "Il Grappolo", "image_url": "https://s3-media3.fl.yelpcdn.com/bphoto/HUsE8uJh6x6fOnhbUC_3iw/o.jpg", "is_closed": false, "url": "https://www.yelp.com/biz/il-grappolo-gro%C3%9Fhansdorf-2?adjust_creative=hBJOknVQJ58S5goQyjmwRw&utm_campaign=yelp_api_v3&utm_medium=api_v3_business_search&utm_source=hBJOknVQJ58S5goQyjmwRw", "review_count": 29, "categories": [{"alias": "pizza", "title": "Pizza"}, {"alias": "italian", "title": "Italian"}], "rating": 4.0, "coordinates": {"latitude": 53.6534, "longitude": 10.2809}, "transactions": [], "price": "\u20ac\u20ac\u20ac", "location": {"address1": "Barkholt 65", "address2": null, "address3": null, "city": "Gro\u00dfhansdorf", "zip_code": "22927", "country": "DE", "state": "SH", "display_address": ["Barkholt 65", "22927 Gro\u00dfhansdorf", "Germany"]}, "phone": "+494102691140", "display_phone": "+49 4102 691140", "distance": 2884.529114630335}, {"id": "_NBjYDwhLREyYyMyfufOiw", "alias": "essbar-ahrensburg-ahrensburg", "name": "essbar Ahrensburg", "image_url": "https://s3-media2.fl.yelpcdn.com/bphoto/d9Aj-2wnLh-aE6IIOUF-Yw/o.jpg", "is_closed": false, "url": "https://www.yelp.com/biz/essbar-ahrensburg-ahrensburg?adjust_creative=hBJOknVQJ58S5goQyjmwRw&utm_campaign=yelp_api_v3&utm_medium=api_v3_business_search&utm_source=hBJOknVQJ58S5goQyjmwRw", "review_count": 1, "categories": [{"alias": "bistros", "title": "Bistros"}], "rating": 4.0, "coordinates": {"latitude": 53.689015, "longitude": 10.258887}, "transactions": [], "price": "\u20ac", "location": {"address1": "Ewige Weide 6", "address2": "", "address3": "", "city": "Ahrensburg", "zip_code": "22926", "country": "DE", "state": "SH", "display_address": ["Ewige Weide 6", "22926 Ahrensburg", "Germany"]}, "phone": "+494102472375", "display_phone": "+49 4102 472375", "distance": 1445.9818168637369}, {"id": "S5pNSNXlN5RYHHkLl3mAOw", "alias": "onkel-curry-ahrensburg", "name": "Onkel Curry", "image_url": "https://s3-media4.fl.yelpcdn.com/bphoto/k1R0Edpwx6RiIqmE3Ft9Lw/o.jpg", "is_closed": false, "url": "https://www.yelp.com/biz/onkel-curry-ahrensburg?adjust_creative=hBJOknVQJ58S5goQyjmwRw&utm_campaign=yelp_api_v3&utm_medium=api_v3_business_search&utm_source=hBJOknVQJ58S5goQyjmwRw", "review_count": 10, "categories": [{"alias": "foodtrucks", "title": "Food Trucks"}, {"alias": "currysausage", "title": "Curry Sausage"}], "rating": 4.0, "coordinates": {"latitude": 53.691216, "longitude": 10.25406}, "transactions": [], "price": "\u20ac\u20ac", "location": {"address1": "Kornkamp 50", "address2": "", "address3": null, "city": "Ahrensburg", "zip_code": "22926", "country": "DE", "state": "SH", "display_address": ["Kornkamp 50", "22926 Ahrensburg", "Germany"]}, "phone": "+494064504620", "display_phone": "+49 40 64504620", "distance": 1885.4951337749328}, {"id": "rWkR5DswacH0QqeJSIUpew", "alias": "fotiou-delingsdorf", "name": "Fotiou", "image_url": "https://s3-media4.fl.yelpcdn.com/bphoto/u_KgUCzbITYjo7eepyRtiA/o.jpg", "is_closed": false, "url": "https://www.yelp.com/biz/fotiou-delingsdorf?adjust_creative=hBJOknVQJ58S5goQyjmwRw&utm_campaign=yelp_api_v3&utm_medium=api_v3_business_search&utm_source=hBJOknVQJ58S5goQyjmwRw", "review_count": 5, "categories": [{"alias": "greek", "title": "Greek"}], "rating": 4.0, "coordinates": {"latitude": 53.7084668147889, "longitude": 10.2514946615631}, "transactions": [], "location": {"address1": "L\u00fcbecker Str. 15", "address2": "", "address3": "", "city": "Delingsdorf", "zip_code": "22941", "country": "DE", "state": "SH", "display_address": ["L\u00fcbecker Str. 15", "22941 Delingsdorf", "Germany"]}, "phone": "+4945322882674", "display_phone": "+49 4532 2882674", "distance": 3593.181367215475}, {"id": "tusH6Bmt_h4qz_1bT5GI8A", "alias": "glantz-und-gloria-delingsdorf", "name": "Glantz & Gloria", "image_url": "https://s3-media1.fl.yelpcdn.com/bphoto/VzISEGBvNsjqheouI6dLpg/o.jpg", "is_closed": false, "url": "https://www.yelp.com/biz/glantz-und-gloria-delingsdorf?adjust_creative=hBJOknVQJ58S5goQyjmwRw&utm_campaign=yelp_api_v3&utm_medium=api_v3_business_search&utm_source=hBJOknVQJ58S5goQyjmwRw", "review_count": 46, "categories": [{"alias": "german", "title": "German"}, {"alias": "diners", "title": "Diners"}], "rating": 3.5, "coordinates": {"latitude": 53.7055, "longitude": 10.2515}, "transactions": [], "price": "\u20ac\u20ac\u20ac", "location": {"address1": "Hamburger Str. 2b", "address2": null, "address3": null, "city": "Delingsdorf", "zip_code": "22941", "country": "DE", "state": "SH", "display_address": ["Hamburger Str. 2b", "22941 Delingsdorf", "Germany"]}, "phone": "+494532280559", "display_phone": "+49 4532 280559", "distance": 3295.1288752062424}, {"id": "WZuBXku7RhG8bSEa6oDGag", "alias": "miranda-siek-2", "name": "Miranda", "image_url": "https://s3-media1.fl.yelpcdn.com/bphoto/uRm74V8Dzx4mH9-mtxlzMA/o.jpg", "is_closed": false, "url": "https://www.yelp.com/biz/miranda-siek-2?adjust_creative=hBJOknVQJ58S5goQyjmwRw&utm_campaign=yelp_api_v3&utm_medium=api_v3_business_search&utm_source=hBJOknVQJ58S5goQyjmwRw", "review_count": 3, "categories": [{"alias": "german", "title": "German"}, {"alias": "steak", "title": "Steakhouses"}, {"alias": "mediterranean", "title": "Mediterranean"}], "rating": 2.5, "coordinates": {"latitude": 53.6393, "longitude": 10.2856}, "transactions": [], "location": {"address1": "Hauptstr. 1", "address2": null, "address3": null, "city": "Siek", "zip_code": "22962", "country": "DE", "state": "SH", "display_address": ["Hauptstr. 1", "22962 Siek", "Germany"]}, "phone": "+494107333860", "display_phone": "+49 4107 333860", "distance": 4482.04238595171}, {"id": "9J4VbnwwWUysoxdL3OSHRg", "alias": "restaurant-frank-fischer-kulinarium-bargteheide", "name": "Restaurant Frank Fischer Kulinarium", "image_url": "https://s3-media4.fl.yelpcdn.com/bphoto/tECebJ32AjPFsab5E5YyWA/o.jpg", "is_closed": false, "url": "https://www.yelp.com/biz/restaurant-frank-fischer-kulinarium-bargteheide?adjust_creative=hBJOknVQJ58S5goQyjmwRw&utm_campaign=yelp_api_v3&utm_medium=api_v3_business_search&utm_source=hBJOknVQJ58S5goQyjmwRw", "review_count": 1, "categories": [{"alias": "northerngerman", "title": "Northern German"}], "rating": 4.0, "coordinates": {"latitude": 53.722133629889, "longitude": 10.2754401415586}, "transactions": [], "price": "\u20ac\u20ac", "location": {"address1": "Am Redder 7", "address2": "", "address3": "", "city": "Bargteheide", "zip_code": "22941", "country": "DE", "state": "SH", "display_address": ["Am Redder 7", "22941 Bargteheide", "Germany"]}, "phone": "+49453223688", "display_phone": "+49 4532 23688", "distance": 4796.026358952449}, {"id": "eoT1lSiZE9eIGbiHAKvEXg", "alias": "dat-backhus-gro\u00dfhansdorf", "name": "Dat Backhus", "image_url": "https://s3-media1.fl.yelpcdn.com/bphoto/XIaqQL0Npo2ZuoVYnpvjWQ/o.jpg", "is_closed": false, "url": "https://www.yelp.com/biz/dat-backhus-gro%C3%9Fhansdorf?adjust_creative=hBJOknVQJ58S5goQyjmwRw&utm_campaign=yelp_api_v3&utm_medium=api_v3_business_search&utm_source=hBJOknVQJ58S5goQyjmwRw", "review_count": 2, "categories": [{"alias": "cafes", "title": "Cafes"}], "rating": 4.0, "coordinates": {"latitude": 53.6531030812629, "longitude": 10.2620005980134}, "transactions": [], "price": "\u20ac", "location": {"address1": "Ahrensfelder Weg 1", "address2": "", "address3": null, "city": "Gro\u00dfhansdorf", "zip_code": "22927", "country": "DE", "state": "SH", "display_address": ["Ahrensfelder Weg 1", "22927 Gro\u00dfhansdorf", "Germany"]}, "phone": "+4941028247030", "display_phone": "+49 4102 8247030", "distance": 2986.2344083622284}, {"id": "za1i9pGduEAeTsDkRLju2A", "alias": "bistro-basler-ahrensburg", "name": "Bistro Basler", "image_url": "https://s3-media2.fl.yelpcdn.com/bphoto/467wUIyZ88eh4809Sy_2-g/o.jpg", "is_closed": false, "url": "https://www.yelp.com/biz/bistro-basler-ahrensburg?adjust_creative=hBJOknVQJ58S5goQyjmwRw&utm_campaign=yelp_api_v3&utm_medium=api_v3_business_search&utm_source=hBJOknVQJ58S5goQyjmwRw", "review_count": 1, "categories": [{"alias": "breakfast_brunch", "title": "Breakfast & Brunch"}, {"alias": "canteen", "title": "Canteen"}], "rating": 3.0, "coordinates": {"latitude": 53.693006, "longitude": 10.266129}, "transactions": [], "location": {"address1": "An der Strusbek 60 - 62", "address2": "", "address3": null, "city": "Ahrensburg", "zip_code": "22926", "country": "DE", "state": "SH", "display_address": ["An der Strusbek 60 - 62", "22926 Ahrensburg", "Germany"]}, "phone": "+494102463568", "display_phone": "+49 4102 463568", "distance": 1638.9019409518583}, {"id": "APvIA_7ssxgC0atmQEFMcg", "alias": "burgerkultour-food-truck-hamburg-2", "name": "BurgerKultour Food Truck", "image_url": "https://s3-media4.fl.yelpcdn.com/bphoto/KoAuwalMnlAO8139MmdYBQ/o.jpg", "is_closed": false, "url": "https://www.yelp.com/biz/burgerkultour-food-truck-hamburg-2?adjust_creative=hBJOknVQJ58S5goQyjmwRw&utm_campaign=yelp_api_v3&utm_medium=api_v3_business_search&utm_source=hBJOknVQJ58S5goQyjmwRw", "review_count": 3, "categories": [{"alias": "foodtrucks", "title": "Food Trucks"}, {"alias": "burgers", "title": "Burgers"}], "rating": 4.5, "coordinates": {"latitude": 53.57154, "longitude": 9.95575}, "transactions": [], "price": "\u20ac\u20ac", "location": {"address1": "", "address2": "", "address3": "", "city": "Hamburg", "zip_code": "20259", "country": "DE", "state": "HH", "display_address": ["20259 Hamburg", "Germany"]}, "phone": "+4917626055122", "display_phone": "+49 176 26055122", "distance": 24144.201619546933}, {"id": "cGIKCcR0wZszz8VldC2-7g", "alias": "currywerk-hamburg", "name": "curryWERK", "image_url": "https://s3-media4.fl.yelpcdn.com/bphoto/j_ZPQAB6JrAru84VDuLiRA/o.jpg", "is_closed": false, "url": "https://www.yelp.com/biz/currywerk-hamburg?adjust_creative=hBJOknVQJ58S5goQyjmwRw&utm_campaign=yelp_api_v3&utm_medium=api_v3_business_search&utm_source=hBJOknVQJ58S5goQyjmwRw", "review_count": 1, "categories": [{"alias": "foodtrucks", "title": "Food Trucks"}, {"alias": "currysausage", "title": "Curry Sausage"}], "rating": 4.0, "coordinates": {"latitude": 53.5498886108398, "longitude": 9.94732189178467}, "transactions": [], "price": "\u20ac\u20ac", "location": {"address1": "", "address2": "", "address3": "", "city": "Hamburg", "zip_code": "22767", "country": "DE", "state": "HH", "display_address": ["22767 Hamburg", "Germany"]}, "phone": "+4917632443433", "display_phone": "+49 176 32443433", "distance": 26210.97642559833}]