[{"id": "dMOGOXCY6U_MZu0aBA_ohw", "alias": "taverna-pegasus-hamburg", "name": "Taverna Pegasus", "image_url": "https://s3-media4.fl.yelpcdn.com/bphoto/LRKHH5mePsvM-t6pSdu-hg/o.jpg", "is_closed": false, "url": "https://www.yelp.com/biz/taverna-pegasus-hamburg?adjust_creative=hBJOknVQJ58S5goQyjmwRw&utm_campaign=yelp_api_v3&utm_medium=api_v3_business_search&utm_source=hBJOknVQJ58S5goQyjmwRw", "review_count": 9, "categories": [{"alias": "greek", "title": "Greek"}], "rating": 3.5, "coordinates": {"latitude": 53.67012, "longitude": 10.12642}, "transactions": [], "price": "\u20ac\u20ac", "location": {"address1": "Bergstedter Chaussee 128", "address2": "", "address3": null, "city": "Hamburg", "zip_code": "22395", "country": "DE", "state": "HH", "display_address": ["Bergstedter Chaussee 128", "22395 Hamburg", "Germany"]}, "phone": "+494064430710", "display_phone": "+49 40 64430710", "distance": 1191.4180907761036}, {"id": "hz50-hDcuY8KxhG5S4xLDg", "alias": "gasthaus-offen-hamburg", "name": "Gasthaus Offen", "image_url": "https://s3-media2.fl.yelpcdn.com/bphoto/z60mHTwqI2onQiOeUjFPSg/o.jpg", "is_closed": false, "url": "https://www.yelp.com/biz/gasthaus-offen-hamburg?adjust_creative=hBJOknVQJ58S5goQyjmwRw&utm_campaign=yelp_api_v3&utm_medium=api_v3_business_search&utm_source=hBJOknVQJ58S5goQyjmwRw", "review_count": 55, "categories": [{"alias": "german", "title": "German"}], "rating": 4.0, "coordinates": {"latitude": 53.6865, "longitude": 10.105}, "transactions": [], "price": "\u20ac\u20ac", "location": {"address1": "Lemsahler Dorfstr. 39", "address2": null, "address3": null, "city": "Hamburg", "zip_code": "22397", "country": "DE", "state": "HH", "display_address": ["Lemsahler Dorfstr. 39", "22397 Hamburg", "Germany"]}, "phone": "+49406083835", "display_phone": "+49 40 6083835", "distance": 1334.3966169196055}, {"id": "lPP7z4ItqTPpA_XX52QnrA", "alias": "alte-m\u00fchle-hamburg", "name": "Alte M\u00fchle", "image_url": "https://s3-media2.fl.yelpcdn.com/bphoto/aQx2TqQhVkygL5E089prJQ/o.jpg", "is_closed": false, "url": "https://www.yelp.com/biz/alte-m%C3%BChle-hamburg?adjust_creative=hBJOknVQJ58S5goQyjmwRw&utm_campaign=yelp_api_v3&utm_medium=api_v3_business_search&utm_source=hBJOknVQJ58S5goQyjmwRw", "review_count": 34, "categories": [{"alias": "german", "title": "German"}, {"alias": "cafes", "title": "Cafes"}], "rating": 4.0, "coordinates": {"latitude": 53.6701998, "longitude": 10.1083718}, "transactions": [], "price": "\u20ac\u20ac", "location": {"address1": "Alte M\u00fchle 34", "address2": null, "address3": null, "city": "Hamburg", "zip_code": "22395", "country": "DE", "state": "HH", "display_address": ["Alte M\u00fchle 34", "22395 Hamburg", "Germany"]}, "phone": "+49406049171", "display_phone": "+49 40 6049171", "distance": 1480.9705094378037}, {"id": "JYW4LsJPYmWM5RI-DNrfBw", "alias": "la-rucola-hamburg", "name": "La Rucola", "image_url": "https://s3-media4.fl.yelpcdn.com/bphoto/1_Q54uR6iMNlJDfx8nCdNQ/o.jpg", "is_closed": false, "url": "https://www.yelp.com/biz/la-rucola-hamburg?adjust_creative=hBJOknVQJ58S5goQyjmwRw&utm_campaign=yelp_api_v3&utm_medium=api_v3_business_search&utm_source=hBJOknVQJ58S5goQyjmwRw", "review_count": 10, "categories": [{"alias": "italian", "title": "Italian"}], "rating": 4.0, "coordinates": {"latitude": 53.6695114717445, "longitude": 10.1428208803824}, "transactions": [], "price": "\u20ac\u20ac\u20ac", "location": {"address1": "St\u00fcffeleck 2", "address2": "", "address3": null, "city": "Hamburg", "zip_code": "22359", "country": "DE", "state": "HH", "display_address": ["St\u00fcffeleck 2", "22359 Hamburg", "Germany"]}, "phone": "+49406048062", "display_phone": "+49 40 6048062", "distance": 1810.6883788572873}, {"id": "YY5zm9RE9A7Y6Bwz7c4Z4Q", "alias": "indian-temple-hamburg-4", "name": "Indian Temple", "image_url": "https://s3-media1.fl.yelpcdn.com/bphoto/XFfM2ecW3PStoPw8kxniCA/o.jpg", "is_closed": false, "url": "https://www.yelp.com/biz/indian-temple-hamburg-4?adjust_creative=hBJOknVQJ58S5goQyjmwRw&utm_campaign=yelp_api_v3&utm_medium=api_v3_business_search&utm_source=hBJOknVQJ58S5goQyjmwRw", "review_count": 12, "categories": [{"alias": "indpak", "title": "Indian"}], "rating": 4.5, "coordinates": {"latitude": 53.6531, "longitude": 10.10639}, "transactions": [], "price": "\u20ac\u20ac", "location": {"address1": "Saseler Chaussee 205", "address2": "", "address3": "", "city": "Hamburg", "zip_code": "22393", "country": "DE", "state": "HH", "display_address": ["Saseler Chaussee 205", "22393 Hamburg", "Germany"]}, "phone": "+494046642464", "display_phone": "+49 40 46642464", "distance": 3232.0753992972946}, {"id": "8x14AO14Qzu_Kr1k5F5gWQ", "alias": "zur-kastanie-hamburg-2", "name": "Zur Kastanie", "image_url": "https://s3-media4.fl.yelpcdn.com/bphoto/uUQJsafxvys3m925Xy2Y6A/o.jpg", "is_closed": false, "url": "https://www.yelp.com/biz/zur-kastanie-hamburg-2?adjust_creative=hBJOknVQJ58S5goQyjmwRw&utm_campaign=yelp_api_v3&utm_medium=api_v3_business_search&utm_source=hBJOknVQJ58S5goQyjmwRw", "review_count": 14, "categories": [{"alias": "german", "title": "German"}], "rating": 4.0, "coordinates": {"latitude": 53.70517, "longitude": 10.11532}, "transactions": [], "price": "\u20ac\u20ac\u20ac", "location": {"address1": "Specksaalredder 14", "address2": null, "address3": null, "city": "Hamburg", "zip_code": "22397", "country": "DE", "state": "HH", "display_address": ["Specksaalredder 14", "22397 Hamburg", "Germany"]}, "phone": "+49406072525", "display_phone": "+49 40 6072525", "distance": 2706.577287976814}, {"id": "ByLnXlZ8Dcpx6bkQy7OZ3Q", "alias": "die-m\u00fchle-hamburg", "name": "Die M\u00fchle", "image_url": "https://s3-media3.fl.yelpcdn.com/bphoto/7XffThMeNk9m6kBU4CihAg/o.jpg", "is_closed": false, "url": "https://www.yelp.com/biz/die-m%C3%BChle-hamburg?adjust_creative=hBJOknVQJ58S5goQyjmwRw&utm_campaign=yelp_api_v3&utm_medium=api_v3_business_search&utm_source=hBJOknVQJ58S5goQyjmwRw", "review_count": 21, "categories": [{"alias": "german", "title": "German"}], "rating": 4.0, "coordinates": {"latitude": 53.709764, "longitude": 10.130082}, "transactions": [], "price": "\u20ac\u20ac", "location": {"address1": "M\u00fchlenredder 38", "address2": null, "address3": null, "city": "Hamburg", "zip_code": "22397", "country": "DE", "state": "HH", "display_address": ["M\u00fchlenredder 38", "22397 Hamburg", "Germany"]}, "phone": "+49406076650", "display_phone": "+49 40 6076650", "distance": 3288.534975063245}, {"id": "HJ01zMNLEmQKEVdkMcJYUQ", "alias": "con-calma-hamburg", "name": "Con Calma", "image_url": "https://s3-media2.fl.yelpcdn.com/bphoto/fvN1qc3Bz5KqEJ9NoSz6zA/o.jpg", "is_closed": false, "url": "https://www.yelp.com/biz/con-calma-hamburg?adjust_creative=hBJOknVQJ58S5goQyjmwRw&utm_campaign=yelp_api_v3&utm_medium=api_v3_business_search&utm_source=hBJOknVQJ58S5goQyjmwRw", "review_count": 14, "categories": [{"alias": "italian", "title": "Italian"}], "rating": 4.5, "coordinates": {"latitude": 53.64219, "longitude": 10.1129}, "transactions": [], "price": "\u20ac", "location": {"address1": "Volksdorfer Weg 112", "address2": "", "address3": "", "city": "Hamburg", "zip_code": "22393", "country": "DE", "state": "HH", "display_address": ["Volksdorfer Weg 112", "22393 Hamburg", "Germany"]}, "phone": "+494087602817", "display_phone": "+49 40 87602817", "distance": 4310.097504924913}, {"id": "rvih7rBlO-VmsWMbgAkJbQ", "alias": "bb-bistro-hamburg", "name": "BB Bistro", "image_url": "https://s3-media3.fl.yelpcdn.com/bphoto/bps_H8kKPnWnMYKvdB3xPQ/o.jpg", "is_closed": false, "url": "https://www.yelp.com/biz/bb-bistro-hamburg?adjust_creative=hBJOknVQJ58S5goQyjmwRw&utm_campaign=yelp_api_v3&utm_medium=api_v3_business_search&utm_source=hBJOknVQJ58S5goQyjmwRw", "review_count": 31, "categories": [{"alias": "bistros", "title": "Bistros"}, {"alias": "chinese", "title": "Chinese"}], "rating": 4.5, "coordinates": {"latitude": 53.653329, "longitude": 10.114534}, "transactions": [], "price": "\u20ac", "location": {"address1": "Waldweg 8", "address2": "", "address3": "", "city": "Hamburg", "zip_code": "22393", "country": "DE", "state": "HH", "display_address": ["Waldweg 8", "22393 Hamburg", "Germany"]}, "phone": "+494088165634", "display_phone": "+49 40 88165634", "distance": 3069.4165538636307}, {"id": "Xop8tuUgi1wWhZ2UNo8I9Q", "alias": "restaurant-mellingburger-schleuse-hamburg", "name": "Restaurant Mellingburger Schleuse", "image_url": "https://s3-media2.fl.yelpcdn.com/bphoto/ihfZ5LheEmuWRPg8-kqSVw/o.jpg", "is_closed": false, "url": "https://www.yelp.com/biz/restaurant-mellingburger-schleuse-hamburg?adjust_creative=hBJOknVQJ58S5goQyjmwRw&utm_campaign=yelp_api_v3&utm_medium=api_v3_business_search&utm_source=hBJOknVQJ58S5goQyjmwRw", "review_count": 5, "categories": [{"alias": "german", "title": "German"}], "rating": 4.0, "coordinates": {"latitude": 53.66999, "longitude": 10.09828}, "transactions": [], "location": {"address1": "Mellingburgredder 1", "address2": "", "address3": "", "city": "Hamburg", "zip_code": "22395", "country": "DE", "state": "HH", "display_address": ["Mellingburgredder 1", "22395 Hamburg", "Germany"]}, "phone": "+49406024001", "display_phone": "+49 40 6024001", "distance": 2048.291594411395}, {"id": "BAPz48pmYBDBfXbOikW2DQ", "alias": "lenz-hamburg", "name": "Lenz", "image_url": "https://s3-media3.fl.yelpcdn.com/bphoto/9graD77lr-0YQC4FQt5PaQ/o.jpg", "is_closed": false, "url": "https://www.yelp.com/biz/lenz-hamburg?adjust_creative=hBJOknVQJ58S5goQyjmwRw&utm_campaign=yelp_api_v3&utm_medium=api_v3_business_search&utm_source=hBJOknVQJ58S5goQyjmwRw", "review_count": 87, "categories": [{"alias": "wine_bars", "title": "Wine Bars"}, {"alias": "german", "title": "German"}], "rating": 4.5, "coordinates": {"latitude": 53.70815, "longitude": 10.10589}, "transactions": [], "price": "\u20ac\u20ac\u20ac", "location": {"address1": "Poppenb\u00fctteler Chaussee 3", "address2": null, "address3": null, "city": "Hamburg", "zip_code": "22397", "country": "DE", "state": "HH", "display_address": ["Poppenb\u00fctteler Chaussee 3", "22397 Hamburg", "Germany"]}, "phone": "+494060558887", "display_phone": "+49 40 60558887", "distance": 3267.0244452934953}, {"id": "mprwg5_US2YgAZHZoWs86w", "alias": "alster-au-hamburg-2", "name": "Alster Au", "image_url": "https://s3-media1.fl.yelpcdn.com/bphoto/4ay6sPJGVPtMBR7Ehcxpmg/o.jpg", "is_closed": false, "url": "https://www.yelp.com/biz/alster-au-hamburg-2?adjust_creative=hBJOknVQJ58S5goQyjmwRw&utm_campaign=yelp_api_v3&utm_medium=api_v3_business_search&utm_source=hBJOknVQJ58S5goQyjmwRw", "review_count": 20, "categories": [{"alias": "hotels", "title": "Hotels"}, {"alias": "german", "title": "German"}], "rating": 4.0, "coordinates": {"latitude": 53.70657, "longitude": 10.11733}, "transactions": [], "price": "\u20ac\u20ac", "location": {"address1": "Duvenstedter Damm  6", "address2": null, "address3": null, "city": "Hamburg", "zip_code": "22397", "country": "DE", "state": "HH", "display_address": ["Duvenstedter Damm  6", "22397 Hamburg", "Germany"]}, "phone": "+49406442400", "display_phone": "+49 40 6442400", "distance": 2916.510625609723}, {"id": "7yDn3Eb-Oo9lECGO2MS0qw", "alias": "watzmann-wirtshaus-hamburg", "name": "Watzmann Wirtshaus", "image_url": "https://s3-media4.fl.yelpcdn.com/bphoto/fAGbOGkp82110R3lEOTKfw/o.jpg", "is_closed": false, "url": "https://www.yelp.com/biz/watzmann-wirtshaus-hamburg?adjust_creative=hBJOknVQJ58S5goQyjmwRw&utm_campaign=yelp_api_v3&utm_medium=api_v3_business_search&utm_source=hBJOknVQJ58S5goQyjmwRw", "review_count": 66, "categories": [{"alias": "austrian", "title": "Austrian"}], "rating": 4.0, "coordinates": {"latitude": 53.65195, "longitude": 10.10617}, "transactions": [], "price": "\u20ac\u20ac", "location": {"address1": "Saseler Chaussee 166", "address2": null, "address3": null, "city": "Hamburg", "zip_code": "22393", "country": "DE", "state": "HH", "display_address": ["Saseler Chaussee 166", "22393 Hamburg", "Germany"]}, "phone": "+49406003589", "display_phone": "+49 40 6003589", "distance": 3355.471117388507}, {"id": "dwwCa9FmB9iqg4f-0QMgVQ", "alias": "restaurant-zum-haselknick-hamburg", "name": "Restaurant zum Haselknick", "image_url": "https://s3-media4.fl.yelpcdn.com/bphoto/LfUgcMoKxm4AtIbxgZzdbg/o.jpg", "is_closed": false, "url": "https://www.yelp.com/biz/restaurant-zum-haselknick-hamburg?adjust_creative=hBJOknVQJ58S5goQyjmwRw&utm_campaign=yelp_api_v3&utm_medium=api_v3_business_search&utm_source=hBJOknVQJ58S5goQyjmwRw", "review_count": 7, "categories": [{"alias": "german", "title": "German"}], "rating": 4.0, "coordinates": {"latitude": 53.6932272340552, "longitude": 10.1185979515594}, "transactions": [], "price": "\u20ac", "location": {"address1": "Haselknick 77", "address2": "", "address3": "", "city": "Hamburg", "zip_code": "22397", "country": "DE", "state": "HH", "display_address": ["Haselknick 77", "22397 Hamburg", "Germany"]}, "phone": "+49406050494", "display_phone": "+49 40 6050494", "distance": 1436.4155378801656}, {"id": "-6tlO6UyWyo_NsKur7uKCw", "alias": "la-madera-hamburg-2", "name": "La Madera", "image_url": "https://s3-media3.fl.yelpcdn.com/bphoto/9J8fAarpfPXzpScmOs85gw/o.jpg", "is_closed": false, "url": "https://www.yelp.com/biz/la-madera-hamburg-2?adjust_creative=hBJOknVQJ58S5goQyjmwRw&utm_campaign=yelp_api_v3&utm_medium=api_v3_business_search&utm_source=hBJOknVQJ58S5goQyjmwRw", "review_count": 103, "categories": [{"alias": "steak", "title": "Steakhouses"}, {"alias": "spanish", "title": "Spanish"}], "rating": 3.5, "coordinates": {"latitude": 53.6434, "longitude": 10.09883}, "transactions": [], "price": "\u20ac\u20ac\u20ac", "location": {"address1": "Saseler Chaussee 101", "address2": "", "address3": "", "city": "Hamburg", "zip_code": "22393", "country": "DE", "state": "HH", "display_address": ["Saseler Chaussee 101", "22393 Hamburg", "Germany"]}, "phone": "+494038076165", "display_phone": "+49 40 38076165", "distance": 4414.101265595419}, {"id": "mxT59tks7phC1hUiaqMAJA", "alias": "gasthaus-quellenhof-aubert-fromm\u00e9-hamburg", "name": "Gasthaus Quellenhof Aubert Fromm\u00e9", "image_url": "https://s3-media2.fl.yelpcdn.com/bphoto/7UQJ0pSOgXBWrqp88VmuAg/o.jpg", "is_closed": false, "url": "https://www.yelp.com/biz/gasthaus-quellenhof-aubert-fromm%C3%A9-hamburg?adjust_creative=hBJOknVQJ58S5goQyjmwRw&utm_campaign=yelp_api_v3&utm_medium=api_v3_business_search&utm_source=hBJOknVQJ58S5goQyjmwRw", "review_count": 19, "categories": [{"alias": "cafes", "title": "Cafes"}, {"alias": "german", "title": "German"}], "rating": 3.5, "coordinates": {"latitude": 53.6847, "longitude": 10.1175}, "transactions": [], "price": "\u20ac\u20ac", "location": {"address1": "Rodenbeker Str. 126", "address2": null, "address3": null, "city": "Hamburg", "zip_code": "22395", "country": "DE", "state": "HH", "display_address": ["Rodenbeker Str. 126", "22395 Hamburg", "Germany"]}, "phone": "+49406049228", "display_phone": "+49 40 6049228", "distance": 571.9120144166475}, {"id": "wQXci5HPimPT00Ub1oHRTA", "alias": "shin-shin-hamburg", "name": "Shin Shin", "image_url": "https://s3-media1.fl.yelpcdn.com/bphoto/AmnCNLLIqKxbmb1JjlfkVA/o.jpg", "is_closed": false, "url": "https://www.yelp.com/biz/shin-shin-hamburg?adjust_creative=hBJOknVQJ58S5goQyjmwRw&utm_campaign=yelp_api_v3&utm_medium=api_v3_business_search&utm_source=hBJOknVQJ58S5goQyjmwRw", "review_count": 60, "categories": [{"alias": "chinese", "title": "Chinese"}], "rating": 3.5, "coordinates": {"latitude": 53.6599219019676, "longitude": 10.1155304326125}, "transactions": [], "price": "\u20ac\u20ac", "location": {"address1": "Saseler Chaussee 254", "address2": null, "address3": null, "city": "Hamburg", "zip_code": "22393", "country": "DE", "state": "HH", "display_address": ["Saseler Chaussee 254", "22393 Hamburg", "Germany"]}, "phone": "+49406019064", "display_phone": "+49 40 6019064", "distance": 2337.520333663666}, {"id": "TGz8lKgoxwEQM4IhdasDWw", "alias": "\u00f6kologisches-zentrum-siemerscher-hof-hamburg", "name": "\u00d6kologisches Zentrum Siemerscher Hof", "image_url": "https://s3-media1.fl.yelpcdn.com/bphoto/RYBWYt2K7VwQe2So7ETtRQ/o.jpg", "is_closed": false, "url": "https://www.yelp.com/biz/%C3%B6kologisches-zentrum-siemerscher-hof-hamburg?adjust_creative=hBJOknVQJ58S5goQyjmwRw&utm_campaign=yelp_api_v3&utm_medium=api_v3_business_search&utm_source=hBJOknVQJ58S5goQyjmwRw", "review_count": 1, "categories": [{"alias": "cafes", "title": "Cafes"}, {"alias": "coffee", "title": "Coffee & Tea"}], "rating": 5.0, "coordinates": {"latitude": 53.6707, "longitude": 10.1241}, "transactions": [], "location": {"address1": "Bergstedter Markt 1", "address2": null, "address3": null, "city": "Hamburg", "zip_code": "22395", "country": "DE", "state": "HH", "display_address": ["Bergstedter Markt 1", "22395 Hamburg", "Germany"]}, "phone": "+494060679140", "display_phone": "+49 40 60679140", "distance": 1097.1673691403123}, {"id": "2hzpvfdlgGOqGXzgjujLiQ", "alias": "zum-bergstedter-hamburg", "name": "Zum Bergstedter", "image_url": "", "is_closed": false, "url": "https://www.yelp.com/biz/zum-bergstedter-hamburg?adjust_creative=hBJOknVQJ58S5goQyjmwRw&utm_campaign=yelp_api_v3&utm_medium=api_v3_business_search&utm_source=hBJOknVQJ58S5goQyjmwRw", "review_count": 1, "categories": [{"alias": "amateursportsteams", "title": "Amateur Sports Teams"}, {"alias": "german", "title": "German"}], "rating": 4.0, "coordinates": {"latitude": 53.6709998, "longitude": 10.1343}, "transactions": [], "location": {"address1": "Teekoppel 9", "address2": null, "address3": null, "city": "Hamburg", "zip_code": "22395", "country": "DE", "state": "HH", "display_address": ["Teekoppel 9", "22395 Hamburg", "Germany"]}, "phone": "+49406049066", "display_phone": "+49 40 6049066", "distance": 1310.9328757586886}, {"id": "tQhh6Ac0uPL-7ue1f848pA", "alias": "gasthaus-zum-b\u00e4cker-hamburg", "name": "Gasthaus Zum B\u00e4cker", "image_url": "https://s3-media3.fl.yelpcdn.com/bphoto/Qx95kZ9VvRkT8TDu-u-_GA/o.jpg", "is_closed": false, "url": "https://www.yelp.com/biz/gasthaus-zum-b%C3%A4cker-hamburg?adjust_creative=hBJOknVQJ58S5goQyjmwRw&utm_campaign=yelp_api_v3&utm_medium=api_v3_business_search&utm_source=hBJOknVQJ58S5goQyjmwRw", "review_count": 31, "categories": [{"alias": "german", "title": "German"}], "rating": 4.0, "coordinates": {"latitude": 53.709966, "longitude": 10.131952}, "transactions": [], "price": "\u20ac\u20ac", "location": {"address1": "Herrenhausallee 9", "address2": null, "address3": null, "city": "Hamburg", "zip_code": "22397", "country": "DE", "state": "HH", "display_address": ["Herrenhausallee 9", "22397 Hamburg", "Germany"]}, "phone": "+494060765397", "display_phone": "+49 40 60765397", "distance": 3331.350651690879}, {"id": "Bda7qjlbhgbEimtkgq8IrQ", "alias": "china-ente-restaurant-hamburg-2", "name": "China-Ente-Restaurant", "image_url": "https://s3-media1.fl.yelpcdn.com/bphoto/wrXm4UbqLdIEUZ_hjWLGPg/o.jpg", "is_closed": false, "url": "https://www.yelp.com/biz/china-ente-restaurant-hamburg-2?adjust_creative=hBJOknVQJ58S5goQyjmwRw&utm_campaign=yelp_api_v3&utm_medium=api_v3_business_search&utm_source=hBJOknVQJ58S5goQyjmwRw", "review_count": 14, "categories": [{"alias": "chinese", "title": "Chinese"}], "rating": 4.5, "coordinates": {"latitude": 53.64288, "longitude": 10.09904}, "transactions": [], "price": "\u20ac\u20ac\u20ac", "location": {"address1": "Saseler Chaussee 88 a", "address2": null, "address3": null, "city": "Hamburg", "zip_code": "22393", "country": "DE", "state": "HH", "display_address": ["Saseler Chaussee 88 a", "22393 Hamburg", "Germany"]}, "phone": "+49406014012", "display_phone": "+49 40 6014012", "distance": 4463.939744006177}, {"id": "5tp5KcW-tVRYKWq95ZK6iQ", "alias": "ristorante-italia-hamburg", "name": "Ristorante Italia", "image_url": "https://s3-media1.fl.yelpcdn.com/bphoto/zzCb9cJx5f7VE2F9vJQmEQ/o.jpg", "is_closed": false, "url": "https://www.yelp.com/biz/ristorante-italia-hamburg?adjust_creative=hBJOknVQJ58S5goQyjmwRw&utm_campaign=yelp_api_v3&utm_medium=api_v3_business_search&utm_source=hBJOknVQJ58S5goQyjmwRw", "review_count": 35, "categories": [{"alias": "italian", "title": "Italian"}], "rating": 4.0, "coordinates": {"latitude": 53.70802, "longitude": 10.10804}, "transactions": [], "price": "\u20ac\u20ac", "location": {"address1": "Duvenstedter Damm 45", "address2": "", "address3": null, "city": "Hamburg", "zip_code": "22397", "country": "DE", "state": "HH", "display_address": ["Duvenstedter Damm 45", "22397 Hamburg", "Germany"]}, "phone": "+49406072750", "display_phone": "+49 40 6072750", "distance": 3197.3220070774914}, {"id": "TvXUyRWBFExD8Wpv0iCkXw", "alias": "caros-konditorei-und-davids-caf\u00e9-hamburg", "name": "caros konditorei und davids caf\u00e9", "image_url": "https://s3-media2.fl.yelpcdn.com/bphoto/m7coPZEcBFtM7UBI4l98uw/o.jpg", "is_closed": false, "url": "https://www.yelp.com/biz/caros-konditorei-und-davids-caf%C3%A9-hamburg?adjust_creative=hBJOknVQJ58S5goQyjmwRw&utm_campaign=yelp_api_v3&utm_medium=api_v3_business_search&utm_source=hBJOknVQJ58S5goQyjmwRw", "review_count": 12, "categories": [{"alias": "cakeshop", "title": "Patisserie/Cake Shop"}, {"alias": "cafes", "title": "Cafes"}], "rating": 4.5, "coordinates": {"latitude": 53.708009, "longitude": 10.108087}, "transactions": [], "price": "\u20ac\u20ac\u20ac", "location": {"address1": "Duvenstedter Damm 45", "address2": "", "address3": "", "city": "Hamburg", "zip_code": "22397", "country": "DE", "state": "HH", "display_address": ["Duvenstedter Damm 45", "22397 Hamburg", "Germany"]}, "phone": "+494024439468", "display_phone": "+49 40 24439468", "distance": 3198.128498444573}, {"id": "qDQLMRQxlDdkGZFNw8w1-A", "alias": "gutsk\u00fcche-tangstedt", "name": "Gutsk\u00fcche", "image_url": "https://s3-media1.fl.yelpcdn.com/bphoto/W9Gzq2yvPlxheckjNYtqkQ/o.jpg", "is_closed": false, "url": "https://www.yelp.com/biz/gutsk%C3%BCche-tangstedt?adjust_creative=hBJOknVQJ58S5goQyjmwRw&utm_campaign=yelp_api_v3&utm_medium=api_v3_business_search&utm_source=hBJOknVQJ58S5goQyjmwRw", "review_count": 51, "categories": [{"alias": "modern_european", "title": "Modern European"}, {"alias": "international", "title": "International"}], "rating": 4.0, "coordinates": {"latitude": 53.71843, "longitude": 10.11176}, "transactions": [], "price": "\u20ac\u20ac\u20ac", "location": {"address1": "Wulksfelder Damm 15 - 17", "address2": "", "address3": "", "city": "Tangstedt", "zip_code": "22889", "country": "DE", "state": "SH", "display_address": ["Wulksfelder Damm 15 - 17", "22889 Tangstedt", "Germany"]}, "phone": "+494064419441", "display_phone": "+49 40 64419441", "distance": 4208.315814620949}, {"id": "NrKPNavZCmOuBFWLNLTrQA", "alias": "taverna-santorini-hamburg-4", "name": "Taverna Santorini", "image_url": "https://s3-media2.fl.yelpcdn.com/bphoto/eRyaIJu4GHd8hBnS6yoJvg/o.jpg", "is_closed": false, "url": "https://www.yelp.com/biz/taverna-santorini-hamburg-4?adjust_creative=hBJOknVQJ58S5goQyjmwRw&utm_campaign=yelp_api_v3&utm_medium=api_v3_business_search&utm_source=hBJOknVQJ58S5goQyjmwRw", "review_count": 26, "categories": [{"alias": "greek", "title": "Greek"}, {"alias": "mediterranean", "title": "Mediterranean"}], "rating": 3.5, "coordinates": {"latitude": 53.649165, "longitude": 10.1032543}, "transactions": [], "price": "\u20ac\u20ac", "location": {"address1": "Saseler Chaussee 161", "address2": "", "address3": "", "city": "Hamburg", "zip_code": "22393", "country": "DE", "state": "HH", "display_address": ["Saseler Chaussee 161", "22393 Hamburg", "Germany"]}, "phone": "+49406018080", "display_phone": "+49 40 6018080", "distance": 3712.153489757635}, {"id": "jEExdSHO_hWAyiNh7SkDdw", "alias": "restaurant-landhaus-ohlstedt-hamburg", "name": "Restaurant Landhaus Ohlstedt", "image_url": "https://s3-media1.fl.yelpcdn.com/bphoto/u5kyzRpGLcfY9RrR8zVJug/o.jpg", "is_closed": false, "url": "https://www.yelp.com/biz/restaurant-landhaus-ohlstedt-hamburg?adjust_creative=hBJOknVQJ58S5goQyjmwRw&utm_campaign=yelp_api_v3&utm_medium=api_v3_business_search&utm_source=hBJOknVQJ58S5goQyjmwRw", "review_count": 16, "categories": [{"alias": "german", "title": "German"}, {"alias": "breakfast_brunch", "title": "Breakfast & Brunch"}], "rating": 3.5, "coordinates": {"latitude": 53.69562, "longitude": 10.13842}, "transactions": [], "price": "\u20ac\u20ac", "location": {"address1": "Alte Dorfstr. 5", "address2": null, "address3": null, "city": "Hamburg", "zip_code": "22397", "country": "DE", "state": "HH", "display_address": ["Alte Dorfstr. 5", "22397 Hamburg", "Germany"]}, "phone": "+49406056700", "display_phone": "+49 40 6056700", "distance": 1982.9940836905812}, {"id": "j83Ua1NqVDfr_jLo3EMIlA", "alias": "caf\u00e9-pause-hamburg-5", "name": "Caf\u00e9 Pause", "image_url": "https://s3-media1.fl.yelpcdn.com/bphoto/O0-JRfhhsJczYdsxPedX-w/o.jpg", "is_closed": false, "url": "https://www.yelp.com/biz/caf%C3%A9-pause-hamburg-5?adjust_creative=hBJOknVQJ58S5goQyjmwRw&utm_campaign=yelp_api_v3&utm_medium=api_v3_business_search&utm_source=hBJOknVQJ58S5goQyjmwRw", "review_count": 1, "categories": [{"alias": "cafes", "title": "Cafes"}], "rating": 5.0, "coordinates": {"latitude": 53.6546156269338, "longitude": 10.1097825542092}, "transactions": [], "location": {"address1": "Sasel-Haus", "address2": "Saseler Parkweg 3", "address3": "", "city": "Hamburg", "zip_code": "22393", "country": "DE", "state": "HH", "display_address": ["Sasel-Haus", "Saseler Parkweg 3", "22393 Hamburg", "Germany"]}, "phone": "+491748004001", "display_phone": "+49 174 8004001", "distance": 3001.7450133945754}, {"id": "5X3yGustepaQnEkkxIb3Xg", "alias": "braaker-m\u00fchle-hamburg-7", "name": "Braaker M\u00fchle", "image_url": "https://s3-media1.fl.yelpcdn.com/bphoto/qIu1O5S5gH3tk84HWewL0w/o.jpg", "is_closed": false, "url": "https://www.yelp.com/biz/braaker-m%C3%BChle-hamburg-7?adjust_creative=hBJOknVQJ58S5goQyjmwRw&utm_campaign=yelp_api_v3&utm_medium=api_v3_business_search&utm_source=hBJOknVQJ58S5goQyjmwRw", "review_count": 2, "categories": [{"alias": "bakeries", "title": "Bakeries"}, {"alias": "cakeshop", "title": "Patisserie/Cake Shop"}, {"alias": "cafes", "title": "Cafes"}], "rating": 3.5, "coordinates": {"latitude": 53.6703923, "longitude": 10.1265993}, "transactions": [], "price": "\u20ac\u20ac", "location": {"address1": "Bergstedter Chaussee 130 a", "address2": null, "address3": null, "city": "Hamburg", "zip_code": "22395", "country": "DE", "state": "HH", "display_address": ["Bergstedter Chaussee 130 a", "22395 Hamburg", "Germany"]}, "phone": "+494069464668", "display_phone": "+49 40 69464668", "distance": 1157.5496365555014}, {"id": "LACckalF24FdKUnuGEB3FQ", "alias": "rio-grande-hamburg-6", "name": "Rio Grande", "image_url": "https://s3-media1.fl.yelpcdn.com/bphoto/cu9QzBIXNR43OqEdFMjaVQ/o.jpg", "is_closed": false, "url": "https://www.yelp.com/biz/rio-grande-hamburg-6?adjust_creative=hBJOknVQJ58S5goQyjmwRw&utm_campaign=yelp_api_v3&utm_medium=api_v3_business_search&utm_source=hBJOknVQJ58S5goQyjmwRw", "review_count": 40, "categories": [{"alias": "steak", "title": "Steakhouses"}, {"alias": "tradamerican", "title": "American (Traditional)"}], "rating": 3.5, "coordinates": {"latitude": 53.70887, "longitude": 10.10634}, "transactions": [], "price": "\u20ac\u20ac", "location": {"address1": "Duvenstedter Damm 72", "address2": "", "address3": "", "city": "Hamburg", "zip_code": "22397", "country": "DE", "state": "HH", "display_address": ["Duvenstedter Damm 72", "22397 Hamburg", "Germany"]}, "phone": "+494064419300", "display_phone": "+49 40 64419300", "distance": 3332.2468243407957}, {"id": "_hxqSzun5OLd6d1mBZdD6A", "alias": "taverna-petros-and-marietta-hamburg", "name": "Taverna Petros & Marietta", "image_url": "https://s3-media1.fl.yelpcdn.com/bphoto/Ga5yBMjksrcsliXHNWPxEg/o.jpg", "is_closed": false, "url": "https://www.yelp.com/biz/taverna-petros-and-marietta-hamburg?adjust_creative=hBJOknVQJ58S5goQyjmwRw&utm_campaign=yelp_api_v3&utm_medium=api_v3_business_search&utm_source=hBJOknVQJ58S5goQyjmwRw", "review_count": 14, "categories": [{"alias": "greek", "title": "Greek"}], "rating": 3.5, "coordinates": {"latitude": 53.70565, "longitude": 10.10657}, "transactions": [], "price": "\u20ac\u20ac", "location": {"address1": "Im Ellernbusch 41", "address2": "", "address3": "", "city": "Hamburg", "zip_code": "22397", "country": "DE", "state": "HH", "display_address": ["Im Ellernbusch 41", "22397 Hamburg", "Germany"]}, "phone": "+49406071733", "display_phone": "+49 40 6071733", "distance": 2978.2428082132124}, {"id": "xU2xZcdV9ITI5UGAD5tdJA", "alias": "forum-sasel-hamburg", "name": "Forum Sasel", "image_url": "https://s3-media2.fl.yelpcdn.com/bphoto/aZpLxutpg0QSHwS-UUI9sw/o.jpg", "is_closed": false, "url": "https://www.yelp.com/biz/forum-sasel-hamburg?adjust_creative=hBJOknVQJ58S5goQyjmwRw&utm_campaign=yelp_api_v3&utm_medium=api_v3_business_search&utm_source=hBJOknVQJ58S5goQyjmwRw", "review_count": 23, "categories": [{"alias": "international", "title": "International"}, {"alias": "cocktailbars", "title": "Cocktail Bars"}, {"alias": "sportsbars", "title": "Sports Bars"}], "rating": 3.5, "coordinates": {"latitude": 53.6535788177995, "longitude": 10.1121384625408}, "transactions": [], "price": "\u20ac\u20ac", "location": {"address1": "Saseler Markt 1", "address2": "", "address3": "", "city": "Hamburg", "zip_code": "22393", "country": "DE", "state": "HH", "display_address": ["Saseler Markt 1", "22393 Hamburg", "Germany"]}, "phone": "+494088165850", "display_phone": "+49 40 88165850", "distance": 3074.1826225567356}, {"id": "ViYFQMBkHuyybK-trk-anw", "alias": "maurizio-hamburg", "name": "Maurizio", "image_url": "https://s3-media2.fl.yelpcdn.com/bphoto/TCN6cTsb9bfZ7RklswpcBg/o.jpg", "is_closed": false, "url": "https://www.yelp.com/biz/maurizio-hamburg?adjust_creative=hBJOknVQJ58S5goQyjmwRw&utm_campaign=yelp_api_v3&utm_medium=api_v3_business_search&utm_source=hBJOknVQJ58S5goQyjmwRw", "review_count": 5, "categories": [{"alias": "italian", "title": "Italian"}], "rating": 4.0, "coordinates": {"latitude": 53.64967, "longitude": 10.11751}, "transactions": [], "location": {"address1": "Berner Weg 33", "address2": "", "address3": "", "city": "Hamburg", "zip_code": "22393", "country": "DE", "state": "HH", "display_address": ["Berner Weg 33", "22393 Hamburg", "Germany"]}, "phone": "+494024437850", "display_phone": "+49 40 24437850", "distance": 3448.0060253006623}, {"id": "g6-fQG5tkTmKufTKxJxS9Q", "alias": "isi-grill-hamburg", "name": "Isi Grill", "image_url": "https://s3-media2.fl.yelpcdn.com/bphoto/XWXJNxPuuWnRGs8_gr_j0A/o.jpg", "is_closed": false, "url": "https://www.yelp.com/biz/isi-grill-hamburg?adjust_creative=hBJOknVQJ58S5goQyjmwRw&utm_campaign=yelp_api_v3&utm_medium=api_v3_business_search&utm_source=hBJOknVQJ58S5goQyjmwRw", "review_count": 10, "categories": [{"alias": "hotdogs", "title": "Fast Food"}, {"alias": "pizza", "title": "Pizza"}, {"alias": "kebab", "title": "Kebab"}], "rating": 4.0, "coordinates": {"latitude": 53.6784228, "longitude": 10.1472348}, "transactions": [], "price": "\u20ac", "location": {"address1": "Hamburger Str. 103", "address2": null, "address3": null, "city": "Hamburg", "zip_code": "22949", "country": "DE", "state": "HH", "display_address": ["Hamburger Str. 103", "22949 Hamburg", "Germany"]}, "phone": "+494060559903", "display_phone": "+49 40 60559903", "distance": 1640.980191189428}, {"id": "8Hj7wbmTyoNr8OmYj_AUYA", "alias": "argentina-steak-house-hamburg", "name": "Argentina Steak-House", "image_url": "https://s3-media3.fl.yelpcdn.com/bphoto/iOt_pvp8kgqMDIRIh4X7yQ/o.jpg", "is_closed": false, "url": "https://www.yelp.com/biz/argentina-steak-house-hamburg?adjust_creative=hBJOknVQJ58S5goQyjmwRw&utm_campaign=yelp_api_v3&utm_medium=api_v3_business_search&utm_source=hBJOknVQJ58S5goQyjmwRw", "review_count": 40, "categories": [{"alias": "steak", "title": "Steakhouses"}], "rating": 3.5, "coordinates": {"latitude": 53.64447, "longitude": 10.09971}, "transactions": [], "price": "\u20ac\u20ac", "location": {"address1": "Saseler Chaussee 111", "address2": "", "address3": "", "city": "Hamburg", "zip_code": "22393", "country": "DE", "state": "HH", "display_address": ["Saseler Chaussee 111", "22393 Hamburg", "Germany"]}, "phone": "+494053889849", "display_phone": "+49 40 53889849", "distance": 4268.311496601927}, {"id": "fDCSXYKbbA6t6hgNhmcLwg", "alias": "ok-pizza-hamburg", "name": "OK Pizza", "image_url": "", "is_closed": false, "url": "https://www.yelp.com/biz/ok-pizza-hamburg?adjust_creative=hBJOknVQJ58S5goQyjmwRw&utm_campaign=yelp_api_v3&utm_medium=api_v3_business_search&utm_source=hBJOknVQJ58S5goQyjmwRw", "review_count": 2, "categories": [{"alias": "pizza", "title": "Pizza"}], "rating": 5.0, "coordinates": {"latitude": 53.6513, "longitude": 10.10565}, "transactions": [], "location": {"address1": "Saseler Chaussee 160", "address2": "", "address3": "", "city": "Hamburg", "zip_code": "22393", "country": "DE", "state": "HH", "display_address": ["Saseler Chaussee 160", "22393 Hamburg", "Germany"]}, "phone": "+49406045544", "display_phone": "+49 40 6045544", "distance": 3447.2723578358127}, {"id": "fzEGjPIcjuxx_TVoEy9GVg", "alias": "weltladen-und-caf\u00e9-hamburg", "name": "Weltladen & Caf\u00e9", "image_url": "https://s3-media3.fl.yelpcdn.com/bphoto/dspuKA-13OlfLt_KHbjW_g/o.jpg", "is_closed": false, "url": "https://www.yelp.com/biz/weltladen-und-caf%C3%A9-hamburg?adjust_creative=hBJOknVQJ58S5goQyjmwRw&utm_campaign=yelp_api_v3&utm_medium=api_v3_business_search&utm_source=hBJOknVQJ58S5goQyjmwRw", "review_count": 2, "categories": [{"alias": "cafes", "title": "Cafes"}], "rating": 4.5, "coordinates": {"latitude": 53.6542200096796, "longitude": 10.1132201403379}, "transactions": [], "location": {"address1": "Saseler Markt 8", "address2": "", "address3": null, "city": "Hamburg", "zip_code": "22393", "country": "DE", "state": "HH", "display_address": ["Saseler Markt 8", "22393 Hamburg", "Germany"]}, "phone": "+494060011916", "display_phone": "+49 40 60011916", "distance": 2989.233682537298}, {"id": "MsmXXwUr9HGCdeLEXEF_3Q", "alias": "schnoors-hamburg", "name": "Schnoor's", "image_url": "https://s3-media2.fl.yelpcdn.com/bphoto/XUNae9EiZsEJM3P52l7m9A/o.jpg", "is_closed": false, "url": "https://www.yelp.com/biz/schnoors-hamburg?adjust_creative=hBJOknVQJ58S5goQyjmwRw&utm_campaign=yelp_api_v3&utm_medium=api_v3_business_search&utm_source=hBJOknVQJ58S5goQyjmwRw", "review_count": 6, "categories": [{"alias": "modern_european", "title": "Modern European"}, {"alias": "beergarden", "title": "Beer Garden"}], "rating": 2.0, "coordinates": {"latitude": 53.63869, "longitude": 10.1065}, "transactions": [], "price": "\u20ac\u20ac", "location": {"address1": "Donauweg 2", "address2": null, "address3": null, "city": "Hamburg", "zip_code": "22359", "country": "DE", "state": "HH", "display_address": ["Donauweg 2", "22359 Hamburg", "Germany"]}, "phone": "+494064941030", "display_phone": "+49 40 64941030", "distance": 4770.932272683899}, {"id": "m_V1tGdPNMKHiK2AQbuKKQ", "alias": "duvenstedter-eiscaf\u00e9-hamburg-2", "name": "Duvenstedter Eiscaf\u00e9", "image_url": "https://s3-media2.fl.yelpcdn.com/bphoto/tI70Wf2bTa2eH2rURHYp5Q/o.jpg", "is_closed": false, "url": "https://www.yelp.com/biz/duvenstedter-eiscaf%C3%A9-hamburg-2?adjust_creative=hBJOknVQJ58S5goQyjmwRw&utm_campaign=yelp_api_v3&utm_medium=api_v3_business_search&utm_source=hBJOknVQJ58S5goQyjmwRw", "review_count": 30, "categories": [{"alias": "icecream", "title": "Ice Cream & Frozen Yogurt"}, {"alias": "breakfast_brunch", "title": "Breakfast & Brunch"}, {"alias": "cafes", "title": "Cafes"}], "rating": 4.0, "coordinates": {"latitude": 53.70825, "longitude": 10.1047}, "transactions": [], "price": "\u20ac\u20ac", "location": {"address1": "Poppenb\u00fctteler Chaussee 8", "address2": null, "address3": null, "city": "Hamburg", "zip_code": "22397", "country": "DE", "state": "HH", "display_address": ["Poppenb\u00fctteler Chaussee 8", "22397 Hamburg", "Germany"]}, "phone": "+494060761377", "display_phone": "+49 40 60761377", "distance": 3304.6212726593876}, {"id": "cua3_fdR9fejQwLYgHWYOA", "alias": "sushi-for-friends-hamburg-3", "name": "Sushi for Friends", "image_url": "https://s3-media1.fl.yelpcdn.com/bphoto/nDCCXsMFnB4iajti1fadfg/o.jpg", "is_closed": false, "url": "https://www.yelp.com/biz/sushi-for-friends-hamburg-3?adjust_creative=hBJOknVQJ58S5goQyjmwRw&utm_campaign=yelp_api_v3&utm_medium=api_v3_business_search&utm_source=hBJOknVQJ58S5goQyjmwRw", "review_count": 26, "categories": [{"alias": "sushi", "title": "Sushi Bars"}], "rating": 3.0, "coordinates": {"latitude": 53.65209, "longitude": 10.10624}, "transactions": [], "price": "\u20ac\u20ac\u20ac", "location": {"address1": "Saseler Chaussee 168", "address2": "", "address3": "", "city": "Hamburg", "zip_code": "22393", "country": "DE", "state": "HH", "display_address": ["Saseler Chaussee 168", "22393 Hamburg", "Germany"]}, "phone": "+494060671608", "display_phone": "+49 40 60671608", "distance": 3339.043582409552}, {"id": "a_D612wDcgOYT5UM0tMjTQ", "alias": "mundfein-pizzawerkstatt-hamburg-7", "name": "Mundfein Pizzawerkstatt", "image_url": "", "is_closed": false, "url": "https://www.yelp.com/biz/mundfein-pizzawerkstatt-hamburg-7?adjust_creative=hBJOknVQJ58S5goQyjmwRw&utm_campaign=yelp_api_v3&utm_medium=api_v3_business_search&utm_source=hBJOknVQJ58S5goQyjmwRw", "review_count": 3, "categories": [{"alias": "pizza", "title": "Pizza"}], "rating": 3.0, "coordinates": {"latitude": 53.66581, "longitude": 10.12076}, "transactions": [], "price": "\u20ac\u20ac", "location": {"address1": "Bergstedter Chaussee 77", "address2": "", "address3": "", "city": "Hamburg", "zip_code": "22395", "country": "DE", "state": "HH", "display_address": ["Bergstedter Chaussee 77", "22395 Hamburg", "Germany"]}, "phone": "+494021007896", "display_phone": "+49 40 21007896", "distance": 1636.0412619128065}, {"id": "XAYxj7jgDCYCHeeeW6EZpA", "alias": "leandros-hamburg", "name": "Leandros", "image_url": "https://s3-media2.fl.yelpcdn.com/bphoto/uvaiNTyOECCTTC-0czXxKg/o.jpg", "is_closed": false, "url": "https://www.yelp.com/biz/leandros-hamburg?adjust_creative=hBJOknVQJ58S5goQyjmwRw&utm_campaign=yelp_api_v3&utm_medium=api_v3_business_search&utm_source=hBJOknVQJ58S5goQyjmwRw", "review_count": 7, "categories": [{"alias": "greek", "title": "Greek"}], "rating": 2.5, "coordinates": {"latitude": 53.6427, "longitude": 10.12886}, "transactions": [], "price": "\u20ac\u20ac\u20ac", "location": {"address1": "Meiendorfer M\u00fchlenweg 35", "address2": "", "address3": null, "city": "Hamburg", "zip_code": "22393", "country": "DE", "state": "HH", "display_address": ["Meiendorfer M\u00fchlenweg 35", "22393 Hamburg", "Germany"]}, "phone": "+494049207616", "display_phone": "+49 40 49207616", "distance": 4434.076658910961}, {"id": "xZgEJoV1fgi-jdQkHTJe6Q", "alias": "smileys-hamburg-12", "name": "Smiley's", "image_url": "https://s3-media4.fl.yelpcdn.com/bphoto/l8AuEvXYXnHPd4d86bnVWQ/o.jpg", "is_closed": false, "url": "https://www.yelp.com/biz/smileys-hamburg-12?adjust_creative=hBJOknVQJ58S5goQyjmwRw&utm_campaign=yelp_api_v3&utm_medium=api_v3_business_search&utm_source=hBJOknVQJ58S5goQyjmwRw", "review_count": 4, "categories": [{"alias": "pizza", "title": "Pizza"}], "rating": 3.5, "coordinates": {"latitude": 53.6536, "longitude": 10.1057}, "transactions": [], "price": "\u20ac\u20ac", "location": {"address1": "Stadtbahnstr. 32", "address2": null, "address3": null, "city": "Hamburg", "zip_code": "22393", "country": "DE", "state": "HH", "display_address": ["Stadtbahnstr. 32", "22393 Hamburg", "Germany"]}, "phone": "+49406017585", "display_phone": "+49 40 6017585", "distance": 3193.6794117099175}, {"id": "o_LN9k-Z3QJkZvz0X4rBDA", "alias": "pizza-max-hamburg-12", "name": "Pizza Max", "image_url": "https://s3-media4.fl.yelpcdn.com/bphoto/_AzpobkYYDAl3_R92xh7iQ/o.jpg", "is_closed": false, "url": "https://www.yelp.com/biz/pizza-max-hamburg-12?adjust_creative=hBJOknVQJ58S5goQyjmwRw&utm_campaign=yelp_api_v3&utm_medium=api_v3_business_search&utm_source=hBJOknVQJ58S5goQyjmwRw", "review_count": 1, "categories": [{"alias": "pizza", "title": "Pizza"}], "rating": 1.0, "coordinates": {"latitude": 53.6513347185164, "longitude": 10.1057185789401}, "transactions": [], "price": "\u20ac\u20ac\u20ac", "location": {"address1": "Stadtbahnstr. 19 a", "address2": "", "address3": "", "city": "Hamburg", "zip_code": "22393", "country": "DE", "state": "HH", "display_address": ["Stadtbahnstr. 19 a", "22393 Hamburg", "Germany"]}, "phone": "+4940600886800", "display_phone": "+49 40 600886800", "distance": 3430.550153396566}]