[{"id": "ZQz5Ymoqjjg8NJ81EFATfA", "alias": "vietstreet-norderstedt", "name": "VietStreet", "image_url": "https://s3-media1.fl.yelpcdn.com/bphoto/LU4Uw_TTiF2IhCRSU4xZKw/o.jpg", "is_closed": false, "url": "https://www.yelp.com/biz/vietstreet-norderstedt?adjust_creative=hBJOknVQJ58S5goQyjmwRw&utm_campaign=yelp_api_v3&utm_medium=api_v3_business_search&utm_source=hBJOknVQJ58S5goQyjmwRw", "review_count": 6, "categories": [{"alias": "vietnamese", "title": "Vietnamese"}], "rating": 4.0, "coordinates": {"latitude": 53.687892795006, "longitude": 10.0393799319863}, "transactions": [], "price": "\u20ac", "location": {"address1": "Mittelstr. 60", "address2": "", "address3": null, "city": "Norderstedt", "zip_code": "22851", "country": "DE", "state": "SH", "display_address": ["Mittelstr. 60", "22851 Norderstedt", "Germany"]}, "phone": "+494080007488", "display_phone": "+49 40 80007488", "distance": 1672.6828647684813}, {"id": "fsqoTlQ1pGsdfp_QG74qeA", "alias": "barolo-norderstedt", "name": "Barolo", "image_url": "https://s3-media2.fl.yelpcdn.com/bphoto/zNqdQDcNMjYHd6JfCa7S9g/o.jpg", "is_closed": false, "url": "https://www.yelp.com/biz/barolo-norderstedt?adjust_creative=hBJOknVQJ58S5goQyjmwRw&utm_campaign=yelp_api_v3&utm_medium=api_v3_business_search&utm_source=hBJOknVQJ58S5goQyjmwRw", "review_count": 35, "categories": [{"alias": "italian", "title": "Italian"}], "rating": 4.0, "coordinates": {"latitude": 53.6942, "longitude": 10.045}, "transactions": [], "price": "\u20ac\u20ac", "location": {"address1": "Segeberger Chaussee 241", "address2": null, "address3": null, "city": "Norderstedt", "zip_code": "22851", "country": "DE", "state": "SH", "display_address": ["Segeberger Chaussee 241", "22851 Norderstedt", "Germany"]}, "phone": "+494052901110", "display_phone": "+49 40 52901110", "distance": 1840.0202172202862}, {"id": "X0BoKNuX9MbTV2iocJM4Dg", "alias": "l-aurora-hamburg", "name": "L'Aurora", "image_url": "https://s3-media1.fl.yelpcdn.com/bphoto/LXjU73iBR-DwNyAgeJCCUw/o.jpg", "is_closed": false, "url": "https://www.yelp.com/biz/l-aurora-hamburg?adjust_creative=hBJOknVQJ58S5goQyjmwRw&utm_campaign=yelp_api_v3&utm_medium=api_v3_business_search&utm_source=hBJOknVQJ58S5goQyjmwRw", "review_count": 43, "categories": [{"alias": "italian", "title": "Italian"}], "rating": 4.5, "coordinates": {"latitude": 53.64086, "longitude": 10.03673}, "transactions": [], "price": "\u20ac\u20ac", "location": {"address1": "Hummelsb\u00fcttler Hauptstr. 47", "address2": null, "address3": null, "city": "Hamburg", "zip_code": "22339", "country": "DE", "state": "HH", "display_address": ["Hummelsb\u00fcttler Hauptstr. 47", "22339 Hamburg", "Germany"]}, "phone": "+494053054689", "display_phone": "+49 40 53054689", "distance": 4772.654463964018}, {"id": "d4iSYmQqtBJBTI1lVs66Xw", "alias": "china-restaurant-maixims-norderstedt", "name": "China Restaurant Maixims", "image_url": "https://s3-media3.fl.yelpcdn.com/bphoto/84313GFm4u_3mXIA3mfkAQ/o.jpg", "is_closed": false, "url": "https://www.yelp.com/biz/china-restaurant-maixims-norderstedt?adjust_creative=hBJOknVQJ58S5goQyjmwRw&utm_campaign=yelp_api_v3&utm_medium=api_v3_business_search&utm_source=hBJOknVQJ58S5goQyjmwRw", "review_count": 8, "categories": [{"alias": "chinese", "title": "Chinese"}], "rating": 4.0, "coordinates": {"latitude": 53.6948, "longitude": 10.0455}, "transactions": [], "price": "\u20ac", "location": {"address1": "Segeberger Chaussee 273", "address2": null, "address3": null, "city": "Norderstedt", "zip_code": "22851", "country": "DE", "state": "SH", "display_address": ["Segeberger Chaussee 273", "22851 Norderstedt", "Germany"]}, "phone": "+49405291628", "display_phone": "+49 40 5291628", "distance": 1874.0527011224058}, {"id": "GU1igRg9uzWm6CcpOViIFA", "alias": "la-differenza-hamburg", "name": "La Differenza", "image_url": "https://s3-media3.fl.yelpcdn.com/bphoto/-UfVYWvR3FgQjXJPNnPywQ/o.jpg", "is_closed": false, "url": "https://www.yelp.com/biz/la-differenza-hamburg?adjust_creative=hBJOknVQJ58S5goQyjmwRw&utm_campaign=yelp_api_v3&utm_medium=api_v3_business_search&utm_source=hBJOknVQJ58S5goQyjmwRw", "review_count": 17, "categories": [{"alias": "italian", "title": "Italian"}], "rating": 4.5, "coordinates": {"latitude": 53.64908, "longitude": 10.05227}, "transactions": [], "price": "\u20ac\u20ac", "location": {"address1": "Rehagen 29", "address2": null, "address3": null, "city": "Hamburg", "zip_code": "22339", "country": "DE", "state": "HH", "display_address": ["Rehagen 29", "22339 Hamburg", "Germany"]}, "phone": "+494053888573", "display_phone": "+49 40 53888573", "distance": 3552.074691233739}, {"id": "VbKiVGP2cCppm1x1ez_bBg", "alias": "san-daniele-hamburg", "name": "San Daniele", "image_url": "https://s3-media1.fl.yelpcdn.com/bphoto/wzgPp1VLVtYHabRYDzL22A/o.jpg", "is_closed": false, "url": "https://www.yelp.com/biz/san-daniele-hamburg?adjust_creative=hBJOknVQJ58S5goQyjmwRw&utm_campaign=yelp_api_v3&utm_medium=api_v3_business_search&utm_source=hBJOknVQJ58S5goQyjmwRw", "review_count": 43, "categories": [{"alias": "italian", "title": "Italian"}], "rating": 4.0, "coordinates": {"latitude": 53.6638351834504, "longitude": 10.0749372835047}, "transactions": [], "price": "\u20ac\u20ac\u20ac", "location": {"address1": "Langenhorner Stra\u00dfe-Ost 7", "address2": "", "address3": "", "city": "Hamburg", "zip_code": "22399", "country": "DE", "state": "HH", "display_address": ["Langenhorner Stra\u00dfe-Ost 7", "22399 Hamburg", "Germany"]}, "phone": "+494061164693", "display_phone": "+49 40 61164693", "distance": 2097.509873228912}, {"id": "iuPJKyKtsjHryy0xnZG4CA", "alias": "mazza-hamburg-3", "name": "Mazza", "image_url": "https://s3-media2.fl.yelpcdn.com/bphoto/5NCsz4dUUqIaLQQb-lrhPQ/o.jpg", "is_closed": false, "url": "https://www.yelp.com/biz/mazza-hamburg-3?adjust_creative=hBJOknVQJ58S5goQyjmwRw&utm_campaign=yelp_api_v3&utm_medium=api_v3_business_search&utm_source=hBJOknVQJ58S5goQyjmwRw", "review_count": 17, "categories": [{"alias": "oriental", "title": "Oriental"}, {"alias": "syrian", "title": "Syrian"}], "rating": 4.0, "coordinates": {"latitude": 53.6582646278701, "longitude": 10.0855578650344}, "transactions": [], "price": "\u20ac\u20ac\u20ac", "location": {"address1": "Poppenb\u00fctteler Weg 236", "address2": "", "address3": "", "city": "Hamburg", "zip_code": "22399", "country": "DE", "state": "HH", "display_address": ["Poppenb\u00fctteler Weg 236", "22399 Hamburg", "Germany"]}, "phone": "+494060878240", "display_phone": "+49 40 60878240", "distance": 2972.9390776760665}, {"id": "DYFepTmhElYWxp0q8maI9Q", "alias": "khan-mongolei-hamburg", "name": "Khan Mongolei", "image_url": "https://s3-media1.fl.yelpcdn.com/bphoto/q2K-kQKbPvMY5N9SVtbV6A/o.jpg", "is_closed": false, "url": "https://www.yelp.com/biz/khan-mongolei-hamburg?adjust_creative=hBJOknVQJ58S5goQyjmwRw&utm_campaign=yelp_api_v3&utm_medium=api_v3_business_search&utm_source=hBJOknVQJ58S5goQyjmwRw", "review_count": 102, "categories": [{"alias": "mongolian", "title": "Mongolian"}, {"alias": "sushi", "title": "Sushi Bars"}, {"alias": "buffets", "title": "Buffets"}], "rating": 4.5, "coordinates": {"latitude": 53.642496696467, "longitude": 10.0465416388703}, "transactions": [], "price": "\u20ac\u20ac", "location": {"address1": "Hummelsb\u00fctteler Markt 2", "address2": "", "address3": null, "city": "Hamburg", "zip_code": "22339", "country": "DE", "state": "HH", "display_address": ["Hummelsb\u00fctteler Markt 2", "22339 Hamburg", "Germany"]}, "phone": "+494063679073", "display_phone": "+49 40 63679073", "distance": 4409.631404439268}, {"id": "c3W3dGZPa7ypn3dK9Egnuw", "alias": "trattoria-mondello-hamburg", "name": "Trattoria Mondello", "image_url": "https://s3-media1.fl.yelpcdn.com/bphoto/3wCpzWG0GuIRb2henRPbaw/o.jpg", "is_closed": false, "url": "https://www.yelp.com/biz/trattoria-mondello-hamburg?adjust_creative=hBJOknVQJ58S5goQyjmwRw&utm_campaign=yelp_api_v3&utm_medium=api_v3_business_search&utm_source=hBJOknVQJ58S5goQyjmwRw", "review_count": 1, "categories": [{"alias": "italian", "title": "Italian"}], "rating": 1.0, "coordinates": {"latitude": 53.66567, "longitude": 10.07862}, "transactions": [], "price": "\u20ac", "location": {"address1": "Kramer-Kray-Weg 1", "address2": "", "address3": null, "city": "Hamburg", "zip_code": "22399", "country": "DE", "state": "HH", "display_address": ["Kramer-Kray-Weg 1", "22399 Hamburg", "Germany"]}, "phone": "+49406021835", "display_phone": "+49 40 6021835", "distance": 2062.179763003972}, {"id": "bV705WPJtXyb5wXIFolr6w", "alias": "l-aurora-osteria-hamburg", "name": "L'Aurora Osteria", "image_url": "https://s3-media3.fl.yelpcdn.com/bphoto/zFLCwZ8h7MT7lme1-nnMXA/o.jpg", "is_closed": false, "url": "https://www.yelp.com/biz/l-aurora-osteria-hamburg?adjust_creative=hBJOknVQJ58S5goQyjmwRw&utm_campaign=yelp_api_v3&utm_medium=api_v3_business_search&utm_source=hBJOknVQJ58S5goQyjmwRw", "review_count": 1, "categories": [{"alias": "italian", "title": "Italian"}], "rating": 4.0, "coordinates": {"latitude": 53.65104, "longitude": 10.05286}, "transactions": [], "price": "\u20ac\u20ac", "location": {"address1": "Rehagen 20", "address2": "", "address3": "", "city": "Hamburg", "zip_code": "22339", "country": "DE", "state": "HH", "display_address": ["Rehagen 20", "22339 Hamburg", "Germany"]}, "phone": "+494052019050", "display_phone": "+49 40 52019050", "distance": 3426.5566110715663}, {"id": "4LDu773rE99Tbdckn7XeSw", "alias": "restaurant-aretea-hamburg", "name": "Restaurant Aretea", "image_url": "https://s3-media2.fl.yelpcdn.com/bphoto/B0V75D9TXaFVr4i2EewzMw/o.jpg", "is_closed": false, "url": "https://www.yelp.com/biz/restaurant-aretea-hamburg?adjust_creative=hBJOknVQJ58S5goQyjmwRw&utm_campaign=yelp_api_v3&utm_medium=api_v3_business_search&utm_source=hBJOknVQJ58S5goQyjmwRw", "review_count": 24, "categories": [{"alias": "greek", "title": "Greek"}, {"alias": "italian", "title": "Italian"}], "rating": 4.0, "coordinates": {"latitude": 53.6424, "longitude": 10.0482}, "transactions": [], "price": "\u20ac\u20ac", "location": {"address1": "Hummelsb\u00fctteler Weg 52", "address2": null, "address3": null, "city": "Hamburg", "zip_code": "22339", "country": "DE", "state": "HH", "display_address": ["Hummelsb\u00fctteler Weg 52", "22339 Hamburg", "Germany"]}, "phone": "+49405388242", "display_phone": "+49 40 5388242", "distance": 4396.160984292212}, {"id": "OM_AaoDLC5413uortWkAaw", "alias": "restaurant-eichenstuben-norderstedt", "name": "Restaurant Eichenstuben", "image_url": "", "is_closed": false, "url": "https://www.yelp.com/biz/restaurant-eichenstuben-norderstedt?adjust_creative=hBJOknVQJ58S5goQyjmwRw&utm_campaign=yelp_api_v3&utm_medium=api_v3_business_search&utm_source=hBJOknVQJ58S5goQyjmwRw", "review_count": 2, "categories": [{"alias": "international", "title": "International"}, {"alias": "german", "title": "German"}], "rating": 4.0, "coordinates": {"latitude": 53.6868, "longitude": 10.0379}, "transactions": [], "location": {"address1": "Mittelstr. 54", "address2": null, "address3": null, "city": "Norderstedt", "zip_code": "22851", "country": "DE", "state": "SH", "display_address": ["Mittelstr. 54", "22851 Norderstedt", "Germany"]}, "phone": "+49405240046", "display_phone": "+49 40 5240046", "distance": 1711.340868762172}, {"id": "pfIlDu9lscJcPY7UWGiq5A", "alias": "gastst\u00e4tte-zum-krombacher-hamburg", "name": "Gastst\u00e4tte Zum Krombacher", "image_url": "https://s3-media4.fl.yelpcdn.com/bphoto/aCdhDL4qJan_zjn5oPMCXA/o.jpg", "is_closed": false, "url": "https://www.yelp.com/biz/gastst%C3%A4tte-zum-krombacher-hamburg?adjust_creative=hBJOknVQJ58S5goQyjmwRw&utm_campaign=yelp_api_v3&utm_medium=api_v3_business_search&utm_source=hBJOknVQJ58S5goQyjmwRw", "review_count": 4, "categories": [{"alias": "restaurants", "title": "Restaurants"}], "rating": 4.0, "coordinates": {"latitude": 53.6395, "longitude": 10.0856}, "transactions": [], "location": {"address1": "Classenweg 1A", "address2": null, "address3": null, "city": "Hamburg", "zip_code": "22391", "country": "DE", "state": "HH", "display_address": ["Classenweg 1A", "22391 Hamburg", "Germany"]}, "phone": "+49405361881", "display_phone": "+49 40 5361881", "distance": 4877.239761019476}, {"id": "i59YO-Z7DMbsZfuVJkHAbg", "alias": "caf\u00e9-im-herrenhaus-hamburg", "name": "Caf\u00e9 im Herrenhaus", "image_url": "https://s3-media4.fl.yelpcdn.com/bphoto/_O4BK-aezMWcfmA6NauPKg/o.jpg", "is_closed": false, "url": "https://www.yelp.com/biz/caf%C3%A9-im-herrenhaus-hamburg?adjust_creative=hBJOknVQJ58S5goQyjmwRw&utm_campaign=yelp_api_v3&utm_medium=api_v3_business_search&utm_source=hBJOknVQJ58S5goQyjmwRw", "review_count": 17, "categories": [{"alias": "german", "title": "German"}, {"alias": "cafes", "title": "Cafes"}], "rating": 4.0, "coordinates": {"latitude": 53.6435, "longitude": 10.072}, "transactions": [], "price": "\u20ac\u20ac", "location": {"address1": "Wellingsb\u00fcttler Weg 71", "address2": null, "address3": null, "city": "Hamburg", "zip_code": "22391", "country": "DE", "state": "HH", "display_address": ["Wellingsb\u00fcttler Weg 71", "22391 Hamburg", "Germany"]}, "phone": "+494097070980", "display_phone": "+49 40 97070980", "distance": 4229.835651876718}, {"id": "_fv4mbLQKAirm4KW3s1j3g", "alias": "restaurant-athen-hamburg", "name": "Restaurant Athen", "image_url": "https://s3-media3.fl.yelpcdn.com/bphoto/T4ng9MvjFP6ciahw433ndw/o.jpg", "is_closed": false, "url": "https://www.yelp.com/biz/restaurant-athen-hamburg?adjust_creative=hBJOknVQJ58S5goQyjmwRw&utm_campaign=yelp_api_v3&utm_medium=api_v3_business_search&utm_source=hBJOknVQJ58S5goQyjmwRw", "review_count": 23, "categories": [{"alias": "greek", "title": "Greek"}], "rating": 4.0, "coordinates": {"latitude": 53.669765, "longitude": 10.061259}, "transactions": [], "price": "\u20ac\u20ac\u20ac", "location": {"address1": "Heimgarten 19", "address2": null, "address3": null, "city": "Hamburg", "zip_code": "22399", "country": "DE", "state": "HH", "display_address": ["Heimgarten 19", "22399 Hamburg", "Germany"]}, "phone": "+49406021192", "display_phone": "+49 40 6021192", "distance": 1258.9300906053238}, {"id": "pg4AgtCd0Kkm6hbAkSAyXw", "alias": "caf\u00e9-neumann-hamburg-2", "name": "Caf\u00e9 Neumann", "image_url": "https://s3-media2.fl.yelpcdn.com/bphoto/NjsWinMWnULVnr_UlLu2iw/o.jpg", "is_closed": false, "url": "https://www.yelp.com/biz/caf%C3%A9-neumann-hamburg-2?adjust_creative=hBJOknVQJ58S5goQyjmwRw&utm_campaign=yelp_api_v3&utm_medium=api_v3_business_search&utm_source=hBJOknVQJ58S5goQyjmwRw", "review_count": 3, "categories": [{"alias": "cafes", "title": "Cafes"}], "rating": 4.5, "coordinates": {"latitude": 53.64398, "longitude": 10.04788}, "transactions": [], "price": "\u20ac\u20ac", "location": {"address1": "Brillkamp 8", "address2": "", "address3": "", "city": "Hamburg", "zip_code": "22339", "country": "DE", "state": "HH", "display_address": ["Brillkamp 8", "22339 Hamburg", "Germany"]}, "phone": "+49405390080", "display_phone": "+49 40 5390080", "distance": 4224.910752176477}, {"id": "OA35RtLMB9BiDiKiCcb5Mw", "alias": "the-locks-hamburg", "name": "The Locks", "image_url": "https://s3-media4.fl.yelpcdn.com/bphoto/p-uNr1rP23jAz01r4gwO_w/o.jpg", "is_closed": false, "url": "https://www.yelp.com/biz/the-locks-hamburg?adjust_creative=hBJOknVQJ58S5goQyjmwRw&utm_campaign=yelp_api_v3&utm_medium=api_v3_business_search&utm_source=hBJOknVQJ58S5goQyjmwRw", "review_count": 109, "categories": [{"alias": "german", "title": "German"}, {"alias": "lounges", "title": "Lounges"}], "rating": 3.5, "coordinates": {"latitude": 53.6573, "longitude": 10.0868}, "transactions": [], "price": "\u20ac\u20ac\u20ac", "location": {"address1": "Marienhof 6", "address2": null, "address3": null, "city": "Hamburg", "zip_code": "22399", "country": "DE", "state": "HH", "display_address": ["Marienhof 6", "22399 Hamburg", "Germany"]}, "phone": "+49406116600", "display_phone": "+49 40 6116600", "distance": 3107.173526864281}, {"id": "wndlRXhLYSXU5z7gbGlAdg", "alias": "mama-hamburg-6", "name": "Mama", "image_url": "https://s3-media4.fl.yelpcdn.com/bphoto/k0U6R2baGg14JUzzA2nUrg/o.jpg", "is_closed": false, "url": "https://www.yelp.com/biz/mama-hamburg-6?adjust_creative=hBJOknVQJ58S5goQyjmwRw&utm_campaign=yelp_api_v3&utm_medium=api_v3_business_search&utm_source=hBJOknVQJ58S5goQyjmwRw", "review_count": 6, "categories": [{"alias": "italian", "title": "Italian"}], "rating": 3.0, "coordinates": {"latitude": 53.64165, "longitude": 10.08053}, "transactions": [], "price": "\u20ac\u20ac", "location": {"address1": "Wellingsb\u00fcttler Weg 119", "address2": "", "address3": null, "city": "Hamburg", "zip_code": "22391", "country": "DE", "state": "HH", "display_address": ["Wellingsb\u00fcttler Weg 119", "22391 Hamburg", "Germany"]}, "phone": "+494050798555", "display_phone": "+49 40 50798555", "distance": 4550.570970579746}, {"id": "Yv7-W_pf1dJFzw5PYuj72g", "alias": "zur-glash\u00fctte-norderstedt", "name": "Zur Glash\u00fctte", "image_url": "", "is_closed": false, "url": "https://www.yelp.com/biz/zur-glash%C3%BCtte-norderstedt?adjust_creative=hBJOknVQJ58S5goQyjmwRw&utm_campaign=yelp_api_v3&utm_medium=api_v3_business_search&utm_source=hBJOknVQJ58S5goQyjmwRw", "review_count": 6, "categories": [{"alias": "german", "title": "German"}], "rating": 4.0, "coordinates": {"latitude": 53.6975, "longitude": 10.0502}, "transactions": [], "location": {"address1": "Segeberger Chaussee 309", "address2": null, "address3": null, "city": "Norderstedt", "zip_code": "22851", "country": "DE", "state": "SH", "display_address": ["Segeberger Chaussee 309", "22851 Norderstedt", "Germany"]}, "phone": "+49405298660", "display_phone": "+49 40 5298660", "distance": 1985.1114627620268}, {"id": "tSKYzaFFS5n_IyA4B08gwA", "alias": "eiscuisine-hamburg", "name": "Eiscuisine", "image_url": "https://s3-media4.fl.yelpcdn.com/bphoto/9F86yyioKX_cTF6Db5s_Sw/o.jpg", "is_closed": false, "url": "https://www.yelp.com/biz/eiscuisine-hamburg?adjust_creative=hBJOknVQJ58S5goQyjmwRw&utm_campaign=yelp_api_v3&utm_medium=api_v3_business_search&utm_source=hBJOknVQJ58S5goQyjmwRw", "review_count": 8, "categories": [{"alias": "icecream", "title": "Ice Cream & Frozen Yogurt"}, {"alias": "bistros", "title": "Bistros"}], "rating": 4.5, "coordinates": {"latitude": 53.64035, "longitude": 10.08292}, "transactions": [], "price": "\u20ac\u20ac", "location": {"address1": "Rolfinckstr. 12 a", "address2": "", "address3": "", "city": "Hamburg", "zip_code": "22391", "country": "DE", "state": "HH", "display_address": ["Rolfinckstr. 12 a", "22391 Hamburg", "Germany"]}, "phone": "+494052733011", "display_phone": "+49 40 52733011", "distance": 4733.389131187475}, {"id": "yw31WMkRCKED6y_TLI-ZFw", "alias": "schweinske-hamburg-5", "name": "Schweinske", "image_url": "https://s3-media4.fl.yelpcdn.com/bphoto/kHTqMtN7y3Mw34yX35VRcw/o.jpg", "is_closed": false, "url": "https://www.yelp.com/biz/schweinske-hamburg-5?adjust_creative=hBJOknVQJ58S5goQyjmwRw&utm_campaign=yelp_api_v3&utm_medium=api_v3_business_search&utm_source=hBJOknVQJ58S5goQyjmwRw", "review_count": 24, "categories": [{"alias": "german", "title": "German"}], "rating": 3.5, "coordinates": {"latitude": 53.659892, "longitude": 10.085127}, "transactions": [], "price": "\u20ac\u20ac", "location": {"address1": "Harksheider Str. 2", "address2": "", "address3": "", "city": "Hamburg", "zip_code": "22399", "country": "DE", "state": "HH", "display_address": ["Harksheider Str. 2", "22399 Hamburg", "Germany"]}, "phone": "+49406069873", "display_phone": "+49 40 6069873", "distance": 2804.5962143927104}, {"id": "lt8UcN8patkOB14upuMwxg", "alias": "wellingten-hamburg", "name": "Wellingten", "image_url": "https://s3-media3.fl.yelpcdn.com/bphoto/Ym5ZLgnRSknz2q18l055NA/o.jpg", "is_closed": false, "url": "https://www.yelp.com/biz/wellingten-hamburg?adjust_creative=hBJOknVQJ58S5goQyjmwRw&utm_campaign=yelp_api_v3&utm_medium=api_v3_business_search&utm_source=hBJOknVQJ58S5goQyjmwRw", "review_count": 48, "categories": [{"alias": "german", "title": "German"}], "rating": 3.0, "coordinates": {"latitude": 53.6424, "longitude": 10.07712}, "transactions": [], "price": "\u20ac\u20ac\u20ac", "location": {"address1": "Wellingsb\u00fcttler Weg 91", "address2": "", "address3": "", "city": "Hamburg", "zip_code": "22391", "country": "DE", "state": "HH", "display_address": ["Wellingsb\u00fcttler Weg 91", "22391 Hamburg", "Germany"]}, "phone": "+49405362402", "display_phone": "+49 40 5362402", "distance": 4411.083156536845}, {"id": "RUREwsfo-PdltbxOndaHrQ", "alias": "thai-china-wok-hamburg", "name": "Thai China Wok", "image_url": "https://s3-media2.fl.yelpcdn.com/bphoto/-VjH3B8ZXVKxNrAGNHdwVg/o.jpg", "is_closed": false, "url": "https://www.yelp.com/biz/thai-china-wok-hamburg?adjust_creative=hBJOknVQJ58S5goQyjmwRw&utm_campaign=yelp_api_v3&utm_medium=api_v3_business_search&utm_source=hBJOknVQJ58S5goQyjmwRw", "review_count": 8, "categories": [{"alias": "panasian", "title": "Pan Asian"}], "rating": 4.0, "coordinates": {"latitude": 53.6462, "longitude": 10.0871}, "transactions": [], "price": "\u20ac", "location": {"address1": "Wellingsb\u00fcttler Landstr. 1", "address2": null, "address3": null, "city": "Hamburg", "zip_code": "22337", "country": "DE", "state": "HH", "display_address": ["Wellingsb\u00fcttler Landstr. 1", "22337 Hamburg", "Germany"]}, "phone": "+494050048724", "display_phone": "+49 40 50048724", "distance": 4215.476862405868}, {"id": "8-PLwQTPmKMoVuq1GqtYLA", "alias": "fidelio-hamburg", "name": "Fidelio", "image_url": "https://s3-media4.fl.yelpcdn.com/bphoto/8_ZhcnE47DVWPy-UxeLwaw/o.jpg", "is_closed": false, "url": "https://www.yelp.com/biz/fidelio-hamburg?adjust_creative=hBJOknVQJ58S5goQyjmwRw&utm_campaign=yelp_api_v3&utm_medium=api_v3_business_search&utm_source=hBJOknVQJ58S5goQyjmwRw", "review_count": 53, "categories": [{"alias": "gastropubs", "title": "Gastropubs"}, {"alias": "italian", "title": "Italian"}, {"alias": "bistros", "title": "Bistros"}], "rating": 2.5, "coordinates": {"latitude": 53.66038, "longitude": 10.0843399}, "transactions": [], "price": "\u20ac", "location": {"address1": "Moorhof 11", "address2": "", "address3": "", "city": "Hamburg", "zip_code": "22399", "country": "DE", "state": "HH", "display_address": ["Moorhof 11", "22399 Hamburg", "Germany"]}, "phone": "+494060875927", "display_phone": "+49 40 60875927", "distance": 2743.4901126610966}, {"id": "YjhBkyUE9deL6k0a6HyJkQ", "alias": "restaurant-wine-coffee-und-more-hamburg", "name": "Restaurant Wine, Coffee & More", "image_url": "https://s3-media4.fl.yelpcdn.com/bphoto/1HuRL5imgxSkRut-YwCjrg/o.jpg", "is_closed": false, "url": "https://www.yelp.com/biz/restaurant-wine-coffee-und-more-hamburg?adjust_creative=hBJOknVQJ58S5goQyjmwRw&utm_campaign=yelp_api_v3&utm_medium=api_v3_business_search&utm_source=hBJOknVQJ58S5goQyjmwRw", "review_count": 5, "categories": [{"alias": "wine_bars", "title": "Wine Bars"}, {"alias": "german", "title": "German"}, {"alias": "breakfast_brunch", "title": "Breakfast & Brunch"}], "rating": 5.0, "coordinates": {"latitude": 53.647713, "longitude": 10.05882}, "transactions": [], "price": "\u20ac\u20ac\u20ac", "location": {"address1": "Barkhausenweg 6", "address2": null, "address3": null, "city": "Hamburg", "zip_code": "22339", "country": "DE", "state": "HH", "display_address": ["Barkhausenweg 6", "22339 Hamburg", "Germany"]}, "phone": "+494053052803", "display_phone": "+49 40 53052803", "distance": 3715.9896955582326}, {"id": "s8nByaYJIf-lwdhdp0WzYQ", "alias": "mr-wong-asia-bistro-hamburg", "name": "Mr. Wong Asia Bistro", "image_url": "", "is_closed": false, "url": "https://www.yelp.com/biz/mr-wong-asia-bistro-hamburg?adjust_creative=hBJOknVQJ58S5goQyjmwRw&utm_campaign=yelp_api_v3&utm_medium=api_v3_business_search&utm_source=hBJOknVQJ58S5goQyjmwRw", "review_count": 1, "categories": [{"alias": "bistros", "title": "Bistros"}, {"alias": "panasian", "title": "Pan Asian"}], "rating": 4.0, "coordinates": {"latitude": 53.6607, "longitude": 10.0823}, "transactions": [], "price": "\u20ac", "location": {"address1": "Harksheider Str. 10", "address2": null, "address3": null, "city": "Hamburg", "zip_code": "22399", "country": "DE", "state": "HH", "display_address": ["Harksheider Str. 10", "22399 Hamburg", "Germany"]}, "phone": "+494066872510", "display_phone": "+49 40 66872510", "distance": 2630.271188078012}, {"id": "VMVS4cM_LEHCqCbVvCwSzg", "alias": "zur-schlachteplatte-hamburg", "name": "Zur Schlachteplatte", "image_url": "https://s3-media2.fl.yelpcdn.com/bphoto/q7Ht94B_Xnwd6ZKB3sjUsQ/o.jpg", "is_closed": false, "url": "https://www.yelp.com/biz/zur-schlachteplatte-hamburg?adjust_creative=hBJOknVQJ58S5goQyjmwRw&utm_campaign=yelp_api_v3&utm_medium=api_v3_business_search&utm_source=hBJOknVQJ58S5goQyjmwRw", "review_count": 21, "categories": [{"alias": "german", "title": "German"}], "rating": 3.5, "coordinates": {"latitude": 53.64797, "longitude": 10.03774}, "transactions": [], "price": "\u20ac\u20ac", "location": {"address1": "Lademannbogen 1", "address2": null, "address3": null, "city": "Hamburg", "zip_code": "22339", "country": "DE", "state": "HH", "display_address": ["Lademannbogen 1", "22339 Hamburg", "Germany"]}, "phone": "+49405382999", "display_phone": "+49 40 5382999", "distance": 4034.2923226983407}, {"id": "XHoJ8z8cZtNirkEusoeqXg", "alias": "die-croquemaker-hamburg-10", "name": "die croquemaker", "image_url": "https://s3-media1.fl.yelpcdn.com/bphoto/xhVsaUApPa08dYYZm4CL9g/o.jpg", "is_closed": false, "url": "https://www.yelp.com/biz/die-croquemaker-hamburg-10?adjust_creative=hBJOknVQJ58S5goQyjmwRw&utm_campaign=yelp_api_v3&utm_medium=api_v3_business_search&utm_source=hBJOknVQJ58S5goQyjmwRw", "review_count": 3, "categories": [{"alias": "salad", "title": "Salad"}, {"alias": "sandwiches", "title": "Sandwiches"}], "rating": 3.5, "coordinates": {"latitude": 53.66016, "longitude": 10.08344}, "transactions": [], "price": "\u20ac", "location": {"address1": "Harksheider Str. 6", "address2": "", "address3": "", "city": "Hamburg", "zip_code": "22399", "country": "DE", "state": "HH", "display_address": ["Harksheider Str. 6", "22399 Hamburg", "Germany"]}, "phone": "+494063669355", "display_phone": "+49 40 63669355", "distance": 2693.076862039818}, {"id": "anhx-uaSrH8_9Ktcje3Vfg", "alias": "e-aktiv-markt-peter-jessen-hamburg", "name": "E aktiv markt Peter Jessen", "image_url": "", "is_closed": false, "url": "https://www.yelp.com/biz/e-aktiv-markt-peter-jessen-hamburg?adjust_creative=hBJOknVQJ58S5goQyjmwRw&utm_campaign=yelp_api_v3&utm_medium=api_v3_business_search&utm_source=hBJOknVQJ58S5goQyjmwRw", "review_count": 1, "categories": [{"alias": "grocery", "title": "Grocery"}, {"alias": "shopping", "title": "Shopping"}, {"alias": "delis", "title": "Delis"}], "rating": 2.0, "coordinates": {"latitude": 53.64306, "longitude": 10.04654}, "transactions": [], "location": {"address1": "Hummelsb\u00fctteler Markt 34", "address2": null, "address3": null, "city": "Hamburg", "zip_code": "22339", "country": "DE", "state": "HH", "display_address": ["Hummelsb\u00fctteler Markt 34", "22339 Hamburg", "Germany"]}, "phone": "+49405384068", "display_phone": "+49 40 5384068", "distance": 4327.25101514381}, {"id": "YhlJNvznZqWqu4YBvJ3ysQ", "alias": "caf\u00e9-reinhardt-hamburg-4", "name": "Caf\u00e9 Reinhardt", "image_url": "https://s3-media4.fl.yelpcdn.com/bphoto/K_TmNNnmC3o5zoHUhdjv3g/o.jpg", "is_closed": false, "url": "https://www.yelp.com/biz/caf%C3%A9-reinhardt-hamburg-4?adjust_creative=hBJOknVQJ58S5goQyjmwRw&utm_campaign=yelp_api_v3&utm_medium=api_v3_business_search&utm_source=hBJOknVQJ58S5goQyjmwRw", "review_count": 7, "categories": [{"alias": "cafes", "title": "Cafes"}, {"alias": "cakeshop", "title": "Patisserie/Cake Shop"}, {"alias": "bakeries", "title": "Bakeries"}], "rating": 4.0, "coordinates": {"latitude": 53.64058, "longitude": 10.08246}, "transactions": [], "location": {"address1": "Rolfinckstr. 8 - 10", "address2": "", "address3": null, "city": "Hamburg", "zip_code": "22391", "country": "DE", "state": "HH", "display_address": ["Rolfinckstr. 8 - 10", "22391 Hamburg", "Germany"]}, "phone": "+494053908727", "display_phone": "+49 40 53908727", "distance": 4699.710505062569}, {"id": "SsK8p5Uktq4CHyeih0t9Yg", "alias": "rock-in-d\u00f6ner-hamburg", "name": "Rock In D\u00f6ner", "image_url": "", "is_closed": false, "url": "https://www.yelp.com/biz/rock-in-d%C3%B6ner-hamburg?adjust_creative=hBJOknVQJ58S5goQyjmwRw&utm_campaign=yelp_api_v3&utm_medium=api_v3_business_search&utm_source=hBJOknVQJ58S5goQyjmwRw", "review_count": 3, "categories": [{"alias": "kebab", "title": "Kebab"}, {"alias": "pizza", "title": "Pizza"}], "rating": 1.5, "coordinates": {"latitude": 53.641503, "longitude": 10.037266}, "transactions": [], "price": "\u20ac\u20ac", "location": {"address1": "Hummelsb\u00fcttler Hauptstr. 55", "address2": "", "address3": "", "city": "Hamburg", "zip_code": "22339", "country": "DE", "state": "HH", "display_address": ["Hummelsb\u00fcttler Hauptstr. 55", "22339 Hamburg", "Germany"]}, "phone": "+494053104977", "display_phone": "+49 40 53104977", "distance": 4698.495620620561}, {"id": "k0iOvwN2gIN8rMIFEowIqA", "alias": "mcdonalds-hamburg-36", "name": "McDonald's", "image_url": "https://s3-media1.fl.yelpcdn.com/bphoto/IJpfXUCIbammVOWulK0yaw/o.jpg", "is_closed": false, "url": "https://www.yelp.com/biz/mcdonalds-hamburg-36?adjust_creative=hBJOknVQJ58S5goQyjmwRw&utm_campaign=yelp_api_v3&utm_medium=api_v3_business_search&utm_source=hBJOknVQJ58S5goQyjmwRw", "review_count": 14, "categories": [{"alias": "hotdogs", "title": "Fast Food"}, {"alias": "burgers", "title": "Burgers"}], "rating": 3.5, "coordinates": {"latitude": 53.64803, "longitude": 10.05823}, "transactions": [], "price": "\u20ac\u20ac", "location": {"address1": "Poppenb\u00fctteler Weg 94", "address2": null, "address3": null, "city": "Hamburg", "zip_code": "22339", "country": "DE", "state": "HH", "display_address": ["Poppenb\u00fctteler Weg 94", "22339 Hamburg", "Germany"]}, "phone": "+494053897564", "display_phone": "+49 40 53897564", "distance": 3692.105977312444}]