[{"id": "ncZdbHM6gv-vgWAGl6p8pg", "alias": "da-sinito-norderstedt", "name": "Da Sinito", "image_url": "https://s3-media2.fl.yelpcdn.com/bphoto/_fIqepgtYf4h6koVb3V47Q/o.jpg", "is_closed": false, "url": "https://www.yelp.com/biz/da-sinito-norderstedt?adjust_creative=hBJOknVQJ58S5goQyjmwRw&utm_campaign=yelp_api_v3&utm_medium=api_v3_business_search&utm_source=hBJOknVQJ58S5goQyjmwRw", "review_count": 1, "categories": [{"alias": "italian", "title": "Italian"}], "rating": 4.0, "coordinates": {"latitude": 53.67486, "longitude": 9.96512}, "transactions": [], "location": {"address1": "Ohlenhoff 18", "address2": "", "address3": null, "city": "Norderstedt", "zip_code": "22848", "country": "DE", "state": "SH", "display_address": ["Ohlenhoff 18", "22848 Norderstedt", "Germany"]}, "phone": "+494050016151", "display_phone": "+49 40 50016151", "distance": 1785.1767920260077}, {"id": "P4DcAjOedAFJFulOC9zoCA", "alias": "adyton-hamburg", "name": "Adyton", "image_url": "https://s3-media3.fl.yelpcdn.com/bphoto/jsdX5nPCSjWgCGZ4SfsA_g/o.jpg", "is_closed": false, "url": "https://www.yelp.com/biz/adyton-hamburg?adjust_creative=hBJOknVQJ58S5goQyjmwRw&utm_campaign=yelp_api_v3&utm_medium=api_v3_business_search&utm_source=hBJOknVQJ58S5goQyjmwRw", "review_count": 4, "categories": [{"alias": "international", "title": "International"}], "rating": 4.5, "coordinates": {"latitude": 53.6435, "longitude": 9.96095}, "transactions": [], "price": "\u20ac\u20ac", "location": {"address1": "Sachsenweg 78", "address2": null, "address3": null, "city": "Hamburg", "zip_code": "22455", "country": "DE", "state": "HH", "display_address": ["Sachsenweg 78", "22455 Hamburg", "Germany"]}, "phone": "+494055421621", "display_phone": "+49 40 55421621", "distance": 4489.4131211125305}, {"id": "naHSQVdkPYV8NTottebzRg", "alias": "trattoria-pirandello-hamburg", "name": "Trattoria Pirandello", "image_url": "https://s3-media3.fl.yelpcdn.com/bphoto/QtSQ9XL27EOBwI068uFkjA/o.jpg", "is_closed": false, "url": "https://www.yelp.com/biz/trattoria-pirandello-hamburg?adjust_creative=hBJOknVQJ58S5goQyjmwRw&utm_campaign=yelp_api_v3&utm_medium=api_v3_business_search&utm_source=hBJOknVQJ58S5goQyjmwRw", "review_count": 19, "categories": [{"alias": "pizza", "title": "Pizza"}, {"alias": "italian", "title": "Italian"}], "rating": 4.0, "coordinates": {"latitude": 53.64031, "longitude": 9.94794}, "transactions": [], "price": "\u20ac\u20ac", "location": {"address1": "Nordalbingerweg 17", "address2": "", "address3": "", "city": "Hamburg", "zip_code": "22455", "country": "DE", "state": "HH", "display_address": ["Nordalbingerweg 17", "22455 Hamburg", "Germany"]}, "phone": "+494055598570", "display_phone": "+49 40 55598570", "distance": 4668.736378970148}, {"id": "guZahoBDeSMSGSTpqd5GhA", "alias": "freiluft-hasloh-2", "name": "Freiluft", "image_url": "https://s3-media3.fl.yelpcdn.com/bphoto/4db8pfegMwzeKBDJxNc6aQ/o.jpg", "is_closed": false, "url": "https://www.yelp.com/biz/freiluft-hasloh-2?adjust_creative=hBJOknVQJ58S5goQyjmwRw&utm_campaign=yelp_api_v3&utm_medium=api_v3_business_search&utm_source=hBJOknVQJ58S5goQyjmwRw", "review_count": 3, "categories": [{"alias": "cafes", "title": "Cafes"}, {"alias": "breakfast_brunch", "title": "Breakfast & Brunch"}], "rating": 5.0, "coordinates": {"latitude": 53.6922063607989, "longitude": 9.92644350975752}, "transactions": [], "location": {"address1": "Garstedter Weg 36 A", "address2": null, "address3": null, "city": "Hasloh", "zip_code": "25474", "country": "DE", "state": "SH", "display_address": ["Garstedter Weg 36 A", "25474 Hasloh", "Germany"]}, "phone": "+4941069779025", "display_phone": "+49 4106 9779025", "distance": 1474.4313423189762}, {"id": "8y2vyVt15hK8-hPj1j6qsg", "alias": "das-bistro-im-nnz-premium-hamburg", "name": "Das Bistro im Nnz Premium", "image_url": "https://s3-media2.fl.yelpcdn.com/bphoto/QXDWKufYjdNnO17JEqDKgw/o.jpg", "is_closed": false, "url": "https://www.yelp.com/biz/das-bistro-im-nnz-premium-hamburg?adjust_creative=hBJOknVQJ58S5goQyjmwRw&utm_campaign=yelp_api_v3&utm_medium=api_v3_business_search&utm_source=hBJOknVQJ58S5goQyjmwRw", "review_count": 9, "categories": [{"alias": "bistros", "title": "Bistros"}], "rating": 4.0, "coordinates": {"latitude": 53.6413, "longitude": 9.94809}, "transactions": [], "price": "\u20ac\u20ac", "location": {"address1": "Ernst-Mittelbach-Ring 49", "address2": null, "address3": null, "city": "Hamburg", "zip_code": "22455", "country": "DE", "state": "HH", "display_address": ["Ernst-Mittelbach-Ring 49", "22455 Hamburg", "Germany"]}, "phone": "+494022600137", "display_phone": "+49 40 22600137", "distance": 4560.220932152181}, {"id": "LM7Ly9kgEGwWAvN-8IeZbw", "alias": "seeterrasse-quickborn", "name": "Seeterrasse", "image_url": "https://s3-media3.fl.yelpcdn.com/bphoto/Zm-PHqQn4zigOlcbsuDyjg/o.jpg", "is_closed": false, "url": "https://www.yelp.com/biz/seeterrasse-quickborn?adjust_creative=hBJOknVQJ58S5goQyjmwRw&utm_campaign=yelp_api_v3&utm_medium=api_v3_business_search&utm_source=hBJOknVQJ58S5goQyjmwRw", "review_count": 4, "categories": [{"alias": "beergarden", "title": "Beer Garden"}], "rating": 4.5, "coordinates": {"latitude": 53.7236, "longitude": 9.93791}, "transactions": [], "price": "\u20ac", "location": {"address1": "Harksheider Weg 264", "address2": "Tennisclubhaus", "address3": null, "city": "Quickborn", "zip_code": "25451", "country": "DE", "state": "SH", "display_address": ["Harksheider Weg 264", "Tennisclubhaus", "25451 Quickborn", "Germany"]}, "phone": "+4941063920", "display_phone": "+49 4106 3920", "distance": 4619.899213939658}, {"id": "mURl_v8Ir4AMxfDs8VVizg", "alias": "mein-fischladen-hamburg", "name": "Mein Fischladen", "image_url": "https://s3-media3.fl.yelpcdn.com/bphoto/m7cHAyH7CZnWLvahD-D9qw/o.jpg", "is_closed": false, "url": "https://www.yelp.com/biz/mein-fischladen-hamburg?adjust_creative=hBJOknVQJ58S5goQyjmwRw&utm_campaign=yelp_api_v3&utm_medium=api_v3_business_search&utm_source=hBJOknVQJ58S5goQyjmwRw", "review_count": 10, "categories": [{"alias": "seafood", "title": "Seafood"}, {"alias": "fishmonger", "title": "Fishmonger"}], "rating": 4.5, "coordinates": {"latitude": 53.640307, "longitude": 9.947865}, "transactions": [], "price": "\u20ac", "location": {"address1": "Nordalbinger Weg 17", "address2": "", "address3": "", "city": "Hamburg", "zip_code": "22455", "country": "DE", "state": "HH", "display_address": ["Nordalbinger Weg 17", "22455 Hamburg", "Germany"]}, "phone": "+49405525337", "display_phone": "+49 40 5525337", "distance": 4668.581347818035}, {"id": "jFvtF_WCsb2IAlkOYzL0Bg", "alias": "landhaus-kaminski-norderstedt", "name": "Landhaus Kaminski", "image_url": "", "is_closed": false, "url": "https://www.yelp.com/biz/landhaus-kaminski-norderstedt?adjust_creative=hBJOknVQJ58S5goQyjmwRw&utm_campaign=yelp_api_v3&utm_medium=api_v3_business_search&utm_source=hBJOknVQJ58S5goQyjmwRw", "review_count": 4, "categories": [{"alias": "german", "title": "German"}], "rating": 5.0, "coordinates": {"latitude": 53.6583450958209, "longitude": 9.95852675288916}, "transactions": [], "location": {"address1": "Ohechaussee 442", "address2": "", "address3": null, "city": "Norderstedt", "zip_code": "22848", "country": "DE", "state": "SH", "display_address": ["Ohechaussee 442", "22848 Norderstedt", "Germany"]}, "phone": "+494018881703", "display_phone": "+49 40 18881703", "distance": 2883.8806350887985}, {"id": "OZ9aIUijZbgLn9GyN1QChQ", "alias": "mai-bistro-hamburg", "name": "Mai Bistro", "image_url": "https://s3-media4.fl.yelpcdn.com/bphoto/N69n8eUT8CYBKsZdF4omDA/o.jpg", "is_closed": false, "url": "https://www.yelp.com/biz/mai-bistro-hamburg?adjust_creative=hBJOknVQJ58S5goQyjmwRw&utm_campaign=yelp_api_v3&utm_medium=api_v3_business_search&utm_source=hBJOknVQJ58S5goQyjmwRw", "review_count": 4, "categories": [{"alias": "vietnamese", "title": "Vietnamese"}, {"alias": "chinese", "title": "Chinese"}], "rating": 5.0, "coordinates": {"latitude": 53.6406600758964, "longitude": 9.9473499879241}, "transactions": [], "price": "\u20ac\u20ac", "location": {"address1": "Rudolf-Klug-Weg 9", "address2": "", "address3": null, "city": "Hamburg", "zip_code": "22455", "country": "DE", "state": "HH", "display_address": ["Rudolf-Klug-Weg 9", "22455 Hamburg", "Germany"]}, "phone": "+494055599544", "display_phone": "+49 40 55599544", "distance": 4626.28061180853}, {"id": "19uXg_TsMdYHg19MZptw-g", "alias": "lingtons-restaurant-hamburg", "name": "Lingtons Restaurant", "image_url": "https://s3-media2.fl.yelpcdn.com/bphoto/sVLbYqoDxV7R8JNwWsKSFA/o.jpg", "is_closed": false, "url": "https://www.yelp.com/biz/lingtons-restaurant-hamburg?adjust_creative=hBJOknVQJ58S5goQyjmwRw&utm_campaign=yelp_api_v3&utm_medium=api_v3_business_search&utm_source=hBJOknVQJ58S5goQyjmwRw", "review_count": 1, "categories": [{"alias": "restaurants", "title": "Restaurants"}], "rating": 1.0, "coordinates": {"latitude": 53.6434, "longitude": 9.96049}, "transactions": [], "price": "\u20ac\u20ac", "location": {"address1": "Sachsenweg 85", "address2": null, "address3": null, "city": "Hamburg", "zip_code": "22455", "country": "DE", "state": "HH", "display_address": ["Sachsenweg 85", "22455 Hamburg", "Germany"]}, "phone": "+49405518220", "display_phone": "+49 40 5518220", "distance": 4491.24796863114}, {"id": "6P64TboUCvYM3Td9Yczouw", "alias": "schnellimbi\u00df-hamburg", "name": "Schnellimbi\u00df", "image_url": "https://s3-media3.fl.yelpcdn.com/bphoto/tLVym6QJSh6g-J4MIe3xew/o.jpg", "is_closed": false, "url": "https://www.yelp.com/biz/schnellimbi%C3%9F-hamburg?adjust_creative=hBJOknVQJ58S5goQyjmwRw&utm_campaign=yelp_api_v3&utm_medium=api_v3_business_search&utm_source=hBJOknVQJ58S5goQyjmwRw", "review_count": 3, "categories": [{"alias": "hotdogs", "title": "Fast Food"}], "rating": 2.5, "coordinates": {"latitude": 53.64043, "longitude": 9.94832}, "transactions": [], "price": "\u20ac\u20ac", "location": {"address1": "Nordalbingerweg 19", "address2": null, "address3": null, "city": "Hamburg", "zip_code": "22455", "country": "DE", "state": "HH", "display_address": ["Nordalbingerweg 19", "22455 Hamburg", "Germany"]}, "phone": "+494057144523", "display_phone": "+49 40 57144523", "distance": 4658.013114378349}, {"id": "APvIA_7ssxgC0atmQEFMcg", "alias": "burgerkultour-food-truck-hamburg-2", "name": "BurgerKultour Food Truck", "image_url": "https://s3-media4.fl.yelpcdn.com/bphoto/KoAuwalMnlAO8139MmdYBQ/o.jpg", "is_closed": false, "url": "https://www.yelp.com/biz/burgerkultour-food-truck-hamburg-2?adjust_creative=hBJOknVQJ58S5goQyjmwRw&utm_campaign=yelp_api_v3&utm_medium=api_v3_business_search&utm_source=hBJOknVQJ58S5goQyjmwRw", "review_count": 3, "categories": [{"alias": "foodtrucks", "title": "Food Trucks"}, {"alias": "burgers", "title": "Burgers"}], "rating": 4.5, "coordinates": {"latitude": 53.57154, "longitude": 9.95575}, "transactions": [], "price": "\u20ac\u20ac", "location": {"address1": "", "address2": "", "address3": "", "city": "Hamburg", "zip_code": "20259", "country": "DE", "state": "HH", "display_address": ["20259 Hamburg", "Germany"]}, "phone": "+4917626055122", "display_phone": "+49 176 26055122", "distance": 12398.894246628655}, {"id": "-rEgwMosGsxFEgwwIEYSyg", "alias": "croque-point-niendorf-nord-hamburg", "name": "Croque Point Niendorf Nord", "image_url": "", "is_closed": false, "url": "https://www.yelp.com/biz/croque-point-niendorf-nord-hamburg?adjust_creative=hBJOknVQJ58S5goQyjmwRw&utm_campaign=yelp_api_v3&utm_medium=api_v3_business_search&utm_source=hBJOknVQJ58S5goQyjmwRw", "review_count": 9, "categories": [{"alias": "sandwiches", "title": "Sandwiches"}], "rating": 4.5, "coordinates": {"latitude": 53.64031, "longitude": 9.94794}, "transactions": [], "price": "\u20ac\u20ac", "location": {"address1": "Nordalbingerweg 17 b", "address2": null, "address3": null, "city": "Hamburg", "zip_code": "22455", "country": "DE", "state": "HH", "display_address": ["Nordalbingerweg 17 b", "22455 Hamburg", "Germany"]}, "phone": "+494057128880", "display_phone": "+49 40 57128880", "distance": 4668.736378970148}, {"id": "qheb5F4ieQ1EaI_gHrJ6Dg", "alias": "restaurant-seegarten-quickborn", "name": "Restaurant Seegarten", "image_url": "", "is_closed": false, "url": "https://www.yelp.com/biz/restaurant-seegarten-quickborn?adjust_creative=hBJOknVQJ58S5goQyjmwRw&utm_campaign=yelp_api_v3&utm_medium=api_v3_business_search&utm_source=hBJOknVQJ58S5goQyjmwRw", "review_count": 2, "categories": [{"alias": "german", "title": "German"}], "rating": 5.0, "coordinates": {"latitude": 53.7243, "longitude": 9.93564}, "transactions": [], "location": {"address1": "Harksheider Weg 258", "address2": null, "address3": null, "city": "Quickborn", "zip_code": "25451", "country": "DE", "state": "SH", "display_address": ["Harksheider Weg 258", "25451 Quickborn", "Germany"]}, "phone": "+49410663670", "display_phone": "+49 4106 63670", "distance": 4706.334997731514}, {"id": "qC8eb5-vpUSzcH-Nx9SBGg", "alias": "seegarten-quickborn", "name": "Seegarten", "image_url": "https://s3-media4.fl.yelpcdn.com/bphoto/SxVi_bH6DTKSy5XG-49LCQ/o.jpg", "is_closed": false, "url": "https://www.yelp.com/biz/seegarten-quickborn?adjust_creative=hBJOknVQJ58S5goQyjmwRw&utm_campaign=yelp_api_v3&utm_medium=api_v3_business_search&utm_source=hBJOknVQJ58S5goQyjmwRw", "review_count": 6, "categories": [{"alias": "hotels", "title": "Hotels"}, {"alias": "international", "title": "International"}, {"alias": "german", "title": "German"}], "rating": 3.5, "coordinates": {"latitude": 53.7242, "longitude": 9.93571}, "transactions": [], "price": "\u20ac\u20ac\u20ac", "location": {"address1": "Harksheider Weg 258", "address2": null, "address3": null, "city": "Quickborn", "zip_code": "25451", "country": "DE", "state": "SH", "display_address": ["Harksheider Weg 258", "25451 Quickborn", "Germany"]}, "phone": "+49410663670", "display_phone": "+49 4106 63670", "distance": 4694.907171462816}, {"id": "fTQyh9kb6XbWJEygoWC5LQ", "alias": "bennys-hamburg-2", "name": "Bennys", "image_url": "", "is_closed": false, "url": "https://www.yelp.com/biz/bennys-hamburg-2?adjust_creative=hBJOknVQJ58S5goQyjmwRw&utm_campaign=yelp_api_v3&utm_medium=api_v3_business_search&utm_source=hBJOknVQJ58S5goQyjmwRw", "review_count": 3, "categories": [{"alias": "restaurants", "title": "Restaurants"}], "rating": 1.0, "coordinates": {"latitude": 53.6528179, "longitude": 9.9200587}, "transactions": [], "location": {"address1": "K\u00f6nigskinderweg 200", "address2": "", "address3": null, "city": "Hamburg", "zip_code": "22457", "country": "DE", "state": "HH", "display_address": ["K\u00f6nigskinderweg 200", "22457 Hamburg", "Germany"]}, "phone": "+49405598790", "display_phone": "+49 40 5598790", "distance": 3533.197116456194}, {"id": "cGIKCcR0wZszz8VldC2-7g", "alias": "currywerk-hamburg", "name": "curryWERK", "image_url": "https://s3-media4.fl.yelpcdn.com/bphoto/j_ZPQAB6JrAru84VDuLiRA/o.jpg", "is_closed": false, "url": "https://www.yelp.com/biz/currywerk-hamburg?adjust_creative=hBJOknVQJ58S5goQyjmwRw&utm_campaign=yelp_api_v3&utm_medium=api_v3_business_search&utm_source=hBJOknVQJ58S5goQyjmwRw", "review_count": 1, "categories": [{"alias": "foodtrucks", "title": "Food Trucks"}, {"alias": "currysausage", "title": "Curry Sausage"}], "rating": 4.0, "coordinates": {"latitude": 53.5498886108398, "longitude": 9.94732189178467}, "transactions": [], "price": "\u20ac\u20ac", "location": {"address1": "", "address2": "", "address3": "", "city": "Hamburg", "zip_code": "22767", "country": "DE", "state": "HH", "display_address": ["22767 Hamburg", "Germany"]}, "phone": "+4917632443433", "display_phone": "+49 176 32443433", "distance": 14811.77992174716}]