[{"id": "REYc_tPiqy0K01Qc4n3Gow", "alias": "trattoria-da-michele-norderstedt", "name": "Trattoria da Michele", "image_url": "https://s3-media1.fl.yelpcdn.com/bphoto/oWR1fGoAEY2XuEkaYsvbRA/o.jpg", "is_closed": false, "url": "https://www.yelp.com/biz/trattoria-da-michele-norderstedt?adjust_creative=hBJOknVQJ58S5goQyjmwRw&utm_campaign=yelp_api_v3&utm_medium=api_v3_business_search&utm_source=hBJOknVQJ58S5goQyjmwRw", "review_count": 58, "categories": [{"alias": "italian", "title": "Italian"}, {"alias": "mediterranean", "title": "Mediterranean"}, {"alias": "pizza", "title": "Pizza"}], "rating": 4.5, "coordinates": {"latitude": 53.6683625, "longitude": 9.9879207}, "transactions": [], "price": "\u20ac\u20ac", "location": {"address1": "Rugenbarg 74 h", "address2": "", "address3": "", "city": "Norderstedt", "zip_code": "22848", "country": "DE", "state": "SH", "display_address": ["Rugenbarg 74 h", "22848 Norderstedt", "Germany"]}, "phone": "+494052883339", "display_phone": "+49 40 52883339", "distance": 1860.7208878329523}, {"id": "hebsTFShK1XkOATxr-GIMg", "alias": "mendoza-norderstedt", "name": "Mendoza", "image_url": "https://s3-media3.fl.yelpcdn.com/bphoto/Pp8VnLHJdXQWoDOEOiACBw/o.jpg", "is_closed": false, "url": "https://www.yelp.com/biz/mendoza-norderstedt?adjust_creative=hBJOknVQJ58S5goQyjmwRw&utm_campaign=yelp_api_v3&utm_medium=api_v3_business_search&utm_source=hBJOknVQJ58S5goQyjmwRw", "review_count": 29, "categories": [{"alias": "steak", "title": "Steakhouses"}], "rating": 4.0, "coordinates": {"latitude": 53.6818886, "longitude": 9.9809999}, "transactions": [], "price": "\u20ac\u20ac", "location": {"address1": "Ochsenzoller Str. 110", "address2": "", "address3": "", "city": "Norderstedt", "zip_code": "22848", "country": "DE", "state": "SH", "display_address": ["Ochsenzoller Str. 110", "22848 Norderstedt", "Germany"]}, "phone": "+494085159313", "display_phone": "+49 40 85159313", "distance": 637.8096604180785}, {"id": "xrfbDVGG6j_41vWzcu40Hg", "alias": "olympia-grill-norderstedt", "name": "Olympia Grill", "image_url": "https://s3-media3.fl.yelpcdn.com/bphoto/jUTz7W9l3-Tp6j3LqNPKyA/o.jpg", "is_closed": false, "url": "https://www.yelp.com/biz/olympia-grill-norderstedt?adjust_creative=hBJOknVQJ58S5goQyjmwRw&utm_campaign=yelp_api_v3&utm_medium=api_v3_business_search&utm_source=hBJOknVQJ58S5goQyjmwRw", "review_count": 27, "categories": [{"alias": "greek", "title": "Greek"}], "rating": 4.5, "coordinates": {"latitude": 53.6746, "longitude": 9.987}, "transactions": [], "price": "\u20ac", "location": {"address1": "Ohechaussee 110", "address2": null, "address3": null, "city": "Norderstedt", "zip_code": "22848", "country": "DE", "state": "SH", "display_address": ["Ohechaussee 110", "22848 Norderstedt", "Germany"]}, "phone": "+494051329990", "display_phone": "+49 40 51329990", "distance": 1316.4582949612313}, {"id": "spHm65F6xQhPWKXixk-HLQ", "alias": "yang-zi-norderstedt", "name": "Yang-Zi", "image_url": "https://s3-media2.fl.yelpcdn.com/bphoto/O0lZ_qlqiddcV7a6ad-JEw/o.jpg", "is_closed": false, "url": "https://www.yelp.com/biz/yang-zi-norderstedt?adjust_creative=hBJOknVQJ58S5goQyjmwRw&utm_campaign=yelp_api_v3&utm_medium=api_v3_business_search&utm_source=hBJOknVQJ58S5goQyjmwRw", "review_count": 16, "categories": [{"alias": "korean", "title": "Korean"}, {"alias": "panasian", "title": "Pan Asian"}], "rating": 4.0, "coordinates": {"latitude": 53.6835, "longitude": 9.98769}, "transactions": [], "price": "\u20ac\u20ac", "location": {"address1": "Europaallee 21", "address2": null, "address3": null, "city": "Norderstedt", "zip_code": "22850", "country": "DE", "state": "SH", "display_address": ["Europaallee 21", "22850 Norderstedt", "Germany"]}, "phone": "+494052883820", "display_phone": "+49 40 52883820", "distance": 1101.600965859697}, {"id": "oDgBQ2ztUb22NYSUws3ogg", "alias": "harput-kebap-norderstedt", "name": "Harput Kebap", "image_url": "https://s3-media4.fl.yelpcdn.com/bphoto/5kh_8s2FZcC6pgsXOMAFpg/o.jpg", "is_closed": false, "url": "https://www.yelp.com/biz/harput-kebap-norderstedt?adjust_creative=hBJOknVQJ58S5goQyjmwRw&utm_campaign=yelp_api_v3&utm_medium=api_v3_business_search&utm_source=hBJOknVQJ58S5goQyjmwRw", "review_count": 8, "categories": [{"alias": "kebab", "title": "Kebab"}], "rating": 4.5, "coordinates": {"latitude": 53.6846008300781, "longitude": 9.98484706878662}, "transactions": [], "price": "\u20ac\u20ac", "location": {"address1": "Berliner Allee 40", "address2": "", "address3": "", "city": "Norderstedt", "zip_code": "22850", "country": "DE", "state": "SH", "display_address": ["Berliner Allee 40", "22850 Norderstedt", "Germany"]}, "phone": "+494052878412", "display_phone": "+49 40 52878412", "distance": 949.6149923931104}, {"id": "4jI0ZbfMpPc2zFmaEn3lnQ", "alias": "zenthai-restaurant-norderstedt", "name": "Zenthai Restaurant", "image_url": "https://s3-media2.fl.yelpcdn.com/bphoto/M9_5SzCMTQzFVeb1Zdg3yw/o.jpg", "is_closed": false, "url": "https://www.yelp.com/biz/zenthai-restaurant-norderstedt?adjust_creative=hBJOknVQJ58S5goQyjmwRw&utm_campaign=yelp_api_v3&utm_medium=api_v3_business_search&utm_source=hBJOknVQJ58S5goQyjmwRw", "review_count": 11, "categories": [{"alias": "panasian", "title": "Pan Asian"}], "rating": 4.5, "coordinates": {"latitude": 53.6849, "longitude": 9.98447}, "transactions": [], "price": "\u20ac", "location": {"address1": "Berliner Allee 38-44a", "address2": "", "address3": "Herold Center", "city": "Norderstedt", "zip_code": "22850", "country": "DE", "state": "SH", "display_address": ["Berliner Allee 38-44a", "Herold Center", "22850 Norderstedt", "Germany"]}, "phone": "+494052385291", "display_phone": "+49 40 52385291", "distance": 937.6572116472203}, {"id": "j60l4xNvd8e3mrrExilQKg", "alias": "zwutschkerl-alm-norderstedt", "name": "Zwutschkerl Alm", "image_url": "https://s3-media2.fl.yelpcdn.com/bphoto/HGrX3KOi8wMPPUD-TnapAA/o.jpg", "is_closed": false, "url": "https://www.yelp.com/biz/zwutschkerl-alm-norderstedt?adjust_creative=hBJOknVQJ58S5goQyjmwRw&utm_campaign=yelp_api_v3&utm_medium=api_v3_business_search&utm_source=hBJOknVQJ58S5goQyjmwRw", "review_count": 2, "categories": [{"alias": "german", "title": "German"}, {"alias": "austrian", "title": "Austrian"}], "rating": 4.5, "coordinates": {"latitude": 53.6614217, "longitude": 9.9849684}, "transactions": [], "price": "\u20ac\u20ac", "location": {"address1": "Gutenbergring 30 a", "address2": null, "address3": "", "city": "Norderstedt", "zip_code": "22848", "country": "DE", "state": "SH", "display_address": ["Gutenbergring 30 a", "22848 Norderstedt", "Germany"]}, "phone": "+49405253431", "display_phone": "+49 40 5253431", "distance": 2445.8481719993624}, {"id": "MT9wh1pkW89lYPBLa4cv0A", "alias": "restaurant-poseidon-norderstedt", "name": "Restaurant Poseidon", "image_url": "https://s3-media2.fl.yelpcdn.com/bphoto/DXUbufmjDuYgtoLoC5NZrA/o.jpg", "is_closed": false, "url": "https://www.yelp.com/biz/restaurant-poseidon-norderstedt?adjust_creative=hBJOknVQJ58S5goQyjmwRw&utm_campaign=yelp_api_v3&utm_medium=api_v3_business_search&utm_source=hBJOknVQJ58S5goQyjmwRw", "review_count": 17, "categories": [{"alias": "greek", "title": "Greek"}], "rating": 4.0, "coordinates": {"latitude": 53.6817, "longitude": 9.98014}, "transactions": [], "price": "\u20ac\u20ac", "location": {"address1": "Ochsenzoller Str. 102", "address2": null, "address3": null, "city": "Norderstedt", "zip_code": "22848", "country": "DE", "state": "SH", "display_address": ["Ochsenzoller Str. 102", "22848 Norderstedt", "Germany"]}, "phone": "+49405236650", "display_phone": "+49 40 5236650", "distance": 589.2240719880041}, {"id": "TtWWDZnIvRGDQ9Ef0maXIA", "alias": "arizona-kitchen-norderstedt", "name": "Arizona Kitchen", "image_url": "https://s3-media1.fl.yelpcdn.com/bphoto/YiiJpg1sQPUQyKr3Zx48Bg/o.jpg", "is_closed": false, "url": "https://www.yelp.com/biz/arizona-kitchen-norderstedt?adjust_creative=hBJOknVQJ58S5goQyjmwRw&utm_campaign=yelp_api_v3&utm_medium=api_v3_business_search&utm_source=hBJOknVQJ58S5goQyjmwRw", "review_count": 91, "categories": [{"alias": "tradamerican", "title": "American (Traditional)"}, {"alias": "cocktailbars", "title": "Cocktail Bars"}], "rating": 3.5, "coordinates": {"latitude": 53.6595, "longitude": 9.98047}, "transactions": [], "price": "\u20ac\u20ac", "location": {"address1": "Niendorfer Str. 176", "address2": null, "address3": null, "city": "Norderstedt", "zip_code": "22848", "country": "DE", "state": "SH", "display_address": ["Niendorfer Str. 176", "22848 Norderstedt", "Germany"]}, "phone": "+494052877997", "display_phone": "+49 40 52877997", "distance": 2546.366896170175}, {"id": "ncZdbHM6gv-vgWAGl6p8pg", "alias": "da-sinito-norderstedt", "name": "Da Sinito", "image_url": "https://s3-media2.fl.yelpcdn.com/bphoto/_fIqepgtYf4h6koVb3V47Q/o.jpg", "is_closed": false, "url": "https://www.yelp.com/biz/da-sinito-norderstedt?adjust_creative=hBJOknVQJ58S5goQyjmwRw&utm_campaign=yelp_api_v3&utm_medium=api_v3_business_search&utm_source=hBJOknVQJ58S5goQyjmwRw", "review_count": 1, "categories": [{"alias": "italian", "title": "Italian"}], "rating": 4.0, "coordinates": {"latitude": 53.67486, "longitude": 9.96512}, "transactions": [], "location": {"address1": "Ohlenhoff 18", "address2": "", "address3": null, "city": "Norderstedt", "zip_code": "22848", "country": "DE", "state": "SH", "display_address": ["Ohlenhoff 18", "22848 Norderstedt", "Germany"]}, "phone": "+494050016151", "display_phone": "+49 40 50016151", "distance": 874.1143308399924}, {"id": "3ykn2YC9qdFWDGsdVHD83g", "alias": "hotel-wilhelm-busch-norderstedt", "name": "Hotel Wilhelm Busch", "image_url": "https://s3-media3.fl.yelpcdn.com/bphoto/efkx6VnHLf3kNWdZzO9NWQ/o.jpg", "is_closed": false, "url": "https://www.yelp.com/biz/hotel-wilhelm-busch-norderstedt?adjust_creative=hBJOknVQJ58S5goQyjmwRw&utm_campaign=yelp_api_v3&utm_medium=api_v3_business_search&utm_source=hBJOknVQJ58S5goQyjmwRw", "review_count": 10, "categories": [{"alias": "german", "title": "German"}], "rating": 4.0, "coordinates": {"latitude": 53.6921392, "longitude": 9.9953344}, "transactions": [], "price": "\u20ac\u20ac", "location": {"address1": "Segeberger Chaussee 45", "address2": "Wilhelm Busch Platz", "address3": null, "city": "Norderstedt", "zip_code": "22850", "country": "DE", "state": "SH", "display_address": ["Segeberger Chaussee 45", "Wilhelm Busch Platz", "22850 Norderstedt", "Germany"]}, "phone": "+49405299000", "display_phone": "+49 40 5299000", "distance": 1958.487123400116}, {"id": "yRPYt6gp1NvPZm-R2EbR1g", "alias": "aroma-norderstedt", "name": "Aroma", "image_url": "https://s3-media2.fl.yelpcdn.com/bphoto/UdxeUiVA73BPpP46qBadmA/o.jpg", "is_closed": false, "url": "https://www.yelp.com/biz/aroma-norderstedt?adjust_creative=hBJOknVQJ58S5goQyjmwRw&utm_campaign=yelp_api_v3&utm_medium=api_v3_business_search&utm_source=hBJOknVQJ58S5goQyjmwRw", "review_count": 23, "categories": [{"alias": "mediterranean", "title": "Mediterranean"}], "rating": 4.0, "coordinates": {"latitude": 53.67751, "longitude": 9.96808}, "transactions": [], "price": "\u20ac\u20ac", "location": {"address1": "Niendorfer Str. 12", "address2": null, "address3": null, "city": "Norderstedt", "zip_code": "22848", "country": "DE", "state": "SH", "display_address": ["Niendorfer Str. 12", "22848 Norderstedt", "Germany"]}, "phone": "+494030857555", "display_phone": "+49 40 30857555", "distance": 524.2936947881949}, {"id": "PdzmmXL_hEvIyR1Y67-zig", "alias": "restaurant-porter-house-norderstedt", "name": "Restaurant Porter House", "image_url": "https://s3-media2.fl.yelpcdn.com/bphoto/sRDEY4Uai9m8BXz1OzxKaQ/o.jpg", "is_closed": false, "url": "https://www.yelp.com/biz/restaurant-porter-house-norderstedt?adjust_creative=hBJOknVQJ58S5goQyjmwRw&utm_campaign=yelp_api_v3&utm_medium=api_v3_business_search&utm_source=hBJOknVQJ58S5goQyjmwRw", "review_count": 45, "categories": [{"alias": "steak", "title": "Steakhouses"}], "rating": 3.0, "coordinates": {"latitude": 53.67531, "longitude": 9.96799}, "transactions": [], "price": "\u20ac\u20ac", "location": {"address1": "Niendorfer Str. 30", "address2": "", "address3": null, "city": "Norderstedt", "zip_code": "22848", "country": "DE", "state": "SH", "display_address": ["Niendorfer Str. 30", "22848 Norderstedt", "Germany"]}, "phone": "+494052876660", "display_phone": "+49 40 52876660", "distance": 752.1581045526706}, {"id": "18H5Yc-FLG_ZHNdjj_3euw", "alias": "restaurant-ionios-norderstedt", "name": "Restaurant Ionios", "image_url": "https://s3-media2.fl.yelpcdn.com/bphoto/MdGr5xIJgXGKMAabxX-DxA/o.jpg", "is_closed": false, "url": "https://www.yelp.com/biz/restaurant-ionios-norderstedt?adjust_creative=hBJOknVQJ58S5goQyjmwRw&utm_campaign=yelp_api_v3&utm_medium=api_v3_business_search&utm_source=hBJOknVQJ58S5goQyjmwRw", "review_count": 13, "categories": [{"alias": "italian", "title": "Italian"}], "rating": 4.5, "coordinates": {"latitude": 53.7078, "longitude": 9.98558}, "transactions": [], "price": "\u20ac\u20ac", "location": {"address1": "Rathausallee 83B", "address2": null, "address3": null, "city": "Norderstedt", "zip_code": "22846", "country": "DE", "state": "SH", "display_address": ["Rathausallee 83B", "22846 Norderstedt", "Germany"]}, "phone": "+49405224412", "display_phone": "+49 40 5224412", "distance": 3037.052270291636}, {"id": "104AWqx7cLH-_cQtRA0WQQ", "alias": "china-restaurant-yu-norderstedt", "name": "China Restaurant Yu", "image_url": "https://s3-media3.fl.yelpcdn.com/bphoto/km957T_6xhUgV182-E7azg/o.jpg", "is_closed": false, "url": "https://www.yelp.com/biz/china-restaurant-yu-norderstedt?adjust_creative=hBJOknVQJ58S5goQyjmwRw&utm_campaign=yelp_api_v3&utm_medium=api_v3_business_search&utm_source=hBJOknVQJ58S5goQyjmwRw", "review_count": 11, "categories": [{"alias": "chinese", "title": "Chinese"}], "rating": 4.0, "coordinates": {"latitude": 53.6727, "longitude": 9.98458}, "transactions": [], "price": "\u20ac\u20ac\u20ac", "location": {"address1": "Ohechaussee 138", "address2": null, "address3": null, "city": "Norderstedt", "zip_code": "22848", "country": "DE", "state": "SH", "display_address": ["Ohechaussee 138", "22848 Norderstedt", "Germany"]}, "phone": "+49405282299", "display_phone": "+49 40 5282299", "distance": 1346.07292314617}, {"id": "AOV6fV_C4KiE7rJFGCGgWg", "alias": "ristorante-la-piazza-norderstedt", "name": "Ristorante La Piazza", "image_url": "https://s3-media2.fl.yelpcdn.com/bphoto/RF5j7hdccmcgX4AFpOnrww/o.jpg", "is_closed": false, "url": "https://www.yelp.com/biz/ristorante-la-piazza-norderstedt?adjust_creative=hBJOknVQJ58S5goQyjmwRw&utm_campaign=yelp_api_v3&utm_medium=api_v3_business_search&utm_source=hBJOknVQJ58S5goQyjmwRw", "review_count": 10, "categories": [{"alias": "italian", "title": "Italian"}], "rating": 4.0, "coordinates": {"latitude": 53.7075, "longitude": 9.99146}, "transactions": [], "price": "\u20ac\u20ac", "location": {"address1": "Rathausallee 70", "address2": null, "address3": null, "city": "Norderstedt", "zip_code": "22846", "country": "DE", "state": "SH", "display_address": ["Rathausallee 70", "22846 Norderstedt", "Germany"]}, "phone": "+494060924160", "display_phone": "+49 40 60924160", "distance": 3148.861812810663}, {"id": "3B_ke7yR8sEeuzDFGnNgLQ", "alias": "schlemmereck-norderstedt", "name": "Schlemmereck", "image_url": "https://s3-media3.fl.yelpcdn.com/bphoto/xWuo8t79BMqWJAt2acbAqA/o.jpg", "is_closed": false, "url": "https://www.yelp.com/biz/schlemmereck-norderstedt?adjust_creative=hBJOknVQJ58S5goQyjmwRw&utm_campaign=yelp_api_v3&utm_medium=api_v3_business_search&utm_source=hBJOknVQJ58S5goQyjmwRw", "review_count": 1, "categories": [{"alias": "pizza", "title": "Pizza"}, {"alias": "salad", "title": "Salad"}, {"alias": "desserts", "title": "Desserts"}], "rating": 5.0, "coordinates": {"latitude": 53.674711, "longitude": 9.987552}, "transactions": [], "location": {"address1": "Ohechaussee 113", "address2": null, "address3": null, "city": "Norderstedt", "zip_code": "22848", "country": "DE", "state": "SH", "display_address": ["Ohechaussee 113", "22848 Norderstedt", "Germany"]}, "phone": "", "display_phone": "", "distance": 1338.0285173581667}, {"id": "P4DcAjOedAFJFulOC9zoCA", "alias": "adyton-hamburg", "name": "Adyton", "image_url": "https://s3-media3.fl.yelpcdn.com/bphoto/jsdX5nPCSjWgCGZ4SfsA_g/o.jpg", "is_closed": false, "url": "https://www.yelp.com/biz/adyton-hamburg?adjust_creative=hBJOknVQJ58S5goQyjmwRw&utm_campaign=yelp_api_v3&utm_medium=api_v3_business_search&utm_source=hBJOknVQJ58S5goQyjmwRw", "review_count": 4, "categories": [{"alias": "international", "title": "International"}], "rating": 4.5, "coordinates": {"latitude": 53.6435, "longitude": 9.96095}, "transactions": [], "price": "\u20ac\u20ac", "location": {"address1": "Sachsenweg 78", "address2": null, "address3": null, "city": "Hamburg", "zip_code": "22455", "country": "DE", "state": "HH", "display_address": ["Sachsenweg 78", "22455 Hamburg", "Germany"]}, "phone": "+494055421621", "display_phone": "+49 40 55421621", "distance": 4317.292625366027}, {"id": "0mtKbL5nKR8Vqvrlk6O20g", "alias": "pizzalotti-norderstedt", "name": "Pizzalotti", "image_url": "https://s3-media2.fl.yelpcdn.com/bphoto/MKaomz1pil-ma254NVDNvA/o.jpg", "is_closed": false, "url": "https://www.yelp.com/biz/pizzalotti-norderstedt?adjust_creative=hBJOknVQJ58S5goQyjmwRw&utm_campaign=yelp_api_v3&utm_medium=api_v3_business_search&utm_source=hBJOknVQJ58S5goQyjmwRw", "review_count": 3, "categories": [{"alias": "italian", "title": "Italian"}], "rating": 4.5, "coordinates": {"latitude": 53.685, "longitude": 9.98447}, "transactions": [], "price": "\u20ac", "location": {"address1": "Berliner Allee 38-44", "address2": null, "address3": null, "city": "Norderstedt", "zip_code": "22850", "country": "DE", "state": "SH", "display_address": ["Berliner Allee 38-44", "22850 Norderstedt", "Germany"]}, "phone": "+494032595381", "display_phone": "+49 40 32595381", "distance": 941.7368039628776}, {"id": "BEIDz6tJNrN9_GaYSF6Svw", "alias": "restaurant-hellas-norderstedt", "name": "Restaurant Hellas", "image_url": "https://s3-media3.fl.yelpcdn.com/bphoto/r3AQDRMy0WF-Gc4cH_pbcQ/o.jpg", "is_closed": false, "url": "https://www.yelp.com/biz/restaurant-hellas-norderstedt?adjust_creative=hBJOknVQJ58S5goQyjmwRw&utm_campaign=yelp_api_v3&utm_medium=api_v3_business_search&utm_source=hBJOknVQJ58S5goQyjmwRw", "review_count": 18, "categories": [{"alias": "greek", "title": "Greek"}], "rating": 3.5, "coordinates": {"latitude": 53.6871, "longitude": 9.9911095}, "transactions": [], "price": "\u20ac\u20ac", "location": {"address1": "L\u00fctjenmoor 44", "address2": null, "address3": null, "city": "Norderstedt", "zip_code": "22850", "country": "DE", "state": "SH", "display_address": ["L\u00fctjenmoor 44", "22850 Norderstedt", "Germany"]}, "phone": "+49405217545", "display_phone": "+49 40 5217545", "distance": 1435.457821955149}, {"id": "6mg-FH14wONzsrxP_Ksnyw", "alias": "la-fontana-norderstedt-3", "name": "La Fontana", "image_url": "https://s3-media2.fl.yelpcdn.com/bphoto/Vg40cOGjwE1O_3lghBEucw/o.jpg", "is_closed": false, "url": "https://www.yelp.com/biz/la-fontana-norderstedt-3?adjust_creative=hBJOknVQJ58S5goQyjmwRw&utm_campaign=yelp_api_v3&utm_medium=api_v3_business_search&utm_source=hBJOknVQJ58S5goQyjmwRw", "review_count": 4, "categories": [{"alias": "italian", "title": "Italian"}], "rating": 4.5, "coordinates": {"latitude": 53.6733256605235, "longitude": 9.98744636649676}, "transactions": [], "price": "\u20ac\u20ac", "location": {"address1": "Rugenbarg 13", "address2": "", "address3": "", "city": "Norderstedt", "zip_code": "22848", "country": "DE", "state": "SH", "display_address": ["Rugenbarg 13", "22848 Norderstedt", "Germany"]}, "phone": "+494063864000", "display_phone": "+49 40 63864000", "distance": 1429.568902852039}, {"id": "bLjDqJz18PYLX4yawE5Ljg", "alias": "oxen-caf\u00e9-norderstedt", "name": "OXEN Caf\u00e9", "image_url": "https://s3-media3.fl.yelpcdn.com/bphoto/KbcJjMRvIMkLUA960dei-A/o.jpg", "is_closed": false, "url": "https://www.yelp.com/biz/oxen-caf%C3%A9-norderstedt?adjust_creative=hBJOknVQJ58S5goQyjmwRw&utm_campaign=yelp_api_v3&utm_medium=api_v3_business_search&utm_source=hBJOknVQJ58S5goQyjmwRw", "review_count": 4, "categories": [{"alias": "bakeries", "title": "Bakeries"}, {"alias": "cakeshop", "title": "Patisserie/Cake Shop"}, {"alias": "breakfast_brunch", "title": "Breakfast & Brunch"}], "rating": 3.0, "coordinates": {"latitude": 53.6818804849911, "longitude": 9.97990919343369}, "transactions": [], "price": "\u20ac\u20ac", "location": {"address1": "Ochsenzoller Str. 103", "address2": "", "address3": "", "city": "Norderstedt", "zip_code": "22848", "country": "DE", "state": "SH", "display_address": ["Ochsenzoller Str. 103", "22848 Norderstedt", "Germany"]}, "phone": "+494035730170", "display_phone": "+49 40 35730170", "distance": 573.8012439239629}, {"id": "Zqf-LdHBIvswhXESxXNzCw", "alias": "cafeteria-latina-norderstedt", "name": "Cafeteria Latina", "image_url": "https://s3-media1.fl.yelpcdn.com/bphoto/7sLx6nOndKzYUf2p5m-KRw/o.jpg", "is_closed": false, "url": "https://www.yelp.com/biz/cafeteria-latina-norderstedt?adjust_creative=hBJOknVQJ58S5goQyjmwRw&utm_campaign=yelp_api_v3&utm_medium=api_v3_business_search&utm_source=hBJOknVQJ58S5goQyjmwRw", "review_count": 12, "categories": [{"alias": "cafes", "title": "Cafes"}, {"alias": "lounges", "title": "Lounges"}, {"alias": "cocktailbars", "title": "Cocktail Bars"}], "rating": 4.5, "coordinates": {"latitude": 53.7068469, "longitude": 9.994473}, "transactions": [], "price": "\u20ac\u20ac", "location": {"address1": "Rathausallee 19b", "address2": null, "address3": null, "city": "Norderstedt", "zip_code": "22846", "country": "DE", "state": "SH", "display_address": ["Rathausallee 19b", "22846 Norderstedt", "Germany"]}, "phone": "+494051324345", "display_phone": "+49 40 51324345", "distance": 3174.113318198506}, {"id": "1zRwj9-KSLtO9aKkotan3g", "alias": "restaurant-zum-griechen-norderstedt", "name": "Restaurant Zum Griechen", "image_url": "https://s3-media3.fl.yelpcdn.com/bphoto/pslUmNq-fhVy4msOKItksA/o.jpg", "is_closed": false, "url": "https://www.yelp.com/biz/restaurant-zum-griechen-norderstedt?adjust_creative=hBJOknVQJ58S5goQyjmwRw&utm_campaign=yelp_api_v3&utm_medium=api_v3_business_search&utm_source=hBJOknVQJ58S5goQyjmwRw", "review_count": 21, "categories": [{"alias": "greek", "title": "Greek"}], "rating": 4.5, "coordinates": {"latitude": 53.6811, "longitude": 9.9784}, "transactions": [], "price": "\u20ac\u20ac", "location": {"address1": "Ochsenzoller Str. 90", "address2": null, "address3": null, "city": "Norderstedt", "zip_code": "22848", "country": "DE", "state": "SH", "display_address": ["Ochsenzoller Str. 90", "22848 Norderstedt", "Germany"]}, "phone": "+49405236823", "display_phone": "+49 40 5236823", "distance": 481.6537242985076}, {"id": "Ne3MCclvIdbowaasFxEXsw", "alias": "adria-restaurant-norderstedt", "name": "Adria Restaurant", "image_url": "", "is_closed": false, "url": "https://www.yelp.com/biz/adria-restaurant-norderstedt?adjust_creative=hBJOknVQJ58S5goQyjmwRw&utm_campaign=yelp_api_v3&utm_medium=api_v3_business_search&utm_source=hBJOknVQJ58S5goQyjmwRw", "review_count": 1, "categories": [{"alias": "mediterranean", "title": "Mediterranean"}], "rating": 4.0, "coordinates": {"latitude": 53.6813, "longitude": 9.98836}, "transactions": [], "location": {"address1": "Ochsenzoller Str. 162", "address2": null, "address3": null, "city": "Norderstedt", "zip_code": "22848", "country": "DE", "state": "SH", "display_address": ["Ochsenzoller Str. 162", "22848 Norderstedt", "Germany"]}, "phone": "+494032597046", "display_phone": "+49 40 32597046", "distance": 1131.9898865515527}, {"id": "LNCFSTjypSK8jIoqtt8cyQ", "alias": "restaurant-marlin-im-valvo-park-hamburg", "name": "Restaurant Marlin im Valvo Park", "image_url": "https://s3-media3.fl.yelpcdn.com/bphoto/YJsDdmQwwqRgVKvG3VBFtQ/o.jpg", "is_closed": false, "url": "https://www.yelp.com/biz/restaurant-marlin-im-valvo-park-hamburg?adjust_creative=hBJOknVQJ58S5goQyjmwRw&utm_campaign=yelp_api_v3&utm_medium=api_v3_business_search&utm_source=hBJOknVQJ58S5goQyjmwRw", "review_count": 93, "categories": [{"alias": "seafood", "title": "Seafood"}], "rating": 3.5, "coordinates": {"latitude": 53.66531, "longitude": 9.99474}, "transactions": [], "price": "\u20ac\u20ac\u20ac", "location": {"address1": "Tarpen 40", "address2": "Geb\u00e4ude 11", "address3": "", "city": "Hamburg", "zip_code": "22419", "country": "DE", "state": "HH", "display_address": ["Tarpen 40", "Geb\u00e4ude 11", "22419 Hamburg", "Germany"]}, "phone": "+494030850040", "display_phone": "+49 40 30850040", "distance": 2389.3521870182167}, {"id": "naHSQVdkPYV8NTottebzRg", "alias": "trattoria-pirandello-hamburg", "name": "Trattoria Pirandello", "image_url": "https://s3-media3.fl.yelpcdn.com/bphoto/QtSQ9XL27EOBwI068uFkjA/o.jpg", "is_closed": false, "url": "https://www.yelp.com/biz/trattoria-pirandello-hamburg?adjust_creative=hBJOknVQJ58S5goQyjmwRw&utm_campaign=yelp_api_v3&utm_medium=api_v3_business_search&utm_source=hBJOknVQJ58S5goQyjmwRw", "review_count": 19, "categories": [{"alias": "pizza", "title": "Pizza"}, {"alias": "italian", "title": "Italian"}], "rating": 4.0, "coordinates": {"latitude": 53.64031, "longitude": 9.94794}, "transactions": [], "price": "\u20ac\u20ac", "location": {"address1": "Nordalbingerweg 17", "address2": "", "address3": "", "city": "Hamburg", "zip_code": "22455", "country": "DE", "state": "HH", "display_address": ["Nordalbingerweg 17", "22455 Hamburg", "Germany"]}, "phone": "+494055598570", "display_phone": "+49 40 55598570", "distance": 4866.446854116618}, {"id": "EuYPNta_qtin6fQAzvzUcA", "alias": "corfu-grill-norderstedt", "name": "Corfu Grill", "image_url": "https://s3-media2.fl.yelpcdn.com/bphoto/sjfBYxqKKV2N39qULNWfoQ/o.jpg", "is_closed": false, "url": "https://www.yelp.com/biz/corfu-grill-norderstedt?adjust_creative=hBJOknVQJ58S5goQyjmwRw&utm_campaign=yelp_api_v3&utm_medium=api_v3_business_search&utm_source=hBJOknVQJ58S5goQyjmwRw", "review_count": 18, "categories": [{"alias": "greek", "title": "Greek"}], "rating": 4.0, "coordinates": {"latitude": 53.6816, "longitude": 9.98539}, "transactions": [], "price": "\u20ac", "location": {"address1": "Ochsenzoller Str. 136", "address2": null, "address3": null, "city": "Norderstedt", "zip_code": "22848", "country": "DE", "state": "SH", "display_address": ["Ochsenzoller Str. 136", "22848 Norderstedt", "Germany"]}, "phone": "+494030985690", "display_phone": "+49 40 30985690", "distance": 935.1529088474114}, {"id": "MbpDbLH9K-0V1VqDowgDRg", "alias": "fisch-und-kebaphaus-norderstedt", "name": "Fisch Und Kebaphaus", "image_url": "https://s3-media3.fl.yelpcdn.com/bphoto/PBGpJdu7e7uRJuopDuY7Nw/o.jpg", "is_closed": false, "url": "https://www.yelp.com/biz/fisch-und-kebaphaus-norderstedt?adjust_creative=hBJOknVQJ58S5goQyjmwRw&utm_campaign=yelp_api_v3&utm_medium=api_v3_business_search&utm_source=hBJOknVQJ58S5goQyjmwRw", "review_count": 1, "categories": [{"alias": "seafood", "title": "Seafood"}, {"alias": "kebab", "title": "Kebab"}], "rating": 3.0, "coordinates": {"latitude": 53.7064123237291, "longitude": 9.99639371914331}, "transactions": [], "price": "\u20ac", "location": {"address1": "Rathausallee 5b", "address2": "", "address3": "", "city": "Norderstedt", "zip_code": "22846", "country": "DE", "state": "SH", "display_address": ["Rathausallee 5b", "22846 Norderstedt", "Germany"]}, "phone": "", "display_phone": "", "distance": 3195.666808165971}, {"id": "qXJ_Ml80jR1Q5RCcXvI4vw", "alias": "restaurant-naxos-norderstedt", "name": "Restaurant Naxos", "image_url": "https://s3-media2.fl.yelpcdn.com/bphoto/tXJKgOvy2BUfDXuZZ3kjkw/o.jpg", "is_closed": false, "url": "https://www.yelp.com/biz/restaurant-naxos-norderstedt?adjust_creative=hBJOknVQJ58S5goQyjmwRw&utm_campaign=yelp_api_v3&utm_medium=api_v3_business_search&utm_source=hBJOknVQJ58S5goQyjmwRw", "review_count": 71, "categories": [{"alias": "greek", "title": "Greek"}], "rating": 3.5, "coordinates": {"latitude": 53.7053869, "longitude": 9.9963032}, "transactions": [], "price": "\u20ac\u20ac", "location": {"address1": "Ulzburger Str. 279", "address2": null, "address3": null, "city": "Norderstedt", "zip_code": "22859", "country": "DE", "state": "SH", "display_address": ["Ulzburger Str. 279", "22859 Norderstedt", "Germany"]}, "phone": "+49405257733", "display_phone": "+49 40 5257733", "distance": 3095.601888814866}, {"id": "8y2vyVt15hK8-hPj1j6qsg", "alias": "das-bistro-im-nnz-premium-hamburg", "name": "Das Bistro im Nnz Premium", "image_url": "https://s3-media2.fl.yelpcdn.com/bphoto/QXDWKufYjdNnO17JEqDKgw/o.jpg", "is_closed": false, "url": "https://www.yelp.com/biz/das-bistro-im-nnz-premium-hamburg?adjust_creative=hBJOknVQJ58S5goQyjmwRw&utm_campaign=yelp_api_v3&utm_medium=api_v3_business_search&utm_source=hBJOknVQJ58S5goQyjmwRw", "review_count": 9, "categories": [{"alias": "bistros", "title": "Bistros"}], "rating": 4.0, "coordinates": {"latitude": 53.6413, "longitude": 9.94809}, "transactions": [], "price": "\u20ac\u20ac", "location": {"address1": "Ernst-Mittelbach-Ring 49", "address2": null, "address3": null, "city": "Hamburg", "zip_code": "22455", "country": "DE", "state": "HH", "display_address": ["Ernst-Mittelbach-Ring 49", "22455 Hamburg", "Germany"]}, "phone": "+494022600137", "display_phone": "+49 40 22600137", "distance": 4758.913193549295}, {"id": "lVzxs6f924UpdDbyXcvCng", "alias": "taverna-kavala-norderstedt", "name": "Taverna Kavala", "image_url": "https://s3-media4.fl.yelpcdn.com/bphoto/M8IrkpECjG2YuMZ4vg6BPg/o.jpg", "is_closed": false, "url": "https://www.yelp.com/biz/taverna-kavala-norderstedt?adjust_creative=hBJOknVQJ58S5goQyjmwRw&utm_campaign=yelp_api_v3&utm_medium=api_v3_business_search&utm_source=hBJOknVQJ58S5goQyjmwRw", "review_count": 13, "categories": [{"alias": "greek", "title": "Greek"}], "rating": 4.5, "coordinates": {"latitude": 53.6922, "longitude": 9.97744}, "transactions": [], "price": "\u20ac\u20ac", "location": {"address1": "Friedrichsgaber Weg 174", "address2": null, "address3": null, "city": "Norderstedt", "zip_code": "22846", "country": "DE", "state": "SH", "display_address": ["Friedrichsgaber Weg 174", "22846 Norderstedt", "Germany"]}, "phone": "+49405232733", "display_phone": "+49 40 5232733", "distance": 1222.2276764358244}, {"id": "PrOF_1GTNLEcSSRdzZsvtw", "alias": "mr-phung-hannover", "name": "Mr.Phung", "image_url": "https://s3-media1.fl.yelpcdn.com/bphoto/hco-_25OWM1wBUov3l81rw/o.jpg", "is_closed": false, "url": "https://www.yelp.com/biz/mr-phung-hannover?adjust_creative=hBJOknVQJ58S5goQyjmwRw&utm_campaign=yelp_api_v3&utm_medium=api_v3_business_search&utm_source=hBJOknVQJ58S5goQyjmwRw", "review_count": 1, "categories": [{"alias": "chinese", "title": "Chinese"}], "rating": 2.0, "coordinates": {"latitude": 53.6861160334082, "longitude": 9.98661171386919}, "transactions": [], "price": "\u20ac\u20ac", "location": {"address1": "Varrelheide 190", "address2": "", "address3": "", "city": "Hannover", "zip_code": "30657", "country": "DE", "state": "SH", "display_address": ["Varrelheide 190", "30657 Hannover", "Germany"]}, "phone": "+495113530562", "display_phone": "+49 511 3530562", "distance": 1120.5700116486905}, {"id": "rtG_TnUsdbX_O6awX_haBA", "alias": "moorbek-d\u00f6ner-norderstedt", "name": "Moorbek D\u00f6ner", "image_url": "", "is_closed": false, "url": "https://www.yelp.com/biz/moorbek-d%C3%B6ner-norderstedt?adjust_creative=hBJOknVQJ58S5goQyjmwRw&utm_campaign=yelp_api_v3&utm_medium=api_v3_business_search&utm_source=hBJOknVQJ58S5goQyjmwRw", "review_count": 3, "categories": [{"alias": "kebab", "title": "Kebab"}, {"alias": "turkish", "title": "Turkish"}], "rating": 4.0, "coordinates": {"latitude": 53.7067, "longitude": 9.98861}, "transactions": [], "price": "\u20ac", "location": {"address1": "Buckh\u00f6rner Moor 110", "address2": null, "address3": null, "city": "Norderstedt", "zip_code": "22846", "country": "DE", "state": "SH", "display_address": ["Buckh\u00f6rner Moor 110", "22846 Norderstedt", "Germany"]}, "phone": "+494052682469", "display_phone": "+49 40 52682469", "distance": 2991.7178553610015}, {"id": "s9yImhOOv34TUCP5z37rPA", "alias": "pizza-max-norderstedt-norderstedt", "name": "Pizza Max Norderstedt", "image_url": "", "is_closed": false, "url": "https://www.yelp.com/biz/pizza-max-norderstedt-norderstedt?adjust_creative=hBJOknVQJ58S5goQyjmwRw&utm_campaign=yelp_api_v3&utm_medium=api_v3_business_search&utm_source=hBJOknVQJ58S5goQyjmwRw", "review_count": 6, "categories": [{"alias": "pizza", "title": "Pizza"}, {"alias": "burgers", "title": "Burgers"}], "rating": 4.5, "coordinates": {"latitude": 53.6937, "longitude": 9.99484}, "transactions": [], "price": "\u20ac\u20ac\u20ac", "location": {"address1": "Ulzburger Str.112", "address2": null, "address3": null, "city": "Norderstedt", "zip_code": "22850", "country": "DE", "state": "SH", "display_address": ["Ulzburger Str.112", "22850 Norderstedt", "Germany"]}, "phone": "+494053309933", "display_phone": "+49 40 53309933", "distance": 2039.71678560383}, {"id": "QaQgwwrlH8TzVt9Q9z0K0g", "alias": "fantasia-bei-alberto-norderstedt", "name": "Fantasia bei Alberto", "image_url": "https://s3-media3.fl.yelpcdn.com/bphoto/A3q7QmFyQrTwTxMydxgoNQ/o.jpg", "is_closed": false, "url": "https://www.yelp.com/biz/fantasia-bei-alberto-norderstedt?adjust_creative=hBJOknVQJ58S5goQyjmwRw&utm_campaign=yelp_api_v3&utm_medium=api_v3_business_search&utm_source=hBJOknVQJ58S5goQyjmwRw", "review_count": 31, "categories": [{"alias": "icecream", "title": "Ice Cream & Frozen Yogurt"}, {"alias": "italian", "title": "Italian"}], "rating": 4.0, "coordinates": {"latitude": 53.7068, "longitude": 9.99583}, "transactions": [], "price": "\u20ac\u20ac", "location": {"address1": "Rathausallee 10", "address2": null, "address3": null, "city": "Norderstedt", "zip_code": "22846", "country": "DE", "state": "SH", "display_address": ["Rathausallee 10", "22846 Norderstedt", "Germany"]}, "phone": "+494094363894", "display_phone": "+49 40 94363894", "distance": 3213.695930131199}, {"id": "6HUDp9j8hurshvRNsKXSlg", "alias": "caf\u00e9-plietsch-norderstedt", "name": "Caf\u00e9 Plietsch", "image_url": "", "is_closed": false, "url": "https://www.yelp.com/biz/caf%C3%A9-plietsch-norderstedt?adjust_creative=hBJOknVQJ58S5goQyjmwRw&utm_campaign=yelp_api_v3&utm_medium=api_v3_business_search&utm_source=hBJOknVQJ58S5goQyjmwRw", "review_count": 1, "categories": [{"alias": "cafes", "title": "Cafes"}], "rating": 5.0, "coordinates": {"latitude": 53.6785566258179, "longitude": 9.97022011653291}, "transactions": [], "location": {"address1": "Kirchenstr. 12a", "address2": "", "address3": "", "city": "Norderstedt", "zip_code": "22848", "country": "DE", "state": "SH", "display_address": ["Kirchenstr. 12a", "22848 Norderstedt", "Germany"]}, "phone": "+494035779888", "display_phone": "+49 40 35779888", "distance": 371.67135245978193}, {"id": "mURl_v8Ir4AMxfDs8VVizg", "alias": "mein-fischladen-hamburg", "name": "Mein Fischladen", "image_url": "https://s3-media3.fl.yelpcdn.com/bphoto/m7cHAyH7CZnWLvahD-D9qw/o.jpg", "is_closed": false, "url": "https://www.yelp.com/biz/mein-fischladen-hamburg?adjust_creative=hBJOknVQJ58S5goQyjmwRw&utm_campaign=yelp_api_v3&utm_medium=api_v3_business_search&utm_source=hBJOknVQJ58S5goQyjmwRw", "review_count": 10, "categories": [{"alias": "seafood", "title": "Seafood"}, {"alias": "fishmonger", "title": "Fishmonger"}], "rating": 4.5, "coordinates": {"latitude": 53.640307, "longitude": 9.947865}, "transactions": [], "price": "\u20ac", "location": {"address1": "Nordalbinger Weg 17", "address2": "", "address3": "", "city": "Hamburg", "zip_code": "22455", "country": "DE", "state": "HH", "display_address": ["Nordalbinger Weg 17", "22455 Hamburg", "Germany"]}, "phone": "+49405525337", "display_phone": "+49 40 5525337", "distance": 4868.321714164947}, {"id": "jFvtF_WCsb2IAlkOYzL0Bg", "alias": "landhaus-kaminski-norderstedt", "name": "Landhaus Kaminski", "image_url": "", "is_closed": false, "url": "https://www.yelp.com/biz/landhaus-kaminski-norderstedt?adjust_creative=hBJOknVQJ58S5goQyjmwRw&utm_campaign=yelp_api_v3&utm_medium=api_v3_business_search&utm_source=hBJOknVQJ58S5goQyjmwRw", "review_count": 4, "categories": [{"alias": "german", "title": "German"}], "rating": 5.0, "coordinates": {"latitude": 53.6583450958209, "longitude": 9.95852675288916}, "transactions": [], "location": {"address1": "Ohechaussee 442", "address2": "", "address3": null, "city": "Norderstedt", "zip_code": "22848", "country": "DE", "state": "SH", "display_address": ["Ohechaussee 442", "22848 Norderstedt", "Germany"]}, "phone": "+494018881703", "display_phone": "+49 40 18881703", "distance": 2743.5194683428563}, {"id": "wlmxcIIW4hZrAJg8Gem--Q", "alias": "bistro-europa-norderstedt", "name": "Bistro Europa", "image_url": "", "is_closed": false, "url": "https://www.yelp.com/biz/bistro-europa-norderstedt?adjust_creative=hBJOknVQJ58S5goQyjmwRw&utm_campaign=yelp_api_v3&utm_medium=api_v3_business_search&utm_source=hBJOknVQJ58S5goQyjmwRw", "review_count": 2, "categories": [{"alias": "german", "title": "German"}], "rating": 3.5, "coordinates": {"latitude": 53.683, "longitude": 9.98647}, "transactions": [], "price": "\u20ac\u20ac", "location": {"address1": "Europaallee 8", "address2": null, "address3": null, "city": "Norderstedt", "zip_code": "22850", "country": "DE", "state": "SH", "display_address": ["Europaallee 8", "22850 Norderstedt", "Germany"]}, "phone": "+49405236209", "display_phone": "+49 40 5236209", "distance": 1013.9664705227597}, {"id": "Q1qJtx1eF4A8MYtXtLYdjg", "alias": "gourmet-garden-norderstedt", "name": "Gourmet Garden", "image_url": "https://s3-media3.fl.yelpcdn.com/bphoto/E69aQNHy_RhxggZ4btIrFg/o.jpg", "is_closed": false, "url": "https://www.yelp.com/biz/gourmet-garden-norderstedt?adjust_creative=hBJOknVQJ58S5goQyjmwRw&utm_campaign=yelp_api_v3&utm_medium=api_v3_business_search&utm_source=hBJOknVQJ58S5goQyjmwRw", "review_count": 3, "categories": [{"alias": "chinese", "title": "Chinese"}, {"alias": "mongolian", "title": "Mongolian"}, {"alias": "buffets", "title": "Buffets"}], "rating": 3.5, "coordinates": {"latitude": 53.707273, "longitude": 9.989981}, "transactions": [], "location": {"address1": "Rathausallee 35", "address2": null, "address3": "", "city": "Norderstedt", "zip_code": "22846", "country": "DE", "state": "SH", "display_address": ["Rathausallee 35", "22846 Norderstedt", "Germany"]}, "phone": "+494033481133", "display_phone": "+49 40 33481133", "distance": 3085.718511026525}, {"id": "OZ9aIUijZbgLn9GyN1QChQ", "alias": "mai-bistro-hamburg", "name": "Mai Bistro", "image_url": "https://s3-media4.fl.yelpcdn.com/bphoto/N69n8eUT8CYBKsZdF4omDA/o.jpg", "is_closed": false, "url": "https://www.yelp.com/biz/mai-bistro-hamburg?adjust_creative=hBJOknVQJ58S5goQyjmwRw&utm_campaign=yelp_api_v3&utm_medium=api_v3_business_search&utm_source=hBJOknVQJ58S5goQyjmwRw", "review_count": 4, "categories": [{"alias": "vietnamese", "title": "Vietnamese"}, {"alias": "chinese", "title": "Chinese"}], "rating": 5.0, "coordinates": {"latitude": 53.6406600758964, "longitude": 9.9473499879241}, "transactions": [], "price": "\u20ac\u20ac", "location": {"address1": "Rudolf-Klug-Weg 9", "address2": "", "address3": null, "city": "Hamburg", "zip_code": "22455", "country": "DE", "state": "HH", "display_address": ["Rudolf-Klug-Weg 9", "22455 Hamburg", "Germany"]}, "phone": "+494055599544", "display_phone": "+49 40 55599544", "distance": 4841.989144282208}, {"id": "Xl5ZxPTlyWt7Hisr7NyXiQ", "alias": "taverna-syrtaki-norderstedt", "name": "Taverna Syrtaki", "image_url": "https://s3-media3.fl.yelpcdn.com/bphoto/p_PnaE1LlBWaZsHEBLFTMw/o.jpg", "is_closed": false, "url": "https://www.yelp.com/biz/taverna-syrtaki-norderstedt?adjust_creative=hBJOknVQJ58S5goQyjmwRw&utm_campaign=yelp_api_v3&utm_medium=api_v3_business_search&utm_source=hBJOknVQJ58S5goQyjmwRw", "review_count": 30, "categories": [{"alias": "greek", "title": "Greek"}], "rating": 4.0, "coordinates": {"latitude": 53.7126, "longitude": 9.99246}, "transactions": [], "price": "\u20ac\u20ac", "location": {"address1": "Waldstr. 40", "address2": null, "address3": null, "city": "Norderstedt", "zip_code": "22846", "country": "DE", "state": "SH", "display_address": ["Waldstr. 40", "22846 Norderstedt", "Germany"]}, "phone": "+494032595388", "display_phone": "+49 40 32595388", "distance": 3694.822661959313}, {"id": "19uXg_TsMdYHg19MZptw-g", "alias": "lingtons-restaurant-hamburg", "name": "Lingtons Restaurant", "image_url": "https://s3-media2.fl.yelpcdn.com/bphoto/sVLbYqoDxV7R8JNwWsKSFA/o.jpg", "is_closed": false, "url": "https://www.yelp.com/biz/lingtons-restaurant-hamburg?adjust_creative=hBJOknVQJ58S5goQyjmwRw&utm_campaign=yelp_api_v3&utm_medium=api_v3_business_search&utm_source=hBJOknVQJ58S5goQyjmwRw", "review_count": 1, "categories": [{"alias": "restaurants", "title": "Restaurants"}], "rating": 1.0, "coordinates": {"latitude": 53.6434, "longitude": 9.96049}, "transactions": [], "price": "\u20ac\u20ac", "location": {"address1": "Sachsenweg 85", "address2": null, "address3": null, "city": "Hamburg", "zip_code": "22455", "country": "DE", "state": "HH", "display_address": ["Sachsenweg 85", "22455 Hamburg", "Germany"]}, "phone": "+49405518220", "display_phone": "+49 40 5518220", "distance": 4333.106607559538}, {"id": "nktdmga8RxQPOF8qw4Qr4A", "alias": "chutney-norderstedt", "name": "Chutney", "image_url": "https://s3-media3.fl.yelpcdn.com/bphoto/NCLA7nkQcCL_X6YbyI6fsw/o.jpg", "is_closed": false, "url": "https://www.yelp.com/biz/chutney-norderstedt?adjust_creative=hBJOknVQJ58S5goQyjmwRw&utm_campaign=yelp_api_v3&utm_medium=api_v3_business_search&utm_source=hBJOknVQJ58S5goQyjmwRw", "review_count": 1, "categories": [{"alias": "indpak", "title": "Indian"}, {"alias": "hotdogs", "title": "Fast Food"}], "rating": 4.0, "coordinates": {"latitude": 53.6857720631729, "longitude": 9.9864303298306}, "transactions": [], "location": {"address1": "Berliner Allee 38", "address2": "", "address3": "", "city": "Norderstedt", "zip_code": "22850", "country": "DE", "state": "SH", "display_address": ["Berliner Allee 38", "22850 Norderstedt", "Germany"]}, "phone": "", "display_phone": "", "distance": 1093.9571440601817}, {"id": "E61I5JcNZTLMEJMzyUMHDQ", "alias": "grill-station-norderstedt", "name": "Grill Station", "image_url": "", "is_closed": false, "url": "https://www.yelp.com/biz/grill-station-norderstedt?adjust_creative=hBJOknVQJ58S5goQyjmwRw&utm_campaign=yelp_api_v3&utm_medium=api_v3_business_search&utm_source=hBJOknVQJ58S5goQyjmwRw", "review_count": 1, "categories": [{"alias": "hotdogs", "title": "Fast Food"}, {"alias": "currysausage", "title": "Curry Sausage"}], "rating": 4.0, "coordinates": {"latitude": 53.669406, "longitude": 9.972473}, "transactions": [], "location": {"address1": "OBI", "address2": "Niendorfer Str. 85", "address3": "", "city": "Norderstedt", "zip_code": "22848", "country": "DE", "state": "SH", "display_address": ["OBI", "Niendorfer Str. 85", "22848 Norderstedt", "Germany"]}, "phone": "", "display_phone": "", "distance": 1439.0017347132266}, {"id": "6P64TboUCvYM3Td9Yczouw", "alias": "schnellimbi\u00df-hamburg", "name": "Schnellimbi\u00df", "image_url": "https://s3-media3.fl.yelpcdn.com/bphoto/tLVym6QJSh6g-J4MIe3xew/o.jpg", "is_closed": false, "url": "https://www.yelp.com/biz/schnellimbi%C3%9F-hamburg?adjust_creative=hBJOknVQJ58S5goQyjmwRw&utm_campaign=yelp_api_v3&utm_medium=api_v3_business_search&utm_source=hBJOknVQJ58S5goQyjmwRw", "review_count": 3, "categories": [{"alias": "hotdogs", "title": "Fast Food"}], "rating": 2.5, "coordinates": {"latitude": 53.64043, "longitude": 9.94832}, "transactions": [], "price": "\u20ac\u20ac", "location": {"address1": "Nordalbingerweg 19", "address2": null, "address3": null, "city": "Hamburg", "zip_code": "22455", "country": "DE", "state": "HH", "display_address": ["Nordalbingerweg 19", "22455 Hamburg", "Germany"]}, "phone": "+494057144523", "display_phone": "+49 40 57144523", "distance": 4845.93699237709}, {"id": "bw1ZyNis-QiZQZ3cfEA5cg", "alias": "kochgenuss-zwei-norderstedt", "name": "Kochgenuss Zwei", "image_url": "https://s3-media4.fl.yelpcdn.com/bphoto/Md8ruGAdoriSvFt-G1EMKw/o.jpg", "is_closed": false, "url": "https://www.yelp.com/biz/kochgenuss-zwei-norderstedt?adjust_creative=hBJOknVQJ58S5goQyjmwRw&utm_campaign=yelp_api_v3&utm_medium=api_v3_business_search&utm_source=hBJOknVQJ58S5goQyjmwRw", "review_count": 1, "categories": [{"alias": "breakfast_brunch", "title": "Breakfast & Brunch"}], "rating": 3.0, "coordinates": {"latitude": 53.6582099, "longitude": 9.98279}, "transactions": [], "price": "\u20ac", "location": {"address1": "Gutenbergring 69 C", "address2": "", "address3": null, "city": "Norderstedt", "zip_code": "22848", "country": "DE", "state": "SH", "display_address": ["Gutenbergring 69 C", "22848 Norderstedt", "Germany"]}, "phone": "+494030982002", "display_phone": "+49 40 30982002", "distance": 2745.6034623058354}, {"id": "El4FdT2Y6eTX6kKNZaduKQ", "alias": "coffee-to-fly-hamburg", "name": "Coffee To Fly", "image_url": "https://s3-media2.fl.yelpcdn.com/bphoto/SR9s-ZvESkaXd5iycIqBOg/o.jpg", "is_closed": false, "url": "https://www.yelp.com/biz/coffee-to-fly-hamburg?adjust_creative=hBJOknVQJ58S5goQyjmwRw&utm_campaign=yelp_api_v3&utm_medium=api_v3_business_search&utm_source=hBJOknVQJ58S5goQyjmwRw", "review_count": 41, "categories": [{"alias": "cafes", "title": "Cafes"}], "rating": 4.0, "coordinates": {"latitude": 53.640552037762, "longitude": 9.99215513309023}, "transactions": [], "price": "\u20ac\u20ac", "location": {"address1": "Holtkoppel 100", "address2": "", "address3": "", "city": "Hamburg", "zip_code": "22415", "country": "DE", "state": "HH", "display_address": ["Holtkoppel 100", "22415 Hamburg", "Germany"]}, "phone": "+491797680957", "display_phone": "+49 179 7680957", "distance": 4795.131869146288}, {"id": "tti5gFBDI-gdTBiNbFqR7Q", "alias": "papp-satt-norderstedt-2", "name": "Papp Satt", "image_url": "https://s3-media2.fl.yelpcdn.com/bphoto/9FrxI-265hYP2i1M1un_OQ/o.jpg", "is_closed": false, "url": "https://www.yelp.com/biz/papp-satt-norderstedt-2?adjust_creative=hBJOknVQJ58S5goQyjmwRw&utm_campaign=yelp_api_v3&utm_medium=api_v3_business_search&utm_source=hBJOknVQJ58S5goQyjmwRw", "review_count": 7, "categories": [{"alias": "breakfast_brunch", "title": "Breakfast & Brunch"}, {"alias": "currysausage", "title": "Curry Sausage"}, {"alias": "sandwiches", "title": "Sandwiches"}], "rating": 3.0, "coordinates": {"latitude": 53.6793, "longitude": 9.9679004}, "transactions": [], "price": "\u20ac", "location": {"address1": "Friedrichsgaber Weg 5", "address2": null, "address3": null, "city": "Norderstedt", "zip_code": "22848", "country": "DE", "state": "SH", "display_address": ["Friedrichsgaber Weg 5", "22848 Norderstedt", "Germany"]}, "phone": "+49405282670", "display_phone": "+49 40 5282670", "distance": 356.9922553053732}, {"id": "IgMynYpIjB9Oso2DXpdWFA", "alias": "jade-running-sushi-norderstedt-2", "name": "Jade Running Sushi", "image_url": "https://s3-media2.fl.yelpcdn.com/bphoto/PhyJdYunvhBcxw9UnsC64Q/o.jpg", "is_closed": false, "url": "https://www.yelp.com/biz/jade-running-sushi-norderstedt-2?adjust_creative=hBJOknVQJ58S5goQyjmwRw&utm_campaign=yelp_api_v3&utm_medium=api_v3_business_search&utm_source=hBJOknVQJ58S5goQyjmwRw", "review_count": 5, "categories": [{"alias": "conveyorsushi", "title": "Conveyor Belt Sushi"}], "rating": 4.5, "coordinates": {"latitude": 53.6814199297732, "longitude": 9.99390006065369}, "transactions": [], "location": {"address1": "Ochsenzoller Str. 194", "address2": "", "address3": null, "city": "Norderstedt", "zip_code": "22848", "country": "DE", "state": "SH", "display_address": ["Ochsenzoller Str. 194", "22848 Norderstedt", "Germany"]}, "phone": "+494042947888", "display_phone": "+49 40 42947888", "distance": 1495.957283896172}, {"id": "aJAkmu6m_A9gmdIxSf0SYg", "alias": "burger-king-norderstedt", "name": "Burger King", "image_url": "https://s3-media1.fl.yelpcdn.com/bphoto/PgBPMDh5M1v-eFdR5-8_iA/o.jpg", "is_closed": false, "url": "https://www.yelp.com/biz/burger-king-norderstedt?adjust_creative=hBJOknVQJ58S5goQyjmwRw&utm_campaign=yelp_api_v3&utm_medium=api_v3_business_search&utm_source=hBJOknVQJ58S5goQyjmwRw", "review_count": 8, "categories": [{"alias": "hotdogs", "title": "Fast Food"}, {"alias": "burgers", "title": "Burgers"}], "rating": 3.5, "coordinates": {"latitude": 53.6846762346846, "longitude": 9.98520815534032}, "transactions": [], "price": "\u20ac\u20ac", "location": {"address1": "Berliner Allee  38-44a", "address2": null, "address3": null, "city": "Norderstedt", "zip_code": "22850", "country": "DE", "state": "SH", "display_address": ["Berliner Allee  38-44a", "22850 Norderstedt", "Germany"]}, "phone": "+494051312123", "display_phone": "+49 40 51312123", "distance": 974.8270318820939}, {"id": "-rEgwMosGsxFEgwwIEYSyg", "alias": "croque-point-niendorf-nord-hamburg", "name": "Croque Point Niendorf Nord", "image_url": "", "is_closed": false, "url": "https://www.yelp.com/biz/croque-point-niendorf-nord-hamburg?adjust_creative=hBJOknVQJ58S5goQyjmwRw&utm_campaign=yelp_api_v3&utm_medium=api_v3_business_search&utm_source=hBJOknVQJ58S5goQyjmwRw", "review_count": 9, "categories": [{"alias": "sandwiches", "title": "Sandwiches"}], "rating": 4.5, "coordinates": {"latitude": 53.64031, "longitude": 9.94794}, "transactions": [], "price": "\u20ac\u20ac", "location": {"address1": "Nordalbingerweg 17 b", "address2": null, "address3": null, "city": "Hamburg", "zip_code": "22455", "country": "DE", "state": "HH", "display_address": ["Nordalbingerweg 17 b", "22455 Hamburg", "Germany"]}, "phone": "+494057128880", "display_phone": "+49 40 57128880", "distance": 4866.446854116618}, {"id": "YMu9EG5Vn0fOR1-C2iuBgA", "alias": "die-pizza-profis-norderstedt", "name": "Die Pizza Profis", "image_url": "https://s3-media1.fl.yelpcdn.com/bphoto/HlNnqfVK3i0CRPBY-SCpOg/o.jpg", "is_closed": false, "url": "https://www.yelp.com/biz/die-pizza-profis-norderstedt?adjust_creative=hBJOknVQJ58S5goQyjmwRw&utm_campaign=yelp_api_v3&utm_medium=api_v3_business_search&utm_source=hBJOknVQJ58S5goQyjmwRw", "review_count": 4, "categories": [{"alias": "italian", "title": "Italian"}, {"alias": "pizza", "title": "Pizza"}], "rating": 3.0, "coordinates": {"latitude": 53.661525, "longitude": 9.984811}, "transactions": [], "price": "\u20ac", "location": {"address1": "Gutenbergring 30a", "address2": null, "address3": null, "city": "Norderstedt", "zip_code": "22848", "country": "DE", "state": "SH", "display_address": ["Gutenbergring 30a", "22848 Norderstedt", "Germany"]}, "phone": "+494060924092", "display_phone": "+49 40 60924092", "distance": 2431.3408406086646}, {"id": "kZsG-XSBM_rwAQapvUwAPg", "alias": "dominos-norderstedt", "name": "Domino's", "image_url": "", "is_closed": false, "url": "https://www.yelp.com/biz/dominos-norderstedt?adjust_creative=hBJOknVQJ58S5goQyjmwRw&utm_campaign=yelp_api_v3&utm_medium=api_v3_business_search&utm_source=hBJOknVQJ58S5goQyjmwRw", "review_count": 1, "categories": [{"alias": "pizza", "title": "Pizza"}], "rating": 4.0, "coordinates": {"latitude": 53.7056, "longitude": 9.9961}, "transactions": [], "price": "\u20ac", "location": {"address1": "Ulzburger Str. 283", "address2": "", "address3": null, "city": "Norderstedt", "zip_code": "22850", "country": "DE", "state": "SH", "display_address": ["Ulzburger Str. 283", "22850 Norderstedt", "Germany"]}, "phone": "+49405218385", "display_phone": "+49 40 5218385", "distance": 3125.2461325685053}, {"id": "FpDoZjguYTwJ0-iS6aOlMA", "alias": "moorbek-cafe-norderstedt", "name": "Moorbek Cafe", "image_url": "https://s3-media1.fl.yelpcdn.com/bphoto/vbc5fzqYagm5FVungxPtYA/o.jpg", "is_closed": false, "url": "https://www.yelp.com/biz/moorbek-cafe-norderstedt?adjust_creative=hBJOknVQJ58S5goQyjmwRw&utm_campaign=yelp_api_v3&utm_medium=api_v3_business_search&utm_source=hBJOknVQJ58S5goQyjmwRw", "review_count": 4, "categories": [{"alias": "cafes", "title": "Cafes"}, {"alias": "cocktailbars", "title": "Cocktail Bars"}], "rating": 3.5, "coordinates": {"latitude": 53.707187, "longitude": 9.988963}, "transactions": [], "price": "\u20ac", "location": {"address1": "Rathausallee 35 - 39", "address2": null, "address3": null, "city": "Norderstedt", "zip_code": "22846", "country": "DE", "state": "SH", "display_address": ["Rathausallee 35 - 39", "22846 Norderstedt", "Germany"]}, "phone": "+49405261230", "display_phone": "+49 40 5261230", "distance": 3050.6394057791945}, {"id": "UePPKwDepOjBg7cr3Dpf4Q", "alias": "mcdonalds-norderstedt", "name": "McDonald's", "image_url": "", "is_closed": false, "url": "https://www.yelp.com/biz/mcdonalds-norderstedt?adjust_creative=hBJOknVQJ58S5goQyjmwRw&utm_campaign=yelp_api_v3&utm_medium=api_v3_business_search&utm_source=hBJOknVQJ58S5goQyjmwRw", "review_count": 3, "categories": [{"alias": "hotdogs", "title": "Fast Food"}, {"alias": "burgers", "title": "Burgers"}], "rating": 2.5, "coordinates": {"latitude": 53.6853, "longitude": 9.98936}, "transactions": [], "location": {"address1": "Berliner Allee 43", "address2": null, "address3": null, "city": "Norderstedt", "zip_code": "22850", "country": "DE", "state": "SH", "display_address": ["Berliner Allee 43", "22850 Norderstedt", "Germany"]}, "phone": "", "display_phone": "", "distance": 1256.199199991024}, {"id": "x0Lhma7b57Bv7J-FnYk9yQ", "alias": "speedys-pizzaservice-norderstedt", "name": "Speedy's Pizzaservice", "image_url": "", "is_closed": false, "url": "https://www.yelp.com/biz/speedys-pizzaservice-norderstedt?adjust_creative=hBJOknVQJ58S5goQyjmwRw&utm_campaign=yelp_api_v3&utm_medium=api_v3_business_search&utm_source=hBJOknVQJ58S5goQyjmwRw", "review_count": 8, "categories": [{"alias": "catering", "title": "Caterers"}, {"alias": "fooddeliveryservices", "title": "Food Delivery Services"}, {"alias": "italian", "title": "Italian"}], "rating": 2.0, "coordinates": {"latitude": 53.6815, "longitude": 9.9814}, "transactions": [], "price": "\u20ac", "location": {"address1": "Tannenhofstr. 8", "address2": null, "address3": null, "city": "Norderstedt", "zip_code": "22848", "country": "DE", "state": "SH", "display_address": ["Tannenhofstr. 8", "22848 Norderstedt", "Germany"]}, "phone": "+494052878650", "display_phone": "+49 40 52878650", "distance": 673.091650997716}, {"id": "vosATr3yhAp-sVSOKxP8eg", "alias": "schnell-restaurant-apadokya-norderstedt", "name": "Schnell-Restaurant apadokya", "image_url": "", "is_closed": false, "url": "https://www.yelp.com/biz/schnell-restaurant-apadokya-norderstedt?adjust_creative=hBJOknVQJ58S5goQyjmwRw&utm_campaign=yelp_api_v3&utm_medium=api_v3_business_search&utm_source=hBJOknVQJ58S5goQyjmwRw", "review_count": 1, "categories": [{"alias": "chinese", "title": "Chinese"}], "rating": 5.0, "coordinates": {"latitude": 53.6735, "longitude": 9.98559}, "transactions": [], "location": {"address1": null, "address2": null, "address3": null, "city": "Norderstedt", "zip_code": "22848", "country": "DE", "state": "SH", "display_address": ["22848 Norderstedt", "Germany"]}, "phone": "", "display_phone": "", "distance": 1326.8475886396147}, {"id": "5gvlBQeIzXzBLS30nJBmgw", "alias": "eiscaf\u00e8-veneto-norderstedt-2", "name": "Eiscaf\u00e8 Veneto", "image_url": "", "is_closed": false, "url": "https://www.yelp.com/biz/eiscaf%C3%A8-veneto-norderstedt-2?adjust_creative=hBJOknVQJ58S5goQyjmwRw&utm_campaign=yelp_api_v3&utm_medium=api_v3_business_search&utm_source=hBJOknVQJ58S5goQyjmwRw", "review_count": 6, "categories": [{"alias": "icecream", "title": "Ice Cream & Frozen Yogurt"}, {"alias": "restaurants", "title": "Restaurants"}], "rating": 3.5, "coordinates": {"latitude": 53.6848, "longitude": 9.98482}, "transactions": [], "price": "\u20ac\u20ac\u20ac", "location": {"address1": "Berliner Allee 42", "address2": null, "address3": null, "city": "Norderstedt", "zip_code": "22850", "country": "DE", "state": "SH", "display_address": ["Berliner Allee 42", "22850 Norderstedt", "Germany"]}, "phone": "+49405233674", "display_phone": "+49 40 5233674", "distance": 955.3052182792567}, {"id": "lhC2Gmqee-4kuYPKDJ_TzQ", "alias": "mekong-norderstedt", "name": "Mekong", "image_url": "", "is_closed": false, "url": "https://www.yelp.com/biz/mekong-norderstedt?adjust_creative=hBJOknVQJ58S5goQyjmwRw&utm_campaign=yelp_api_v3&utm_medium=api_v3_business_search&utm_source=hBJOknVQJ58S5goQyjmwRw", "review_count": 16, "categories": [{"alias": "panasian", "title": "Pan Asian"}], "rating": 2.5, "coordinates": {"latitude": 53.69, "longitude": 9.98026}, "transactions": [], "price": "\u20ac\u20ac", "location": {"address1": "Stettiner Str. 6", "address2": null, "address3": null, "city": "Norderstedt", "zip_code": "22850", "country": "DE", "state": "SH", "display_address": ["Stettiner Str. 6", "22850 Norderstedt", "Germany"]}, "phone": "+4952878036", "display_phone": "+49 5287 8036", "distance": 1085.2345848858165}, {"id": "0K-1I95AAVd41fzDH3UKZg", "alias": "american-pizza-drive-norderstedt", "name": "American Pizza-Drive", "image_url": "https://s3-media1.fl.yelpcdn.com/bphoto/3QMsoZxF4noAnwNm6F2Bzw/o.jpg", "is_closed": false, "url": "https://www.yelp.com/biz/american-pizza-drive-norderstedt?adjust_creative=hBJOknVQJ58S5goQyjmwRw&utm_campaign=yelp_api_v3&utm_medium=api_v3_business_search&utm_source=hBJOknVQJ58S5goQyjmwRw", "review_count": 2, "categories": [{"alias": "pizza", "title": "Pizza"}, {"alias": "fooddeliveryservices", "title": "Food Delivery Services"}], "rating": 1.0, "coordinates": {"latitude": 53.7187, "longitude": 9.98679}, "transactions": [], "location": {"address1": "Syltkuhlen 3", "address2": null, "address3": null, "city": "Norderstedt", "zip_code": "22846", "country": "DE", "state": "SH", "display_address": ["Syltkuhlen 3", "22846 Norderstedt", "Germany"]}, "phone": "+494053530153", "display_phone": "+49 40 53530153", "distance": 4224.283900785072}]