[{"id": "7tl-_xvzVJARRnIfpoTqDQ", "alias": "toscanello-hamburg", "name": "Toscanello", "image_url": "https://s3-media4.fl.yelpcdn.com/bphoto/a47jA3FqOh48lIOEAYeewA/o.jpg", "is_closed": false, "url": "https://www.yelp.com/biz/toscanello-hamburg?adjust_creative=hBJOknVQJ58S5goQyjmwRw&utm_campaign=yelp_api_v3&utm_medium=api_v3_business_search&utm_source=hBJOknVQJ58S5goQyjmwRw", "review_count": 26, "categories": [{"alias": "italian", "title": "Italian"}], "rating": 4.5, "coordinates": {"latitude": 53.67872, "longitude": 10.09455}, "transactions": [], "price": "\u20ac\u20ac", "location": {"address1": "Lemsahler Landstr. 118", "address2": null, "address3": null, "city": "Hamburg", "zip_code": "22397", "country": "DE", "state": "HH", "display_address": ["Lemsahler Landstr. 118", "22397 Hamburg", "Germany"]}, "phone": "+494025486304", "display_phone": "+49 40 25486304", "distance": 275.27346738528047}, {"id": "dxXgqSM_utHxfwtBR8H9nw", "alias": "stocks-hamburg", "name": "Stocks", "image_url": "https://s3-media1.fl.yelpcdn.com/bphoto/hp61P_D_U_TOFwFzswDcYg/o.jpg", "is_closed": false, "url": "https://www.yelp.com/biz/stocks-hamburg?adjust_creative=hBJOknVQJ58S5goQyjmwRw&utm_campaign=yelp_api_v3&utm_medium=api_v3_business_search&utm_source=hBJOknVQJ58S5goQyjmwRw", "review_count": 115, "categories": [{"alias": "seafood", "title": "Seafood"}, {"alias": "sushi", "title": "Sushi Bars"}], "rating": 4.5, "coordinates": {"latitude": 53.66898, "longitude": 10.09112}, "transactions": [], "price": "\u20ac\u20ac\u20ac", "location": {"address1": "An der Alsterschleife 3", "address2": null, "address3": null, "city": "Hamburg", "zip_code": "22399", "country": "DE", "state": "HH", "display_address": ["An der Alsterschleife 3", "22399 Hamburg", "Germany"]}, "phone": "+49406113620", "display_phone": "+49 40 6113620", "distance": 1315.7197679443916}, {"id": "GhYjVVk2Ew9GzaKrZIaVHA", "alias": "kr\u00f6gers-gasthaus-hamburg", "name": "Kr\u00f6ger's Gasthaus", "image_url": "https://s3-media1.fl.yelpcdn.com/bphoto/gevSZH7AAUrl41f9FmEzjg/o.jpg", "is_closed": false, "url": "https://www.yelp.com/biz/kr%C3%B6gers-gasthaus-hamburg?adjust_creative=hBJOknVQJ58S5goQyjmwRw&utm_campaign=yelp_api_v3&utm_medium=api_v3_business_search&utm_source=hBJOknVQJ58S5goQyjmwRw", "review_count": 28, "categories": [{"alias": "german", "title": "German"}], "rating": 4.0, "coordinates": {"latitude": 53.6757, "longitude": 10.09346}, "transactions": [], "price": "\u20ac\u20ac", "location": {"address1": "Lemsahler Landstr. 80", "address2": "", "address3": "", "city": "Hamburg", "zip_code": "22397", "country": "DE", "state": "HH", "display_address": ["Lemsahler Landstr. 80", "22397 Hamburg", "Germany"]}, "phone": "+49406083434", "display_phone": "+49 40 6083434", "distance": 574.4730098148946}, {"id": "zvZGazCk353WSug_HeIUNg", "alias": "flammkuchentraum-hamburg", "name": "Flammkuchentraum", "image_url": "https://s3-media2.fl.yelpcdn.com/bphoto/IcM1NsnHFGFL6BUA1T1Y3A/o.jpg", "is_closed": false, "url": "https://www.yelp.com/biz/flammkuchentraum-hamburg?adjust_creative=hBJOknVQJ58S5goQyjmwRw&utm_campaign=yelp_api_v3&utm_medium=api_v3_business_search&utm_source=hBJOknVQJ58S5goQyjmwRw", "review_count": 5, "categories": [{"alias": "german", "title": "German"}, {"alias": "cafes", "title": "Cafes"}], "rating": 4.0, "coordinates": {"latitude": 53.686791, "longitude": 10.094547}, "transactions": [], "price": "\u20ac\u20ac", "location": {"address1": "Lemsahler Landstr. 195", "address2": "", "address3": "", "city": "Hamburg", "zip_code": "22397", "country": "DE", "state": "HH", "display_address": ["Lemsahler Landstr. 195", "22397 Hamburg", "Germany"]}, "phone": "+494084892373", "display_phone": "+49 40 84892373", "distance": 670.7738814883069}, {"id": "hz50-hDcuY8KxhG5S4xLDg", "alias": "gasthaus-offen-hamburg", "name": "Gasthaus Offen", "image_url": "https://s3-media2.fl.yelpcdn.com/bphoto/z60mHTwqI2onQiOeUjFPSg/o.jpg", "is_closed": false, "url": "https://www.yelp.com/biz/gasthaus-offen-hamburg?adjust_creative=hBJOknVQJ58S5goQyjmwRw&utm_campaign=yelp_api_v3&utm_medium=api_v3_business_search&utm_source=hBJOknVQJ58S5goQyjmwRw", "review_count": 55, "categories": [{"alias": "german", "title": "German"}], "rating": 4.0, "coordinates": {"latitude": 53.6865, "longitude": 10.105}, "transactions": [], "price": "\u20ac\u20ac", "location": {"address1": "Lemsahler Dorfstr. 39", "address2": null, "address3": null, "city": "Hamburg", "zip_code": "22397", "country": "DE", "state": "HH", "display_address": ["Lemsahler Dorfstr. 39", "22397 Hamburg", "Germany"]}, "phone": "+49406083835", "display_phone": "+49 40 6083835", "distance": 1049.0738527680198}, {"id": "BAPz48pmYBDBfXbOikW2DQ", "alias": "lenz-hamburg", "name": "Lenz", "image_url": "https://s3-media3.fl.yelpcdn.com/bphoto/9graD77lr-0YQC4FQt5PaQ/o.jpg", "is_closed": false, "url": "https://www.yelp.com/biz/lenz-hamburg?adjust_creative=hBJOknVQJ58S5goQyjmwRw&utm_campaign=yelp_api_v3&utm_medium=api_v3_business_search&utm_source=hBJOknVQJ58S5goQyjmwRw", "review_count": 87, "categories": [{"alias": "wine_bars", "title": "Wine Bars"}, {"alias": "german", "title": "German"}], "rating": 4.5, "coordinates": {"latitude": 53.70815, "longitude": 10.10589}, "transactions": [], "price": "\u20ac\u20ac\u20ac", "location": {"address1": "Poppenb\u00fctteler Chaussee 3", "address2": null, "address3": null, "city": "Hamburg", "zip_code": "22397", "country": "DE", "state": "HH", "display_address": ["Poppenb\u00fctteler Chaussee 3", "22397 Hamburg", "Germany"]}, "phone": "+494060558887", "display_phone": "+49 40 60558887", "distance": 3169.435271760729}, {"id": "lPP7z4ItqTPpA_XX52QnrA", "alias": "alte-m\u00fchle-hamburg", "name": "Alte M\u00fchle", "image_url": "https://s3-media2.fl.yelpcdn.com/bphoto/aQx2TqQhVkygL5E089prJQ/o.jpg", "is_closed": false, "url": "https://www.yelp.com/biz/alte-m%C3%BChle-hamburg?adjust_creative=hBJOknVQJ58S5goQyjmwRw&utm_campaign=yelp_api_v3&utm_medium=api_v3_business_search&utm_source=hBJOknVQJ58S5goQyjmwRw", "review_count": 34, "categories": [{"alias": "german", "title": "German"}, {"alias": "cafes", "title": "Cafes"}], "rating": 4.0, "coordinates": {"latitude": 53.6701998, "longitude": 10.1083718}, "transactions": [], "price": "\u20ac\u20ac", "location": {"address1": "Alte M\u00fchle 34", "address2": null, "address3": null, "city": "Hamburg", "zip_code": "22395", "country": "DE", "state": "HH", "display_address": ["Alte M\u00fchle 34", "22395 Hamburg", "Germany"]}, "phone": "+49406049171", "display_phone": "+49 40 6049171", "distance": 1584.785503323671}, {"id": "8x14AO14Qzu_Kr1k5F5gWQ", "alias": "zur-kastanie-hamburg-2", "name": "Zur Kastanie", "image_url": "https://s3-media4.fl.yelpcdn.com/bphoto/uUQJsafxvys3m925Xy2Y6A/o.jpg", "is_closed": false, "url": "https://www.yelp.com/biz/zur-kastanie-hamburg-2?adjust_creative=hBJOknVQJ58S5goQyjmwRw&utm_campaign=yelp_api_v3&utm_medium=api_v3_business_search&utm_source=hBJOknVQJ58S5goQyjmwRw", "review_count": 14, "categories": [{"alias": "german", "title": "German"}], "rating": 4.0, "coordinates": {"latitude": 53.70517, "longitude": 10.11532}, "transactions": [], "price": "\u20ac\u20ac\u20ac", "location": {"address1": "Specksaalredder 14", "address2": null, "address3": null, "city": "Hamburg", "zip_code": "22397", "country": "DE", "state": "HH", "display_address": ["Specksaalredder 14", "22397 Hamburg", "Germany"]}, "phone": "+49406072525", "display_phone": "+49 40 6072525", "distance": 3039.349182847603}, {"id": "VbKiVGP2cCppm1x1ez_bBg", "alias": "san-daniele-hamburg", "name": "San Daniele", "image_url": "https://s3-media1.fl.yelpcdn.com/bphoto/wzgPp1VLVtYHabRYDzL22A/o.jpg", "is_closed": false, "url": "https://www.yelp.com/biz/san-daniele-hamburg?adjust_creative=hBJOknVQJ58S5goQyjmwRw&utm_campaign=yelp_api_v3&utm_medium=api_v3_business_search&utm_source=hBJOknVQJ58S5goQyjmwRw", "review_count": 43, "categories": [{"alias": "italian", "title": "Italian"}], "rating": 4.0, "coordinates": {"latitude": 53.6638351834504, "longitude": 10.0749372835047}, "transactions": [], "price": "\u20ac\u20ac\u20ac", "location": {"address1": "Langenhorner Stra\u00dfe-Ost 7", "address2": "", "address3": "", "city": "Hamburg", "zip_code": "22399", "country": "DE", "state": "HH", "display_address": ["Langenhorner Stra\u00dfe-Ost 7", "22399 Hamburg", "Germany"]}, "phone": "+494061164693", "display_phone": "+49 40 61164693", "distance": 2206.516373448412}, {"id": "Xop8tuUgi1wWhZ2UNo8I9Q", "alias": "restaurant-mellingburger-schleuse-hamburg", "name": "Restaurant Mellingburger Schleuse", "image_url": "https://s3-media2.fl.yelpcdn.com/bphoto/ihfZ5LheEmuWRPg8-kqSVw/o.jpg", "is_closed": false, "url": "https://www.yelp.com/biz/restaurant-mellingburger-schleuse-hamburg?adjust_creative=hBJOknVQJ58S5goQyjmwRw&utm_campaign=yelp_api_v3&utm_medium=api_v3_business_search&utm_source=hBJOknVQJ58S5goQyjmwRw", "review_count": 5, "categories": [{"alias": "german", "title": "German"}], "rating": 4.0, "coordinates": {"latitude": 53.66999, "longitude": 10.09828}, "transactions": [], "location": {"address1": "Mellingburgredder 1", "address2": "", "address3": "", "city": "Hamburg", "zip_code": "22395", "country": "DE", "state": "HH", "display_address": ["Mellingburgredder 1", "22395 Hamburg", "Germany"]}, "phone": "+49406024001", "display_phone": "+49 40 6024001", "distance": 1397.784453339844}, {"id": "65T_PmvHhTUckycwmjfREw", "alias": "metzgers-hamburg", "name": "Metzgers", "image_url": "https://s3-media2.fl.yelpcdn.com/bphoto/4gQwFejRNyAmAWG6mGavCA/o.jpg", "is_closed": false, "url": "https://www.yelp.com/biz/metzgers-hamburg?adjust_creative=hBJOknVQJ58S5goQyjmwRw&utm_campaign=yelp_api_v3&utm_medium=api_v3_business_search&utm_source=hBJOknVQJ58S5goQyjmwRw", "review_count": 5, "categories": [{"alias": "steak", "title": "Steakhouses"}, {"alias": "burgers", "title": "Burgers"}, {"alias": "meats", "title": "Meat Shops"}], "rating": 4.5, "coordinates": {"latitude": 53.65393, "longitude": 10.09115}, "transactions": [], "price": "\u20ac\u20ac", "location": {"address1": "Heegbarg 31", "address2": "", "address3": null, "city": "Hamburg", "zip_code": "22391", "country": "DE", "state": "HH", "display_address": ["Heegbarg 31", "22391 Hamburg", "Germany"]}, "phone": "", "display_phone": "", "distance": 2947.747800585488}, {"id": "JGfK13HXQPajbp17DeCfLA", "alias": "restaurant-treudelberg-hamburg", "name": "Restaurant Treudelberg", "image_url": "https://s3-media3.fl.yelpcdn.com/bphoto/qGLsjNfPd6CmA616L4w_Vw/o.jpg", "is_closed": false, "url": "https://www.yelp.com/biz/restaurant-treudelberg-hamburg?adjust_creative=hBJOknVQJ58S5goQyjmwRw&utm_campaign=yelp_api_v3&utm_medium=api_v3_business_search&utm_source=hBJOknVQJ58S5goQyjmwRw", "review_count": 10, "categories": [{"alias": "german", "title": "German"}, {"alias": "international", "title": "International"}], "rating": 3.5, "coordinates": {"latitude": 53.6735191, "longitude": 10.0904799}, "transactions": [], "price": "\u20ac\u20ac\u20ac", "location": {"address1": "Lehmsahler Landstr. 45", "address2": "", "address3": "", "city": "Hamburg", "zip_code": "22397", "country": "DE", "state": "HH", "display_address": ["Lehmsahler Landstr. 45", "22397 Hamburg", "Germany"]}, "phone": "+4940608228712", "display_phone": "+49 40 608228712", "distance": 870.3445144566984}, {"id": "YY5zm9RE9A7Y6Bwz7c4Z4Q", "alias": "indian-temple-hamburg-4", "name": "Indian Temple", "image_url": "https://s3-media1.fl.yelpcdn.com/bphoto/XFfM2ecW3PStoPw8kxniCA/o.jpg", "is_closed": false, "url": "https://www.yelp.com/biz/indian-temple-hamburg-4?adjust_creative=hBJOknVQJ58S5goQyjmwRw&utm_campaign=yelp_api_v3&utm_medium=api_v3_business_search&utm_source=hBJOknVQJ58S5goQyjmwRw", "review_count": 12, "categories": [{"alias": "indpak", "title": "Indian"}], "rating": 4.5, "coordinates": {"latitude": 53.6531, "longitude": 10.10639}, "transactions": [], "price": "\u20ac\u20ac", "location": {"address1": "Saseler Chaussee 205", "address2": "", "address3": "", "city": "Hamburg", "zip_code": "22393", "country": "DE", "state": "HH", "display_address": ["Saseler Chaussee 205", "22393 Hamburg", "Germany"]}, "phone": "+494046642464", "display_phone": "+49 40 46642464", "distance": 3218.9613796440144}, {"id": "RsZ18JONLGCdSUJyFLN9WA", "alias": "del-favero-hamburg-3", "name": "Del Favero", "image_url": "https://s3-media3.fl.yelpcdn.com/bphoto/F5TCDKHJ8gO3MSrrLA0org/o.jpg", "is_closed": false, "url": "https://www.yelp.com/biz/del-favero-hamburg-3?adjust_creative=hBJOknVQJ58S5goQyjmwRw&utm_campaign=yelp_api_v3&utm_medium=api_v3_business_search&utm_source=hBJOknVQJ58S5goQyjmwRw", "review_count": 34, "categories": [{"alias": "italian", "title": "Italian"}], "rating": 4.0, "coordinates": {"latitude": 53.6548112255357, "longitude": 10.09302680986}, "transactions": [], "price": "\u20ac\u20ac", "location": {"address1": "Heegbarg 28", "address2": null, "address3": null, "city": "Hamburg", "zip_code": "22391", "country": "DE", "state": "HH", "display_address": ["Heegbarg 28", "22391 Hamburg", "Germany"]}, "phone": "+49406061075", "display_phone": "+49 40 6061075", "distance": 2890.823772231853}, {"id": "dZbaKFMEP7PF2_2bDg09ag", "alias": "mellinghus-hamburg", "name": "Mellinghus", "image_url": "https://s3-media2.fl.yelpcdn.com/bphoto/Rnfp4aFKm8fXD30Yp8J85A/o.jpg", "is_closed": false, "url": "https://www.yelp.com/biz/mellinghus-hamburg?adjust_creative=hBJOknVQJ58S5goQyjmwRw&utm_campaign=yelp_api_v3&utm_medium=api_v3_business_search&utm_source=hBJOknVQJ58S5goQyjmwRw", "review_count": 20, "categories": [{"alias": "wine_bars", "title": "Wine Bars"}, {"alias": "german", "title": "German"}], "rating": 4.0, "coordinates": {"latitude": 53.66855, "longitude": 10.09151}, "transactions": [], "price": "\u20ac\u20ac\u20ac", "location": {"address1": "An der Alsterschleife 2", "address2": "", "address3": "", "city": "Hamburg", "zip_code": "22399", "country": "DE", "state": "HH", "display_address": ["An der Alsterschleife 2", "22399 Hamburg", "Germany"]}, "phone": "+49406064838", "display_phone": "+49 40 6064838", "distance": 1364.0906736342104}, {"id": "5tp5KcW-tVRYKWq95ZK6iQ", "alias": "ristorante-italia-hamburg", "name": "Ristorante Italia", "image_url": "https://s3-media1.fl.yelpcdn.com/bphoto/zzCb9cJx5f7VE2F9vJQmEQ/o.jpg", "is_closed": false, "url": "https://www.yelp.com/biz/ristorante-italia-hamburg?adjust_creative=hBJOknVQJ58S5goQyjmwRw&utm_campaign=yelp_api_v3&utm_medium=api_v3_business_search&utm_source=hBJOknVQJ58S5goQyjmwRw", "review_count": 35, "categories": [{"alias": "italian", "title": "Italian"}], "rating": 4.0, "coordinates": {"latitude": 53.70802, "longitude": 10.10804}, "transactions": [], "price": "\u20ac\u20ac", "location": {"address1": "Duvenstedter Damm 45", "address2": "", "address3": null, "city": "Hamburg", "zip_code": "22397", "country": "DE", "state": "HH", "display_address": ["Duvenstedter Damm 45", "22397 Hamburg", "Germany"]}, "phone": "+49406072750", "display_phone": "+49 40 6072750", "distance": 3193.7231422139744}, {"id": "rvih7rBlO-VmsWMbgAkJbQ", "alias": "bb-bistro-hamburg", "name": "BB Bistro", "image_url": "https://s3-media3.fl.yelpcdn.com/bphoto/bps_H8kKPnWnMYKvdB3xPQ/o.jpg", "is_closed": false, "url": "https://www.yelp.com/biz/bb-bistro-hamburg?adjust_creative=hBJOknVQJ58S5goQyjmwRw&utm_campaign=yelp_api_v3&utm_medium=api_v3_business_search&utm_source=hBJOknVQJ58S5goQyjmwRw", "review_count": 31, "categories": [{"alias": "bistros", "title": "Bistros"}, {"alias": "chinese", "title": "Chinese"}], "rating": 4.5, "coordinates": {"latitude": 53.653329, "longitude": 10.114534}, "transactions": [], "price": "\u20ac", "location": {"address1": "Waldweg 8", "address2": "", "address3": "", "city": "Hamburg", "zip_code": "22393", "country": "DE", "state": "HH", "display_address": ["Waldweg 8", "22393 Hamburg", "Germany"]}, "phone": "+494088165634", "display_phone": "+49 40 88165634", "distance": 3392.1307509461208}, {"id": "7yDn3Eb-Oo9lECGO2MS0qw", "alias": "watzmann-wirtshaus-hamburg", "name": "Watzmann Wirtshaus", "image_url": "https://s3-media4.fl.yelpcdn.com/bphoto/fAGbOGkp82110R3lEOTKfw/o.jpg", "is_closed": false, "url": "https://www.yelp.com/biz/watzmann-wirtshaus-hamburg?adjust_creative=hBJOknVQJ58S5goQyjmwRw&utm_campaign=yelp_api_v3&utm_medium=api_v3_business_search&utm_source=hBJOknVQJ58S5goQyjmwRw", "review_count": 66, "categories": [{"alias": "austrian", "title": "Austrian"}], "rating": 4.0, "coordinates": {"latitude": 53.65195, "longitude": 10.10617}, "transactions": [], "price": "\u20ac\u20ac", "location": {"address1": "Saseler Chaussee 166", "address2": null, "address3": null, "city": "Hamburg", "zip_code": "22393", "country": "DE", "state": "HH", "display_address": ["Saseler Chaussee 166", "22393 Hamburg", "Germany"]}, "phone": "+49406003589", "display_phone": "+49 40 6003589", "distance": 3338.7688939251925}, {"id": "mprwg5_US2YgAZHZoWs86w", "alias": "alster-au-hamburg-2", "name": "Alster Au", "image_url": "https://s3-media1.fl.yelpcdn.com/bphoto/4ay6sPJGVPtMBR7Ehcxpmg/o.jpg", "is_closed": false, "url": "https://www.yelp.com/biz/alster-au-hamburg-2?adjust_creative=hBJOknVQJ58S5goQyjmwRw&utm_campaign=yelp_api_v3&utm_medium=api_v3_business_search&utm_source=hBJOknVQJ58S5goQyjmwRw", "review_count": 20, "categories": [{"alias": "hotels", "title": "Hotels"}, {"alias": "german", "title": "German"}], "rating": 4.0, "coordinates": {"latitude": 53.70657, "longitude": 10.11733}, "transactions": [], "price": "\u20ac\u20ac", "location": {"address1": "Duvenstedter Damm  6", "address2": null, "address3": null, "city": "Hamburg", "zip_code": "22397", "country": "DE", "state": "HH", "display_address": ["Duvenstedter Damm  6", "22397 Hamburg", "Germany"]}, "phone": "+49406442400", "display_phone": "+49 40 6442400", "distance": 3305.0734738222086}, {"id": "HJ01zMNLEmQKEVdkMcJYUQ", "alias": "con-calma-hamburg", "name": "Con Calma", "image_url": "https://s3-media2.fl.yelpcdn.com/bphoto/fvN1qc3Bz5KqEJ9NoSz6zA/o.jpg", "is_closed": false, "url": "https://www.yelp.com/biz/con-calma-hamburg?adjust_creative=hBJOknVQJ58S5goQyjmwRw&utm_campaign=yelp_api_v3&utm_medium=api_v3_business_search&utm_source=hBJOknVQJ58S5goQyjmwRw", "review_count": 14, "categories": [{"alias": "italian", "title": "Italian"}], "rating": 4.5, "coordinates": {"latitude": 53.64219, "longitude": 10.1129}, "transactions": [], "price": "\u20ac", "location": {"address1": "Volksdorfer Weg 112", "address2": "", "address3": "", "city": "Hamburg", "zip_code": "22393", "country": "DE", "state": "HH", "display_address": ["Volksdorfer Weg 112", "22393 Hamburg", "Germany"]}, "phone": "+494087602817", "display_phone": "+49 40 87602817", "distance": 4503.285227840476}, {"id": "OA35RtLMB9BiDiKiCcb5Mw", "alias": "the-locks-hamburg", "name": "The Locks", "image_url": "https://s3-media4.fl.yelpcdn.com/bphoto/p-uNr1rP23jAz01r4gwO_w/o.jpg", "is_closed": false, "url": "https://www.yelp.com/biz/the-locks-hamburg?adjust_creative=hBJOknVQJ58S5goQyjmwRw&utm_campaign=yelp_api_v3&utm_medium=api_v3_business_search&utm_source=hBJOknVQJ58S5goQyjmwRw", "review_count": 109, "categories": [{"alias": "german", "title": "German"}, {"alias": "lounges", "title": "Lounges"}], "rating": 3.5, "coordinates": {"latitude": 53.6573, "longitude": 10.0868}, "transactions": [], "price": "\u20ac\u20ac\u20ac", "location": {"address1": "Marienhof 6", "address2": null, "address3": null, "city": "Hamburg", "zip_code": "22399", "country": "DE", "state": "HH", "display_address": ["Marienhof 6", "22399 Hamburg", "Germany"]}, "phone": "+49406116600", "display_phone": "+49 40 6116600", "distance": 2638.670669881532}, {"id": "iuPJKyKtsjHryy0xnZG4CA", "alias": "mazza-hamburg-3", "name": "Mazza", "image_url": "https://s3-media2.fl.yelpcdn.com/bphoto/5NCsz4dUUqIaLQQb-lrhPQ/o.jpg", "is_closed": false, "url": "https://www.yelp.com/biz/mazza-hamburg-3?adjust_creative=hBJOknVQJ58S5goQyjmwRw&utm_campaign=yelp_api_v3&utm_medium=api_v3_business_search&utm_source=hBJOknVQJ58S5goQyjmwRw", "review_count": 17, "categories": [{"alias": "oriental", "title": "Oriental"}, {"alias": "syrian", "title": "Syrian"}], "rating": 4.0, "coordinates": {"latitude": 53.6582646278701, "longitude": 10.0855578650344}, "transactions": [], "price": "\u20ac\u20ac\u20ac", "location": {"address1": "Poppenb\u00fctteler Weg 236", "address2": "", "address3": "", "city": "Hamburg", "zip_code": "22399", "country": "DE", "state": "HH", "display_address": ["Poppenb\u00fctteler Weg 236", "22399 Hamburg", "Germany"]}, "phone": "+494060878240", "display_phone": "+49 40 60878240", "distance": 2545.460042051211}, {"id": "-6tlO6UyWyo_NsKur7uKCw", "alias": "la-madera-hamburg-2", "name": "La Madera", "image_url": "https://s3-media3.fl.yelpcdn.com/bphoto/9J8fAarpfPXzpScmOs85gw/o.jpg", "is_closed": false, "url": "https://www.yelp.com/biz/la-madera-hamburg-2?adjust_creative=hBJOknVQJ58S5goQyjmwRw&utm_campaign=yelp_api_v3&utm_medium=api_v3_business_search&utm_source=hBJOknVQJ58S5goQyjmwRw", "review_count": 103, "categories": [{"alias": "steak", "title": "Steakhouses"}, {"alias": "spanish", "title": "Spanish"}], "rating": 3.5, "coordinates": {"latitude": 53.6434, "longitude": 10.09883}, "transactions": [], "price": "\u20ac\u20ac\u20ac", "location": {"address1": "Saseler Chaussee 101", "address2": "", "address3": "", "city": "Hamburg", "zip_code": "22393", "country": "DE", "state": "HH", "display_address": ["Saseler Chaussee 101", "22393 Hamburg", "Germany"]}, "phone": "+494038076165", "display_phone": "+49 40 38076165", "distance": 4177.438393334726}, {"id": "BOHWiX5XA7Svlmx_ipS7Xw", "alias": "alsterliebe-hamburg", "name": "Alsterliebe", "image_url": "https://s3-media2.fl.yelpcdn.com/bphoto/GrKOcNFERGMk2NDokQxRcg/o.jpg", "is_closed": false, "url": "https://www.yelp.com/biz/alsterliebe-hamburg?adjust_creative=hBJOknVQJ58S5goQyjmwRw&utm_campaign=yelp_api_v3&utm_medium=api_v3_business_search&utm_source=hBJOknVQJ58S5goQyjmwRw", "review_count": 2, "categories": [{"alias": "accessories", "title": "Accessories"}, {"alias": "homedecor", "title": "Home Decor"}, {"alias": "cafes", "title": "Cafes"}], "rating": 4.0, "coordinates": {"latitude": 53.6515, "longitude": 10.09596}, "transactions": [], "location": {"address1": "Frahmredder 1", "address2": "", "address3": "", "city": "Hamburg", "zip_code": "22393", "country": "DE", "state": "HH", "display_address": ["Frahmredder 1", "22393 Hamburg", "Germany"]}, "phone": "+494038047131", "display_phone": "+49 40 38047131", "distance": 3259.131881143957}, {"id": "Bda7qjlbhgbEimtkgq8IrQ", "alias": "china-ente-restaurant-hamburg-2", "name": "China-Ente-Restaurant", "image_url": "https://s3-media1.fl.yelpcdn.com/bphoto/wrXm4UbqLdIEUZ_hjWLGPg/o.jpg", "is_closed": false, "url": "https://www.yelp.com/biz/china-ente-restaurant-hamburg-2?adjust_creative=hBJOknVQJ58S5goQyjmwRw&utm_campaign=yelp_api_v3&utm_medium=api_v3_business_search&utm_source=hBJOknVQJ58S5goQyjmwRw", "review_count": 14, "categories": [{"alias": "chinese", "title": "Chinese"}], "rating": 4.5, "coordinates": {"latitude": 53.64288, "longitude": 10.09904}, "transactions": [], "price": "\u20ac\u20ac\u20ac", "location": {"address1": "Saseler Chaussee 88 a", "address2": null, "address3": null, "city": "Hamburg", "zip_code": "22393", "country": "DE", "state": "HH", "display_address": ["Saseler Chaussee 88 a", "22393 Hamburg", "Germany"]}, "phone": "+49406014012", "display_phone": "+49 40 6014012", "distance": 4240.442492787892}, {"id": "c3W3dGZPa7ypn3dK9Egnuw", "alias": "trattoria-mondello-hamburg", "name": "Trattoria Mondello", "image_url": "https://s3-media1.fl.yelpcdn.com/bphoto/3wCpzWG0GuIRb2henRPbaw/o.jpg", "is_closed": false, "url": "https://www.yelp.com/biz/trattoria-mondello-hamburg?adjust_creative=hBJOknVQJ58S5goQyjmwRw&utm_campaign=yelp_api_v3&utm_medium=api_v3_business_search&utm_source=hBJOknVQJ58S5goQyjmwRw", "review_count": 1, "categories": [{"alias": "italian", "title": "Italian"}], "rating": 1.0, "coordinates": {"latitude": 53.66567, "longitude": 10.07862}, "transactions": [], "price": "\u20ac", "location": {"address1": "Kramer-Kray-Weg 1", "address2": "", "address3": null, "city": "Hamburg", "zip_code": "22399", "country": "DE", "state": "HH", "display_address": ["Kramer-Kray-Weg 1", "22399 Hamburg", "Germany"]}, "phone": "+49406021835", "display_phone": "+49 40 6021835", "distance": 1796.9372621094171}, {"id": "Tf2xYmAeLUa_FAfUuv5YCw", "alias": "z2-hamburg", "name": "Z2", "image_url": "https://s3-media2.fl.yelpcdn.com/bphoto/iM9r75DeXqQL7XbtBxPj0g/o.jpg", "is_closed": false, "url": "https://www.yelp.com/biz/z2-hamburg?adjust_creative=hBJOknVQJ58S5goQyjmwRw&utm_campaign=yelp_api_v3&utm_medium=api_v3_business_search&utm_source=hBJOknVQJ58S5goQyjmwRw", "review_count": 1, "categories": [{"alias": "catering", "title": "Caterers"}, {"alias": "german", "title": "German"}], "rating": 4.0, "coordinates": {"latitude": 53.653558, "longitude": 10.088168}, "transactions": [], "location": {"address1": "Kritenbarg 18", "address2": "", "address3": "", "city": "Hamburg", "zip_code": "22391", "country": "DE", "state": "HH", "display_address": ["Kritenbarg 18", "22391 Hamburg", "Germany"]}, "phone": "+494060435886", "display_phone": "+49 40 60435886", "distance": 3051.1103296712395}, {"id": "i59YO-Z7DMbsZfuVJkHAbg", "alias": "caf\u00e9-im-herrenhaus-hamburg", "name": "Caf\u00e9 im Herrenhaus", "image_url": "https://s3-media4.fl.yelpcdn.com/bphoto/_O4BK-aezMWcfmA6NauPKg/o.jpg", "is_closed": false, "url": "https://www.yelp.com/biz/caf%C3%A9-im-herrenhaus-hamburg?adjust_creative=hBJOknVQJ58S5goQyjmwRw&utm_campaign=yelp_api_v3&utm_medium=api_v3_business_search&utm_source=hBJOknVQJ58S5goQyjmwRw", "review_count": 17, "categories": [{"alias": "german", "title": "German"}, {"alias": "cafes", "title": "Cafes"}], "rating": 4.0, "coordinates": {"latitude": 53.6435, "longitude": 10.072}, "transactions": [], "price": "\u20ac\u20ac", "location": {"address1": "Wellingsb\u00fcttler Weg 71", "address2": null, "address3": null, "city": "Hamburg", "zip_code": "22391", "country": "DE", "state": "HH", "display_address": ["Wellingsb\u00fcttler Weg 71", "22391 Hamburg", "Germany"]}, "phone": "+494097070980", "display_phone": "+49 40 97070980", "distance": 4358.45447209422}, {"id": "TvXUyRWBFExD8Wpv0iCkXw", "alias": "caros-konditorei-und-davids-caf\u00e9-hamburg", "name": "caros konditorei und davids caf\u00e9", "image_url": "https://s3-media2.fl.yelpcdn.com/bphoto/m7coPZEcBFtM7UBI4l98uw/o.jpg", "is_closed": false, "url": "https://www.yelp.com/biz/caros-konditorei-und-davids-caf%C3%A9-hamburg?adjust_creative=hBJOknVQJ58S5goQyjmwRw&utm_campaign=yelp_api_v3&utm_medium=api_v3_business_search&utm_source=hBJOknVQJ58S5goQyjmwRw", "review_count": 12, "categories": [{"alias": "cakeshop", "title": "Patisserie/Cake Shop"}, {"alias": "cafes", "title": "Cafes"}], "rating": 4.5, "coordinates": {"latitude": 53.708009, "longitude": 10.108087}, "transactions": [], "price": "\u20ac\u20ac\u20ac", "location": {"address1": "Duvenstedter Damm 45", "address2": "", "address3": "", "city": "Hamburg", "zip_code": "22397", "country": "DE", "state": "HH", "display_address": ["Duvenstedter Damm 45", "22397 Hamburg", "Germany"]}, "phone": "+494024439468", "display_phone": "+49 40 24439468", "distance": 3194.522302789196}, {"id": "qDQLMRQxlDdkGZFNw8w1-A", "alias": "gutsk\u00fcche-tangstedt", "name": "Gutsk\u00fcche", "image_url": "https://s3-media1.fl.yelpcdn.com/bphoto/W9Gzq2yvPlxheckjNYtqkQ/o.jpg", "is_closed": false, "url": "https://www.yelp.com/biz/gutsk%C3%BCche-tangstedt?adjust_creative=hBJOknVQJ58S5goQyjmwRw&utm_campaign=yelp_api_v3&utm_medium=api_v3_business_search&utm_source=hBJOknVQJ58S5goQyjmwRw", "review_count": 51, "categories": [{"alias": "modern_european", "title": "Modern European"}, {"alias": "international", "title": "International"}], "rating": 4.0, "coordinates": {"latitude": 53.71843, "longitude": 10.11176}, "transactions": [], "price": "\u20ac\u20ac\u20ac", "location": {"address1": "Wulksfelder Damm 15 - 17", "address2": "", "address3": "", "city": "Tangstedt", "zip_code": "22889", "country": "DE", "state": "SH", "display_address": ["Wulksfelder Damm 15 - 17", "22889 Tangstedt", "Germany"]}, "phone": "+494064419441", "display_phone": "+49 40 64419441", "distance": 4307.720239361983}, {"id": "wndlRXhLYSXU5z7gbGlAdg", "alias": "mama-hamburg-6", "name": "Mama", "image_url": "https://s3-media4.fl.yelpcdn.com/bphoto/k0U6R2baGg14JUzzA2nUrg/o.jpg", "is_closed": false, "url": "https://www.yelp.com/biz/mama-hamburg-6?adjust_creative=hBJOknVQJ58S5goQyjmwRw&utm_campaign=yelp_api_v3&utm_medium=api_v3_business_search&utm_source=hBJOknVQJ58S5goQyjmwRw", "review_count": 6, "categories": [{"alias": "italian", "title": "Italian"}], "rating": 3.0, "coordinates": {"latitude": 53.64165, "longitude": 10.08053}, "transactions": [], "price": "\u20ac\u20ac", "location": {"address1": "Wellingsb\u00fcttler Weg 119", "address2": "", "address3": null, "city": "Hamburg", "zip_code": "22391", "country": "DE", "state": "HH", "display_address": ["Wellingsb\u00fcttler Weg 119", "22391 Hamburg", "Germany"]}, "phone": "+494050798555", "display_phone": "+49 40 50798555", "distance": 4422.400842698746}, {"id": "2deFmFk6cJxy7vdJ2TQkxA", "alias": "sushi-yama-hamburg-2", "name": "Sushi Yama", "image_url": "https://s3-media3.fl.yelpcdn.com/bphoto/Ric3T9qNstw8fwEdG17oMQ/o.jpg", "is_closed": false, "url": "https://www.yelp.com/biz/sushi-yama-hamburg-2?adjust_creative=hBJOknVQJ58S5goQyjmwRw&utm_campaign=yelp_api_v3&utm_medium=api_v3_business_search&utm_source=hBJOknVQJ58S5goQyjmwRw", "review_count": 15, "categories": [{"alias": "sushi", "title": "Sushi Bars"}], "rating": 4.5, "coordinates": {"latitude": 53.65393, "longitude": 10.09115}, "transactions": [], "price": "\u20ac\u20ac", "location": {"address1": "Heegbarg 31", "address2": "", "address3": null, "city": "Hamburg", "zip_code": "22391", "country": "DE", "state": "HH", "display_address": ["Heegbarg 31", "22391 Hamburg", "Germany"]}, "phone": "+494069211980", "display_phone": "+49 40 69211980", "distance": 3009.3199375195222}, {"id": "xjwhjFbA1w_827KMdMxPfw", "alias": "cha-ch\u00e3-hamburg-5", "name": "cha ch\u00e3", "image_url": "https://s3-media2.fl.yelpcdn.com/bphoto/CN6g2h2xSayvxaSURYHRZw/o.jpg", "is_closed": false, "url": "https://www.yelp.com/biz/cha-ch%C3%A3-hamburg-5?adjust_creative=hBJOknVQJ58S5goQyjmwRw&utm_campaign=yelp_api_v3&utm_medium=api_v3_business_search&utm_source=hBJOknVQJ58S5goQyjmwRw", "review_count": 17, "categories": [{"alias": "thai", "title": "Thai"}], "rating": 4.0, "coordinates": {"latitude": 53.654385, "longitude": 10.090829}, "transactions": [], "price": "\u20ac\u20ac", "location": {"address1": "Heegbarg 31", "address2": "", "address3": "", "city": "Hamburg", "zip_code": "22391", "country": "DE", "state": "HH", "display_address": ["Heegbarg 31", "22391 Hamburg", "Germany"]}, "phone": "+494065993795", "display_phone": "+49 40 65993795", "distance": 2939.415315773105}, {"id": "A_7ZqlDuXYrJAZRWKlVL8g", "alias": "block-house-hamburg-14", "name": "Block House", "image_url": "https://s3-media1.fl.yelpcdn.com/bphoto/YQs8EpfQzuyTc5o7PygpBQ/o.jpg", "is_closed": false, "url": "https://www.yelp.com/biz/block-house-hamburg-14?adjust_creative=hBJOknVQJ58S5goQyjmwRw&utm_campaign=yelp_api_v3&utm_medium=api_v3_business_search&utm_source=hBJOknVQJ58S5goQyjmwRw", "review_count": 63, "categories": [{"alias": "steak", "title": "Steakhouses"}], "rating": 3.5, "coordinates": {"latitude": 53.6548262502964, "longitude": 10.0932026087461}, "transactions": [], "price": "\u20ac\u20ac\u20ac", "location": {"address1": "Heegbarg 32", "address2": "", "address3": null, "city": "Hamburg", "zip_code": "22391", "country": "DE", "state": "HH", "display_address": ["Heegbarg 32", "22391 Hamburg", "Germany"]}, "phone": "+49406020804", "display_phone": "+49 40 6020804", "distance": 2889.3687826967657}, {"id": "NrKPNavZCmOuBFWLNLTrQA", "alias": "taverna-santorini-hamburg-4", "name": "Taverna Santorini", "image_url": "https://s3-media2.fl.yelpcdn.com/bphoto/eRyaIJu4GHd8hBnS6yoJvg/o.jpg", "is_closed": false, "url": "https://www.yelp.com/biz/taverna-santorini-hamburg-4?adjust_creative=hBJOknVQJ58S5goQyjmwRw&utm_campaign=yelp_api_v3&utm_medium=api_v3_business_search&utm_source=hBJOknVQJ58S5goQyjmwRw", "review_count": 26, "categories": [{"alias": "greek", "title": "Greek"}, {"alias": "mediterranean", "title": "Mediterranean"}], "rating": 3.5, "coordinates": {"latitude": 53.649165, "longitude": 10.1032543}, "transactions": [], "price": "\u20ac\u20ac", "location": {"address1": "Saseler Chaussee 161", "address2": "", "address3": "", "city": "Hamburg", "zip_code": "22393", "country": "DE", "state": "HH", "display_address": ["Saseler Chaussee 161", "22393 Hamburg", "Germany"]}, "phone": "+49406018080", "display_phone": "+49 40 6018080", "distance": 3591.5325929545907}, {"id": "tyTueaTh2RFEDOTA_jRhuw", "alias": "cafe-reinhardt-hamburg-3", "name": "Cafe Reinhardt", "image_url": "https://s3-media1.fl.yelpcdn.com/bphoto/XctuK_apUmLfLoDGl0faFQ/o.jpg", "is_closed": false, "url": "https://www.yelp.com/biz/cafe-reinhardt-hamburg-3?adjust_creative=hBJOknVQJ58S5goQyjmwRw&utm_campaign=yelp_api_v3&utm_medium=api_v3_business_search&utm_source=hBJOknVQJ58S5goQyjmwRw", "review_count": 30, "categories": [{"alias": "bakeries", "title": "Bakeries"}, {"alias": "cafes", "title": "Cafes"}], "rating": 4.0, "coordinates": {"latitude": 53.6653, "longitude": 10.09}, "transactions": [], "price": "\u20ac\u20ac", "location": {"address1": "Poppenb\u00fcttler Hauptstr. 37", "address2": null, "address3": null, "city": "Hamburg", "zip_code": "22399", "country": "DE", "state": "HH", "display_address": ["Poppenb\u00fcttler Hauptstr. 37", "22399 Hamburg", "Germany"]}, "phone": "+49406023704", "display_phone": "+49 40 6023704", "distance": 1730.7655363532565}, {"id": "CQBSOomr8M3afVDKCQAc_A", "alias": "k\u00f6nig-d\u00f6ner-hamburg-2", "name": "K\u00f6nig D\u00f6ner", "image_url": "https://s3-media4.fl.yelpcdn.com/bphoto/gYSpjxx1UD4ua8LxKSjN2g/o.jpg", "is_closed": false, "url": "https://www.yelp.com/biz/k%C3%B6nig-d%C3%B6ner-hamburg-2?adjust_creative=hBJOknVQJ58S5goQyjmwRw&utm_campaign=yelp_api_v3&utm_medium=api_v3_business_search&utm_source=hBJOknVQJ58S5goQyjmwRw", "review_count": 14, "categories": [{"alias": "kebab", "title": "Kebab"}], "rating": 3.0, "coordinates": {"latitude": 53.65252, "longitude": 10.092773}, "transactions": [], "price": "\u20ac\u20ac", "location": {"address1": "Heegbarg  4", "address2": null, "address3": null, "city": "Hamburg", "zip_code": "22391", "country": "DE", "state": "HH", "display_address": ["Heegbarg  4", "22391 Hamburg", "Germany"]}, "phone": "+494069704744", "display_phone": "+49 40 69704744", "distance": 3145.3534259815756}, {"id": "NJUMH0h1mxG3llOgdC1c2g", "alias": "del-hamburg-3", "name": "Del", "image_url": "https://s3-media2.fl.yelpcdn.com/bphoto/q3JZps6Fzy3Y9QAtgtr0Ow/o.jpg", "is_closed": false, "url": "https://www.yelp.com/biz/del-hamburg-3?adjust_creative=hBJOknVQJ58S5goQyjmwRw&utm_campaign=yelp_api_v3&utm_medium=api_v3_business_search&utm_source=hBJOknVQJ58S5goQyjmwRw", "review_count": 46, "categories": [{"alias": "international", "title": "International"}], "rating": 3.5, "coordinates": {"latitude": 53.64727, "longitude": 10.0878}, "transactions": [], "price": "\u20ac\u20ac\u20ac", "location": {"address1": "Poppenb\u00fcttler Landstr. 1C", "address2": null, "address3": null, "city": "Hamburg", "zip_code": "22391", "country": "DE", "state": "HH", "display_address": ["Poppenb\u00fcttler Landstr. 1C", "22391 Hamburg", "Germany"]}, "phone": "+49406027061", "display_phone": "+49 40 6027061", "distance": 3740.732602634116}, {"id": "wQXci5HPimPT00Ub1oHRTA", "alias": "shin-shin-hamburg", "name": "Shin Shin", "image_url": "https://s3-media1.fl.yelpcdn.com/bphoto/AmnCNLLIqKxbmb1JjlfkVA/o.jpg", "is_closed": false, "url": "https://www.yelp.com/biz/shin-shin-hamburg?adjust_creative=hBJOknVQJ58S5goQyjmwRw&utm_campaign=yelp_api_v3&utm_medium=api_v3_business_search&utm_source=hBJOknVQJ58S5goQyjmwRw", "review_count": 60, "categories": [{"alias": "chinese", "title": "Chinese"}], "rating": 3.5, "coordinates": {"latitude": 53.6599219019676, "longitude": 10.1155304326125}, "transactions": [], "price": "\u20ac\u20ac", "location": {"address1": "Saseler Chaussee 254", "address2": null, "address3": null, "city": "Hamburg", "zip_code": "22393", "country": "DE", "state": "HH", "display_address": ["Saseler Chaussee 254", "22393 Hamburg", "Germany"]}, "phone": "+49406019064", "display_phone": "+49 40 6019064", "distance": 2781.0859871378475}, {"id": "Xap__prvefRHXYZgqBofaA", "alias": "balducci-hamburg", "name": "Balducci", "image_url": "https://s3-media3.fl.yelpcdn.com/bphoto/7OMvG4PYf_rBzgIseSIuzQ/o.jpg", "is_closed": false, "url": "https://www.yelp.com/biz/balducci-hamburg?adjust_creative=hBJOknVQJ58S5goQyjmwRw&utm_campaign=yelp_api_v3&utm_medium=api_v3_business_search&utm_source=hBJOknVQJ58S5goQyjmwRw", "review_count": 36, "categories": [{"alias": "italian", "title": "Italian"}, {"alias": "bistros", "title": "Bistros"}, {"alias": "cafes", "title": "Cafes"}], "rating": 4.0, "coordinates": {"latitude": 53.654972987359, "longitude": 10.092545242212}, "transactions": [], "price": "\u20ac\u20ac", "location": {"address1": "Heegbarg 31", "address2": "", "address3": null, "city": "Hamburg", "zip_code": "22391", "country": "DE", "state": "HH", "display_address": ["Heegbarg 31", "22391 Hamburg", "Germany"]}, "phone": "+494061192691", "display_phone": "+49 40 61192691", "distance": 2872.48471460372}, {"id": "LACckalF24FdKUnuGEB3FQ", "alias": "rio-grande-hamburg-6", "name": "Rio Grande", "image_url": "https://s3-media1.fl.yelpcdn.com/bphoto/cu9QzBIXNR43OqEdFMjaVQ/o.jpg", "is_closed": false, "url": "https://www.yelp.com/biz/rio-grande-hamburg-6?adjust_creative=hBJOknVQJ58S5goQyjmwRw&utm_campaign=yelp_api_v3&utm_medium=api_v3_business_search&utm_source=hBJOknVQJ58S5goQyjmwRw", "review_count": 40, "categories": [{"alias": "steak", "title": "Steakhouses"}, {"alias": "tradamerican", "title": "American (Traditional)"}], "rating": 3.5, "coordinates": {"latitude": 53.70887, "longitude": 10.10634}, "transactions": [], "price": "\u20ac\u20ac", "location": {"address1": "Duvenstedter Damm 72", "address2": "", "address3": "", "city": "Hamburg", "zip_code": "22397", "country": "DE", "state": "HH", "display_address": ["Duvenstedter Damm 72", "22397 Hamburg", "Germany"]}, "phone": "+494064419300", "display_phone": "+49 40 64419300", "distance": 3256.420692639582}, {"id": "S7PTsIxtptPd2ClC1msn7A", "alias": "trattoria-brunello-hamburg", "name": "Trattoria Brunello", "image_url": "https://s3-media2.fl.yelpcdn.com/bphoto/8fUbth2Z76kTyEA-vrQQOg/o.jpg", "is_closed": false, "url": "https://www.yelp.com/biz/trattoria-brunello-hamburg?adjust_creative=hBJOknVQJ58S5goQyjmwRw&utm_campaign=yelp_api_v3&utm_medium=api_v3_business_search&utm_source=hBJOknVQJ58S5goQyjmwRw", "review_count": 50, "categories": [{"alias": "italian", "title": "Italian"}], "rating": 3.5, "coordinates": {"latitude": 53.6510589, "longitude": 10.0951378}, "transactions": [], "price": "\u20ac\u20ac", "location": {"address1": "Stormarnplatz 8", "address2": null, "address3": null, "city": "Hamburg", "zip_code": "22393", "country": "DE", "state": "HH", "display_address": ["Stormarnplatz 8", "22393 Hamburg", "Germany"]}, "phone": "+494061187753", "display_phone": "+49 40 61187753", "distance": 3312.949002741145}, {"id": "RUREwsfo-PdltbxOndaHrQ", "alias": "thai-china-wok-hamburg", "name": "Thai China Wok", "image_url": "https://s3-media2.fl.yelpcdn.com/bphoto/-VjH3B8ZXVKxNrAGNHdwVg/o.jpg", "is_closed": false, "url": "https://www.yelp.com/biz/thai-china-wok-hamburg?adjust_creative=hBJOknVQJ58S5goQyjmwRw&utm_campaign=yelp_api_v3&utm_medium=api_v3_business_search&utm_source=hBJOknVQJ58S5goQyjmwRw", "review_count": 8, "categories": [{"alias": "panasian", "title": "Pan Asian"}], "rating": 4.0, "coordinates": {"latitude": 53.6462, "longitude": 10.0871}, "transactions": [], "price": "\u20ac", "location": {"address1": "Wellingsb\u00fcttler Landstr. 1", "address2": null, "address3": null, "city": "Hamburg", "zip_code": "22337", "country": "DE", "state": "HH", "display_address": ["Wellingsb\u00fcttler Landstr. 1", "22337 Hamburg", "Germany"]}, "phone": "+494050048724", "display_phone": "+49 40 50048724", "distance": 3863.16458746101}, {"id": "s8nByaYJIf-lwdhdp0WzYQ", "alias": "mr-wong-asia-bistro-hamburg", "name": "Mr. Wong Asia Bistro", "image_url": "", "is_closed": false, "url": "https://www.yelp.com/biz/mr-wong-asia-bistro-hamburg?adjust_creative=hBJOknVQJ58S5goQyjmwRw&utm_campaign=yelp_api_v3&utm_medium=api_v3_business_search&utm_source=hBJOknVQJ58S5goQyjmwRw", "review_count": 1, "categories": [{"alias": "bistros", "title": "Bistros"}, {"alias": "panasian", "title": "Pan Asian"}], "rating": 4.0, "coordinates": {"latitude": 53.6607, "longitude": 10.0823}, "transactions": [], "price": "\u20ac", "location": {"address1": "Harksheider Str. 10", "address2": null, "address3": null, "city": "Hamburg", "zip_code": "22399", "country": "DE", "state": "HH", "display_address": ["Harksheider Str. 10", "22399 Hamburg", "Germany"]}, "phone": "+494066872510", "display_phone": "+49 40 66872510", "distance": 2330.6352637899795}, {"id": "_hxqSzun5OLd6d1mBZdD6A", "alias": "taverna-petros-and-marietta-hamburg", "name": "Taverna Petros & Marietta", "image_url": "https://s3-media1.fl.yelpcdn.com/bphoto/Ga5yBMjksrcsliXHNWPxEg/o.jpg", "is_closed": false, "url": "https://www.yelp.com/biz/taverna-petros-and-marietta-hamburg?adjust_creative=hBJOknVQJ58S5goQyjmwRw&utm_campaign=yelp_api_v3&utm_medium=api_v3_business_search&utm_source=hBJOknVQJ58S5goQyjmwRw", "review_count": 14, "categories": [{"alias": "greek", "title": "Greek"}], "rating": 3.5, "coordinates": {"latitude": 53.70565, "longitude": 10.10657}, "transactions": [], "price": "\u20ac\u20ac", "location": {"address1": "Im Ellernbusch 41", "address2": "", "address3": "", "city": "Hamburg", "zip_code": "22397", "country": "DE", "state": "HH", "display_address": ["Im Ellernbusch 41", "22397 Hamburg", "Germany"]}, "phone": "+49406071733", "display_phone": "+49 40 6071733", "distance": 2916.607427451602}, {"id": "8-PLwQTPmKMoVuq1GqtYLA", "alias": "fidelio-hamburg", "name": "Fidelio", "image_url": "https://s3-media4.fl.yelpcdn.com/bphoto/8_ZhcnE47DVWPy-UxeLwaw/o.jpg", "is_closed": false, "url": "https://www.yelp.com/biz/fidelio-hamburg?adjust_creative=hBJOknVQJ58S5goQyjmwRw&utm_campaign=yelp_api_v3&utm_medium=api_v3_business_search&utm_source=hBJOknVQJ58S5goQyjmwRw", "review_count": 53, "categories": [{"alias": "gastropubs", "title": "Gastropubs"}, {"alias": "italian", "title": "Italian"}, {"alias": "bistros", "title": "Bistros"}], "rating": 2.5, "coordinates": {"latitude": 53.66038, "longitude": 10.0843399}, "transactions": [], "price": "\u20ac", "location": {"address1": "Moorhof 11", "address2": "", "address3": "", "city": "Hamburg", "zip_code": "22399", "country": "DE", "state": "HH", "display_address": ["Moorhof 11", "22399 Hamburg", "Germany"]}, "phone": "+494060875927", "display_phone": "+49 40 60875927", "distance": 2330.6593437430906}, {"id": "lt8UcN8patkOB14upuMwxg", "alias": "wellingten-hamburg", "name": "Wellingten", "image_url": "https://s3-media3.fl.yelpcdn.com/bphoto/Ym5ZLgnRSknz2q18l055NA/o.jpg", "is_closed": false, "url": "https://www.yelp.com/biz/wellingten-hamburg?adjust_creative=hBJOknVQJ58S5goQyjmwRw&utm_campaign=yelp_api_v3&utm_medium=api_v3_business_search&utm_source=hBJOknVQJ58S5goQyjmwRw", "review_count": 48, "categories": [{"alias": "german", "title": "German"}], "rating": 3.0, "coordinates": {"latitude": 53.6424, "longitude": 10.07712}, "transactions": [], "price": "\u20ac\u20ac\u20ac", "location": {"address1": "Wellingsb\u00fcttler Weg 91", "address2": "", "address3": "", "city": "Hamburg", "zip_code": "22391", "country": "DE", "state": "HH", "display_address": ["Wellingsb\u00fcttler Weg 91", "22391 Hamburg", "Germany"]}, "phone": "+49405362402", "display_phone": "+49 40 5362402", "distance": 4380.525415493715}, {"id": "mxT59tks7phC1hUiaqMAJA", "alias": "gasthaus-quellenhof-aubert-fromm\u00e9-hamburg", "name": "Gasthaus Quellenhof Aubert Fromm\u00e9", "image_url": "https://s3-media2.fl.yelpcdn.com/bphoto/7UQJ0pSOgXBWrqp88VmuAg/o.jpg", "is_closed": false, "url": "https://www.yelp.com/biz/gasthaus-quellenhof-aubert-fromm%C3%A9-hamburg?adjust_creative=hBJOknVQJ58S5goQyjmwRw&utm_campaign=yelp_api_v3&utm_medium=api_v3_business_search&utm_source=hBJOknVQJ58S5goQyjmwRw", "review_count": 19, "categories": [{"alias": "cafes", "title": "Cafes"}, {"alias": "german", "title": "German"}], "rating": 3.5, "coordinates": {"latitude": 53.6847, "longitude": 10.1175}, "transactions": [], "price": "\u20ac\u20ac", "location": {"address1": "Rodenbeker Str. 126", "address2": null, "address3": null, "city": "Hamburg", "zip_code": "22395", "country": "DE", "state": "HH", "display_address": ["Rodenbeker Str. 126", "22395 Hamburg", "Germany"]}, "phone": "+49406049228", "display_phone": "+49 40 6049228", "distance": 1715.2108332962557}, {"id": "8Hj7wbmTyoNr8OmYj_AUYA", "alias": "argentina-steak-house-hamburg", "name": "Argentina Steak-House", "image_url": "https://s3-media3.fl.yelpcdn.com/bphoto/iOt_pvp8kgqMDIRIh4X7yQ/o.jpg", "is_closed": false, "url": "https://www.yelp.com/biz/argentina-steak-house-hamburg?adjust_creative=hBJOknVQJ58S5goQyjmwRw&utm_campaign=yelp_api_v3&utm_medium=api_v3_business_search&utm_source=hBJOknVQJ58S5goQyjmwRw", "review_count": 40, "categories": [{"alias": "steak", "title": "Steakhouses"}], "rating": 3.5, "coordinates": {"latitude": 53.64447, "longitude": 10.09971}, "transactions": [], "price": "\u20ac\u20ac", "location": {"address1": "Saseler Chaussee 111", "address2": "", "address3": "", "city": "Hamburg", "zip_code": "22393", "country": "DE", "state": "HH", "display_address": ["Saseler Chaussee 111", "22393 Hamburg", "Germany"]}, "phone": "+494053889849", "display_phone": "+49 40 53889849", "distance": 4054.004231626218}, {"id": "j83Ua1NqVDfr_jLo3EMIlA", "alias": "caf\u00e9-pause-hamburg-5", "name": "Caf\u00e9 Pause", "image_url": "https://s3-media1.fl.yelpcdn.com/bphoto/O0-JRfhhsJczYdsxPedX-w/o.jpg", "is_closed": false, "url": "https://www.yelp.com/biz/caf%C3%A9-pause-hamburg-5?adjust_creative=hBJOknVQJ58S5goQyjmwRw&utm_campaign=yelp_api_v3&utm_medium=api_v3_business_search&utm_source=hBJOknVQJ58S5goQyjmwRw", "review_count": 1, "categories": [{"alias": "cafes", "title": "Cafes"}], "rating": 5.0, "coordinates": {"latitude": 53.6546156269338, "longitude": 10.1097825542092}, "transactions": [], "location": {"address1": "Sasel-Haus", "address2": "Saseler Parkweg 3", "address3": "", "city": "Hamburg", "zip_code": "22393", "country": "DE", "state": "HH", "display_address": ["Sasel-Haus", "Saseler Parkweg 3", "22393 Hamburg", "Germany"]}, "phone": "+491748004001", "display_phone": "+49 174 8004001", "distance": 3131.6842351860873}, {"id": "f_zfxL1qoZMCtzbzHZcJ7Q", "alias": "kaminstube-hamburg", "name": "Kaminstube", "image_url": "https://s3-media2.fl.yelpcdn.com/bphoto/-RgOFCfUtEsPuFPGOxGqZw/o.jpg", "is_closed": false, "url": "https://www.yelp.com/biz/kaminstube-hamburg?adjust_creative=hBJOknVQJ58S5goQyjmwRw&utm_campaign=yelp_api_v3&utm_medium=api_v3_business_search&utm_source=hBJOknVQJ58S5goQyjmwRw", "review_count": 15, "categories": [{"alias": "austrian", "title": "Austrian"}, {"alias": "sushi", "title": "Sushi Bars"}], "rating": 4.0, "coordinates": {"latitude": 53.668978, "longitude": 10.091088}, "transactions": [], "price": "\u20ac\u20ac\u20ac", "location": {"address1": "An der Alsterschleife 3", "address2": "", "address3": "", "city": "Hamburg", "zip_code": "22399", "country": "DE", "state": "HH", "display_address": ["An der Alsterschleife 3", "22399 Hamburg", "Germany"]}, "phone": "+494061136217", "display_phone": "+49 40 61136217", "distance": 1315.7197679443916}, {"id": "zPeBPAvLzWfz_HvZmPs3YQ", "alias": "ciao-bella-hamburg-11", "name": "Ciao Bella", "image_url": "https://s3-media1.fl.yelpcdn.com/bphoto/sPCEFDyygineNT_BWiAFCw/o.jpg", "is_closed": false, "url": "https://www.yelp.com/biz/ciao-bella-hamburg-11?adjust_creative=hBJOknVQJ58S5goQyjmwRw&utm_campaign=yelp_api_v3&utm_medium=api_v3_business_search&utm_source=hBJOknVQJ58S5goQyjmwRw", "review_count": 1, "categories": [{"alias": "italian", "title": "Italian"}], "rating": 3.0, "coordinates": {"latitude": 53.653926, "longitude": 10.090917}, "transactions": [], "location": {"address1": "Heegbarg 31", "address2": "", "address3": null, "city": "Hamburg", "zip_code": "22391", "country": "DE", "state": "HH", "display_address": ["Heegbarg 31", "22391 Hamburg", "Germany"]}, "phone": "", "display_phone": "", "distance": 2947.747800585488}, {"id": "e0j_sQ-UgRDrLqPXcZgI5g", "alias": "balzac-coffee-hamburg-34", "name": "Balzac Coffee", "image_url": "https://s3-media4.fl.yelpcdn.com/bphoto/2pJHEFhNTx0bSlbkvhUl_Q/o.jpg", "is_closed": false, "url": "https://www.yelp.com/biz/balzac-coffee-hamburg-34?adjust_creative=hBJOknVQJ58S5goQyjmwRw&utm_campaign=yelp_api_v3&utm_medium=api_v3_business_search&utm_source=hBJOknVQJ58S5goQyjmwRw", "review_count": 2, "categories": [{"alias": "coffee", "title": "Coffee & Tea"}, {"alias": "cafes", "title": "Cafes"}], "rating": 4.5, "coordinates": {"latitude": 53.6548584, "longitude": 10.0931374}, "transactions": [], "price": "\u20ac\u20ac", "location": {"address1": "Heegbarg 28", "address2": "", "address3": "", "city": "Hamburg", "zip_code": "22391", "country": "DE", "state": "HH", "display_address": ["Heegbarg 28", "22391 Hamburg", "Germany"]}, "phone": "+494060298086", "display_phone": "+49 40 60298086", "distance": 2885.7092236997996}, {"id": "tSKYzaFFS5n_IyA4B08gwA", "alias": "eiscuisine-hamburg", "name": "Eiscuisine", "image_url": "https://s3-media4.fl.yelpcdn.com/bphoto/9F86yyioKX_cTF6Db5s_Sw/o.jpg", "is_closed": false, "url": "https://www.yelp.com/biz/eiscuisine-hamburg?adjust_creative=hBJOknVQJ58S5goQyjmwRw&utm_campaign=yelp_api_v3&utm_medium=api_v3_business_search&utm_source=hBJOknVQJ58S5goQyjmwRw", "review_count": 8, "categories": [{"alias": "icecream", "title": "Ice Cream & Frozen Yogurt"}, {"alias": "bistros", "title": "Bistros"}], "rating": 4.5, "coordinates": {"latitude": 53.64035, "longitude": 10.08292}, "transactions": [], "price": "\u20ac\u20ac", "location": {"address1": "Rolfinckstr. 12 a", "address2": "", "address3": "", "city": "Hamburg", "zip_code": "22391", "country": "DE", "state": "HH", "display_address": ["Rolfinckstr. 12 a", "22391 Hamburg", "Germany"]}, "phone": "+494052733011", "display_phone": "+49 40 52733011", "distance": 4540.687818372575}, {"id": "47gqTciOiRYGb6VfVbPYvQ", "alias": "bistro-pizzarello-hamburg", "name": "Bistro Pizzarello", "image_url": "https://s3-media4.fl.yelpcdn.com/bphoto/eYh-vyMnx9_Q2M9He9sgLA/o.jpg", "is_closed": false, "url": "https://www.yelp.com/biz/bistro-pizzarello-hamburg?adjust_creative=hBJOknVQJ58S5goQyjmwRw&utm_campaign=yelp_api_v3&utm_medium=api_v3_business_search&utm_source=hBJOknVQJ58S5goQyjmwRw", "review_count": 7, "categories": [{"alias": "bars", "title": "Bars"}, {"alias": "italian", "title": "Italian"}, {"alias": "pizza", "title": "Pizza"}], "rating": 3.5, "coordinates": {"latitude": 53.6538, "longitude": 10.0928}, "transactions": [], "price": "\u20ac", "location": {"address1": "Heegbarg 14", "address2": null, "address3": null, "city": "Hamburg", "zip_code": "22391", "country": "DE", "state": "HH", "display_address": ["Heegbarg 14", "22391 Hamburg", "Germany"]}, "phone": "+494080606830", "display_phone": "+49 40 80606830", "distance": 3003.0504560911186}, {"id": "m_V1tGdPNMKHiK2AQbuKKQ", "alias": "duvenstedter-eiscaf\u00e9-hamburg-2", "name": "Duvenstedter Eiscaf\u00e9", "image_url": "https://s3-media2.fl.yelpcdn.com/bphoto/tI70Wf2bTa2eH2rURHYp5Q/o.jpg", "is_closed": false, "url": "https://www.yelp.com/biz/duvenstedter-eiscaf%C3%A9-hamburg-2?adjust_creative=hBJOknVQJ58S5goQyjmwRw&utm_campaign=yelp_api_v3&utm_medium=api_v3_business_search&utm_source=hBJOknVQJ58S5goQyjmwRw", "review_count": 30, "categories": [{"alias": "icecream", "title": "Ice Cream & Frozen Yogurt"}, {"alias": "breakfast_brunch", "title": "Breakfast & Brunch"}, {"alias": "cafes", "title": "Cafes"}], "rating": 4.0, "coordinates": {"latitude": 53.70825, "longitude": 10.1047}, "transactions": [], "price": "\u20ac\u20ac", "location": {"address1": "Poppenb\u00fctteler Chaussee 8", "address2": null, "address3": null, "city": "Hamburg", "zip_code": "22397", "country": "DE", "state": "HH", "display_address": ["Poppenb\u00fctteler Chaussee 8", "22397 Hamburg", "Germany"]}, "phone": "+494060761377", "display_phone": "+49 40 60761377", "distance": 3162.1707909812085}, {"id": "xU2xZcdV9ITI5UGAD5tdJA", "alias": "forum-sasel-hamburg", "name": "Forum Sasel", "image_url": "https://s3-media2.fl.yelpcdn.com/bphoto/aZpLxutpg0QSHwS-UUI9sw/o.jpg", "is_closed": false, "url": "https://www.yelp.com/biz/forum-sasel-hamburg?adjust_creative=hBJOknVQJ58S5goQyjmwRw&utm_campaign=yelp_api_v3&utm_medium=api_v3_business_search&utm_source=hBJOknVQJ58S5goQyjmwRw", "review_count": 23, "categories": [{"alias": "international", "title": "International"}, {"alias": "cocktailbars", "title": "Cocktail Bars"}, {"alias": "sportsbars", "title": "Sports Bars"}], "rating": 3.5, "coordinates": {"latitude": 53.6535788177995, "longitude": 10.1121384625408}, "transactions": [], "price": "\u20ac\u20ac", "location": {"address1": "Saseler Markt 1", "address2": "", "address3": "", "city": "Hamburg", "zip_code": "22393", "country": "DE", "state": "HH", "display_address": ["Saseler Markt 1", "22393 Hamburg", "Germany"]}, "phone": "+494088165850", "display_phone": "+49 40 88165850", "distance": 3297.556852602753}, {"id": "pfIlDu9lscJcPY7UWGiq5A", "alias": "gastst\u00e4tte-zum-krombacher-hamburg", "name": "Gastst\u00e4tte Zum Krombacher", "image_url": "https://s3-media4.fl.yelpcdn.com/bphoto/aCdhDL4qJan_zjn5oPMCXA/o.jpg", "is_closed": false, "url": "https://www.yelp.com/biz/gastst%C3%A4tte-zum-krombacher-hamburg?adjust_creative=hBJOknVQJ58S5goQyjmwRw&utm_campaign=yelp_api_v3&utm_medium=api_v3_business_search&utm_source=hBJOknVQJ58S5goQyjmwRw", "review_count": 4, "categories": [{"alias": "restaurants", "title": "Restaurants"}], "rating": 4.0, "coordinates": {"latitude": 53.6395, "longitude": 10.0856}, "transactions": [], "location": {"address1": "Classenweg 1A", "address2": null, "address3": null, "city": "Hamburg", "zip_code": "22391", "country": "DE", "state": "HH", "display_address": ["Classenweg 1A", "22391 Hamburg", "Germany"]}, "phone": "+49405361881", "display_phone": "+49 40 5361881", "distance": 4614.115225537317}, {"id": "fzEGjPIcjuxx_TVoEy9GVg", "alias": "weltladen-und-caf\u00e9-hamburg", "name": "Weltladen & Caf\u00e9", "image_url": "https://s3-media3.fl.yelpcdn.com/bphoto/dspuKA-13OlfLt_KHbjW_g/o.jpg", "is_closed": false, "url": "https://www.yelp.com/biz/weltladen-und-caf%C3%A9-hamburg?adjust_creative=hBJOknVQJ58S5goQyjmwRw&utm_campaign=yelp_api_v3&utm_medium=api_v3_business_search&utm_source=hBJOknVQJ58S5goQyjmwRw", "review_count": 2, "categories": [{"alias": "cafes", "title": "Cafes"}], "rating": 4.5, "coordinates": {"latitude": 53.6542200096796, "longitude": 10.1132201403379}, "transactions": [], "location": {"address1": "Saseler Markt 8", "address2": "", "address3": null, "city": "Hamburg", "zip_code": "22393", "country": "DE", "state": "HH", "display_address": ["Saseler Markt 8", "22393 Hamburg", "Germany"]}, "phone": "+494060011916", "display_phone": "+49 40 60011916", "distance": 3261.6860802712513}, {"id": "yw31WMkRCKED6y_TLI-ZFw", "alias": "schweinske-hamburg-5", "name": "Schweinske", "image_url": "https://s3-media4.fl.yelpcdn.com/bphoto/kHTqMtN7y3Mw34yX35VRcw/o.jpg", "is_closed": false, "url": "https://www.yelp.com/biz/schweinske-hamburg-5?adjust_creative=hBJOknVQJ58S5goQyjmwRw&utm_campaign=yelp_api_v3&utm_medium=api_v3_business_search&utm_source=hBJOknVQJ58S5goQyjmwRw", "review_count": 24, "categories": [{"alias": "german", "title": "German"}], "rating": 3.5, "coordinates": {"latitude": 53.659892, "longitude": 10.085127}, "transactions": [], "price": "\u20ac\u20ac", "location": {"address1": "Harksheider Str. 2", "address2": "", "address3": "", "city": "Hamburg", "zip_code": "22399", "country": "DE", "state": "HH", "display_address": ["Harksheider Str. 2", "22399 Hamburg", "Germany"]}, "phone": "+49406069873", "display_phone": "+49 40 6069873", "distance": 2372.976066655635}, {"id": "gZUFmSNq0a1Vte2SZCviSA", "alias": "thaicurrydelhi-k\u00f6ln-chorweiler-hamburg", "name": "ThaiCurryDelhi K\u00f6ln- Chorweiler", "image_url": "", "is_closed": false, "url": "https://www.yelp.com/biz/thaicurrydelhi-k%C3%B6ln-chorweiler-hamburg?adjust_creative=hBJOknVQJ58S5goQyjmwRw&utm_campaign=yelp_api_v3&utm_medium=api_v3_business_search&utm_source=hBJOknVQJ58S5goQyjmwRw", "review_count": 1, "categories": [{"alias": "realestateagents", "title": "Real Estate Agents"}, {"alias": "restaurants", "title": "Restaurants"}], "rating": 2.0, "coordinates": {"latitude": 53.6521546, "longitude": 10.0929026}, "transactions": [], "location": {"address1": "Heegbarg 2", "address2": null, "address3": null, "city": "Hamburg", "zip_code": "22391", "country": "DE", "state": "HH", "display_address": ["Heegbarg 2", "22391 Hamburg", "Germany"]}, "phone": "", "display_phone": "", "distance": 3186.0771899069614}, {"id": "fDCSXYKbbA6t6hgNhmcLwg", "alias": "ok-pizza-hamburg", "name": "OK Pizza", "image_url": "", "is_closed": false, "url": "https://www.yelp.com/biz/ok-pizza-hamburg?adjust_creative=hBJOknVQJ58S5goQyjmwRw&utm_campaign=yelp_api_v3&utm_medium=api_v3_business_search&utm_source=hBJOknVQJ58S5goQyjmwRw", "review_count": 2, "categories": [{"alias": "pizza", "title": "Pizza"}], "rating": 5.0, "coordinates": {"latitude": 53.6513, "longitude": 10.10565}, "transactions": [], "location": {"address1": "Saseler Chaussee 160", "address2": "", "address3": "", "city": "Hamburg", "zip_code": "22393", "country": "DE", "state": "HH", "display_address": ["Saseler Chaussee 160", "22393 Hamburg", "Germany"]}, "phone": "+49406045544", "display_phone": "+49 40 6045544", "distance": 3404.693138420059}, {"id": "tYBAsYqRjR8IKEzWmZGfcw", "alias": "emilia-hamburg", "name": "Emilia", "image_url": "https://s3-media4.fl.yelpcdn.com/bphoto/Izr8J-5l75efCutvua1RtA/o.jpg", "is_closed": false, "url": "https://www.yelp.com/biz/emilia-hamburg?adjust_creative=hBJOknVQJ58S5goQyjmwRw&utm_campaign=yelp_api_v3&utm_medium=api_v3_business_search&utm_source=hBJOknVQJ58S5goQyjmwRw", "review_count": 25, "categories": [{"alias": "italian", "title": "Italian"}, {"alias": "pizza", "title": "Pizza"}], "rating": 3.5, "coordinates": {"latitude": 53.65393, "longitude": 10.09115}, "transactions": [], "price": "\u20ac\u20ac", "location": {"address1": "Heegbarg 31", "address2": "", "address3": "", "city": "Hamburg", "zip_code": "22391", "country": "DE", "state": "HH", "display_address": ["Heegbarg 31", "22391 Hamburg", "Germany"]}, "phone": "+494060298631", "display_phone": "+49 40 60298631", "distance": 3009.3199375195222}, {"id": "3GdaGUoMpMJkqCRzpry9Pg", "alias": "thai-curry-delhi-hamburg", "name": "Thai Curry Delhi", "image_url": "https://s3-media1.fl.yelpcdn.com/bphoto/emFvKpLhxiN9B0PDGMc2wQ/o.jpg", "is_closed": false, "url": "https://www.yelp.com/biz/thai-curry-delhi-hamburg?adjust_creative=hBJOknVQJ58S5goQyjmwRw&utm_campaign=yelp_api_v3&utm_medium=api_v3_business_search&utm_source=hBJOknVQJ58S5goQyjmwRw", "review_count": 17, "categories": [{"alias": "thai", "title": "Thai"}, {"alias": "foodstands", "title": "Food Stands"}], "rating": 3.0, "coordinates": {"latitude": 53.65393, "longitude": 10.09115}, "transactions": [], "price": "\u20ac", "location": {"address1": "Heegbarg 31", "address2": "", "address3": "", "city": "Hamburg", "zip_code": "22391", "country": "DE", "state": "HH", "display_address": ["Heegbarg 31", "22391 Hamburg", "Germany"]}, "phone": "", "display_phone": "", "distance": 3009.3199375195222}, {"id": "ViYFQMBkHuyybK-trk-anw", "alias": "maurizio-hamburg", "name": "Maurizio", "image_url": "https://s3-media2.fl.yelpcdn.com/bphoto/TCN6cTsb9bfZ7RklswpcBg/o.jpg", "is_closed": false, "url": "https://www.yelp.com/biz/maurizio-hamburg?adjust_creative=hBJOknVQJ58S5goQyjmwRw&utm_campaign=yelp_api_v3&utm_medium=api_v3_business_search&utm_source=hBJOknVQJ58S5goQyjmwRw", "review_count": 5, "categories": [{"alias": "italian", "title": "Italian"}], "rating": 4.0, "coordinates": {"latitude": 53.64967, "longitude": 10.11751}, "transactions": [], "location": {"address1": "Berner Weg 33", "address2": "", "address3": "", "city": "Hamburg", "zip_code": "22393", "country": "DE", "state": "HH", "display_address": ["Berner Weg 33", "22393 Hamburg", "Germany"]}, "phone": "+494024437850", "display_phone": "+49 40 24437850", "distance": 3842.072058378907}, {"id": "XHoJ8z8cZtNirkEusoeqXg", "alias": "die-croquemaker-hamburg-10", "name": "die croquemaker", "image_url": "https://s3-media1.fl.yelpcdn.com/bphoto/xhVsaUApPa08dYYZm4CL9g/o.jpg", "is_closed": false, "url": "https://www.yelp.com/biz/die-croquemaker-hamburg-10?adjust_creative=hBJOknVQJ58S5goQyjmwRw&utm_campaign=yelp_api_v3&utm_medium=api_v3_business_search&utm_source=hBJOknVQJ58S5goQyjmwRw", "review_count": 3, "categories": [{"alias": "salad", "title": "Salad"}, {"alias": "sandwiches", "title": "Sandwiches"}], "rating": 3.5, "coordinates": {"latitude": 53.66016, "longitude": 10.08344}, "transactions": [], "price": "\u20ac", "location": {"address1": "Harksheider Str. 6", "address2": "", "address3": "", "city": "Hamburg", "zip_code": "22399", "country": "DE", "state": "HH", "display_address": ["Harksheider Str. 6", "22399 Hamburg", "Germany"]}, "phone": "+494063669355", "display_phone": "+49 40 63669355", "distance": 2359.2437469849347}, {"id": "vixzdPa4bSkp1j5WArZOIg", "alias": "nordsee-hamburg-9", "name": "Nordsee", "image_url": "https://s3-media2.fl.yelpcdn.com/bphoto/nGNBuu-SYtJ2QNrakRltBg/o.jpg", "is_closed": false, "url": "https://www.yelp.com/biz/nordsee-hamburg-9?adjust_creative=hBJOknVQJ58S5goQyjmwRw&utm_campaign=yelp_api_v3&utm_medium=api_v3_business_search&utm_source=hBJOknVQJ58S5goQyjmwRw", "review_count": 10, "categories": [{"alias": "fischbroetchen", "title": "Fischbroetchen"}, {"alias": "fishmonger", "title": "Fishmonger"}], "rating": 3.0, "coordinates": {"latitude": 53.65393, "longitude": 10.09115}, "transactions": [], "price": "\u20ac", "location": {"address1": "Heegbarg 31", "address2": "", "address3": "", "city": "Hamburg", "zip_code": "22391", "country": "DE", "state": "HH", "display_address": ["Heegbarg 31", "22391 Hamburg", "Germany"]}, "phone": "+494060679386", "display_phone": "+49 40 60679386", "distance": 3009.3199375195222}, {"id": "P1P_tQ8jf0W_fALx6NxfnQ", "alias": "gosch-sylt-hamburg-7", "name": "Gosch Sylt", "image_url": "https://s3-media3.fl.yelpcdn.com/bphoto/uoxUAoI-a5gaW4Tcr8fe8w/o.jpg", "is_closed": false, "url": "https://www.yelp.com/biz/gosch-sylt-hamburg-7?adjust_creative=hBJOknVQJ58S5goQyjmwRw&utm_campaign=yelp_api_v3&utm_medium=api_v3_business_search&utm_source=hBJOknVQJ58S5goQyjmwRw", "review_count": 23, "categories": [{"alias": "seafood", "title": "Seafood"}, {"alias": "fishnchips", "title": "Fish & Chips"}], "rating": 3.0, "coordinates": {"latitude": 53.652855489139, "longitude": 10.089926160872}, "transactions": [], "price": "\u20ac\u20ac", "location": {"address1": "Heegbarg 31", "address2": "", "address3": "", "city": "Hamburg", "zip_code": "22391", "country": "DE", "state": "HH", "display_address": ["Heegbarg 31", "22391 Hamburg", "Germany"]}, "phone": "+494061136705", "display_phone": "+49 40 61136705", "distance": 3111.8220253211202}, {"id": "vMobSrGnQWGndM0UoVHGCw", "alias": "piacetto-coffee-shop-im-aez-hamburg", "name": "Piacetto Coffee Shop im Aez", "image_url": "https://s3-media4.fl.yelpcdn.com/bphoto/Z9ZbBvONSDU_qSeBGH34kw/o.jpg", "is_closed": false, "url": "https://www.yelp.com/biz/piacetto-coffee-shop-im-aez-hamburg?adjust_creative=hBJOknVQJ58S5goQyjmwRw&utm_campaign=yelp_api_v3&utm_medium=api_v3_business_search&utm_source=hBJOknVQJ58S5goQyjmwRw", "review_count": 2, "categories": [{"alias": "cafes", "title": "Cafes"}, {"alias": "coffee", "title": "Coffee & Tea"}], "rating": 4.5, "coordinates": {"latitude": 53.6537, "longitude": 10.0912}, "transactions": [], "location": {"address1": "Heegbarg 31", "address2": null, "address3": null, "city": "Hamburg", "zip_code": "22391", "country": "DE", "state": "HH", "display_address": ["Heegbarg 31", "22391 Hamburg", "Germany"]}, "phone": "+494061192693", "display_phone": "+49 40 61192693", "distance": 3014.8576237265374}, {"id": "cyqbUn_NPO1n621wzimR0Q", "alias": "asiahung-hamburg-10", "name": "asiahung", "image_url": "https://s3-media4.fl.yelpcdn.com/bphoto/pIHhUQl15Ze-vSO7kPI8pg/o.jpg", "is_closed": false, "url": "https://www.yelp.com/biz/asiahung-hamburg-10?adjust_creative=hBJOknVQJ58S5goQyjmwRw&utm_campaign=yelp_api_v3&utm_medium=api_v3_business_search&utm_source=hBJOknVQJ58S5goQyjmwRw", "review_count": 15, "categories": [{"alias": "hotdogs", "title": "Fast Food"}, {"alias": "panasian", "title": "Pan Asian"}], "rating": 3.5, "coordinates": {"latitude": 53.65393, "longitude": 10.09115}, "transactions": [], "price": "\u20ac", "location": {"address1": "Heegbarg 31", "address2": "", "address3": "", "city": "Hamburg", "zip_code": "22391", "country": "DE", "state": "HH", "display_address": ["Heegbarg 31", "22391 Hamburg", "Germany"]}, "phone": "+491723701230", "display_phone": "+49 172 3701230", "distance": 3009.3199375195222}, {"id": "xZgEJoV1fgi-jdQkHTJe6Q", "alias": "smileys-hamburg-12", "name": "Smiley's", "image_url": "https://s3-media4.fl.yelpcdn.com/bphoto/l8AuEvXYXnHPd4d86bnVWQ/o.jpg", "is_closed": false, "url": "https://www.yelp.com/biz/smileys-hamburg-12?adjust_creative=hBJOknVQJ58S5goQyjmwRw&utm_campaign=yelp_api_v3&utm_medium=api_v3_business_search&utm_source=hBJOknVQJ58S5goQyjmwRw", "review_count": 4, "categories": [{"alias": "pizza", "title": "Pizza"}], "rating": 3.5, "coordinates": {"latitude": 53.6536, "longitude": 10.1057}, "transactions": [], "price": "\u20ac\u20ac", "location": {"address1": "Stadtbahnstr. 32", "address2": null, "address3": null, "city": "Hamburg", "zip_code": "22393", "country": "DE", "state": "HH", "display_address": ["Stadtbahnstr. 32", "22393 Hamburg", "Germany"]}, "phone": "+49406017585", "display_phone": "+49 40 6017585", "distance": 3151.307498371535}, {"id": "7JvYE1KReUVKVNfMtx4XEg", "alias": "subway-hamburg-16", "name": "Subway", "image_url": "https://s3-media1.fl.yelpcdn.com/bphoto/0oVCbiDA2RAJZmMiD3hcpA/o.jpg", "is_closed": false, "url": "https://www.yelp.com/biz/subway-hamburg-16?adjust_creative=hBJOknVQJ58S5goQyjmwRw&utm_campaign=yelp_api_v3&utm_medium=api_v3_business_search&utm_source=hBJOknVQJ58S5goQyjmwRw", "review_count": 11, "categories": [{"alias": "hotdogs", "title": "Fast Food"}, {"alias": "sandwiches", "title": "Sandwiches"}], "rating": 4.0, "coordinates": {"latitude": 53.6521509678249, "longitude": 10.0930232711639}, "transactions": [], "price": "\u20ac\u20ac", "location": {"address1": "Heegbarg 2", "address2": "", "address3": null, "city": "Hamburg", "zip_code": "22391", "country": "DE", "state": "HH", "display_address": ["Heegbarg 2", "22391 Hamburg", "Germany"]}, "phone": "+494060876670", "display_phone": "+49 40 60876670", "distance": 3186.5901951025357}, {"id": "1pIR6Fl5whNkeQjmQ1rK2w", "alias": "markthalle-im-aez-hamburg", "name": "Markthalle im AEZ", "image_url": "https://s3-media2.fl.yelpcdn.com/bphoto/XSOY7tC_9Ay-YXNkKPDynQ/o.jpg", "is_closed": false, "url": "https://www.yelp.com/biz/markthalle-im-aez-hamburg?adjust_creative=hBJOknVQJ58S5goQyjmwRw&utm_campaign=yelp_api_v3&utm_medium=api_v3_business_search&utm_source=hBJOknVQJ58S5goQyjmwRw", "review_count": 4, "categories": [{"alias": "food_court", "title": "Food Court"}], "rating": 4.0, "coordinates": {"latitude": 53.65393, "longitude": 10.09115}, "transactions": [], "price": "\u20ac\u20ac", "location": {"address1": "Heegbarg 31", "address2": "", "address3": "", "city": "Hamburg", "zip_code": "22391", "country": "DE", "state": "HH", "display_address": ["Heegbarg 31", "22391 Hamburg", "Germany"]}, "phone": "", "display_phone": "", "distance": 3009.3199375195222}, {"id": "cua3_fdR9fejQwLYgHWYOA", "alias": "sushi-for-friends-hamburg-3", "name": "Sushi for Friends", "image_url": "https://s3-media1.fl.yelpcdn.com/bphoto/nDCCXsMFnB4iajti1fadfg/o.jpg", "is_closed": false, "url": "https://www.yelp.com/biz/sushi-for-friends-hamburg-3?adjust_creative=hBJOknVQJ58S5goQyjmwRw&utm_campaign=yelp_api_v3&utm_medium=api_v3_business_search&utm_source=hBJOknVQJ58S5goQyjmwRw", "review_count": 26, "categories": [{"alias": "sushi", "title": "Sushi Bars"}], "rating": 3.0, "coordinates": {"latitude": 53.65209, "longitude": 10.10624}, "transactions": [], "price": "\u20ac\u20ac\u20ac", "location": {"address1": "Saseler Chaussee 168", "address2": "", "address3": "", "city": "Hamburg", "zip_code": "22393", "country": "DE", "state": "HH", "display_address": ["Saseler Chaussee 168", "22393 Hamburg", "Germany"]}, "phone": "+494060671608", "display_phone": "+49 40 60671608", "distance": 3323.221526329751}, {"id": "MsmXXwUr9HGCdeLEXEF_3Q", "alias": "schnoors-hamburg", "name": "Schnoor's", "image_url": "https://s3-media2.fl.yelpcdn.com/bphoto/XUNae9EiZsEJM3P52l7m9A/o.jpg", "is_closed": false, "url": "https://www.yelp.com/biz/schnoors-hamburg?adjust_creative=hBJOknVQJ58S5goQyjmwRw&utm_campaign=yelp_api_v3&utm_medium=api_v3_business_search&utm_source=hBJOknVQJ58S5goQyjmwRw", "review_count": 6, "categories": [{"alias": "modern_european", "title": "Modern European"}, {"alias": "beergarden", "title": "Beer Garden"}], "rating": 2.0, "coordinates": {"latitude": 53.63869, "longitude": 10.1065}, "transactions": [], "price": "\u20ac\u20ac", "location": {"address1": "Donauweg 2", "address2": null, "address3": null, "city": "Hamburg", "zip_code": "22359", "country": "DE", "state": "HH", "display_address": ["Donauweg 2", "22359 Hamburg", "Germany"]}, "phone": "+494064941030", "display_phone": "+49 40 64941030", "distance": 4775.595162257409}, {"id": "MDueB-_uqPvpijX47GrQhg", "alias": "dinea-hamburg-2", "name": "Dinea", "image_url": "https://s3-media3.fl.yelpcdn.com/bphoto/h0PzwdGMp5bbexg5lYI05g/o.jpg", "is_closed": false, "url": "https://www.yelp.com/biz/dinea-hamburg-2?adjust_creative=hBJOknVQJ58S5goQyjmwRw&utm_campaign=yelp_api_v3&utm_medium=api_v3_business_search&utm_source=hBJOknVQJ58S5goQyjmwRw", "review_count": 2, "categories": [{"alias": "buffets", "title": "Buffets"}], "rating": 4.0, "coordinates": {"latitude": 53.65302, "longitude": 10.08939}, "transactions": [], "location": {"address1": "Galeria Kaufhof", "address2": "Kritenbarg 2", "address3": "", "city": "Hamburg", "zip_code": "22391", "country": "DE", "state": "HH", "display_address": ["Galeria Kaufhof", "Kritenbarg 2", "22391 Hamburg", "Germany"]}, "phone": "+494060676145", "display_phone": "+49 40 60676145", "distance": 3077.6184703451436}, {"id": "YhlJNvznZqWqu4YBvJ3ysQ", "alias": "caf\u00e9-reinhardt-hamburg-4", "name": "Caf\u00e9 Reinhardt", "image_url": "https://s3-media4.fl.yelpcdn.com/bphoto/K_TmNNnmC3o5zoHUhdjv3g/o.jpg", "is_closed": false, "url": "https://www.yelp.com/biz/caf%C3%A9-reinhardt-hamburg-4?adjust_creative=hBJOknVQJ58S5goQyjmwRw&utm_campaign=yelp_api_v3&utm_medium=api_v3_business_search&utm_source=hBJOknVQJ58S5goQyjmwRw", "review_count": 7, "categories": [{"alias": "cafes", "title": "Cafes"}, {"alias": "cakeshop", "title": "Patisserie/Cake Shop"}, {"alias": "bakeries", "title": "Bakeries"}], "rating": 4.0, "coordinates": {"latitude": 53.64058, "longitude": 10.08246}, "transactions": [], "location": {"address1": "Rolfinckstr. 8 - 10", "address2": "", "address3": null, "city": "Hamburg", "zip_code": "22391", "country": "DE", "state": "HH", "display_address": ["Rolfinckstr. 8 - 10", "22391 Hamburg", "Germany"]}, "phone": "+494053908727", "display_phone": "+49 40 53908727", "distance": 4521.459364815758}, {"id": "C8P8aF6rArI4qwRL9ig_CA", "alias": "grand-caf\u00e9-hamburg", "name": "Grand Caf\u00e9", "image_url": "https://s3-media1.fl.yelpcdn.com/bphoto/qoQJWjhMSP076lxjqQOTYQ/o.jpg", "is_closed": false, "url": "https://www.yelp.com/biz/grand-caf%C3%A9-hamburg?adjust_creative=hBJOknVQJ58S5goQyjmwRw&utm_campaign=yelp_api_v3&utm_medium=api_v3_business_search&utm_source=hBJOknVQJ58S5goQyjmwRw", "review_count": 11, "categories": [{"alias": "cafes", "title": "Cafes"}], "rating": 3.5, "coordinates": {"latitude": 53.65393, "longitude": 10.09115}, "transactions": [], "price": "\u20ac\u20ac", "location": {"address1": "Heegbarg 31", "address2": "", "address3": "", "city": "Hamburg", "zip_code": "22391", "country": "DE", "state": "HH", "display_address": ["Heegbarg 31", "22391 Hamburg", "Germany"]}, "phone": "+494069211412", "display_phone": "+49 40 69211412", "distance": 3009.3199375195222}, {"id": "o_LN9k-Z3QJkZvz0X4rBDA", "alias": "pizza-max-hamburg-12", "name": "Pizza Max", "image_url": "https://s3-media4.fl.yelpcdn.com/bphoto/_AzpobkYYDAl3_R92xh7iQ/o.jpg", "is_closed": false, "url": "https://www.yelp.com/biz/pizza-max-hamburg-12?adjust_creative=hBJOknVQJ58S5goQyjmwRw&utm_campaign=yelp_api_v3&utm_medium=api_v3_business_search&utm_source=hBJOknVQJ58S5goQyjmwRw", "review_count": 1, "categories": [{"alias": "pizza", "title": "Pizza"}], "rating": 1.0, "coordinates": {"latitude": 53.6513347185164, "longitude": 10.1057185789401}, "transactions": [], "price": "\u20ac\u20ac\u20ac", "location": {"address1": "Stadtbahnstr. 19 a", "address2": "", "address3": "", "city": "Hamburg", "zip_code": "22393", "country": "DE", "state": "HH", "display_address": ["Stadtbahnstr. 19 a", "22393 Hamburg", "Germany"]}, "phone": "+4940600886800", "display_phone": "+49 40 600886800", "distance": 3394.166307070495}, {"id": "c0O6LqqtdJgrIc-8_jm_gQ", "alias": "schlemmermeyer-hamburg", "name": "Schlemmermeyer", "image_url": "https://s3-media1.fl.yelpcdn.com/bphoto/fckByPFm5z8FkLxRyaVHGQ/o.jpg", "is_closed": false, "url": "https://www.yelp.com/biz/schlemmermeyer-hamburg?adjust_creative=hBJOknVQJ58S5goQyjmwRw&utm_campaign=yelp_api_v3&utm_medium=api_v3_business_search&utm_source=hBJOknVQJ58S5goQyjmwRw", "review_count": 7, "categories": [{"alias": "delicatessen", "title": "Delicatessen"}, {"alias": "foodstands", "title": "Food Stands"}], "rating": 3.5, "coordinates": {"latitude": 53.65393, "longitude": 10.09115}, "transactions": [], "price": "\u20ac\u20ac\u20ac", "location": {"address1": "Heegbarg 31", "address2": "", "address3": null, "city": "Hamburg", "zip_code": "22391", "country": "DE", "state": "HH", "display_address": ["Heegbarg 31", "22391 Hamburg", "Germany"]}, "phone": "+49406025483", "display_phone": "+49 40 6025483", "distance": 3009.3199375195222}]