[{"id": "PaaxDcMwc1d3G-xo8DsSqQ", "alias": "a-vila-b\u00f6nningstedt", "name": "A Vila", "image_url": "https://s3-media2.fl.yelpcdn.com/bphoto/NecesgGDzoLQFnvY9kAFJg/o.jpg", "is_closed": false, "url": "https://www.yelp.com/biz/a-vila-b%C3%B6nningstedt?adjust_creative=hBJOknVQJ58S5goQyjmwRw&utm_campaign=yelp_api_v3&utm_medium=api_v3_business_search&utm_source=hBJOknVQJ58S5goQyjmwRw", "review_count": 1, "categories": [{"alias": "portuguese", "title": "Portuguese"}], "rating": 4.0, "coordinates": {"latitude": 53.66626, "longitude": 9.90408}, "transactions": [], "price": "\u20ac\u20ac", "location": {"address1": "Kieler Str. 108", "address2": "", "address3": null, "city": "B\u00f6nningstedt", "zip_code": "25474", "country": "DE", "state": "SH", "display_address": ["Kieler Str. 108", "25474 B\u00f6nningstedt", "Germany"]}, "phone": "+491627937275", "display_phone": "+49 162 7937275", "distance": 1837.8617419535144}, {"id": "iP9KRcc3ROup85hZLPtmlA", "alias": "palmencaf\u00e9-hasloh-3", "name": "Palmencaf\u00e9", "image_url": "https://s3-media1.fl.yelpcdn.com/bphoto/BibwdTZyZn0ksSPOCTPd0Q/o.jpg", "is_closed": false, "url": "https://www.yelp.com/biz/palmencaf%C3%A9-hasloh-3?adjust_creative=hBJOknVQJ58S5goQyjmwRw&utm_campaign=yelp_api_v3&utm_medium=api_v3_business_search&utm_source=hBJOknVQJ58S5goQyjmwRw", "review_count": 6, "categories": [{"alias": "cafes", "title": "Cafes"}], "rating": 4.0, "coordinates": {"latitude": 53.6907914, "longitude": 9.9101964}, "transactions": [], "price": "\u20ac\u20ac", "location": {"address1": "Kieler Str. 5", "address2": null, "address3": null, "city": "Hasloh", "zip_code": "25474", "country": "DE", "state": "SH", "display_address": ["Kieler Str. 5", "25474 Hasloh", "Germany"]}, "phone": "+4941066402666", "display_phone": "+49 4106 6402666", "distance": 876.6837836900758}, {"id": "guZahoBDeSMSGSTpqd5GhA", "alias": "freiluft-hasloh-2", "name": "Freiluft", "image_url": "https://s3-media3.fl.yelpcdn.com/bphoto/4db8pfegMwzeKBDJxNc6aQ/o.jpg", "is_closed": false, "url": "https://www.yelp.com/biz/freiluft-hasloh-2?adjust_creative=hBJOknVQJ58S5goQyjmwRw&utm_campaign=yelp_api_v3&utm_medium=api_v3_business_search&utm_source=hBJOknVQJ58S5goQyjmwRw", "review_count": 3, "categories": [{"alias": "cafes", "title": "Cafes"}, {"alias": "breakfast_brunch", "title": "Breakfast & Brunch"}], "rating": 5.0, "coordinates": {"latitude": 53.6922063607989, "longitude": 9.92644350975752}, "transactions": [], "location": {"address1": "Garstedter Weg 36 A", "address2": null, "address3": null, "city": "Hasloh", "zip_code": "25474", "country": "DE", "state": "SH", "display_address": ["Garstedter Weg 36 A", "25474 Hasloh", "Germany"]}, "phone": "+4941069779025", "display_phone": "+49 4106 9779025", "distance": 1513.2631566943633}, {"id": "1mAxuvRfmAxDFnFi7_xNmQ", "alias": "montenegro-bei-sabina-b\u00f6nningstedt", "name": "Montenegro bei Sabina", "image_url": "https://s3-media3.fl.yelpcdn.com/bphoto/LtTQiS7DcXdoUTdaFMeAQw/o.jpg", "is_closed": false, "url": "https://www.yelp.com/biz/montenegro-bei-sabina-b%C3%B6nningstedt?adjust_creative=hBJOknVQJ58S5goQyjmwRw&utm_campaign=yelp_api_v3&utm_medium=api_v3_business_search&utm_source=hBJOknVQJ58S5goQyjmwRw", "review_count": 2, "categories": [{"alias": "mediterranean", "title": "Mediterranean"}], "rating": 3.0, "coordinates": {"latitude": 53.66233, "longitude": 9.89852}, "transactions": [], "price": "\u20ac\u20ac", "location": {"address1": "Rugenbergener Str. 50", "address2": "", "address3": "", "city": "B\u00f6nningstedt", "zip_code": "25474", "country": "DE", "state": "SH", "display_address": ["Rugenbergener Str. 50", "25474 B\u00f6nningstedt", "Germany"]}, "phone": "+494089804210", "display_phone": "+49 40 89804210", "distance": 2362.339144611911}, {"id": "zaR5yCUNiVbofbciH46tTQ", "alias": "montgomery-champs-hamburg-2", "name": "Montgomery Champs", "image_url": "https://s3-media1.fl.yelpcdn.com/bphoto/APKqvOnmSjrLokmzeQPwWw/o.jpg", "is_closed": false, "url": "https://www.yelp.com/biz/montgomery-champs-hamburg-2?adjust_creative=hBJOknVQJ58S5goQyjmwRw&utm_campaign=yelp_api_v3&utm_medium=api_v3_business_search&utm_source=hBJOknVQJ58S5goQyjmwRw", "review_count": 187, "categories": [{"alias": "bars", "title": "Bars"}, {"alias": "tradamerican", "title": "American (Traditional)"}], "rating": 3.5, "coordinates": {"latitude": 53.6475099, "longitude": 9.90794}, "transactions": [], "price": "\u20ac\u20ac", "location": {"address1": "Holsteiner Chaussee 402", "address2": null, "address3": null, "city": "Hamburg", "zip_code": "22457", "country": "DE", "state": "HH", "display_address": ["Holsteiner Chaussee 402", "22457 Hamburg", "Germany"]}, "phone": "+494055979x10", "display_phone": "+49 40 55979 ext. 10", "distance": 3873.679767371383}, {"id": "ytQgWTQXCQ-5chP6bV4muQ", "alias": "china-restaurant-kokker-goh-b\u00f6nningstedt", "name": "China - Restaurant Kokker Goh", "image_url": "https://s3-media2.fl.yelpcdn.com/bphoto/5GxBGqyQLPYcmmyn0mRyDA/o.jpg", "is_closed": false, "url": "https://www.yelp.com/biz/china-restaurant-kokker-goh-b%C3%B6nningstedt?adjust_creative=hBJOknVQJ58S5goQyjmwRw&utm_campaign=yelp_api_v3&utm_medium=api_v3_business_search&utm_source=hBJOknVQJ58S5goQyjmwRw", "review_count": 10, "categories": [{"alias": "chinese", "title": "Chinese"}, {"alias": "malaysian", "title": "Malaysian"}], "rating": 4.0, "coordinates": {"latitude": 53.6638, "longitude": 9.90585}, "transactions": [], "price": "\u20ac\u20ac", "location": {"address1": "Bahnhofstr. 2", "address2": null, "address3": null, "city": "B\u00f6nningstedt", "zip_code": "25474", "country": "DE", "state": "SH", "display_address": ["Bahnhofstr. 2", "25474 B\u00f6nningstedt", "Germany"]}, "phone": "+49405566848", "display_phone": "+49 40 5566848", "distance": 2083.8753742870704}, {"id": "-mN4eGrBTgb2vdMbx8EYTg", "alias": "restaurant-ausspann-hamburg", "name": "Restaurant Ausspann", "image_url": "https://s3-media4.fl.yelpcdn.com/bphoto/6a5UlFlWwnbYa6N7TU0-GQ/o.jpg", "is_closed": false, "url": "https://www.yelp.com/biz/restaurant-ausspann-hamburg?adjust_creative=hBJOknVQJ58S5goQyjmwRw&utm_campaign=yelp_api_v3&utm_medium=api_v3_business_search&utm_source=hBJOknVQJ58S5goQyjmwRw", "review_count": 5, "categories": [{"alias": "modern_european", "title": "Modern European"}, {"alias": "german", "title": "German"}], "rating": 4.5, "coordinates": {"latitude": 53.6507, "longitude": 9.90749}, "transactions": [], "location": {"address1": "Holsteiner Chaussee 428", "address2": null, "address3": null, "city": "Hamburg", "zip_code": "22457", "country": "DE", "state": "HH", "display_address": ["Holsteiner Chaussee 428", "22457 Hamburg", "Germany"]}, "phone": "+494055987010", "display_phone": "+49 40 55987010", "distance": 3522.6037938055724}, {"id": "u3ub5f0MS4qY67Q8XF9ZoA", "alias": "sodemanns-fisch-kutter-nr-1-hamburg", "name": "Sodemann's Fisch-Kutter Nr. 1", "image_url": "https://s3-media3.fl.yelpcdn.com/bphoto/BlysP6fVPaL0eEjKvEbByw/o.jpg", "is_closed": false, "url": "https://www.yelp.com/biz/sodemanns-fisch-kutter-nr-1-hamburg?adjust_creative=hBJOknVQJ58S5goQyjmwRw&utm_campaign=yelp_api_v3&utm_medium=api_v3_business_search&utm_source=hBJOknVQJ58S5goQyjmwRw", "review_count": 3, "categories": [{"alias": "foodtrucks", "title": "Food Trucks"}, {"alias": "fischbroetchen", "title": "Fischbroetchen"}], "rating": 5.0, "coordinates": {"latitude": 53.5537490844727, "longitude": 9.99182987213135}, "transactions": [], "price": "\u20ac\u20ac", "location": {"address1": "", "address2": null, "address3": "", "city": "Hamburg", "zip_code": "", "country": "DE", "state": "HH", "display_address": ["Hamburg", "Germany"]}, "phone": "+491773606663", "display_phone": "+49 177 3606663", "distance": 15587.195382858199}, {"id": "hXrSBcr_JxcaWG0hTSkwPA", "alias": "landhaus-schadendorf-hasloh", "name": "Landhaus Schadendorf", "image_url": "https://s3-media4.fl.yelpcdn.com/bphoto/zJNxqe6yQY7YQ_G9FqUmtw/o.jpg", "is_closed": false, "url": "https://www.yelp.com/biz/landhaus-schadendorf-hasloh?adjust_creative=hBJOknVQJ58S5goQyjmwRw&utm_campaign=yelp_api_v3&utm_medium=api_v3_business_search&utm_source=hBJOknVQJ58S5goQyjmwRw", "review_count": 3, "categories": [{"alias": "greek", "title": "Greek"}], "rating": 3.0, "coordinates": {"latitude": 53.6925, "longitude": 9.9114}, "transactions": [], "price": "\u20ac\u20ac", "location": {"address1": "Kieler Str. 34", "address2": null, "address3": null, "city": "Hasloh", "zip_code": "25474", "country": "DE", "state": "SH", "display_address": ["Kieler Str. 34", "25474 Hasloh", "Germany"]}, "phone": "+494106658933", "display_phone": "+49 4106 658933", "distance": 1132.5660577510528}, {"id": "c5OhJe-RTfgKH_EH94L6Cg", "alias": "city-pizza-und-d\u00f6ner-b\u00f6nningstedt", "name": "City Pizza und D\u00f6ner", "image_url": "https://s3-media1.fl.yelpcdn.com/bphoto/d68sANcKEDDblPHVwU4vRQ/o.jpg", "is_closed": false, "url": "https://www.yelp.com/biz/city-pizza-und-d%C3%B6ner-b%C3%B6nningstedt?adjust_creative=hBJOknVQJ58S5goQyjmwRw&utm_campaign=yelp_api_v3&utm_medium=api_v3_business_search&utm_source=hBJOknVQJ58S5goQyjmwRw", "review_count": 4, "categories": [{"alias": "hotdogs", "title": "Fast Food"}, {"alias": "kebab", "title": "Kebab"}], "rating": 3.0, "coordinates": {"latitude": 53.6653, "longitude": 9.90443}, "transactions": [], "price": "\u20ac", "location": {"address1": "Kielerstr. 109", "address2": null, "address3": null, "city": "B\u00f6nningstedt", "zip_code": "25474", "country": "DE", "state": "SH", "display_address": ["Kielerstr. 109", "25474 B\u00f6nningstedt", "Germany"]}, "phone": "+494097074666", "display_phone": "+49 40 97074666", "distance": 1936.7583701281358}, {"id": "Kstf0jpypvRgDTtwb2-i4Q", "alias": "gastst\u00e4tte-marathon-hamburg-2", "name": "Gastst\u00e4tte Marathon", "image_url": "https://s3-media3.fl.yelpcdn.com/bphoto/nKvIePm1Ek2iU7u_fJt-BA/o.jpg", "is_closed": false, "url": "https://www.yelp.com/biz/gastst%C3%A4tte-marathon-hamburg-2?adjust_creative=hBJOknVQJ58S5goQyjmwRw&utm_campaign=yelp_api_v3&utm_medium=api_v3_business_search&utm_source=hBJOknVQJ58S5goQyjmwRw", "review_count": 7, "categories": [{"alias": "greek", "title": "Greek"}], "rating": 3.0, "coordinates": {"latitude": 53.6473, "longitude": 9.90971}, "transactions": [], "price": "\u20ac\u20ac", "location": {"address1": "Roman-Zeller-Platz 2", "address2": null, "address3": null, "city": "Hamburg", "zip_code": "22457", "country": "DE", "state": "HH", "display_address": ["Roman-Zeller-Platz 2", "22457 Hamburg", "Germany"]}, "phone": "+49405583003", "display_phone": "+49 40 5583003", "distance": 3895.0222394552384}, {"id": "3if8K7vRrE-cIFnKiGg_nw", "alias": "cafe-bistro-alfi-b\u00f6nningstedt", "name": "Cafe Bistro Alfi", "image_url": "", "is_closed": false, "url": "https://www.yelp.com/biz/cafe-bistro-alfi-b%C3%B6nningstedt?adjust_creative=hBJOknVQJ58S5goQyjmwRw&utm_campaign=yelp_api_v3&utm_medium=api_v3_business_search&utm_source=hBJOknVQJ58S5goQyjmwRw", "review_count": 1, "categories": [{"alias": "cafes", "title": "Cafes"}, {"alias": "coffee", "title": "Coffee & Tea"}, {"alias": "german", "title": "German"}], "rating": 2.0, "coordinates": {"latitude": 53.6704, "longitude": 9.90271}, "transactions": [], "location": {"address1": "Kieler Str. 185", "address2": null, "address3": null, "city": "B\u00f6nningstedt", "zip_code": "25474", "country": "DE", "state": "SH", "display_address": ["Kieler Str. 185", "25474 B\u00f6nningstedt", "Germany"]}, "phone": "+494055693700", "display_phone": "+49 40 55693700", "distance": 1425.1691759123455}, {"id": "qC8eb5-vpUSzcH-Nx9SBGg", "alias": "seegarten-quickborn", "name": "Seegarten", "image_url": "https://s3-media4.fl.yelpcdn.com/bphoto/SxVi_bH6DTKSy5XG-49LCQ/o.jpg", "is_closed": false, "url": "https://www.yelp.com/biz/seegarten-quickborn?adjust_creative=hBJOknVQJ58S5goQyjmwRw&utm_campaign=yelp_api_v3&utm_medium=api_v3_business_search&utm_source=hBJOknVQJ58S5goQyjmwRw", "review_count": 6, "categories": [{"alias": "hotels", "title": "Hotels"}, {"alias": "international", "title": "International"}, {"alias": "german", "title": "German"}], "rating": 3.5, "coordinates": {"latitude": 53.7242, "longitude": 9.93571}, "transactions": [], "price": "\u20ac\u20ac\u20ac", "location": {"address1": "Harksheider Weg 258", "address2": null, "address3": null, "city": "Quickborn", "zip_code": "25451", "country": "DE", "state": "SH", "display_address": ["Harksheider Weg 258", "25451 Quickborn", "Germany"]}, "phone": "+49410663670", "display_phone": "+49 4106 63670", "distance": 4940.051480737295}, {"id": "qheb5F4ieQ1EaI_gHrJ6Dg", "alias": "restaurant-seegarten-quickborn", "name": "Restaurant Seegarten", "image_url": "", "is_closed": false, "url": "https://www.yelp.com/biz/restaurant-seegarten-quickborn?adjust_creative=hBJOknVQJ58S5goQyjmwRw&utm_campaign=yelp_api_v3&utm_medium=api_v3_business_search&utm_source=hBJOknVQJ58S5goQyjmwRw", "review_count": 2, "categories": [{"alias": "german", "title": "German"}], "rating": 5.0, "coordinates": {"latitude": 53.7243, "longitude": 9.93564}, "transactions": [], "location": {"address1": "Harksheider Weg 258", "address2": null, "address3": null, "city": "Quickborn", "zip_code": "25451", "country": "DE", "state": "SH", "display_address": ["Harksheider Weg 258", "25451 Quickborn", "Germany"]}, "phone": "+49410663670", "display_phone": "+49 4106 63670", "distance": 4948.999272800849}, {"id": "APvIA_7ssxgC0atmQEFMcg", "alias": "burgerkultour-food-truck-hamburg-2", "name": "BurgerKultour Food Truck", "image_url": "https://s3-media4.fl.yelpcdn.com/bphoto/KoAuwalMnlAO8139MmdYBQ/o.jpg", "is_closed": false, "url": "https://www.yelp.com/biz/burgerkultour-food-truck-hamburg-2?adjust_creative=hBJOknVQJ58S5goQyjmwRw&utm_campaign=yelp_api_v3&utm_medium=api_v3_business_search&utm_source=hBJOknVQJ58S5goQyjmwRw", "review_count": 3, "categories": [{"alias": "foodtrucks", "title": "Food Trucks"}, {"alias": "burgers", "title": "Burgers"}], "rating": 4.5, "coordinates": {"latitude": 53.57154, "longitude": 9.95575}, "transactions": [], "price": "\u20ac\u20ac", "location": {"address1": "", "address2": "", "address3": "", "city": "Hamburg", "zip_code": "20259", "country": "DE", "state": "HH", "display_address": ["20259 Hamburg", "Germany"]}, "phone": "+4917626055122", "display_phone": "+49 176 26055122", "distance": 12744.790937651696}, {"id": "F09QZ5eyYNif_4yxJ1R6xw", "alias": "restaurant-naxos-ellerbek", "name": "Restaurant Naxos", "image_url": "", "is_closed": false, "url": "https://www.yelp.com/biz/restaurant-naxos-ellerbek?adjust_creative=hBJOknVQJ58S5goQyjmwRw&utm_campaign=yelp_api_v3&utm_medium=api_v3_business_search&utm_source=hBJOknVQJ58S5goQyjmwRw", "review_count": 3, "categories": [{"alias": "restaurants", "title": "Restaurants"}], "rating": 4.5, "coordinates": {"latitude": 53.6486, "longitude": 9.89857}, "transactions": [], "price": "\u20ac\u20ac", "location": {"address1": "Tilsiter Str. 1", "address2": null, "address3": null, "city": "Ellerbek", "zip_code": "25474", "country": "DE", "state": "SH", "display_address": ["Tilsiter Str. 1", "25474 Ellerbek", "Germany"]}, "phone": "+49410132629", "display_phone": "+49 4101 32629", "distance": 3833.40745152296}, {"id": "fTQyh9kb6XbWJEygoWC5LQ", "alias": "bennys-hamburg-2", "name": "Bennys", "image_url": "", "is_closed": false, "url": "https://www.yelp.com/biz/bennys-hamburg-2?adjust_creative=hBJOknVQJ58S5goQyjmwRw&utm_campaign=yelp_api_v3&utm_medium=api_v3_business_search&utm_source=hBJOknVQJ58S5goQyjmwRw", "review_count": 3, "categories": [{"alias": "restaurants", "title": "Restaurants"}], "rating": 1.0, "coordinates": {"latitude": 53.6528179, "longitude": 9.9200587}, "transactions": [], "location": {"address1": "K\u00f6nigskinderweg 200", "address2": "", "address3": null, "city": "Hamburg", "zip_code": "22457", "country": "DE", "state": "HH", "display_address": ["K\u00f6nigskinderweg 200", "22457 Hamburg", "Germany"]}, "phone": "+49405598790", "display_phone": "+49 40 5598790", "distance": 3339.1021317342847}, {"id": "cGIKCcR0wZszz8VldC2-7g", "alias": "currywerk-hamburg", "name": "curryWERK", "image_url": "https://s3-media4.fl.yelpcdn.com/bphoto/j_ZPQAB6JrAru84VDuLiRA/o.jpg", "is_closed": false, "url": "https://www.yelp.com/biz/currywerk-hamburg?adjust_creative=hBJOknVQJ58S5goQyjmwRw&utm_campaign=yelp_api_v3&utm_medium=api_v3_business_search&utm_source=hBJOknVQJ58S5goQyjmwRw", "review_count": 1, "categories": [{"alias": "foodtrucks", "title": "Food Trucks"}, {"alias": "currysausage", "title": "Curry Sausage"}], "rating": 4.0, "coordinates": {"latitude": 53.5498886108398, "longitude": 9.94732189178467}, "transactions": [], "price": "\u20ac\u20ac", "location": {"address1": "", "address2": "", "address3": "", "city": "Hamburg", "zip_code": "22767", "country": "DE", "state": "HH", "display_address": ["22767 Hamburg", "Germany"]}, "phone": "+4917632443433", "display_phone": "+49 176 32443433", "distance": 14986.43957723405}, {"id": "SeodQIjOcsrznD7rwIB-Jw", "alias": "the-big-balmy-hamburg-2", "name": "The Big Balmy", "image_url": "https://s3-media2.fl.yelpcdn.com/bphoto/KWUCQvGDONs_iDxlKXzgvQ/o.jpg", "is_closed": false, "url": "https://www.yelp.com/biz/the-big-balmy-hamburg-2?adjust_creative=hBJOknVQJ58S5goQyjmwRw&utm_campaign=yelp_api_v3&utm_medium=api_v3_business_search&utm_source=hBJOknVQJ58S5goQyjmwRw", "review_count": 27, "categories": [{"alias": "burgers", "title": "Burgers"}, {"alias": "foodtrucks", "title": "Food Trucks"}], "rating": 3.5, "coordinates": {"latitude": 53.537786, "longitude": 10.028218}, "transactions": [], "price": "\u20ac\u20ac", "location": {"address1": "", "address2": null, "address3": null, "city": "Hamburg", "zip_code": "", "country": "DE", "state": "HH", "display_address": ["Hamburg", "Germany"]}, "phone": "+494069278630", "display_phone": "+49 40 69278630", "distance": 17845.66837209162}]