[{"id": "7tl-_xvzVJARRnIfpoTqDQ", "alias": "toscanello-hamburg", "name": "Toscanello", "image_url": "https://s3-media4.fl.yelpcdn.com/bphoto/a47jA3FqOh48lIOEAYeewA/o.jpg", "is_closed": false, "url": "https://www.yelp.com/biz/toscanello-hamburg?adjust_creative=hBJOknVQJ58S5goQyjmwRw&utm_campaign=yelp_api_v3&utm_medium=api_v3_business_search&utm_source=hBJOknVQJ58S5goQyjmwRw", "review_count": 26, "categories": [{"alias": "italian", "title": "Italian"}], "rating": 4.5, "coordinates": {"latitude": 53.67872, "longitude": 10.09455}, "transactions": [], "price": "\u20ac\u20ac", "location": {"address1": "Lemsahler Landstr. 118", "address2": null, "address3": null, "city": "Hamburg", "zip_code": "22397", "country": "DE", "state": "HH", "display_address": ["Lemsahler Landstr. 118", "22397 Hamburg", "Germany"]}, "phone": "+494025486304", "display_phone": "+49 40 25486304", "distance": 2234.665459618357}, {"id": "BAPz48pmYBDBfXbOikW2DQ", "alias": "lenz-hamburg", "name": "Lenz", "image_url": "https://s3-media3.fl.yelpcdn.com/bphoto/9graD77lr-0YQC4FQt5PaQ/o.jpg", "is_closed": false, "url": "https://www.yelp.com/biz/lenz-hamburg?adjust_creative=hBJOknVQJ58S5goQyjmwRw&utm_campaign=yelp_api_v3&utm_medium=api_v3_business_search&utm_source=hBJOknVQJ58S5goQyjmwRw", "review_count": 87, "categories": [{"alias": "wine_bars", "title": "Wine Bars"}, {"alias": "german", "title": "German"}], "rating": 4.5, "coordinates": {"latitude": 53.70815, "longitude": 10.10589}, "transactions": [], "price": "\u20ac\u20ac\u20ac", "location": {"address1": "Poppenb\u00fctteler Chaussee 3", "address2": null, "address3": null, "city": "Hamburg", "zip_code": "22397", "country": "DE", "state": "HH", "display_address": ["Poppenb\u00fctteler Chaussee 3", "22397 Hamburg", "Germany"]}, "phone": "+494060558887", "display_phone": "+49 40 60558887", "distance": 1350.2674306050292}, {"id": "dxXgqSM_utHxfwtBR8H9nw", "alias": "stocks-hamburg", "name": "Stocks", "image_url": "https://s3-media1.fl.yelpcdn.com/bphoto/hp61P_D_U_TOFwFzswDcYg/o.jpg", "is_closed": false, "url": "https://www.yelp.com/biz/stocks-hamburg?adjust_creative=hBJOknVQJ58S5goQyjmwRw&utm_campaign=yelp_api_v3&utm_medium=api_v3_business_search&utm_source=hBJOknVQJ58S5goQyjmwRw", "review_count": 115, "categories": [{"alias": "seafood", "title": "Seafood"}, {"alias": "sushi", "title": "Sushi Bars"}], "rating": 4.5, "coordinates": {"latitude": 53.66898, "longitude": 10.09112}, "transactions": [], "price": "\u20ac\u20ac\u20ac", "location": {"address1": "An der Alsterschleife 3", "address2": null, "address3": null, "city": "Hamburg", "zip_code": "22399", "country": "DE", "state": "HH", "display_address": ["An der Alsterschleife 3", "22399 Hamburg", "Germany"]}, "phone": "+49406113620", "display_phone": "+49 40 6113620", "distance": 3313.7226294025295}, {"id": "GhYjVVk2Ew9GzaKrZIaVHA", "alias": "kr\u00f6gers-gasthaus-hamburg", "name": "Kr\u00f6ger's Gasthaus", "image_url": "https://s3-media1.fl.yelpcdn.com/bphoto/gevSZH7AAUrl41f9FmEzjg/o.jpg", "is_closed": false, "url": "https://www.yelp.com/biz/kr%C3%B6gers-gasthaus-hamburg?adjust_creative=hBJOknVQJ58S5goQyjmwRw&utm_campaign=yelp_api_v3&utm_medium=api_v3_business_search&utm_source=hBJOknVQJ58S5goQyjmwRw", "review_count": 28, "categories": [{"alias": "german", "title": "German"}], "rating": 4.0, "coordinates": {"latitude": 53.6757, "longitude": 10.09346}, "transactions": [], "price": "\u20ac\u20ac", "location": {"address1": "Lemsahler Landstr. 80", "address2": "", "address3": "", "city": "Hamburg", "zip_code": "22397", "country": "DE", "state": "HH", "display_address": ["Lemsahler Landstr. 80", "22397 Hamburg", "Germany"]}, "phone": "+49406083434", "display_phone": "+49 40 6083434", "distance": 2567.8567606724855}, {"id": "8x14AO14Qzu_Kr1k5F5gWQ", "alias": "zur-kastanie-hamburg-2", "name": "Zur Kastanie", "image_url": "https://s3-media4.fl.yelpcdn.com/bphoto/uUQJsafxvys3m925Xy2Y6A/o.jpg", "is_closed": false, "url": "https://www.yelp.com/biz/zur-kastanie-hamburg-2?adjust_creative=hBJOknVQJ58S5goQyjmwRw&utm_campaign=yelp_api_v3&utm_medium=api_v3_business_search&utm_source=hBJOknVQJ58S5goQyjmwRw", "review_count": 14, "categories": [{"alias": "german", "title": "German"}], "rating": 4.0, "coordinates": {"latitude": 53.70517, "longitude": 10.11532}, "transactions": [], "price": "\u20ac\u20ac\u20ac", "location": {"address1": "Specksaalredder 14", "address2": null, "address3": null, "city": "Hamburg", "zip_code": "22397", "country": "DE", "state": "HH", "display_address": ["Specksaalredder 14", "22397 Hamburg", "Germany"]}, "phone": "+49406072525", "display_phone": "+49 40 6072525", "distance": 1616.5252156697084}, {"id": "zvZGazCk353WSug_HeIUNg", "alias": "flammkuchentraum-hamburg", "name": "Flammkuchentraum", "image_url": "https://s3-media2.fl.yelpcdn.com/bphoto/IcM1NsnHFGFL6BUA1T1Y3A/o.jpg", "is_closed": false, "url": "https://www.yelp.com/biz/flammkuchentraum-hamburg?adjust_creative=hBJOknVQJ58S5goQyjmwRw&utm_campaign=yelp_api_v3&utm_medium=api_v3_business_search&utm_source=hBJOknVQJ58S5goQyjmwRw", "review_count": 5, "categories": [{"alias": "german", "title": "German"}, {"alias": "cafes", "title": "Cafes"}], "rating": 4.0, "coordinates": {"latitude": 53.686791, "longitude": 10.094547}, "transactions": [], "price": "\u20ac\u20ac", "location": {"address1": "Lemsahler Landstr. 195", "address2": "", "address3": "", "city": "Hamburg", "zip_code": "22397", "country": "DE", "state": "HH", "display_address": ["Lemsahler Landstr. 195", "22397 Hamburg", "Germany"]}, "phone": "+494084892373", "display_phone": "+49 40 84892373", "distance": 1340.1592019802972}, {"id": "5tp5KcW-tVRYKWq95ZK6iQ", "alias": "ristorante-italia-hamburg", "name": "Ristorante Italia", "image_url": "https://s3-media1.fl.yelpcdn.com/bphoto/zzCb9cJx5f7VE2F9vJQmEQ/o.jpg", "is_closed": false, "url": "https://www.yelp.com/biz/ristorante-italia-hamburg?adjust_creative=hBJOknVQJ58S5goQyjmwRw&utm_campaign=yelp_api_v3&utm_medium=api_v3_business_search&utm_source=hBJOknVQJ58S5goQyjmwRw", "review_count": 35, "categories": [{"alias": "italian", "title": "Italian"}], "rating": 4.0, "coordinates": {"latitude": 53.70802, "longitude": 10.10804}, "transactions": [], "price": "\u20ac\u20ac", "location": {"address1": "Duvenstedter Damm 45", "address2": "", "address3": null, "city": "Hamburg", "zip_code": "22397", "country": "DE", "state": "HH", "display_address": ["Duvenstedter Damm 45", "22397 Hamburg", "Germany"]}, "phone": "+49406072750", "display_phone": "+49 40 6072750", "distance": 1434.811228307645}, {"id": "hz50-hDcuY8KxhG5S4xLDg", "alias": "gasthaus-offen-hamburg", "name": "Gasthaus Offen", "image_url": "https://s3-media2.fl.yelpcdn.com/bphoto/z60mHTwqI2onQiOeUjFPSg/o.jpg", "is_closed": false, "url": "https://www.yelp.com/biz/gasthaus-offen-hamburg?adjust_creative=hBJOknVQJ58S5goQyjmwRw&utm_campaign=yelp_api_v3&utm_medium=api_v3_business_search&utm_source=hBJOknVQJ58S5goQyjmwRw", "review_count": 55, "categories": [{"alias": "german", "title": "German"}], "rating": 4.0, "coordinates": {"latitude": 53.6865, "longitude": 10.105}, "transactions": [], "price": "\u20ac\u20ac", "location": {"address1": "Lemsahler Dorfstr. 39", "address2": null, "address3": null, "city": "Hamburg", "zip_code": "22397", "country": "DE", "state": "HH", "display_address": ["Lemsahler Dorfstr. 39", "22397 Hamburg", "Germany"]}, "phone": "+49406083835", "display_phone": "+49 40 6083835", "distance": 1585.3118429851434}, {"id": "mprwg5_US2YgAZHZoWs86w", "alias": "alster-au-hamburg-2", "name": "Alster Au", "image_url": "https://s3-media1.fl.yelpcdn.com/bphoto/4ay6sPJGVPtMBR7Ehcxpmg/o.jpg", "is_closed": false, "url": "https://www.yelp.com/biz/alster-au-hamburg-2?adjust_creative=hBJOknVQJ58S5goQyjmwRw&utm_campaign=yelp_api_v3&utm_medium=api_v3_business_search&utm_source=hBJOknVQJ58S5goQyjmwRw", "review_count": 20, "categories": [{"alias": "hotels", "title": "Hotels"}, {"alias": "german", "title": "German"}], "rating": 4.0, "coordinates": {"latitude": 53.70657, "longitude": 10.11733}, "transactions": [], "price": "\u20ac\u20ac", "location": {"address1": "Duvenstedter Damm  6", "address2": null, "address3": null, "city": "Hamburg", "zip_code": "22397", "country": "DE", "state": "HH", "display_address": ["Duvenstedter Damm  6", "22397 Hamburg", "Germany"]}, "phone": "+49406442400", "display_phone": "+49 40 6442400", "distance": 1834.4808643566323}, {"id": "lPP7z4ItqTPpA_XX52QnrA", "alias": "alte-m\u00fchle-hamburg", "name": "Alte M\u00fchle", "image_url": "https://s3-media2.fl.yelpcdn.com/bphoto/aQx2TqQhVkygL5E089prJQ/o.jpg", "is_closed": false, "url": "https://www.yelp.com/biz/alte-m%C3%BChle-hamburg?adjust_creative=hBJOknVQJ58S5goQyjmwRw&utm_campaign=yelp_api_v3&utm_medium=api_v3_business_search&utm_source=hBJOknVQJ58S5goQyjmwRw", "review_count": 34, "categories": [{"alias": "german", "title": "German"}, {"alias": "cafes", "title": "Cafes"}], "rating": 4.0, "coordinates": {"latitude": 53.6701998, "longitude": 10.1083718}, "transactions": [], "price": "\u20ac\u20ac", "location": {"address1": "Alte M\u00fchle 34", "address2": null, "address3": null, "city": "Hamburg", "zip_code": "22395", "country": "DE", "state": "HH", "display_address": ["Alte M\u00fchle 34", "22395 Hamburg", "Germany"]}, "phone": "+49406049171", "display_phone": "+49 40 6049171", "distance": 3339.934704144065}, {"id": "VbKiVGP2cCppm1x1ez_bBg", "alias": "san-daniele-hamburg", "name": "San Daniele", "image_url": "https://s3-media1.fl.yelpcdn.com/bphoto/wzgPp1VLVtYHabRYDzL22A/o.jpg", "is_closed": false, "url": "https://www.yelp.com/biz/san-daniele-hamburg?adjust_creative=hBJOknVQJ58S5goQyjmwRw&utm_campaign=yelp_api_v3&utm_medium=api_v3_business_search&utm_source=hBJOknVQJ58S5goQyjmwRw", "review_count": 43, "categories": [{"alias": "italian", "title": "Italian"}], "rating": 4.0, "coordinates": {"latitude": 53.6638351834504, "longitude": 10.0749372835047}, "transactions": [], "price": "\u20ac\u20ac\u20ac", "location": {"address1": "Langenhorner Stra\u00dfe-Ost 7", "address2": "", "address3": "", "city": "Hamburg", "zip_code": "22399", "country": "DE", "state": "HH", "display_address": ["Langenhorner Stra\u00dfe-Ost 7", "22399 Hamburg", "Germany"]}, "phone": "+494061164693", "display_phone": "+49 40 61164693", "distance": 4059.0661337447787}, {"id": "Xop8tuUgi1wWhZ2UNo8I9Q", "alias": "restaurant-mellingburger-schleuse-hamburg", "name": "Restaurant Mellingburger Schleuse", "image_url": "https://s3-media2.fl.yelpcdn.com/bphoto/ihfZ5LheEmuWRPg8-kqSVw/o.jpg", "is_closed": false, "url": "https://www.yelp.com/biz/restaurant-mellingburger-schleuse-hamburg?adjust_creative=hBJOknVQJ58S5goQyjmwRw&utm_campaign=yelp_api_v3&utm_medium=api_v3_business_search&utm_source=hBJOknVQJ58S5goQyjmwRw", "review_count": 5, "categories": [{"alias": "german", "title": "German"}], "rating": 4.0, "coordinates": {"latitude": 53.66999, "longitude": 10.09828}, "transactions": [], "location": {"address1": "Mellingburgredder 1", "address2": "", "address3": "", "city": "Hamburg", "zip_code": "22395", "country": "DE", "state": "HH", "display_address": ["Mellingburgredder 1", "22395 Hamburg", "Germany"]}, "phone": "+49406024001", "display_phone": "+49 40 6024001", "distance": 3355.511541387319}, {"id": "JGfK13HXQPajbp17DeCfLA", "alias": "restaurant-treudelberg-hamburg", "name": "Restaurant Treudelberg", "image_url": "https://s3-media3.fl.yelpcdn.com/bphoto/qGLsjNfPd6CmA616L4w_Vw/o.jpg", "is_closed": false, "url": "https://www.yelp.com/biz/restaurant-treudelberg-hamburg?adjust_creative=hBJOknVQJ58S5goQyjmwRw&utm_campaign=yelp_api_v3&utm_medium=api_v3_business_search&utm_source=hBJOknVQJ58S5goQyjmwRw", "review_count": 10, "categories": [{"alias": "german", "title": "German"}, {"alias": "international", "title": "International"}], "rating": 3.5, "coordinates": {"latitude": 53.6735191, "longitude": 10.0904799}, "transactions": [], "price": "\u20ac\u20ac\u20ac", "location": {"address1": "Lehmsahler Landstr. 45", "address2": "", "address3": "", "city": "Hamburg", "zip_code": "22397", "country": "DE", "state": "HH", "display_address": ["Lehmsahler Landstr. 45", "22397 Hamburg", "Germany"]}, "phone": "+4940608228712", "display_phone": "+49 40 608228712", "distance": 2868.438308831058}, {"id": "TvXUyRWBFExD8Wpv0iCkXw", "alias": "caros-konditorei-und-davids-caf\u00e9-hamburg", "name": "caros konditorei und davids caf\u00e9", "image_url": "https://s3-media2.fl.yelpcdn.com/bphoto/m7coPZEcBFtM7UBI4l98uw/o.jpg", "is_closed": false, "url": "https://www.yelp.com/biz/caros-konditorei-und-davids-caf%C3%A9-hamburg?adjust_creative=hBJOknVQJ58S5goQyjmwRw&utm_campaign=yelp_api_v3&utm_medium=api_v3_business_search&utm_source=hBJOknVQJ58S5goQyjmwRw", "review_count": 12, "categories": [{"alias": "cakeshop", "title": "Patisserie/Cake Shop"}, {"alias": "cafes", "title": "Cafes"}], "rating": 4.5, "coordinates": {"latitude": 53.708009, "longitude": 10.108087}, "transactions": [], "price": "\u20ac\u20ac\u20ac", "location": {"address1": "Duvenstedter Damm 45", "address2": "", "address3": "", "city": "Hamburg", "zip_code": "22397", "country": "DE", "state": "HH", "display_address": ["Duvenstedter Damm 45", "22397 Hamburg", "Germany"]}, "phone": "+494024439468", "display_phone": "+49 40 24439468", "distance": 1435.413048050645}, {"id": "qDQLMRQxlDdkGZFNw8w1-A", "alias": "gutsk\u00fcche-tangstedt", "name": "Gutsk\u00fcche", "image_url": "https://s3-media1.fl.yelpcdn.com/bphoto/W9Gzq2yvPlxheckjNYtqkQ/o.jpg", "is_closed": false, "url": "https://www.yelp.com/biz/gutsk%C3%BCche-tangstedt?adjust_creative=hBJOknVQJ58S5goQyjmwRw&utm_campaign=yelp_api_v3&utm_medium=api_v3_business_search&utm_source=hBJOknVQJ58S5goQyjmwRw", "review_count": 51, "categories": [{"alias": "modern_european", "title": "Modern European"}, {"alias": "international", "title": "International"}], "rating": 4.0, "coordinates": {"latitude": 53.71843, "longitude": 10.11176}, "transactions": [], "price": "\u20ac\u20ac\u20ac", "location": {"address1": "Wulksfelder Damm 15 - 17", "address2": "", "address3": "", "city": "Tangstedt", "zip_code": "22889", "country": "DE", "state": "SH", "display_address": ["Wulksfelder Damm 15 - 17", "22889 Tangstedt", "Germany"]}, "phone": "+494064419441", "display_phone": "+49 40 64419441", "distance": 2454.3774421292364}, {"id": "dZbaKFMEP7PF2_2bDg09ag", "alias": "mellinghus-hamburg", "name": "Mellinghus", "image_url": "https://s3-media2.fl.yelpcdn.com/bphoto/Rnfp4aFKm8fXD30Yp8J85A/o.jpg", "is_closed": false, "url": "https://www.yelp.com/biz/mellinghus-hamburg?adjust_creative=hBJOknVQJ58S5goQyjmwRw&utm_campaign=yelp_api_v3&utm_medium=api_v3_business_search&utm_source=hBJOknVQJ58S5goQyjmwRw", "review_count": 20, "categories": [{"alias": "wine_bars", "title": "Wine Bars"}, {"alias": "german", "title": "German"}], "rating": 4.0, "coordinates": {"latitude": 53.66855, "longitude": 10.09151}, "transactions": [], "price": "\u20ac\u20ac\u20ac", "location": {"address1": "An der Alsterschleife 2", "address2": "", "address3": "", "city": "Hamburg", "zip_code": "22399", "country": "DE", "state": "HH", "display_address": ["An der Alsterschleife 2", "22399 Hamburg", "Germany"]}, "phone": "+49406064838", "display_phone": "+49 40 6064838", "distance": 3362.7024039061066}, {"id": "5rYAw50zft7w9SYX4grhvw", "alias": "torhaus-tangstedt", "name": "Torhaus", "image_url": "https://s3-media2.fl.yelpcdn.com/bphoto/P7Wzb_vGzaiN2nSuD7dQKA/o.jpg", "is_closed": false, "url": "https://www.yelp.com/biz/torhaus-tangstedt?adjust_creative=hBJOknVQJ58S5goQyjmwRw&utm_campaign=yelp_api_v3&utm_medium=api_v3_business_search&utm_source=hBJOknVQJ58S5goQyjmwRw", "review_count": 1, "categories": [{"alias": "german", "title": "German"}], "rating": 5.0, "coordinates": {"latitude": 53.735816, "longitude": 10.081191}, "transactions": [], "price": "\u20ac\u20ac", "location": {"address1": "Gut Tangstedt", "address2": "Beekmoorweg 11", "address3": "", "city": "Tangstedt", "zip_code": "22889", "country": "DE", "state": "SH", "display_address": ["Gut Tangstedt", "Beekmoorweg 11", "22889 Tangstedt", "Germany"]}, "phone": "+4941095594519", "display_phone": "+49 4109 5594519", "distance": 4186.045407197757}, {"id": "LACckalF24FdKUnuGEB3FQ", "alias": "rio-grande-hamburg-6", "name": "Rio Grande", "image_url": "https://s3-media1.fl.yelpcdn.com/bphoto/cu9QzBIXNR43OqEdFMjaVQ/o.jpg", "is_closed": false, "url": "https://www.yelp.com/biz/rio-grande-hamburg-6?adjust_creative=hBJOknVQJ58S5goQyjmwRw&utm_campaign=yelp_api_v3&utm_medium=api_v3_business_search&utm_source=hBJOknVQJ58S5goQyjmwRw", "review_count": 40, "categories": [{"alias": "steak", "title": "Steakhouses"}, {"alias": "tradamerican", "title": "American (Traditional)"}], "rating": 3.5, "coordinates": {"latitude": 53.70887, "longitude": 10.10634}, "transactions": [], "price": "\u20ac\u20ac", "location": {"address1": "Duvenstedter Damm 72", "address2": "", "address3": "", "city": "Hamburg", "zip_code": "22397", "country": "DE", "state": "HH", "display_address": ["Duvenstedter Damm 72", "22397 Hamburg", "Germany"]}, "phone": "+494064419300", "display_phone": "+49 40 64419300", "distance": 1434.2328164173518}, {"id": "OA35RtLMB9BiDiKiCcb5Mw", "alias": "the-locks-hamburg", "name": "The Locks", "image_url": "https://s3-media4.fl.yelpcdn.com/bphoto/p-uNr1rP23jAz01r4gwO_w/o.jpg", "is_closed": false, "url": "https://www.yelp.com/biz/the-locks-hamburg?adjust_creative=hBJOknVQJ58S5goQyjmwRw&utm_campaign=yelp_api_v3&utm_medium=api_v3_business_search&utm_source=hBJOknVQJ58S5goQyjmwRw", "review_count": 109, "categories": [{"alias": "german", "title": "German"}, {"alias": "lounges", "title": "Lounges"}], "rating": 3.5, "coordinates": {"latitude": 53.6573, "longitude": 10.0868}, "transactions": [], "price": "\u20ac\u20ac\u20ac", "location": {"address1": "Marienhof 6", "address2": null, "address3": null, "city": "Hamburg", "zip_code": "22399", "country": "DE", "state": "HH", "display_address": ["Marienhof 6", "22399 Hamburg", "Germany"]}, "phone": "+49406116600", "display_phone": "+49 40 6116600", "distance": 4628.944454849792}, {"id": "iuPJKyKtsjHryy0xnZG4CA", "alias": "mazza-hamburg-3", "name": "Mazza", "image_url": "https://s3-media2.fl.yelpcdn.com/bphoto/5NCsz4dUUqIaLQQb-lrhPQ/o.jpg", "is_closed": false, "url": "https://www.yelp.com/biz/mazza-hamburg-3?adjust_creative=hBJOknVQJ58S5goQyjmwRw&utm_campaign=yelp_api_v3&utm_medium=api_v3_business_search&utm_source=hBJOknVQJ58S5goQyjmwRw", "review_count": 17, "categories": [{"alias": "oriental", "title": "Oriental"}, {"alias": "syrian", "title": "Syrian"}], "rating": 4.0, "coordinates": {"latitude": 53.6582646278701, "longitude": 10.0855578650344}, "transactions": [], "price": "\u20ac\u20ac\u20ac", "location": {"address1": "Poppenb\u00fctteler Weg 236", "address2": "", "address3": "", "city": "Hamburg", "zip_code": "22399", "country": "DE", "state": "HH", "display_address": ["Poppenb\u00fctteler Weg 236", "22399 Hamburg", "Germany"]}, "phone": "+494060878240", "display_phone": "+49 40 60878240", "distance": 4529.918243715673}, {"id": "_hxqSzun5OLd6d1mBZdD6A", "alias": "taverna-petros-and-marietta-hamburg", "name": "Taverna Petros & Marietta", "image_url": "https://s3-media1.fl.yelpcdn.com/bphoto/Ga5yBMjksrcsliXHNWPxEg/o.jpg", "is_closed": false, "url": "https://www.yelp.com/biz/taverna-petros-and-marietta-hamburg?adjust_creative=hBJOknVQJ58S5goQyjmwRw&utm_campaign=yelp_api_v3&utm_medium=api_v3_business_search&utm_source=hBJOknVQJ58S5goQyjmwRw", "review_count": 14, "categories": [{"alias": "greek", "title": "Greek"}], "rating": 3.5, "coordinates": {"latitude": 53.70565, "longitude": 10.10657}, "transactions": [], "price": "\u20ac\u20ac", "location": {"address1": "Im Ellernbusch 41", "address2": "", "address3": "", "city": "Hamburg", "zip_code": "22397", "country": "DE", "state": "HH", "display_address": ["Im Ellernbusch 41", "22397 Hamburg", "Germany"]}, "phone": "+49406071733", "display_phone": "+49 40 6071733", "distance": 1191.3675400997363}, {"id": "c3W3dGZPa7ypn3dK9Egnuw", "alias": "trattoria-mondello-hamburg", "name": "Trattoria Mondello", "image_url": "https://s3-media1.fl.yelpcdn.com/bphoto/3wCpzWG0GuIRb2henRPbaw/o.jpg", "is_closed": false, "url": "https://www.yelp.com/biz/trattoria-mondello-hamburg?adjust_creative=hBJOknVQJ58S5goQyjmwRw&utm_campaign=yelp_api_v3&utm_medium=api_v3_business_search&utm_source=hBJOknVQJ58S5goQyjmwRw", "review_count": 1, "categories": [{"alias": "italian", "title": "Italian"}], "rating": 1.0, "coordinates": {"latitude": 53.66567, "longitude": 10.07862}, "transactions": [], "price": "\u20ac", "location": {"address1": "Kramer-Kray-Weg 1", "address2": "", "address3": null, "city": "Hamburg", "zip_code": "22399", "country": "DE", "state": "HH", "display_address": ["Kramer-Kray-Weg 1", "22399 Hamburg", "Germany"]}, "phone": "+49406021835", "display_phone": "+49 40 6021835", "distance": 3710.69848287939}, {"id": "m_V1tGdPNMKHiK2AQbuKKQ", "alias": "duvenstedter-eiscaf\u00e9-hamburg-2", "name": "Duvenstedter Eiscaf\u00e9", "image_url": "https://s3-media2.fl.yelpcdn.com/bphoto/tI70Wf2bTa2eH2rURHYp5Q/o.jpg", "is_closed": false, "url": "https://www.yelp.com/biz/duvenstedter-eiscaf%C3%A9-hamburg-2?adjust_creative=hBJOknVQJ58S5goQyjmwRw&utm_campaign=yelp_api_v3&utm_medium=api_v3_business_search&utm_source=hBJOknVQJ58S5goQyjmwRw", "review_count": 30, "categories": [{"alias": "icecream", "title": "Ice Cream & Frozen Yogurt"}, {"alias": "breakfast_brunch", "title": "Breakfast & Brunch"}, {"alias": "cafes", "title": "Cafes"}], "rating": 4.0, "coordinates": {"latitude": 53.70825, "longitude": 10.1047}, "transactions": [], "price": "\u20ac\u20ac", "location": {"address1": "Poppenb\u00fctteler Chaussee 8", "address2": null, "address3": null, "city": "Hamburg", "zip_code": "22397", "country": "DE", "state": "HH", "display_address": ["Poppenb\u00fctteler Chaussee 8", "22397 Hamburg", "Germany"]}, "phone": "+494060761377", "display_phone": "+49 40 60761377", "distance": 1315.3755750996409}, {"id": "tyTueaTh2RFEDOTA_jRhuw", "alias": "cafe-reinhardt-hamburg-3", "name": "Cafe Reinhardt", "image_url": "https://s3-media1.fl.yelpcdn.com/bphoto/XctuK_apUmLfLoDGl0faFQ/o.jpg", "is_closed": false, "url": "https://www.yelp.com/biz/cafe-reinhardt-hamburg-3?adjust_creative=hBJOknVQJ58S5goQyjmwRw&utm_campaign=yelp_api_v3&utm_medium=api_v3_business_search&utm_source=hBJOknVQJ58S5goQyjmwRw", "review_count": 30, "categories": [{"alias": "bakeries", "title": "Bakeries"}, {"alias": "cafes", "title": "Cafes"}], "rating": 4.0, "coordinates": {"latitude": 53.6653, "longitude": 10.09}, "transactions": [], "price": "\u20ac\u20ac", "location": {"address1": "Poppenb\u00fcttler Hauptstr. 37", "address2": null, "address3": null, "city": "Hamburg", "zip_code": "22399", "country": "DE", "state": "HH", "display_address": ["Poppenb\u00fcttler Hauptstr. 37", "22399 Hamburg", "Germany"]}, "phone": "+49406023704", "display_phone": "+49 40 6023704", "distance": 3727.1365631784856}, {"id": "wQXci5HPimPT00Ub1oHRTA", "alias": "shin-shin-hamburg", "name": "Shin Shin", "image_url": "https://s3-media1.fl.yelpcdn.com/bphoto/AmnCNLLIqKxbmb1JjlfkVA/o.jpg", "is_closed": false, "url": "https://www.yelp.com/biz/shin-shin-hamburg?adjust_creative=hBJOknVQJ58S5goQyjmwRw&utm_campaign=yelp_api_v3&utm_medium=api_v3_business_search&utm_source=hBJOknVQJ58S5goQyjmwRw", "review_count": 60, "categories": [{"alias": "chinese", "title": "Chinese"}], "rating": 3.5, "coordinates": {"latitude": 53.6599219019676, "longitude": 10.1155304326125}, "transactions": [], "price": "\u20ac\u20ac", "location": {"address1": "Saseler Chaussee 254", "address2": null, "address3": null, "city": "Hamburg", "zip_code": "22393", "country": "DE", "state": "HH", "display_address": ["Saseler Chaussee 254", "22393 Hamburg", "Germany"]}, "phone": "+49406019064", "display_phone": "+49 40 6019064", "distance": 4573.480611944937}, {"id": "mxT59tks7phC1hUiaqMAJA", "alias": "gasthaus-quellenhof-aubert-fromm\u00e9-hamburg", "name": "Gasthaus Quellenhof Aubert Fromm\u00e9", "image_url": "https://s3-media2.fl.yelpcdn.com/bphoto/7UQJ0pSOgXBWrqp88VmuAg/o.jpg", "is_closed": false, "url": "https://www.yelp.com/biz/gasthaus-quellenhof-aubert-fromm%C3%A9-hamburg?adjust_creative=hBJOknVQJ58S5goQyjmwRw&utm_campaign=yelp_api_v3&utm_medium=api_v3_business_search&utm_source=hBJOknVQJ58S5goQyjmwRw", "review_count": 19, "categories": [{"alias": "cafes", "title": "Cafes"}, {"alias": "german", "title": "German"}], "rating": 3.5, "coordinates": {"latitude": 53.6847, "longitude": 10.1175}, "transactions": [], "price": "\u20ac\u20ac", "location": {"address1": "Rodenbeker Str. 126", "address2": null, "address3": null, "city": "Hamburg", "zip_code": "22395", "country": "DE", "state": "HH", "display_address": ["Rodenbeker Str. 126", "22395 Hamburg", "Germany"]}, "phone": "+49406049228", "display_phone": "+49 40 6049228", "distance": 2259.0528085607107}, {"id": "s8nByaYJIf-lwdhdp0WzYQ", "alias": "mr-wong-asia-bistro-hamburg", "name": "Mr. Wong Asia Bistro", "image_url": "", "is_closed": false, "url": "https://www.yelp.com/biz/mr-wong-asia-bistro-hamburg?adjust_creative=hBJOknVQJ58S5goQyjmwRw&utm_campaign=yelp_api_v3&utm_medium=api_v3_business_search&utm_source=hBJOknVQJ58S5goQyjmwRw", "review_count": 1, "categories": [{"alias": "bistros", "title": "Bistros"}, {"alias": "panasian", "title": "Pan Asian"}], "rating": 4.0, "coordinates": {"latitude": 53.6607, "longitude": 10.0823}, "transactions": [], "price": "\u20ac", "location": {"address1": "Harksheider Str. 10", "address2": null, "address3": null, "city": "Hamburg", "zip_code": "22399", "country": "DE", "state": "HH", "display_address": ["Harksheider Str. 10", "22399 Hamburg", "Germany"]}, "phone": "+494066872510", "display_phone": "+49 40 66872510", "distance": 4289.90438421352}, {"id": "8-PLwQTPmKMoVuq1GqtYLA", "alias": "fidelio-hamburg", "name": "Fidelio", "image_url": "https://s3-media4.fl.yelpcdn.com/bphoto/8_ZhcnE47DVWPy-UxeLwaw/o.jpg", "is_closed": false, "url": "https://www.yelp.com/biz/fidelio-hamburg?adjust_creative=hBJOknVQJ58S5goQyjmwRw&utm_campaign=yelp_api_v3&utm_medium=api_v3_business_search&utm_source=hBJOknVQJ58S5goQyjmwRw", "review_count": 53, "categories": [{"alias": "gastropubs", "title": "Gastropubs"}, {"alias": "italian", "title": "Italian"}, {"alias": "bistros", "title": "Bistros"}], "rating": 2.5, "coordinates": {"latitude": 53.66038, "longitude": 10.0843399}, "transactions": [], "price": "\u20ac", "location": {"address1": "Moorhof 11", "address2": "", "address3": "", "city": "Hamburg", "zip_code": "22399", "country": "DE", "state": "HH", "display_address": ["Moorhof 11", "22399 Hamburg", "Germany"]}, "phone": "+494060875927", "display_phone": "+49 40 60875927", "distance": 4307.103591511045}, {"id": "f_zfxL1qoZMCtzbzHZcJ7Q", "alias": "kaminstube-hamburg", "name": "Kaminstube", "image_url": "https://s3-media2.fl.yelpcdn.com/bphoto/-RgOFCfUtEsPuFPGOxGqZw/o.jpg", "is_closed": false, "url": "https://www.yelp.com/biz/kaminstube-hamburg?adjust_creative=hBJOknVQJ58S5goQyjmwRw&utm_campaign=yelp_api_v3&utm_medium=api_v3_business_search&utm_source=hBJOknVQJ58S5goQyjmwRw", "review_count": 15, "categories": [{"alias": "austrian", "title": "Austrian"}, {"alias": "sushi", "title": "Sushi Bars"}], "rating": 4.0, "coordinates": {"latitude": 53.668978, "longitude": 10.091088}, "transactions": [], "price": "\u20ac\u20ac\u20ac", "location": {"address1": "An der Alsterschleife 3", "address2": "", "address3": "", "city": "Hamburg", "zip_code": "22399", "country": "DE", "state": "HH", "display_address": ["An der Alsterschleife 3", "22399 Hamburg", "Germany"]}, "phone": "+494061136217", "display_phone": "+49 40 61136217", "distance": 3313.7226294025295}, {"id": "APvIA_7ssxgC0atmQEFMcg", "alias": "burgerkultour-food-truck-hamburg-2", "name": "BurgerKultour Food Truck", "image_url": "https://s3-media4.fl.yelpcdn.com/bphoto/KoAuwalMnlAO8139MmdYBQ/o.jpg", "is_closed": false, "url": "https://www.yelp.com/biz/burgerkultour-food-truck-hamburg-2?adjust_creative=hBJOknVQJ58S5goQyjmwRw&utm_campaign=yelp_api_v3&utm_medium=api_v3_business_search&utm_source=hBJOknVQJ58S5goQyjmwRw", "review_count": 3, "categories": [{"alias": "foodtrucks", "title": "Food Trucks"}, {"alias": "burgers", "title": "Burgers"}], "rating": 4.5, "coordinates": {"latitude": 53.57154, "longitude": 9.95575}, "transactions": [], "price": "\u20ac\u20ac", "location": {"address1": "", "address2": "", "address3": "", "city": "Hamburg", "zip_code": "20259", "country": "DE", "state": "HH", "display_address": ["20259 Hamburg", "Germany"]}, "phone": "+4917626055122", "display_phone": "+49 176 26055122", "distance": 16818.801267303592}, {"id": "yw31WMkRCKED6y_TLI-ZFw", "alias": "schweinske-hamburg-5", "name": "Schweinske", "image_url": "https://s3-media4.fl.yelpcdn.com/bphoto/kHTqMtN7y3Mw34yX35VRcw/o.jpg", "is_closed": false, "url": "https://www.yelp.com/biz/schweinske-hamburg-5?adjust_creative=hBJOknVQJ58S5goQyjmwRw&utm_campaign=yelp_api_v3&utm_medium=api_v3_business_search&utm_source=hBJOknVQJ58S5goQyjmwRw", "review_count": 24, "categories": [{"alias": "german", "title": "German"}], "rating": 3.5, "coordinates": {"latitude": 53.659892, "longitude": 10.085127}, "transactions": [], "price": "\u20ac\u20ac", "location": {"address1": "Harksheider Str. 2", "address2": "", "address3": "", "city": "Hamburg", "zip_code": "22399", "country": "DE", "state": "HH", "display_address": ["Harksheider Str. 2", "22399 Hamburg", "Germany"]}, "phone": "+49406069873", "display_phone": "+49 40 6069873", "distance": 4353.186773395382}, {"id": "xlc6skZRN6aGNn07l-2N0A", "alias": "restaurant-windm\u00fchle-tangstedt", "name": "Restaurant Windm\u00fchle", "image_url": "https://s3-media2.fl.yelpcdn.com/bphoto/_qedS9dT1DyxVLN0knawLQ/o.jpg", "is_closed": false, "url": "https://www.yelp.com/biz/restaurant-windm%C3%BChle-tangstedt?adjust_creative=hBJOknVQJ58S5goQyjmwRw&utm_campaign=yelp_api_v3&utm_medium=api_v3_business_search&utm_source=hBJOknVQJ58S5goQyjmwRw", "review_count": 14, "categories": [{"alias": "german", "title": "German"}, {"alias": "international", "title": "International"}], "rating": 4.0, "coordinates": {"latitude": 53.7347, "longitude": 10.0862}, "transactions": [], "price": "\u20ac\u20ac", "location": {"address1": "Hauptstr. 96", "address2": null, "address3": null, "city": "Tangstedt", "zip_code": "22889", "country": "DE", "state": "SH", "display_address": ["Hauptstr. 96", "22889 Tangstedt", "Germany"]}, "phone": "+4941099217", "display_phone": "+49 4109 9217", "distance": 4017.518158276771}, {"id": "XHoJ8z8cZtNirkEusoeqXg", "alias": "die-croquemaker-hamburg-10", "name": "die croquemaker", "image_url": "https://s3-media1.fl.yelpcdn.com/bphoto/xhVsaUApPa08dYYZm4CL9g/o.jpg", "is_closed": false, "url": "https://www.yelp.com/biz/die-croquemaker-hamburg-10?adjust_creative=hBJOknVQJ58S5goQyjmwRw&utm_campaign=yelp_api_v3&utm_medium=api_v3_business_search&utm_source=hBJOknVQJ58S5goQyjmwRw", "review_count": 3, "categories": [{"alias": "salad", "title": "Salad"}, {"alias": "sandwiches", "title": "Sandwiches"}], "rating": 3.5, "coordinates": {"latitude": 53.66016, "longitude": 10.08344}, "transactions": [], "price": "\u20ac", "location": {"address1": "Harksheider Str. 6", "address2": "", "address3": "", "city": "Hamburg", "zip_code": "22399", "country": "DE", "state": "HH", "display_address": ["Harksheider Str. 6", "22399 Hamburg", "Germany"]}, "phone": "+494063669355", "display_phone": "+49 40 63669355", "distance": 4325.367469149437}, {"id": "cGIKCcR0wZszz8VldC2-7g", "alias": "currywerk-hamburg", "name": "curryWERK", "image_url": "https://s3-media4.fl.yelpcdn.com/bphoto/j_ZPQAB6JrAru84VDuLiRA/o.jpg", "is_closed": false, "url": "https://www.yelp.com/biz/currywerk-hamburg?adjust_creative=hBJOknVQJ58S5goQyjmwRw&utm_campaign=yelp_api_v3&utm_medium=api_v3_business_search&utm_source=hBJOknVQJ58S5goQyjmwRw", "review_count": 1, "categories": [{"alias": "foodtrucks", "title": "Food Trucks"}, {"alias": "currysausage", "title": "Curry Sausage"}], "rating": 4.0, "coordinates": {"latitude": 53.5498886108398, "longitude": 9.94732189178467}, "transactions": [], "price": "\u20ac\u20ac", "location": {"address1": "", "address2": "", "address3": "", "city": "Hamburg", "zip_code": "22767", "country": "DE", "state": "HH", "display_address": ["22767 Hamburg", "Germany"]}, "phone": "+4917632443433", "display_phone": "+49 176 32443433", "distance": 19386.847880978352}]