[{"id": "on79th3DxeROda17sy3p0A", "alias": "ristorante-dani-bargteheide", "name": "Ristorante Dani", "image_url": "https://s3-media2.fl.yelpcdn.com/bphoto/FhT2SO75xajgp3v5fIprjw/o.jpg", "is_closed": false, "url": "https://www.yelp.com/biz/ristorante-dani-bargteheide?adjust_creative=hBJOknVQJ58S5goQyjmwRw&utm_campaign=yelp_api_v3&utm_medium=api_v3_business_search&utm_source=hBJOknVQJ58S5goQyjmwRw", "review_count": 2, "categories": [{"alias": "italian", "title": "Italian"}], "rating": 4.5, "coordinates": {"latitude": 53.730215, "longitude": 10.268918}, "transactions": [], "location": {"address1": "Vo\u00dfkuhlenweg 2", "address2": "", "address3": "", "city": "Bargteheide", "zip_code": "22941", "country": "DE", "state": "SH", "display_address": ["Vo\u00dfkuhlenweg 2", "22941 Bargteheide", "Germany"]}, "phone": "+4945329756151", "display_phone": "+49 4532 9756151", "distance": 3733.1711687783186}, {"id": "I2n3AOTaIzLy1660OXSLcw", "alias": "tu-huus-bargteheide", "name": "Tu Huus", "image_url": "", "is_closed": false, "url": "https://www.yelp.com/biz/tu-huus-bargteheide?adjust_creative=hBJOknVQJ58S5goQyjmwRw&utm_campaign=yelp_api_v3&utm_medium=api_v3_business_search&utm_source=hBJOknVQJ58S5goQyjmwRw", "review_count": 2, "categories": [{"alias": "german", "title": "German"}], "rating": 4.5, "coordinates": {"latitude": 53.7274, "longitude": 10.2575}, "transactions": [], "location": {"address1": "Lindenstr. 1", "address2": null, "address3": null, "city": "Bargteheide", "zip_code": "22941", "country": "DE", "state": "SH", "display_address": ["Lindenstr. 1", "22941 Bargteheide", "Germany"]}, "phone": "+494532203900", "display_phone": "+49 4532 203900", "distance": 3561.9784078355774}, {"id": "DiEBiia4iKSD0SH5qCdGJw", "alias": "restaurant-utspann-bargteheide", "name": "Restaurant Utspann", "image_url": "https://s3-media4.fl.yelpcdn.com/bphoto/sYlG8L4MQWDSjjSP_nZvPA/o.jpg", "is_closed": false, "url": "https://www.yelp.com/biz/restaurant-utspann-bargteheide?adjust_creative=hBJOknVQJ58S5goQyjmwRw&utm_campaign=yelp_api_v3&utm_medium=api_v3_business_search&utm_source=hBJOknVQJ58S5goQyjmwRw", "review_count": 36, "categories": [{"alias": "german", "title": "German"}], "rating": 4.5, "coordinates": {"latitude": 53.72845, "longitude": 10.25957}, "transactions": [], "price": "\u20ac\u20ac\u20ac", "location": {"address1": "Hamburger Str. 1", "address2": "", "address3": "", "city": "Bargteheide", "zip_code": "22941", "country": "DE", "state": "SH", "display_address": ["Hamburger Str. 1", "22941 Bargteheide", "Germany"]}, "phone": "+4945326220", "display_phone": "+49 4532 6220", "distance": 3633.8931649595625}, {"id": "aNOvBOorVbu5n3m7xP8sqg", "alias": "freizeitzentrum-lohe-bargteheide", "name": "Freizeitzentrum Lohe", "image_url": "https://s3-media2.fl.yelpcdn.com/bphoto/qna7_Xu-pCtgn2LArdL8vA/o.jpg", "is_closed": false, "url": "https://www.yelp.com/biz/freizeitzentrum-lohe-bargteheide?adjust_creative=hBJOknVQJ58S5goQyjmwRw&utm_campaign=yelp_api_v3&utm_medium=api_v3_business_search&utm_source=hBJOknVQJ58S5goQyjmwRw", "review_count": 1, "categories": [{"alias": "tennis", "title": "Tennis"}, {"alias": "bowling", "title": "Bowling"}, {"alias": "german", "title": "German"}], "rating": 5.0, "coordinates": {"latitude": 53.72323, "longitude": 10.2676}, "transactions": [], "price": "\u20ac\u20ac", "location": {"address1": "Robert-Bosch-Weg 2", "address2": null, "address3": null, "city": "Bargteheide", "zip_code": "22941", "country": "DE", "state": "SH", "display_address": ["Robert-Bosch-Weg 2", "22941 Bargteheide", "Germany"]}, "phone": "+49453222120", "display_phone": "+49 4532 22120", "distance": 3019.999833963541}, {"id": "_XPUcNbemTXSQDHu760orw", "alias": "papillon-bargteheide-3", "name": "Papillon", "image_url": "https://s3-media4.fl.yelpcdn.com/bphoto/pwP871KidKJ1c-JZMaMkQQ/o.jpg", "is_closed": false, "url": "https://www.yelp.com/biz/papillon-bargteheide-3?adjust_creative=hBJOknVQJ58S5goQyjmwRw&utm_campaign=yelp_api_v3&utm_medium=api_v3_business_search&utm_source=hBJOknVQJ58S5goQyjmwRw", "review_count": 3, "categories": [{"alias": "international", "title": "International"}, {"alias": "german", "title": "German"}], "rating": 4.5, "coordinates": {"latitude": 53.7277762, "longitude": 10.2585978}, "transactions": [], "price": "\u20ac\u20ac", "location": {"address1": "Hamburger Str. 3", "address2": "", "address3": "", "city": "Bargteheide", "zip_code": "22941", "country": "DE", "state": "SH", "display_address": ["Hamburger Str. 3", "22941 Bargteheide", "Germany"]}, "phone": "+494532266504", "display_phone": "+49 4532 266504", "distance": 3579.9656873519766}, {"id": "X0fV5kVP5s7V1rkp-QFA5Q", "alias": "ristorante-da-mimmo-bargteheide", "name": "Ristorante Da Mimmo", "image_url": "https://s3-media1.fl.yelpcdn.com/bphoto/mDMwkb0PEu_i7RvhWH_G-A/o.jpg", "is_closed": false, "url": "https://www.yelp.com/biz/ristorante-da-mimmo-bargteheide?adjust_creative=hBJOknVQJ58S5goQyjmwRw&utm_campaign=yelp_api_v3&utm_medium=api_v3_business_search&utm_source=hBJOknVQJ58S5goQyjmwRw", "review_count": 32, "categories": [{"alias": "italian", "title": "Italian"}], "rating": 4.5, "coordinates": {"latitude": 53.72893, "longitude": 10.26329}, "transactions": [], "price": "\u20ac\u20ac", "location": {"address1": "Mittelweg 17", "address2": "", "address3": "", "city": "Bargteheide", "zip_code": "22941", "country": "DE", "state": "SH", "display_address": ["Mittelweg 17", "22941 Bargteheide", "Germany"]}, "phone": "+49453222326", "display_phone": "+49 4532 22326", "distance": 3627.8161296173953}, {"id": "AttT9OA_lJLsAEl8EuGJRg", "alias": "taverna-galini-gro\u00dfhansdorf", "name": "Taverna Galini", "image_url": "https://s3-media2.fl.yelpcdn.com/bphoto/81u8wRoQU-FGVmkV9dVFNA/o.jpg", "is_closed": false, "url": "https://www.yelp.com/biz/taverna-galini-gro%C3%9Fhansdorf?adjust_creative=hBJOknVQJ58S5goQyjmwRw&utm_campaign=yelp_api_v3&utm_medium=api_v3_business_search&utm_source=hBJOknVQJ58S5goQyjmwRw", "review_count": 19, "categories": [{"alias": "greek", "title": "Greek"}], "rating": 4.5, "coordinates": {"latitude": 53.663, "longitude": 10.2858}, "transactions": [], "price": "\u20ac\u20ac", "location": {"address1": "Schaapkamp 3", "address2": null, "address3": null, "city": "Gro\u00dfhansdorf", "zip_code": "22927", "country": "DE", "state": "SH", "display_address": ["Schaapkamp 3", "22927 Gro\u00dfhansdorf", "Germany"]}, "phone": "+494102458981", "display_phone": "+49 4102 458981", "distance": 3851.6257051727985}, {"id": "rtEjibpio_YraQOU8AB3jg", "alias": "credo-bargteheide", "name": "Credo", "image_url": "https://s3-media1.fl.yelpcdn.com/bphoto/1TJSaxdR03l7E-VPVtWMDw/o.jpg", "is_closed": false, "url": "https://www.yelp.com/biz/credo-bargteheide?adjust_creative=hBJOknVQJ58S5goQyjmwRw&utm_campaign=yelp_api_v3&utm_medium=api_v3_business_search&utm_source=hBJOknVQJ58S5goQyjmwRw", "review_count": 1, "categories": [{"alias": "international", "title": "International"}], "rating": 4.0, "coordinates": {"latitude": 53.72901, "longitude": 10.26923}, "transactions": [], "price": "\u20ac\u20ac", "location": {"address1": "Bahnhofstr. 5a", "address2": "", "address3": "", "city": "Bargteheide", "zip_code": "22941", "country": "DE", "state": "SH", "display_address": ["Bahnhofstr. 5a", "22941 Bargteheide", "Germany"]}, "phone": "", "display_phone": "", "distance": 3577.909747056129}, {"id": "_NBjYDwhLREyYyMyfufOiw", "alias": "essbar-ahrensburg-ahrensburg", "name": "essbar Ahrensburg", "image_url": "https://s3-media2.fl.yelpcdn.com/bphoto/d9Aj-2wnLh-aE6IIOUF-Yw/o.jpg", "is_closed": false, "url": "https://www.yelp.com/biz/essbar-ahrensburg-ahrensburg?adjust_creative=hBJOknVQJ58S5goQyjmwRw&utm_campaign=yelp_api_v3&utm_medium=api_v3_business_search&utm_source=hBJOknVQJ58S5goQyjmwRw", "review_count": 1, "categories": [{"alias": "bistros", "title": "Bistros"}], "rating": 4.0, "coordinates": {"latitude": 53.689015, "longitude": 10.258887}, "transactions": [], "price": "\u20ac", "location": {"address1": "Ewige Weide 6", "address2": "", "address3": "", "city": "Ahrensburg", "zip_code": "22926", "country": "DE", "state": "SH", "display_address": ["Ewige Weide 6", "22926 Ahrensburg", "Germany"]}, "phone": "+494102472375", "display_phone": "+49 4102 472375", "distance": 1362.340997950412}, {"id": "S5pNSNXlN5RYHHkLl3mAOw", "alias": "onkel-curry-ahrensburg", "name": "Onkel Curry", "image_url": "https://s3-media4.fl.yelpcdn.com/bphoto/k1R0Edpwx6RiIqmE3Ft9Lw/o.jpg", "is_closed": false, "url": "https://www.yelp.com/biz/onkel-curry-ahrensburg?adjust_creative=hBJOknVQJ58S5goQyjmwRw&utm_campaign=yelp_api_v3&utm_medium=api_v3_business_search&utm_source=hBJOknVQJ58S5goQyjmwRw", "review_count": 10, "categories": [{"alias": "foodtrucks", "title": "Food Trucks"}, {"alias": "currysausage", "title": "Curry Sausage"}], "rating": 4.0, "coordinates": {"latitude": 53.691216, "longitude": 10.25406}, "transactions": [], "price": "\u20ac\u20ac", "location": {"address1": "Kornkamp 50", "address2": "", "address3": null, "city": "Ahrensburg", "zip_code": "22926", "country": "DE", "state": "SH", "display_address": ["Kornkamp 50", "22926 Ahrensburg", "Germany"]}, "phone": "+494064504620", "display_phone": "+49 40 64504620", "distance": 1489.5071208019692}, {"id": "ZCzNsnKcLcBcbnL4lW2AAA", "alias": "la-rusticana-bargteheide", "name": "La Rusticana", "image_url": "https://s3-media2.fl.yelpcdn.com/bphoto/vIXQdeKKKTKX0D9fKy-26g/o.jpg", "is_closed": false, "url": "https://www.yelp.com/biz/la-rusticana-bargteheide?adjust_creative=hBJOknVQJ58S5goQyjmwRw&utm_campaign=yelp_api_v3&utm_medium=api_v3_business_search&utm_source=hBJOknVQJ58S5goQyjmwRw", "review_count": 2, "categories": [{"alias": "italian", "title": "Italian"}], "rating": 4.0, "coordinates": {"latitude": 53.72871, "longitude": 10.25919}, "transactions": [], "price": "\u20ac\u20ac", "location": {"address1": "Jersbeker Str. 2", "address2": "", "address3": "", "city": "Bargteheide", "zip_code": "22941", "country": "DE", "state": "SH", "display_address": ["Jersbeker Str. 2", "22941 Bargteheide", "Germany"]}, "phone": "+4945322664556", "display_phone": "+49 4532 2664556", "distance": 3663.8617340971996}, {"id": "3K_iiDB33h1e_CAva006fQ", "alias": "ristorante-dante-gro\u00dfhansdorf-2", "name": "Ristorante Dante", "image_url": "https://s3-media2.fl.yelpcdn.com/bphoto/OR6fzH4xgh-zjGjE1iev1A/o.jpg", "is_closed": false, "url": "https://www.yelp.com/biz/ristorante-dante-gro%C3%9Fhansdorf-2?adjust_creative=hBJOknVQJ58S5goQyjmwRw&utm_campaign=yelp_api_v3&utm_medium=api_v3_business_search&utm_source=hBJOknVQJ58S5goQyjmwRw", "review_count": 19, "categories": [{"alias": "italian", "title": "Italian"}, {"alias": "lounges", "title": "Lounges"}], "rating": 4.0, "coordinates": {"latitude": 53.6627329728685, "longitude": 10.2840678334669}, "transactions": [], "price": "\u20ac\u20ac\u20ac\u20ac", "location": {"address1": "Eilbergweg 2", "address2": null, "address3": null, "city": "Gro\u00dfhansdorf", "zip_code": "22927", "country": "DE", "state": "SH", "display_address": ["Eilbergweg 2", "22927 Gro\u00dfhansdorf", "Germany"]}, "phone": "+49410261320", "display_phone": "+49 4102 61320", "distance": 3860.4674169262803}, {"id": "qYTvuySiY8_VOcUK71e5fg", "alias": "croquodil-bargteheide", "name": "Croquodil", "image_url": "https://s3-media3.fl.yelpcdn.com/bphoto/8K7pHPG5YslGreIWFKsnuQ/o.jpg", "is_closed": false, "url": "https://www.yelp.com/biz/croquodil-bargteheide?adjust_creative=hBJOknVQJ58S5goQyjmwRw&utm_campaign=yelp_api_v3&utm_medium=api_v3_business_search&utm_source=hBJOknVQJ58S5goQyjmwRw", "review_count": 22, "categories": [{"alias": "northerngerman", "title": "Northern German"}, {"alias": "foodstands", "title": "Food Stands"}], "rating": 4.5, "coordinates": {"latitude": 53.730048, "longitude": 10.263487}, "transactions": [], "price": "\u20ac", "location": {"address1": "Mittelweg 15", "address2": null, "address3": null, "city": "Bargteheide", "zip_code": "22941", "country": "DE", "state": "SH", "display_address": ["Mittelweg 15", "22941 Bargteheide", "Germany"]}, "phone": "+49453223232", "display_phone": "+49 4532 23232", "distance": 3747.1027165517753}, {"id": "rWkR5DswacH0QqeJSIUpew", "alias": "fotiou-delingsdorf", "name": "Fotiou", "image_url": "https://s3-media4.fl.yelpcdn.com/bphoto/u_KgUCzbITYjo7eepyRtiA/o.jpg", "is_closed": false, "url": "https://www.yelp.com/biz/fotiou-delingsdorf?adjust_creative=hBJOknVQJ58S5goQyjmwRw&utm_campaign=yelp_api_v3&utm_medium=api_v3_business_search&utm_source=hBJOknVQJ58S5goQyjmwRw", "review_count": 5, "categories": [{"alias": "greek", "title": "Greek"}], "rating": 4.0, "coordinates": {"latitude": 53.7084668147889, "longitude": 10.2514946615631}, "transactions": [], "location": {"address1": "L\u00fcbecker Str. 15", "address2": "", "address3": "", "city": "Delingsdorf", "zip_code": "22941", "country": "DE", "state": "SH", "display_address": ["L\u00fcbecker Str. 15", "22941 Delingsdorf", "Germany"]}, "phone": "+4945322882674", "display_phone": "+49 4532 2882674", "distance": 1979.782466415385}, {"id": "4RaYQKt4zNbSLspYska-hw", "alias": "dubrovnik-bargteheide", "name": "Dubrovnik", "image_url": "https://s3-media2.fl.yelpcdn.com/bphoto/isl95tLwXQHlkm_vR0PTqw/o.jpg", "is_closed": false, "url": "https://www.yelp.com/biz/dubrovnik-bargteheide?adjust_creative=hBJOknVQJ58S5goQyjmwRw&utm_campaign=yelp_api_v3&utm_medium=api_v3_business_search&utm_source=hBJOknVQJ58S5goQyjmwRw", "review_count": 2, "categories": [{"alias": "mediterranean", "title": "Mediterranean"}, {"alias": "international", "title": "International"}, {"alias": "steak", "title": "Steakhouses"}], "rating": 4.0, "coordinates": {"latitude": 53.723155, "longitude": 10.266758}, "transactions": [], "location": {"address1": "Robert-Bosch-Weg 3", "address2": "", "address3": "", "city": "Bargteheide", "zip_code": "22941", "country": "DE", "state": "SH", "display_address": ["Robert-Bosch-Weg 3", "22941 Bargteheide", "Germany"]}, "phone": "+494532x2679370", "display_phone": "+49 4532 ext. 2679370", "distance": 2952.744605878886}, {"id": "XTuU1n66kfvYIuQZqsR2Gg", "alias": "sch\u00fctzenhof-bargteheide", "name": "Sch\u00fctzenhof", "image_url": "https://s3-media1.fl.yelpcdn.com/bphoto/w2DEOg7nuP_WMS-F0Zw3jw/o.jpg", "is_closed": false, "url": "https://www.yelp.com/biz/sch%C3%BCtzenhof-bargteheide?adjust_creative=hBJOknVQJ58S5goQyjmwRw&utm_campaign=yelp_api_v3&utm_medium=api_v3_business_search&utm_source=hBJOknVQJ58S5goQyjmwRw", "review_count": 2, "categories": [{"alias": "german", "title": "German"}], "rating": 3.5, "coordinates": {"latitude": 53.73173, "longitude": 10.25296}, "transactions": [], "price": "\u20ac\u20ac", "location": {"address1": "Jersbeker Str. 36", "address2": null, "address3": null, "city": "Bargteheide", "zip_code": "22941", "country": "DE", "state": "SH", "display_address": ["Jersbeker Str. 36", "22941 Bargteheide", "Germany"]}, "phone": "+49453222994", "display_phone": "+49 4532 22994", "distance": 4111.9698273565145}, {"id": "GNxt00GlvwJzU6b2oNf22A", "alias": "pizza-taxi-bargteheide", "name": "Pizza Taxi", "image_url": "https://s3-media2.fl.yelpcdn.com/bphoto/DIe-Id_zes7HupEvhqyeAw/o.jpg", "is_closed": false, "url": "https://www.yelp.com/biz/pizza-taxi-bargteheide?adjust_creative=hBJOknVQJ58S5goQyjmwRw&utm_campaign=yelp_api_v3&utm_medium=api_v3_business_search&utm_source=hBJOknVQJ58S5goQyjmwRw", "review_count": 7, "categories": [{"alias": "pizza", "title": "Pizza"}], "rating": 4.5, "coordinates": {"latitude": 53.7287122, "longitude": 10.2585178}, "transactions": [], "price": "\u20ac\u20ac\u20ac\u20ac", "location": {"address1": "Jersbeker Str. 2", "address2": "", "address3": "", "city": "Bargteheide", "zip_code": "22941", "country": "DE", "state": "SH", "display_address": ["Jersbeker Str. 2", "22941 Bargteheide", "Germany"]}, "phone": "+4945329751022", "display_phone": "+49 4532 9751022", "distance": 3681.1307269619147}, {"id": "ATbEdZFx3P_WdKFf61EJwg", "alias": "orfeo-greco-bargteheide", "name": "Orfeo Greco", "image_url": "https://s3-media4.fl.yelpcdn.com/bphoto/spG_-OeaD2vglRbBiJZEJQ/o.jpg", "is_closed": false, "url": "https://www.yelp.com/biz/orfeo-greco-bargteheide?adjust_creative=hBJOknVQJ58S5goQyjmwRw&utm_campaign=yelp_api_v3&utm_medium=api_v3_business_search&utm_source=hBJOknVQJ58S5goQyjmwRw", "review_count": 10, "categories": [{"alias": "greek", "title": "Greek"}], "rating": 4.0, "coordinates": {"latitude": 53.7286, "longitude": 10.2615}, "transactions": [], "price": "\u20ac\u20ac", "location": {"address1": "Am Markt 6", "address2": null, "address3": null, "city": "Bargteheide", "zip_code": "22941", "country": "DE", "state": "SH", "display_address": ["Am Markt 6", "22941 Bargteheide", "Germany"]}, "phone": "+494532261776", "display_phone": "+49 4532 261776", "distance": 3617.8811602148357}, {"id": "tusH6Bmt_h4qz_1bT5GI8A", "alias": "glantz-und-gloria-delingsdorf", "name": "Glantz & Gloria", "image_url": "https://s3-media1.fl.yelpcdn.com/bphoto/VzISEGBvNsjqheouI6dLpg/o.jpg", "is_closed": false, "url": "https://www.yelp.com/biz/glantz-und-gloria-delingsdorf?adjust_creative=hBJOknVQJ58S5goQyjmwRw&utm_campaign=yelp_api_v3&utm_medium=api_v3_business_search&utm_source=hBJOknVQJ58S5goQyjmwRw", "review_count": 46, "categories": [{"alias": "german", "title": "German"}, {"alias": "diners", "title": "Diners"}], "rating": 3.5, "coordinates": {"latitude": 53.7055, "longitude": 10.2515}, "transactions": [], "price": "\u20ac\u20ac\u20ac", "location": {"address1": "Hamburger Str. 2b", "address2": null, "address3": null, "city": "Delingsdorf", "zip_code": "22941", "country": "DE", "state": "SH", "display_address": ["Hamburger Str. 2b", "22941 Delingsdorf", "Germany"]}, "phone": "+494532280559", "display_phone": "+49 4532 280559", "distance": 1784.6525141972031}, {"id": "zEvsuL1x5IFy3LkUNbgkuA", "alias": "due-fratelli-bargteheide", "name": "Due Fratelli", "image_url": "https://s3-media2.fl.yelpcdn.com/bphoto/xQyNx8P3ZKn07CwMQ2NaTQ/o.jpg", "is_closed": false, "url": "https://www.yelp.com/biz/due-fratelli-bargteheide?adjust_creative=hBJOknVQJ58S5goQyjmwRw&utm_campaign=yelp_api_v3&utm_medium=api_v3_business_search&utm_source=hBJOknVQJ58S5goQyjmwRw", "review_count": 3, "categories": [{"alias": "italian", "title": "Italian"}], "rating": 3.5, "coordinates": {"latitude": 53.7285894015292, "longitude": 10.2592865595245}, "transactions": [], "price": "\u20ac\u20ac", "location": {"address1": "Jersbeker Str. 2", "address2": "", "address3": "", "city": "Bargteheide", "zip_code": "22941", "country": "DE", "state": "SH", "display_address": ["Jersbeker Str. 2", "22941 Bargteheide", "Germany"]}, "phone": "+4945322664556", "display_phone": "+49 4532 2664556", "distance": 3653.8801058074164}, {"id": "HSmwnP1V3kpZwG-6pDGKKA", "alias": "einstein-bargteheide-3", "name": "Einstein", "image_url": "https://s3-media2.fl.yelpcdn.com/bphoto/Ntf8UKh5iWXnlys8L0m5JA/o.jpg", "is_closed": false, "url": "https://www.yelp.com/biz/einstein-bargteheide-3?adjust_creative=hBJOknVQJ58S5goQyjmwRw&utm_campaign=yelp_api_v3&utm_medium=api_v3_business_search&utm_source=hBJOknVQJ58S5goQyjmwRw", "review_count": 11, "categories": [{"alias": "italian", "title": "Italian"}], "rating": 4.5, "coordinates": {"latitude": 53.728752, "longitude": 10.261447}, "transactions": [], "price": "\u20ac\u20ac", "location": {"address1": "Theodor-Storm-Str. 1 b+c", "address2": "", "address3": "", "city": "Bargteheide", "zip_code": "22941", "country": "DE", "state": "SH", "display_address": ["Theodor-Storm-Str. 1 b+c", "22941 Bargteheide", "Germany"]}, "phone": "+4945324004886", "display_phone": "+49 4532 4004886", "distance": 3635.1281123607578}, {"id": "Tnsh7aKifb9ZnnIHw9XbeA", "alias": "pascha-grill-imbiss-bargteheide", "name": "Pascha Grill-Imbiss", "image_url": "https://s3-media3.fl.yelpcdn.com/bphoto/zubOl4c7vdOHI9WbbIYjqA/o.jpg", "is_closed": false, "url": "https://www.yelp.com/biz/pascha-grill-imbiss-bargteheide?adjust_creative=hBJOknVQJ58S5goQyjmwRw&utm_campaign=yelp_api_v3&utm_medium=api_v3_business_search&utm_source=hBJOknVQJ58S5goQyjmwRw", "review_count": 1, "categories": [{"alias": "hotdogs", "title": "Fast Food"}], "rating": 4.0, "coordinates": {"latitude": 53.7283715, "longitude": 10.2590634}, "transactions": [], "price": "\u20ac", "location": {"address1": "Hamburger Str. 2", "address2": "", "address3": "", "city": "Bargteheide", "zip_code": "22941", "country": "DE", "state": "SH", "display_address": ["Hamburger Str. 2", "22941 Bargteheide", "Germany"]}, "phone": "+494532400742", "display_phone": "+49 4532 400742", "distance": 3634.6539088445556}, {"id": "9J4VbnwwWUysoxdL3OSHRg", "alias": "restaurant-frank-fischer-kulinarium-bargteheide", "name": "Restaurant Frank Fischer Kulinarium", "image_url": "https://s3-media4.fl.yelpcdn.com/bphoto/tECebJ32AjPFsab5E5YyWA/o.jpg", "is_closed": false, "url": "https://www.yelp.com/biz/restaurant-frank-fischer-kulinarium-bargteheide?adjust_creative=hBJOknVQJ58S5goQyjmwRw&utm_campaign=yelp_api_v3&utm_medium=api_v3_business_search&utm_source=hBJOknVQJ58S5goQyjmwRw", "review_count": 1, "categories": [{"alias": "northerngerman", "title": "Northern German"}], "rating": 4.0, "coordinates": {"latitude": 53.722133629889, "longitude": 10.2754401415586}, "transactions": [], "price": "\u20ac\u20ac", "location": {"address1": "Am Redder 7", "address2": "", "address3": "", "city": "Bargteheide", "zip_code": "22941", "country": "DE", "state": "SH", "display_address": ["Am Redder 7", "22941 Bargteheide", "Germany"]}, "phone": "+49453223688", "display_phone": "+49 4532 23688", "distance": 2797.290574542097}, {"id": "b6jkW83-l6Hbt8AimMrY4w", "alias": "coffee-lounge-bargteheide", "name": "Coffee Lounge", "image_url": "https://s3-media1.fl.yelpcdn.com/bphoto/QWRbkYIQkrZqKKfe9lhuig/o.jpg", "is_closed": false, "url": "https://www.yelp.com/biz/coffee-lounge-bargteheide?adjust_creative=hBJOknVQJ58S5goQyjmwRw&utm_campaign=yelp_api_v3&utm_medium=api_v3_business_search&utm_source=hBJOknVQJ58S5goQyjmwRw", "review_count": 8, "categories": [{"alias": "cafes", "title": "Cafes"}], "rating": 4.5, "coordinates": {"latitude": 53.7299, "longitude": 10.2669128}, "transactions": [], "price": "\u20ac\u20ac\u20ac\u20ac", "location": {"address1": "Rathausstr. 24", "address2": "", "address3": "", "city": "Bargteheide", "zip_code": "22941", "country": "DE", "state": "SH", "display_address": ["Rathausstr. 24", "22941 Bargteheide", "Germany"]}, "phone": "+494532400384", "display_phone": "+49 4532 400384", "distance": 3693.872752237615}, {"id": "vadqEeJNhdU9V_ojE2rm_g", "alias": "casa-grande-bargteheide", "name": "Casa Grande", "image_url": "https://s3-media3.fl.yelpcdn.com/bphoto/LGeijJrGgpJ4GgItBkEGRQ/o.jpg", "is_closed": false, "url": "https://www.yelp.com/biz/casa-grande-bargteheide?adjust_creative=hBJOknVQJ58S5goQyjmwRw&utm_campaign=yelp_api_v3&utm_medium=api_v3_business_search&utm_source=hBJOknVQJ58S5goQyjmwRw", "review_count": 9, "categories": [{"alias": "steak", "title": "Steakhouses"}, {"alias": "lounges", "title": "Lounges"}], "rating": 4.0, "coordinates": {"latitude": 53.730095, "longitude": 10.267528}, "transactions": [], "price": "\u20ac\u20ac", "location": {"address1": "Rathausstr. 25b", "address2": "", "address3": "", "city": "Bargteheide", "zip_code": "22941", "country": "DE", "state": "SH", "display_address": ["Rathausstr. 25b", "22941 Bargteheide", "Germany"]}, "phone": "+494532283439", "display_phone": "+49 4532 283439", "distance": 3708.6409148238977}, {"id": "za1i9pGduEAeTsDkRLju2A", "alias": "bistro-basler-ahrensburg", "name": "Bistro Basler", "image_url": "https://s3-media2.fl.yelpcdn.com/bphoto/467wUIyZ88eh4809Sy_2-g/o.jpg", "is_closed": false, "url": "https://www.yelp.com/biz/bistro-basler-ahrensburg?adjust_creative=hBJOknVQJ58S5goQyjmwRw&utm_campaign=yelp_api_v3&utm_medium=api_v3_business_search&utm_source=hBJOknVQJ58S5goQyjmwRw", "review_count": 1, "categories": [{"alias": "breakfast_brunch", "title": "Breakfast & Brunch"}, {"alias": "canteen", "title": "Canteen"}], "rating": 3.0, "coordinates": {"latitude": 53.693006, "longitude": 10.266129}, "transactions": [], "location": {"address1": "An der Strusbek 60 - 62", "address2": "", "address3": null, "city": "Ahrensburg", "zip_code": "22926", "country": "DE", "state": "SH", "display_address": ["An der Strusbek 60 - 62", "22926 Ahrensburg", "Germany"]}, "phone": "+494102463568", "display_phone": "+49 4102 463568", "distance": 705.5820446076032}, {"id": "cQ5CCF1YzJLkfp33Zhh6ig", "alias": "berlin-d\u00f6ner-bargteheide", "name": "Berlin D\u00f6ner", "image_url": "https://s3-media3.fl.yelpcdn.com/bphoto/GnkT_0rIyHNOuEvenn7f_g/o.jpg", "is_closed": false, "url": "https://www.yelp.com/biz/berlin-d%C3%B6ner-bargteheide?adjust_creative=hBJOknVQJ58S5goQyjmwRw&utm_campaign=yelp_api_v3&utm_medium=api_v3_business_search&utm_source=hBJOknVQJ58S5goQyjmwRw", "review_count": 8, "categories": [{"alias": "kebab", "title": "Kebab"}, {"alias": "hotdogs", "title": "Fast Food"}], "rating": 3.5, "coordinates": {"latitude": 53.72875, "longitude": 10.26909}, "transactions": [], "price": "\u20ac", "location": {"address1": "Bahnhofstr. 7", "address2": "", "address3": "", "city": "Bargteheide", "zip_code": "22941", "country": "DE", "state": "SH", "display_address": ["Bahnhofstr. 7", "22941 Bargteheide", "Germany"]}, "phone": "+4945329181051", "display_phone": "+49 4532 9181051", "distance": 3550.044013447607}, {"id": "NZk6OGbt1BBe44qmSrcidg", "alias": "zentrum-grill-bargteheide", "name": "Zentrum Grill", "image_url": "https://s3-media4.fl.yelpcdn.com/bphoto/vFUORLs3SDmtUidVxb2VPw/o.jpg", "is_closed": false, "url": "https://www.yelp.com/biz/zentrum-grill-bargteheide?adjust_creative=hBJOknVQJ58S5goQyjmwRw&utm_campaign=yelp_api_v3&utm_medium=api_v3_business_search&utm_source=hBJOknVQJ58S5goQyjmwRw", "review_count": 7, "categories": [{"alias": "hotdogs", "title": "Fast Food"}, {"alias": "currysausage", "title": "Curry Sausage"}, {"alias": "foodstands", "title": "Food Stands"}], "rating": 3.5, "coordinates": {"latitude": 53.7299, "longitude": 10.263}, "transactions": [], "price": "\u20ac\u20ac", "location": {"address1": "Mittelweg 8a", "address2": null, "address3": null, "city": "Bargteheide", "zip_code": "22941", "country": "DE", "state": "SH", "display_address": ["Mittelweg 8a", "22941 Bargteheide", "Germany"]}, "phone": "+491626130755", "display_phone": "+49 162 6130755", "distance": 3734.6294958763574}, {"id": "r3UV7OserloX8rHJfrftpQ", "alias": "asia-snack-bargteheide", "name": "Asia Snack", "image_url": "https://s3-media3.fl.yelpcdn.com/bphoto/N7yVq83BJxX_IaiulJjNKA/o.jpg", "is_closed": false, "url": "https://www.yelp.com/biz/asia-snack-bargteheide?adjust_creative=hBJOknVQJ58S5goQyjmwRw&utm_campaign=yelp_api_v3&utm_medium=api_v3_business_search&utm_source=hBJOknVQJ58S5goQyjmwRw", "review_count": 14, "categories": [{"alias": "chinese", "title": "Chinese"}], "rating": 3.5, "coordinates": {"latitude": 53.7292968, "longitude": 10.2605803}, "transactions": [], "price": "\u20ac", "location": {"address1": "Am Markt 7", "address2": "", "address3": "", "city": "Bargteheide", "zip_code": "22941", "country": "DE", "state": "SH", "display_address": ["Am Markt 7", "22941 Bargteheide", "Germany"]}, "phone": "+4945329798905", "display_phone": "+49 4532 9798905", "distance": 3707.680407996876}, {"id": "KGT38jeItcezg_MIg6lQyg", "alias": "remember-caf\u00e9-restaurant-cocktailbar-bargteheide", "name": "Remember Caf\u00e9-Restaurant-Cocktailbar", "image_url": "https://s3-media3.fl.yelpcdn.com/bphoto/Q8dqPqO_xA8gTbfT9M3S_Q/o.jpg", "is_closed": false, "url": "https://www.yelp.com/biz/remember-caf%C3%A9-restaurant-cocktailbar-bargteheide?adjust_creative=hBJOknVQJ58S5goQyjmwRw&utm_campaign=yelp_api_v3&utm_medium=api_v3_business_search&utm_source=hBJOknVQJ58S5goQyjmwRw", "review_count": 22, "categories": [{"alias": "cafes", "title": "Cafes"}, {"alias": "german", "title": "German"}, {"alias": "cocktailbars", "title": "Cocktail Bars"}], "rating": 3.0, "coordinates": {"latitude": 53.7298, "longitude": 10.2616}, "transactions": [], "price": "\u20ac\u20ac", "location": {"address1": "Am Markt 13", "address2": null, "address3": null, "city": "Bargteheide", "zip_code": "22941", "country": "DE", "state": "SH", "display_address": ["Am Markt 13", "22941 Bargteheide", "Germany"]}, "phone": "+494532287359", "display_phone": "+49 4532 287359", "distance": 3746.1779667355577}, {"id": "HTASV4IKcqZN7P2kfrwhQQ", "alias": "pizzaservice-king-bargteheide", "name": "Pizzaservice King", "image_url": "https://s3-media2.fl.yelpcdn.com/bphoto/QXtT7WqT9ZI57tFz9ob7Ig/o.jpg", "is_closed": false, "url": "https://www.yelp.com/biz/pizzaservice-king-bargteheide?adjust_creative=hBJOknVQJ58S5goQyjmwRw&utm_campaign=yelp_api_v3&utm_medium=api_v3_business_search&utm_source=hBJOknVQJ58S5goQyjmwRw", "review_count": 1, "categories": [{"alias": "pizza", "title": "Pizza"}, {"alias": "hotdogs", "title": "Fast Food"}], "rating": 4.0, "coordinates": {"latitude": 53.7287122, "longitude": 10.2585178}, "transactions": [], "price": "\u20ac\u20ac", "location": {"address1": "Jersbeker Str.2", "address2": "", "address3": "", "city": "Bargteheide", "zip_code": "22941", "country": "DE", "state": "SH", "display_address": ["Jersbeker Str.2", "22941 Bargteheide", "Germany"]}, "phone": "+4945327039", "display_phone": "+49 4532 7039", "distance": 3681.1307269619147}, {"id": "APvIA_7ssxgC0atmQEFMcg", "alias": "burgerkultour-food-truck-hamburg-2", "name": "BurgerKultour Food Truck", "image_url": "https://s3-media4.fl.yelpcdn.com/bphoto/KoAuwalMnlAO8139MmdYBQ/o.jpg", "is_closed": false, "url": "https://www.yelp.com/biz/burgerkultour-food-truck-hamburg-2?adjust_creative=hBJOknVQJ58S5goQyjmwRw&utm_campaign=yelp_api_v3&utm_medium=api_v3_business_search&utm_source=hBJOknVQJ58S5goQyjmwRw", "review_count": 3, "categories": [{"alias": "foodtrucks", "title": "Food Trucks"}, {"alias": "burgers", "title": "Burgers"}], "rating": 4.5, "coordinates": {"latitude": 53.57154, "longitude": 9.95575}, "transactions": [], "price": "\u20ac\u20ac", "location": {"address1": "", "address2": "", "address3": "", "city": "Hamburg", "zip_code": "20259", "country": "DE", "state": "HH", "display_address": ["20259 Hamburg", "Germany"]}, "phone": "+4917626055122", "display_phone": "+49 176 26055122", "distance": 25224.37934802051}, {"id": "-yL4ATEG50oqELr-3FuhyQ", "alias": "philoxenia-bargteheide-2", "name": "Philoxenia", "image_url": "https://s3-media1.fl.yelpcdn.com/bphoto/m8-KS93HJLkpeKACpgf-Vg/o.jpg", "is_closed": false, "url": "https://www.yelp.com/biz/philoxenia-bargteheide-2?adjust_creative=hBJOknVQJ58S5goQyjmwRw&utm_campaign=yelp_api_v3&utm_medium=api_v3_business_search&utm_source=hBJOknVQJ58S5goQyjmwRw", "review_count": 17, "categories": [{"alias": "greek", "title": "Greek"}], "rating": 3.5, "coordinates": {"latitude": 53.7296037, "longitude": 10.2657536}, "transactions": [], "price": "\u20ac\u20ac", "location": {"address1": "Baumschulenstr. 19", "address2": null, "address3": null, "city": "Bargteheide", "zip_code": "22941", "country": "DE", "state": "SH", "display_address": ["Baumschulenstr. 19", "22941 Bargteheide", "Germany"]}, "phone": "+49453221619", "display_phone": "+49 4532 21619", "distance": 3672.3823429120075}, {"id": "cGIKCcR0wZszz8VldC2-7g", "alias": "currywerk-hamburg", "name": "curryWERK", "image_url": "https://s3-media4.fl.yelpcdn.com/bphoto/j_ZPQAB6JrAru84VDuLiRA/o.jpg", "is_closed": false, "url": "https://www.yelp.com/biz/currywerk-hamburg?adjust_creative=hBJOknVQJ58S5goQyjmwRw&utm_campaign=yelp_api_v3&utm_medium=api_v3_business_search&utm_source=hBJOknVQJ58S5goQyjmwRw", "review_count": 1, "categories": [{"alias": "foodtrucks", "title": "Food Trucks"}, {"alias": "currysausage", "title": "Curry Sausage"}], "rating": 4.0, "coordinates": {"latitude": 53.5498886108398, "longitude": 9.94732189178467}, "transactions": [], "price": "\u20ac\u20ac", "location": {"address1": "", "address2": "", "address3": "", "city": "Hamburg", "zip_code": "22767", "country": "DE", "state": "HH", "display_address": ["22767 Hamburg", "Germany"]}, "phone": "+4917632443433", "display_phone": "+49 176 32443433", "distance": 27389.796881372484}]