[{"id": "OBMxtGUY2M0uR9ZDJESQCw", "alias": "zum-dorfkrug-am-gutshof-ammersbek", "name": "Zum Dorfkrug am Gutshof", "image_url": "", "is_closed": false, "url": "https://www.yelp.com/biz/zum-dorfkrug-am-gutshof-ammersbek?adjust_creative=hBJOknVQJ58S5goQyjmwRw&utm_campaign=yelp_api_v3&utm_medium=api_v3_business_search&utm_source=hBJOknVQJ58S5goQyjmwRw", "review_count": 1, "categories": [{"alias": "german", "title": "German"}], "rating": 5.0, "coordinates": {"latitude": 53.691685, "longitude": 10.165921}, "transactions": [], "location": {"address1": "Am Gutshof 1", "address2": null, "address3": null, "city": "Ammersbek", "zip_code": "22949", "country": "DE", "state": "SH", "display_address": ["Am Gutshof 1", "22949 Ammersbek", "Germany"]}, "phone": "+494074129645", "display_phone": "+49 40 74129645", "distance": 1364.3263587755011}, {"id": "Grb8z5E-aUEYCeIy8FTCng", "alias": "restaurant-am-brook-henners-stuuv-tangstedt", "name": "Restaurant am Brook - Henners Stuuv", "image_url": "https://s3-media2.fl.yelpcdn.com/bphoto/09nUTzuPt3owrLjdyOcBMg/o.jpg", "is_closed": false, "url": "https://www.yelp.com/biz/restaurant-am-brook-henners-stuuv-tangstedt?adjust_creative=hBJOknVQJ58S5goQyjmwRw&utm_campaign=yelp_api_v3&utm_medium=api_v3_business_search&utm_source=hBJOknVQJ58S5goQyjmwRw", "review_count": 1, "categories": [{"alias": "german", "title": "German"}], "rating": 4.0, "coordinates": {"latitude": 53.7389603, "longitude": 10.1586199}, "transactions": [], "location": {"address1": "Wiemerskamper Weg 133", "address2": "", "address3": "", "city": "Tangstedt", "zip_code": "22889", "country": "DE", "state": "SH", "display_address": ["Wiemerskamper Weg 133", "22889 Tangstedt", "Germany"]}, "phone": "+4915224278853", "display_phone": "+49 1522 4278853", "distance": 4789.967614822698}, {"id": "3dssdPg3sB9-IpZOh8s-1w", "alias": "hofladen-gut-wulfsdorf-ahrensburg", "name": "Hofladen Gut Wulfsdorf", "image_url": "https://s3-media1.fl.yelpcdn.com/bphoto/M0qSCGfCGzuo-VdDwiOtQg/o.jpg", "is_closed": false, "url": "https://www.yelp.com/biz/hofladen-gut-wulfsdorf-ahrensburg?adjust_creative=hBJOknVQJ58S5goQyjmwRw&utm_campaign=yelp_api_v3&utm_medium=api_v3_business_search&utm_source=hBJOknVQJ58S5goQyjmwRw", "review_count": 6, "categories": [{"alias": "organic_stores", "title": "Organic Stores"}, {"alias": "convenience", "title": "Convenience Stores"}, {"alias": "cafes", "title": "Cafes"}], "rating": 4.5, "coordinates": {"latitude": 53.6592, "longitude": 10.1925}, "transactions": [], "price": "\u20ac\u20ac", "location": {"address1": "Bornkampsweg 39", "address2": null, "address3": null, "city": "Ahrensburg", "zip_code": "22926", "country": "DE", "state": "SH", "display_address": ["Bornkampsweg 39", "22926 Ahrensburg", "Germany"]}, "phone": "+49410232587", "display_phone": "+49 4102 32587", "distance": 4344.485551820416}, {"id": "jttUzCQqE8-y8v_49Edtsw", "alias": "zum-pferdestall-am-gutshof-ammersbek", "name": "Zum Pferdestall am Gutshof", "image_url": "", "is_closed": false, "url": "https://www.yelp.com/biz/zum-pferdestall-am-gutshof-ammersbek?adjust_creative=hBJOknVQJ58S5goQyjmwRw&utm_campaign=yelp_api_v3&utm_medium=api_v3_business_search&utm_source=hBJOknVQJ58S5goQyjmwRw", "review_count": 1, "categories": [{"alias": "german", "title": "German"}], "rating": 4.0, "coordinates": {"latitude": 53.69169, "longitude": 10.16593}, "transactions": [], "location": {"address1": "Am Gutshof 1", "address2": null, "address3": null, "city": "Ammersbek", "zip_code": "22949", "country": "DE", "state": "SH", "display_address": ["Am Gutshof 1", "22949 Ammersbek", "Germany"]}, "phone": "+494074129645", "display_phone": "+49 40 74129645", "distance": 1364.3263587755011}, {"id": "tUzeOrsR-8KAHItbnCKQeA", "alias": "china-ente-ha-ammersbek", "name": "China Ente Ha", "image_url": "https://s3-media1.fl.yelpcdn.com/bphoto/A1wVmkXBW1jB5rkDp9BvgA/o.jpg", "is_closed": false, "url": "https://www.yelp.com/biz/china-ente-ha-ammersbek?adjust_creative=hBJOknVQJ58S5goQyjmwRw&utm_campaign=yelp_api_v3&utm_medium=api_v3_business_search&utm_source=hBJOknVQJ58S5goQyjmwRw", "review_count": 5, "categories": [{"alias": "chinese", "title": "Chinese"}], "rating": 4.0, "coordinates": {"latitude": 53.6920240862307, "longitude": 10.1684083319408}, "transactions": [], "price": "\u20ac\u20ac", "location": {"address1": "L\u00fcbecker Str. 8-10", "address2": null, "address3": null, "city": "Ammersbek", "zip_code": "22949", "country": "DE", "state": "SH", "display_address": ["L\u00fcbecker Str. 8-10", "22949 Ammersbek", "Germany"]}, "phone": "+49406050533", "display_phone": "+49 40 6050533", "distance": 1196.9579426688063}]