[{"id": "spHm65F6xQhPWKXixk-HLQ", "alias": "yang-zi-norderstedt", "name": "Yang-Zi", "image_url": "https://s3-media2.fl.yelpcdn.com/bphoto/O0lZ_qlqiddcV7a6ad-JEw/o.jpg", "is_closed": false, "url": "https://www.yelp.com/biz/yang-zi-norderstedt?adjust_creative=hBJOknVQJ58S5goQyjmwRw&utm_campaign=yelp_api_v3&utm_medium=api_v3_business_search&utm_source=hBJOknVQJ58S5goQyjmwRw", "review_count": 16, "categories": [{"alias": "korean", "title": "Korean"}, {"alias": "panasian", "title": "Pan Asian"}], "rating": 4.0, "coordinates": {"latitude": 53.6835, "longitude": 9.98769}, "transactions": [], "price": "\u20ac\u20ac", "location": {"address1": "Europaallee 21", "address2": null, "address3": null, "city": "Norderstedt", "zip_code": "22850", "country": "DE", "state": "SH", "display_address": ["Europaallee 21", "22850 Norderstedt", "Germany"]}, "phone": "+494052883820", "display_phone": "+49 40 52883820", "distance": 2017.34586421335}, {"id": "REYc_tPiqy0K01Qc4n3Gow", "alias": "trattoria-da-michele-norderstedt", "name": "Trattoria da Michele", "image_url": "https://s3-media1.fl.yelpcdn.com/bphoto/oWR1fGoAEY2XuEkaYsvbRA/o.jpg", "is_closed": false, "url": "https://www.yelp.com/biz/trattoria-da-michele-norderstedt?adjust_creative=hBJOknVQJ58S5goQyjmwRw&utm_campaign=yelp_api_v3&utm_medium=api_v3_business_search&utm_source=hBJOknVQJ58S5goQyjmwRw", "review_count": 58, "categories": [{"alias": "italian", "title": "Italian"}, {"alias": "mediterranean", "title": "Mediterranean"}, {"alias": "pizza", "title": "Pizza"}], "rating": 4.5, "coordinates": {"latitude": 53.6683625, "longitude": 9.9879207}, "transactions": [], "price": "\u20ac\u20ac", "location": {"address1": "Rugenbarg 74 h", "address2": "", "address3": "", "city": "Norderstedt", "zip_code": "22848", "country": "DE", "state": "SH", "display_address": ["Rugenbarg 74 h", "22848 Norderstedt", "Germany"]}, "phone": "+494052883339", "display_phone": "+49 40 52883339", "distance": 3590.50688004328}, {"id": "LRRb-jLXT41kOL0c3A4faQ", "alias": "lee-hoo-fook-norderstedt", "name": "Lee Hoo Fook", "image_url": "https://s3-media1.fl.yelpcdn.com/bphoto/sIhcNJyrXkYH0xa_I8kF0w/o.jpg", "is_closed": false, "url": "https://www.yelp.com/biz/lee-hoo-fook-norderstedt?adjust_creative=hBJOknVQJ58S5goQyjmwRw&utm_campaign=yelp_api_v3&utm_medium=api_v3_business_search&utm_source=hBJOknVQJ58S5goQyjmwRw", "review_count": 41, "categories": [{"alias": "chinese", "title": "Chinese"}], "rating": 4.5, "coordinates": {"latitude": 53.7224264428979, "longitude": 9.99840550124645}, "transactions": [], "price": "\u20ac\u20ac", "location": {"address1": "Ulzburger Str. 398", "address2": null, "address3": null, "city": "Norderstedt", "zip_code": "22846", "country": "DE", "state": "SH", "display_address": ["Ulzburger Str. 398", "22846 Norderstedt", "Germany"]}, "phone": "+49405261788", "display_phone": "+49 40 5261788", "distance": 2551.519975619201}, {"id": "hebsTFShK1XkOATxr-GIMg", "alias": "mendoza-norderstedt", "name": "Mendoza", "image_url": "https://s3-media3.fl.yelpcdn.com/bphoto/Pp8VnLHJdXQWoDOEOiACBw/o.jpg", "is_closed": false, "url": "https://www.yelp.com/biz/mendoza-norderstedt?adjust_creative=hBJOknVQJ58S5goQyjmwRw&utm_campaign=yelp_api_v3&utm_medium=api_v3_business_search&utm_source=hBJOknVQJ58S5goQyjmwRw", "review_count": 29, "categories": [{"alias": "steak", "title": "Steakhouses"}], "rating": 4.0, "coordinates": {"latitude": 53.6818886, "longitude": 9.9809999}, "transactions": [], "price": "\u20ac\u20ac", "location": {"address1": "Ochsenzoller Str. 110", "address2": "", "address3": "", "city": "Norderstedt", "zip_code": "22848", "country": "DE", "state": "SH", "display_address": ["Ochsenzoller Str. 110", "22848 Norderstedt", "Germany"]}, "phone": "+494085159313", "display_phone": "+49 40 85159313", "distance": 2400.4454287380563}, {"id": "xrfbDVGG6j_41vWzcu40Hg", "alias": "olympia-grill-norderstedt", "name": "Olympia Grill", "image_url": "https://s3-media3.fl.yelpcdn.com/bphoto/jUTz7W9l3-Tp6j3LqNPKyA/o.jpg", "is_closed": false, "url": "https://www.yelp.com/biz/olympia-grill-norderstedt?adjust_creative=hBJOknVQJ58S5goQyjmwRw&utm_campaign=yelp_api_v3&utm_medium=api_v3_business_search&utm_source=hBJOknVQJ58S5goQyjmwRw", "review_count": 27, "categories": [{"alias": "greek", "title": "Greek"}], "rating": 4.5, "coordinates": {"latitude": 53.6746, "longitude": 9.987}, "transactions": [], "price": "\u20ac", "location": {"address1": "Ohechaussee 110", "address2": null, "address3": null, "city": "Norderstedt", "zip_code": "22848", "country": "DE", "state": "SH", "display_address": ["Ohechaussee 110", "22848 Norderstedt", "Germany"]}, "phone": "+494051329990", "display_phone": "+49 40 51329990", "distance": 2945.1387043189484}, {"id": "j60l4xNvd8e3mrrExilQKg", "alias": "zwutschkerl-alm-norderstedt", "name": "Zwutschkerl Alm", "image_url": "https://s3-media2.fl.yelpcdn.com/bphoto/HGrX3KOi8wMPPUD-TnapAA/o.jpg", "is_closed": false, "url": "https://www.yelp.com/biz/zwutschkerl-alm-norderstedt?adjust_creative=hBJOknVQJ58S5goQyjmwRw&utm_campaign=yelp_api_v3&utm_medium=api_v3_business_search&utm_source=hBJOknVQJ58S5goQyjmwRw", "review_count": 2, "categories": [{"alias": "german", "title": "German"}, {"alias": "austrian", "title": "Austrian"}], "rating": 4.5, "coordinates": {"latitude": 53.6614217, "longitude": 9.9849684}, "transactions": [], "price": "\u20ac\u20ac", "location": {"address1": "Gutenbergring 30 a", "address2": null, "address3": "", "city": "Norderstedt", "zip_code": "22848", "country": "DE", "state": "SH", "display_address": ["Gutenbergring 30 a", "22848 Norderstedt", "Germany"]}, "phone": "+49405253431", "display_phone": "+49 40 5253431", "distance": 4386.371876156526}, {"id": "qiBE4u1dUBuWW5XO02KO3w", "alias": "le-patate-norderstedt", "name": "Le Patate", "image_url": "https://s3-media2.fl.yelpcdn.com/bphoto/uhipaLa4adk-JMA5fLLapQ/o.jpg", "is_closed": false, "url": "https://www.yelp.com/biz/le-patate-norderstedt?adjust_creative=hBJOknVQJ58S5goQyjmwRw&utm_campaign=yelp_api_v3&utm_medium=api_v3_business_search&utm_source=hBJOknVQJ58S5goQyjmwRw", "review_count": 1, "categories": [{"alias": "turkish", "title": "Turkish"}], "rating": 5.0, "coordinates": {"latitude": 53.71423, "longitude": 10.00011}, "transactions": [], "location": {"address1": "Ulzburger Str. 320", "address2": "", "address3": null, "city": "Norderstedt", "zip_code": "22846", "country": "DE", "state": "SH", "display_address": ["Ulzburger Str. 320", "22846 Norderstedt", "Germany"]}, "phone": "+494060063098", "display_phone": "+49 40 60063098", "distance": 1635.110452896174}, {"id": "AOV6fV_C4KiE7rJFGCGgWg", "alias": "ristorante-la-piazza-norderstedt", "name": "Ristorante La Piazza", "image_url": "https://s3-media2.fl.yelpcdn.com/bphoto/RF5j7hdccmcgX4AFpOnrww/o.jpg", "is_closed": false, "url": "https://www.yelp.com/biz/ristorante-la-piazza-norderstedt?adjust_creative=hBJOknVQJ58S5goQyjmwRw&utm_campaign=yelp_api_v3&utm_medium=api_v3_business_search&utm_source=hBJOknVQJ58S5goQyjmwRw", "review_count": 10, "categories": [{"alias": "italian", "title": "Italian"}], "rating": 4.0, "coordinates": {"latitude": 53.7075, "longitude": 9.99146}, "transactions": [], "price": "\u20ac\u20ac", "location": {"address1": "Rathausallee 70", "address2": null, "address3": null, "city": "Norderstedt", "zip_code": "22846", "country": "DE", "state": "SH", "display_address": ["Rathausallee 70", "22846 Norderstedt", "Germany"]}, "phone": "+494060924160", "display_phone": "+49 40 60924160", "distance": 1117.6074563516097}, {"id": "y4Nt8CBQLE8oX8h1taw5ZA", "alias": "tandoor-norderstedt", "name": "Tandoor", "image_url": "https://s3-media3.fl.yelpcdn.com/bphoto/8jlqakxUzKGgTMhjLNmcrQ/o.jpg", "is_closed": false, "url": "https://www.yelp.com/biz/tandoor-norderstedt?adjust_creative=hBJOknVQJ58S5goQyjmwRw&utm_campaign=yelp_api_v3&utm_medium=api_v3_business_search&utm_source=hBJOknVQJ58S5goQyjmwRw", "review_count": 7, "categories": [{"alias": "indpak", "title": "Indian"}], "rating": 4.5, "coordinates": {"latitude": 53.71328, "longitude": 9.99966}, "transactions": [], "price": "\u20ac", "location": {"address1": "Ulzburger Str. 377", "address2": "", "address3": "", "city": "Norderstedt", "zip_code": "22846", "country": "DE", "state": "SH", "display_address": ["Ulzburger Str. 377", "22846 Norderstedt", "Germany"]}, "phone": "+494052610040", "display_phone": "+49 40 52610040", "distance": 1534.9769475765806}, {"id": "wvsAqnOJ0A5ASHzpAiY64g", "alias": "restaurant-schm\u00f6ker-norderstedt", "name": "Restaurant Schm\u00f6ker", "image_url": "https://s3-media1.fl.yelpcdn.com/bphoto/NG9FpWshGBwH_NZceF67AA/o.jpg", "is_closed": false, "url": "https://www.yelp.com/biz/restaurant-schm%C3%B6ker-norderstedt?adjust_creative=hBJOknVQJ58S5goQyjmwRw&utm_campaign=yelp_api_v3&utm_medium=api_v3_business_search&utm_source=hBJOknVQJ58S5goQyjmwRw", "review_count": 1, "categories": [{"alias": "international", "title": "International"}, {"alias": "german", "title": "German"}], "rating": 5.0, "coordinates": {"latitude": 53.7222957088864, "longitude": 10.0256953015924}, "transactions": [], "location": {"address1": "Hotel Schm\u00f6ker - Hof", "address2": "Oststr. 18", "address3": null, "city": "Norderstedt", "zip_code": "22844", "country": "DE", "state": "SH", "display_address": ["Hotel Schm\u00f6ker - Hof", "Oststr. 18", "22844 Norderstedt", "Germany"]}, "phone": "+4940526070", "display_phone": "+49 40 526070", "distance": 2972.5747030846496}, {"id": "HfF4qFTfpRxncLGVAwQ1pw", "alias": "amfipolis-norderstedt", "name": "Amfipolis", "image_url": "https://s3-media2.fl.yelpcdn.com/bphoto/8AUpLJXgTDlBVoA3zZ8row/o.jpg", "is_closed": false, "url": "https://www.yelp.com/biz/amfipolis-norderstedt?adjust_creative=hBJOknVQJ58S5goQyjmwRw&utm_campaign=yelp_api_v3&utm_medium=api_v3_business_search&utm_source=hBJOknVQJ58S5goQyjmwRw", "review_count": 13, "categories": [{"alias": "greek", "title": "Greek"}], "rating": 4.5, "coordinates": {"latitude": 53.6857, "longitude": 10.0252}, "transactions": [], "price": "\u20ac\u20ac", "location": {"address1": "Segeberger Chaussee 156", "address2": null, "address3": null, "city": "Norderstedt", "zip_code": "22851", "country": "DE", "state": "SH", "display_address": ["Segeberger Chaussee 156", "22851 Norderstedt", "Germany"]}, "phone": "+494064668103", "display_phone": "+49 40 64668103", "distance": 2175.6099063761726}, {"id": "g5euhWuHeQivoduhLIzbfA", "alias": "tunici-restaurant-norderstedt", "name": "Tunici Restaurant", "image_url": "https://s3-media3.fl.yelpcdn.com/bphoto/TEiwhlfajZZfVexn_gM4CA/o.jpg", "is_closed": false, "url": "https://www.yelp.com/biz/tunici-restaurant-norderstedt?adjust_creative=hBJOknVQJ58S5goQyjmwRw&utm_campaign=yelp_api_v3&utm_medium=api_v3_business_search&utm_source=hBJOknVQJ58S5goQyjmwRw", "review_count": 1, "categories": [{"alias": "serbocroatian", "title": "Serbo Croatian"}], "rating": 5.0, "coordinates": {"latitude": 53.6908365185057, "longitude": 9.99673046171665}, "transactions": [], "location": {"address1": "Ulzburger Str. 94", "address2": "", "address3": null, "city": "Norderstedt", "zip_code": "22850", "country": "DE", "state": "SH", "display_address": ["Ulzburger Str. 94", "22850 Norderstedt", "Germany"]}, "phone": "+494030858933", "display_phone": "+49 40 30858933", "distance": 1029.3777840801067}, {"id": "TC-TdpUvX_yyPgOauh3NMg", "alias": "steakhaus-elrado-house-norderstedt", "name": "Steakhaus Elrado-House", "image_url": "https://s3-media2.fl.yelpcdn.com/bphoto/0P4Srdc9Ojj3ll9XiYLYzw/o.jpg", "is_closed": false, "url": "https://www.yelp.com/biz/steakhaus-elrado-house-norderstedt?adjust_creative=hBJOknVQJ58S5goQyjmwRw&utm_campaign=yelp_api_v3&utm_medium=api_v3_business_search&utm_source=hBJOknVQJ58S5goQyjmwRw", "review_count": 54, "categories": [{"alias": "steak", "title": "Steakhouses"}], "rating": 4.5, "coordinates": {"latitude": 53.6886, "longitude": 9.99745}, "transactions": [], "price": "\u20ac\u20ac", "location": {"address1": "Ulzburger Str. 64", "address2": null, "address3": null, "city": "Norderstedt", "zip_code": "22850", "country": "DE", "state": "SH", "display_address": ["Ulzburger Str. 64", "22850 Norderstedt", "Germany"]}, "phone": "+49405252054", "display_phone": "+49 40 5252054", "distance": 1254.860027088925}, {"id": "7TFBVnQaSRk9JDdwfnHXFg", "alias": "alibaba-norderstedt", "name": "Alibaba", "image_url": "https://s3-media4.fl.yelpcdn.com/bphoto/yCk50Yb8nSqiA9rjdCVYfw/o.jpg", "is_closed": false, "url": "https://www.yelp.com/biz/alibaba-norderstedt?adjust_creative=hBJOknVQJ58S5goQyjmwRw&utm_campaign=yelp_api_v3&utm_medium=api_v3_business_search&utm_source=hBJOknVQJ58S5goQyjmwRw", "review_count": 13, "categories": [{"alias": "hotdogs", "title": "Fast Food"}], "rating": 4.0, "coordinates": {"latitude": 53.7047, "longitude": 10.007}, "transactions": [], "price": "\u20ac\u20ac", "location": {"address1": "Alter Kirchenweg 37", "address2": null, "address3": null, "city": "Norderstedt", "zip_code": "22844", "country": "DE", "state": "SH", "display_address": ["Alter Kirchenweg 37", "22844 Norderstedt", "Germany"]}, "phone": "+494051328377", "display_phone": "+49 40 51328377", "distance": 661.5738154193612}, {"id": "Zqf-LdHBIvswhXESxXNzCw", "alias": "cafeteria-latina-norderstedt", "name": "Cafeteria Latina", "image_url": "https://s3-media1.fl.yelpcdn.com/bphoto/7sLx6nOndKzYUf2p5m-KRw/o.jpg", "is_closed": false, "url": "https://www.yelp.com/biz/cafeteria-latina-norderstedt?adjust_creative=hBJOknVQJ58S5goQyjmwRw&utm_campaign=yelp_api_v3&utm_medium=api_v3_business_search&utm_source=hBJOknVQJ58S5goQyjmwRw", "review_count": 12, "categories": [{"alias": "cafes", "title": "Cafes"}, {"alias": "lounges", "title": "Lounges"}, {"alias": "cocktailbars", "title": "Cocktail Bars"}], "rating": 4.5, "coordinates": {"latitude": 53.7068469, "longitude": 9.994473}, "transactions": [], "price": "\u20ac\u20ac", "location": {"address1": "Rathausallee 19b", "address2": null, "address3": null, "city": "Norderstedt", "zip_code": "22846", "country": "DE", "state": "SH", "display_address": ["Rathausallee 19b", "22846 Norderstedt", "Germany"]}, "phone": "+494051324345", "display_phone": "+49 40 51324345", "distance": 945.0279944294848}, {"id": "jvngpvaKv6DQZpV63Dw5yw", "alias": "sushi-dreams-norderstedt", "name": "Sushi Dreams", "image_url": "https://s3-media1.fl.yelpcdn.com/bphoto/Ufs91VnFLJUHoa8oPiAZ4Q/o.jpg", "is_closed": false, "url": "https://www.yelp.com/biz/sushi-dreams-norderstedt?adjust_creative=hBJOknVQJ58S5goQyjmwRw&utm_campaign=yelp_api_v3&utm_medium=api_v3_business_search&utm_source=hBJOknVQJ58S5goQyjmwRw", "review_count": 24, "categories": [{"alias": "sushi", "title": "Sushi Bars"}, {"alias": "panasian", "title": "Pan Asian"}], "rating": 4.0, "coordinates": {"latitude": 53.7121, "longitude": 9.99992}, "transactions": [], "price": "\u20ac\u20ac", "location": {"address1": "Ulzburger Str. 302", "address2": null, "address3": null, "city": "Norderstedt", "zip_code": "22846", "country": "DE", "state": "SH", "display_address": ["Ulzburger Str. 302", "22846 Norderstedt", "Germany"]}, "phone": "+494058951077", "display_phone": "+49 40 58951077", "distance": 1398.9709434499985}, {"id": "xKHC3pXZQl3EB6V4jCHusg", "alias": "kebap-lounge-hamburg-3", "name": "Kebap Lounge", "image_url": "https://s3-media4.fl.yelpcdn.com/bphoto/tGZE3XAEcg3sq_1CbK8w_w/o.jpg", "is_closed": false, "url": "https://www.yelp.com/biz/kebap-lounge-hamburg-3?adjust_creative=hBJOknVQJ58S5goQyjmwRw&utm_campaign=yelp_api_v3&utm_medium=api_v3_business_search&utm_source=hBJOknVQJ58S5goQyjmwRw", "review_count": 2, "categories": [{"alias": "kebab", "title": "Kebab"}], "rating": 4.0, "coordinates": {"latitude": 53.6782684, "longitude": 10.0009499}, "transactions": [], "price": "\u20ac\u20ac", "location": {"address1": "Langenhorner Chaussee 662 B", "address2": "", "address3": "", "city": "Hamburg", "zip_code": "22419", "country": "DE", "state": "HH", "display_address": ["Langenhorner Chaussee 662 B", "22419 Hamburg", "Germany"]}, "phone": "", "display_phone": "", "distance": 2364.2426111229643}, {"id": "oDgBQ2ztUb22NYSUws3ogg", "alias": "harput-kebap-norderstedt", "name": "Harput Kebap", "image_url": "https://s3-media4.fl.yelpcdn.com/bphoto/5kh_8s2FZcC6pgsXOMAFpg/o.jpg", "is_closed": false, "url": "https://www.yelp.com/biz/harput-kebap-norderstedt?adjust_creative=hBJOknVQJ58S5goQyjmwRw&utm_campaign=yelp_api_v3&utm_medium=api_v3_business_search&utm_source=hBJOknVQJ58S5goQyjmwRw", "review_count": 8, "categories": [{"alias": "kebab", "title": "Kebab"}], "rating": 4.5, "coordinates": {"latitude": 53.6846008300781, "longitude": 9.98484706878662}, "transactions": [], "price": "\u20ac\u20ac", "location": {"address1": "Berliner Allee 40", "address2": "", "address3": "", "city": "Norderstedt", "zip_code": "22850", "country": "DE", "state": "SH", "display_address": ["Berliner Allee 40", "22850 Norderstedt", "Germany"]}, "phone": "+494052878412", "display_phone": "+49 40 52878412", "distance": 2008.0774836806274}, {"id": "TtWWDZnIvRGDQ9Ef0maXIA", "alias": "arizona-kitchen-norderstedt", "name": "Arizona Kitchen", "image_url": "https://s3-media1.fl.yelpcdn.com/bphoto/YiiJpg1sQPUQyKr3Zx48Bg/o.jpg", "is_closed": false, "url": "https://www.yelp.com/biz/arizona-kitchen-norderstedt?adjust_creative=hBJOknVQJ58S5goQyjmwRw&utm_campaign=yelp_api_v3&utm_medium=api_v3_business_search&utm_source=hBJOknVQJ58S5goQyjmwRw", "review_count": 91, "categories": [{"alias": "tradamerican", "title": "American (Traditional)"}, {"alias": "cocktailbars", "title": "Cocktail Bars"}], "rating": 3.5, "coordinates": {"latitude": 53.6595, "longitude": 9.98047}, "transactions": [], "price": "\u20ac\u20ac", "location": {"address1": "Niendorfer Str. 176", "address2": null, "address3": null, "city": "Norderstedt", "zip_code": "22848", "country": "DE", "state": "SH", "display_address": ["Niendorfer Str. 176", "22848 Norderstedt", "Germany"]}, "phone": "+494052877997", "display_phone": "+49 40 52877997", "distance": 4665.927781789958}, {"id": "oGv4o6GxasfDnCXtdRjing", "alias": "mongolei-norderstedt", "name": "Mongolei", "image_url": "https://s3-media2.fl.yelpcdn.com/bphoto/qQFh-roeX3yScoEP_iAbVw/o.jpg", "is_closed": false, "url": "https://www.yelp.com/biz/mongolei-norderstedt?adjust_creative=hBJOknVQJ58S5goQyjmwRw&utm_campaign=yelp_api_v3&utm_medium=api_v3_business_search&utm_source=hBJOknVQJ58S5goQyjmwRw", "review_count": 67, "categories": [{"alias": "chinese", "title": "Chinese"}], "rating": 3.5, "coordinates": {"latitude": 53.7040821482736, "longitude": 10.0087121963809}, "transactions": [], "price": "\u20ac\u20ac", "location": {"address1": "Marktplatz 3", "address2": null, "address3": null, "city": "Norderstedt", "zip_code": "22844", "country": "DE", "state": "SH", "display_address": ["Marktplatz 3", "22844 Norderstedt", "Germany"]}, "phone": "+494055440598", "display_phone": "+49 40 55440598", "distance": 672.6509457917791}, {"id": "3ykn2YC9qdFWDGsdVHD83g", "alias": "hotel-wilhelm-busch-norderstedt", "name": "Hotel Wilhelm Busch", "image_url": "https://s3-media3.fl.yelpcdn.com/bphoto/efkx6VnHLf3kNWdZzO9NWQ/o.jpg", "is_closed": false, "url": "https://www.yelp.com/biz/hotel-wilhelm-busch-norderstedt?adjust_creative=hBJOknVQJ58S5goQyjmwRw&utm_campaign=yelp_api_v3&utm_medium=api_v3_business_search&utm_source=hBJOknVQJ58S5goQyjmwRw", "review_count": 10, "categories": [{"alias": "german", "title": "German"}], "rating": 4.0, "coordinates": {"latitude": 53.6921392, "longitude": 9.9953344}, "transactions": [], "price": "\u20ac\u20ac", "location": {"address1": "Segeberger Chaussee 45", "address2": "Wilhelm Busch Platz", "address3": null, "city": "Norderstedt", "zip_code": "22850", "country": "DE", "state": "SH", "display_address": ["Segeberger Chaussee 45", "Wilhelm Busch Platz", "22850 Norderstedt", "Germany"]}, "phone": "+49405299000", "display_phone": "+49 40 5299000", "distance": 932.8201743510832}, {"id": "QtptKJUzaBGqRTPtp8fTSw", "alias": "das-strandhaus-norderstedt", "name": "Das Strandhaus", "image_url": "https://s3-media1.fl.yelpcdn.com/bphoto/PZJmURvn5N_qK-x8sgnt4g/o.jpg", "is_closed": false, "url": "https://www.yelp.com/biz/das-strandhaus-norderstedt?adjust_creative=hBJOknVQJ58S5goQyjmwRw&utm_campaign=yelp_api_v3&utm_medium=api_v3_business_search&utm_source=hBJOknVQJ58S5goQyjmwRw", "review_count": 3, "categories": [{"alias": "bars", "title": "Bars"}, {"alias": "cafes", "title": "Cafes"}], "rating": 4.0, "coordinates": {"latitude": 53.7156118293451, "longitude": 10.022783001104}, "transactions": [], "price": "\u20ac\u20ac\u20ac", "location": {"address1": "Am Strandbad 1", "address2": "", "address3": "", "city": "Norderstedt", "zip_code": "", "country": "DE", "state": "SH", "display_address": ["Am Strandbad 1", "Norderstedt, Schleswig-Holstein", "Germany"]}, "phone": "+494035731376", "display_phone": "+49 40 35731376", "distance": 2251.597488385644}, {"id": "Q1qJtx1eF4A8MYtXtLYdjg", "alias": "gourmet-garden-norderstedt", "name": "Gourmet Garden", "image_url": "https://s3-media3.fl.yelpcdn.com/bphoto/E69aQNHy_RhxggZ4btIrFg/o.jpg", "is_closed": false, "url": "https://www.yelp.com/biz/gourmet-garden-norderstedt?adjust_creative=hBJOknVQJ58S5goQyjmwRw&utm_campaign=yelp_api_v3&utm_medium=api_v3_business_search&utm_source=hBJOknVQJ58S5goQyjmwRw", "review_count": 3, "categories": [{"alias": "chinese", "title": "Chinese"}, {"alias": "mongolian", "title": "Mongolian"}, {"alias": "buffets", "title": "Buffets"}], "rating": 3.5, "coordinates": {"latitude": 53.707273, "longitude": 9.989981}, "transactions": [], "location": {"address1": "Rathausallee 35", "address2": null, "address3": "", "city": "Norderstedt", "zip_code": "22846", "country": "DE", "state": "SH", "display_address": ["Rathausallee 35", "22846 Norderstedt", "Germany"]}, "phone": "+494033481133", "display_phone": "+49 40 33481133", "distance": 1161.2334916283933}, {"id": "MT9wh1pkW89lYPBLa4cv0A", "alias": "restaurant-poseidon-norderstedt", "name": "Restaurant Poseidon", "image_url": "https://s3-media2.fl.yelpcdn.com/bphoto/DXUbufmjDuYgtoLoC5NZrA/o.jpg", "is_closed": false, "url": "https://www.yelp.com/biz/restaurant-poseidon-norderstedt?adjust_creative=hBJOknVQJ58S5goQyjmwRw&utm_campaign=yelp_api_v3&utm_medium=api_v3_business_search&utm_source=hBJOknVQJ58S5goQyjmwRw", "review_count": 17, "categories": [{"alias": "greek", "title": "Greek"}], "rating": 4.0, "coordinates": {"latitude": 53.6817, "longitude": 9.98014}, "transactions": [], "price": "\u20ac\u20ac", "location": {"address1": "Ochsenzoller Str. 102", "address2": null, "address3": null, "city": "Norderstedt", "zip_code": "22848", "country": "DE", "state": "SH", "display_address": ["Ochsenzoller Str. 102", "22848 Norderstedt", "Germany"]}, "phone": "+49405236650", "display_phone": "+49 40 5236650", "distance": 2450.0137091082042}, {"id": "LNZ7Gv0FnfUEgtvBRRV6BA", "alias": "alter-reporter-norderstedt", "name": "Alter Reporter", "image_url": "https://s3-media2.fl.yelpcdn.com/bphoto/U_7Q6I97b89z5VMKSV7Q2A/o.jpg", "is_closed": false, "url": "https://www.yelp.com/biz/alter-reporter-norderstedt?adjust_creative=hBJOknVQJ58S5goQyjmwRw&utm_campaign=yelp_api_v3&utm_medium=api_v3_business_search&utm_source=hBJOknVQJ58S5goQyjmwRw", "review_count": 73, "categories": [{"alias": "german", "title": "German"}, {"alias": "beergarden", "title": "Beer Garden"}, {"alias": "bowling", "title": "Bowling"}], "rating": 3.5, "coordinates": {"latitude": 53.6916, "longitude": 10.0227}, "transactions": [], "price": "\u20ac\u20ac", "location": {"address1": "J\u00e4gerlauf 1", "address2": null, "address3": null, "city": "Norderstedt", "zip_code": "22851", "country": "DE", "state": "SH", "display_address": ["J\u00e4gerlauf 1", "22851 Norderstedt", "Germany"]}, "phone": "+49405240807", "display_phone": "+49 40 5240807", "distance": 1631.3692578795053}, {"id": "i0BPH1V4mWEDGSIKU0yoNw", "alias": "restaurant-flame-norderstedt", "name": "Restaurant Flame", "image_url": "https://s3-media1.fl.yelpcdn.com/bphoto/-bztQZBsAVpqFIEwYdfYAw/o.jpg", "is_closed": false, "url": "https://www.yelp.com/biz/restaurant-flame-norderstedt?adjust_creative=hBJOknVQJ58S5goQyjmwRw&utm_campaign=yelp_api_v3&utm_medium=api_v3_business_search&utm_source=hBJOknVQJ58S5goQyjmwRw", "review_count": 26, "categories": [{"alias": "german", "title": "German"}, {"alias": "steak", "title": "Steakhouses"}], "rating": 4.0, "coordinates": {"latitude": 53.7130222781216, "longitude": 10.0005016475916}, "transactions": [], "price": "\u20ac\u20ac", "location": {"address1": "Ulzburgerstr. 310", "address2": null, "address3": null, "city": "Norderstedt", "zip_code": "22846", "country": "DE", "state": "SH", "display_address": ["Ulzburgerstr. 310", "22846 Norderstedt", "Germany"]}, "phone": "+494032595929", "display_phone": "+49 40 32595929", "distance": 1498.2707395247494}, {"id": "WBAdbsKl1PtOnrB5FOUI9g", "alias": "brutzelh\u00fctte-norderstedt", "name": "Brutzelh\u00fctte", "image_url": "https://s3-media4.fl.yelpcdn.com/bphoto/lpantAzVsVBIxQPeSeIQcQ/o.jpg", "is_closed": false, "url": "https://www.yelp.com/biz/brutzelh%C3%BCtte-norderstedt?adjust_creative=hBJOknVQJ58S5goQyjmwRw&utm_campaign=yelp_api_v3&utm_medium=api_v3_business_search&utm_source=hBJOknVQJ58S5goQyjmwRw", "review_count": 2, "categories": [{"alias": "foodstands", "title": "Food Stands"}, {"alias": "currysausage", "title": "Curry Sausage"}, {"alias": "hotdogs", "title": "Fast Food"}], "rating": 4.5, "coordinates": {"latitude": 53.708214, "longitude": 10.020559}, "transactions": [], "price": "\u20ac", "location": {"address1": "Stormarnstra\u00dfe", "address2": "", "address3": "", "city": "Norderstedt", "zip_code": "22844", "country": "DE", "state": "SH", "display_address": ["Stormarnstra\u00dfe", "22844 Norderstedt", "Germany"]}, "phone": "", "display_phone": "", "distance": 1559.3705938887679}, {"id": "avl1eR3Fwh6r0287r0mAgQ", "alias": "restaurant-irodion-norderstedt", "name": "Restaurant Irodion", "image_url": "https://s3-media2.fl.yelpcdn.com/bphoto/nJFm5dIipB5u_pk8HdtLCw/o.jpg", "is_closed": false, "url": "https://www.yelp.com/biz/restaurant-irodion-norderstedt?adjust_creative=hBJOknVQJ58S5goQyjmwRw&utm_campaign=yelp_api_v3&utm_medium=api_v3_business_search&utm_source=hBJOknVQJ58S5goQyjmwRw", "review_count": 26, "categories": [{"alias": "greek", "title": "Greek"}], "rating": 4.0, "coordinates": {"latitude": 53.7229, "longitude": 9.99766}, "transactions": [], "price": "\u20ac\u20ac", "location": {"address1": "Ulzburger Str. 499", "address2": null, "address3": null, "city": "Norderstedt", "zip_code": "22846", "country": "DE", "state": "SH", "display_address": ["Ulzburger Str. 499", "22846 Norderstedt", "Germany"]}, "phone": "+49405261777", "display_phone": "+49 40 5261777", "distance": 2608.7572482617497}, {"id": "qXJ_Ml80jR1Q5RCcXvI4vw", "alias": "restaurant-naxos-norderstedt", "name": "Restaurant Naxos", "image_url": "https://s3-media2.fl.yelpcdn.com/bphoto/tXJKgOvy2BUfDXuZZ3kjkw/o.jpg", "is_closed": false, "url": "https://www.yelp.com/biz/restaurant-naxos-norderstedt?adjust_creative=hBJOknVQJ58S5goQyjmwRw&utm_campaign=yelp_api_v3&utm_medium=api_v3_business_search&utm_source=hBJOknVQJ58S5goQyjmwRw", "review_count": 71, "categories": [{"alias": "greek", "title": "Greek"}], "rating": 3.5, "coordinates": {"latitude": 53.7053869, "longitude": 9.9963032}, "transactions": [], "price": "\u20ac\u20ac", "location": {"address1": "Ulzburger Str. 279", "address2": null, "address3": null, "city": "Norderstedt", "zip_code": "22859", "country": "DE", "state": "SH", "display_address": ["Ulzburger Str. 279", "22859 Norderstedt", "Germany"]}, "phone": "+49405257733", "display_phone": "+49 40 5257733", "distance": 744.0230613587637}, {"id": "4b_8WoafOhi4Ky-r225T0g", "alias": "asiatisches-restaurant-konfuzius-hamburg", "name": "Asiatisches Restaurant Konfuzius", "image_url": "https://s3-media2.fl.yelpcdn.com/bphoto/GnL9P3sQFbRdsOwSLf1ENw/o.jpg", "is_closed": false, "url": "https://www.yelp.com/biz/asiatisches-restaurant-konfuzius-hamburg?adjust_creative=hBJOknVQJ58S5goQyjmwRw&utm_campaign=yelp_api_v3&utm_medium=api_v3_business_search&utm_source=hBJOknVQJ58S5goQyjmwRw", "review_count": 61, "categories": [{"alias": "chinese", "title": "Chinese"}, {"alias": "sushi", "title": "Sushi Bars"}, {"alias": "panasian", "title": "Pan Asian"}], "rating": 3.5, "coordinates": {"latitude": 53.6777839660645, "longitude": 10.0011949539185}, "transactions": [], "price": "\u20ac\u20ac", "location": {"address1": "Langenhorner Chaussee 660", "address2": "", "address3": "", "city": "Hamburg", "zip_code": "22419", "country": "DE", "state": "HH", "display_address": ["Langenhorner Chaussee 660", "22419 Hamburg", "Germany"]}, "phone": "+494053789998", "display_phone": "+49 40 53789998", "distance": 2423.3180295276607}, {"id": "18H5Yc-FLG_ZHNdjj_3euw", "alias": "restaurant-ionios-norderstedt", "name": "Restaurant Ionios", "image_url": "https://s3-media2.fl.yelpcdn.com/bphoto/MdGr5xIJgXGKMAabxX-DxA/o.jpg", "is_closed": false, "url": "https://www.yelp.com/biz/restaurant-ionios-norderstedt?adjust_creative=hBJOknVQJ58S5goQyjmwRw&utm_campaign=yelp_api_v3&utm_medium=api_v3_business_search&utm_source=hBJOknVQJ58S5goQyjmwRw", "review_count": 13, "categories": [{"alias": "italian", "title": "Italian"}], "rating": 4.5, "coordinates": {"latitude": 53.7078, "longitude": 9.98558}, "transactions": [], "price": "\u20ac\u20ac", "location": {"address1": "Rathausallee 83B", "address2": null, "address3": null, "city": "Norderstedt", "zip_code": "22846", "country": "DE", "state": "SH", "display_address": ["Rathausallee 83B", "22846 Norderstedt", "Germany"]}, "phone": "+49405224412", "display_phone": "+49 40 5224412", "distance": 1410.9124339410082}, {"id": "0AJR6GQ2Fos9vEHoyisS6A", "alias": "restaurant-thessaloniki-hamburg-3", "name": "Restaurant Thessaloniki", "image_url": "https://s3-media2.fl.yelpcdn.com/bphoto/pHBR0cr0R3eS0yULM46hqw/o.jpg", "is_closed": false, "url": "https://www.yelp.com/biz/restaurant-thessaloniki-hamburg-3?adjust_creative=hBJOknVQJ58S5goQyjmwRw&utm_campaign=yelp_api_v3&utm_medium=api_v3_business_search&utm_source=hBJOknVQJ58S5goQyjmwRw", "review_count": 14, "categories": [{"alias": "greek", "title": "Greek"}], "rating": 4.5, "coordinates": {"latitude": 53.6727, "longitude": 10.0167}, "transactions": [], "price": "\u20ac\u20ac", "location": {"address1": "Fibigerstr. 259", "address2": null, "address3": null, "city": "Hamburg", "zip_code": "22419", "country": "DE", "state": "HH", "display_address": ["Fibigerstr. 259", "22419 Hamburg", "Germany"]}, "phone": "+49405321384", "display_phone": "+49 40 5321384", "distance": 3143.1087844843037}, {"id": "LmqRYtGlQ3Y9hHCbtzn_3A", "alias": "arkadasch-norderstedt-3", "name": "Arkadasch", "image_url": "https://s3-media1.fl.yelpcdn.com/bphoto/xk084GVfqtiA466kNtN9EQ/o.jpg", "is_closed": false, "url": "https://www.yelp.com/biz/arkadasch-norderstedt-3?adjust_creative=hBJOknVQJ58S5goQyjmwRw&utm_campaign=yelp_api_v3&utm_medium=api_v3_business_search&utm_source=hBJOknVQJ58S5goQyjmwRw", "review_count": 19, "categories": [{"alias": "kebab", "title": "Kebab"}, {"alias": "foodstands", "title": "Food Stands"}], "rating": 3.5, "coordinates": {"latitude": 53.7154, "longitude": 9.99964}, "transactions": [], "price": "\u20ac", "location": {"address1": "Ulzburger Str. 407", "address2": null, "address3": null, "city": "Norderstedt", "zip_code": "22846", "country": "DE", "state": "SH", "display_address": ["Ulzburger Str. 407", "22846 Norderstedt", "Germany"]}, "phone": "+494052610920", "display_phone": "+49 40 52610920", "distance": 1766.1057601600012}, {"id": "4jI0ZbfMpPc2zFmaEn3lnQ", "alias": "zenthai-restaurant-norderstedt", "name": "Zenthai Restaurant", "image_url": "https://s3-media2.fl.yelpcdn.com/bphoto/M9_5SzCMTQzFVeb1Zdg3yw/o.jpg", "is_closed": false, "url": "https://www.yelp.com/biz/zenthai-restaurant-norderstedt?adjust_creative=hBJOknVQJ58S5goQyjmwRw&utm_campaign=yelp_api_v3&utm_medium=api_v3_business_search&utm_source=hBJOknVQJ58S5goQyjmwRw", "review_count": 11, "categories": [{"alias": "panasian", "title": "Pan Asian"}], "rating": 4.5, "coordinates": {"latitude": 53.6849, "longitude": 9.98447}, "transactions": [], "price": "\u20ac", "location": {"address1": "Berliner Allee 38-44a", "address2": "", "address3": "Herold Center", "city": "Norderstedt", "zip_code": "22850", "country": "DE", "state": "SH", "display_address": ["Berliner Allee 38-44a", "Herold Center", "22850 Norderstedt", "Germany"]}, "phone": "+494052385291", "display_phone": "+49 40 52385291", "distance": 1994.7604440840255}, {"id": "EuUXnJ0w0KVlmK-JiUgLHw", "alias": "la-cucina-hamburg", "name": "La Cucina", "image_url": "https://s3-media4.fl.yelpcdn.com/bphoto/dvdqBsc7TMAYIcRsyzcctA/o.jpg", "is_closed": false, "url": "https://www.yelp.com/biz/la-cucina-hamburg?adjust_creative=hBJOknVQJ58S5goQyjmwRw&utm_campaign=yelp_api_v3&utm_medium=api_v3_business_search&utm_source=hBJOknVQJ58S5goQyjmwRw", "review_count": 9, "categories": [{"alias": "italian", "title": "Italian"}], "rating": 4.0, "coordinates": {"latitude": 53.6616578, "longitude": 10.022459}, "transactions": [], "price": "\u20ac\u20ac", "location": {"address1": "Tangstedter Landstr. 208", "address2": "", "address3": "", "city": "Hamburg", "zip_code": "22417", "country": "DE", "state": "HH", "display_address": ["Tangstedter Landstr. 208", "22417 Hamburg", "Germany"]}, "phone": "+49405209920", "display_phone": "+49 40 5209920", "distance": 4428.117367589755}, {"id": "50piGvXmy6mKOURfPz4DRw", "alias": "hamburger-original-norderstedt", "name": "Hamburger Original", "image_url": "", "is_closed": false, "url": "https://www.yelp.com/biz/hamburger-original-norderstedt?adjust_creative=hBJOknVQJ58S5goQyjmwRw&utm_campaign=yelp_api_v3&utm_medium=api_v3_business_search&utm_source=hBJOknVQJ58S5goQyjmwRw", "review_count": 1, "categories": [{"alias": "burgers", "title": "Burgers"}], "rating": 4.0, "coordinates": {"latitude": 53.73409, "longitude": 9.9891}, "transactions": [], "location": {"address1": "Quickborner Str. 50", "address2": "", "address3": null, "city": "Norderstedt", "zip_code": "22844", "country": "DE", "state": "SH", "display_address": ["Quickborner Str. 50", "22844 Norderstedt", "Germany"]}, "phone": "", "display_phone": "", "distance": 3941.3231619647436}, {"id": "Q7Q1SSl94EZsSP2S4dcO-w", "alias": "dubrovnik-norderstedt", "name": "Dubrovnik", "image_url": "https://s3-media3.fl.yelpcdn.com/bphoto/_qudwRtWWUPvXj_YPF0DoQ/o.jpg", "is_closed": false, "url": "https://www.yelp.com/biz/dubrovnik-norderstedt?adjust_creative=hBJOknVQJ58S5goQyjmwRw&utm_campaign=yelp_api_v3&utm_medium=api_v3_business_search&utm_source=hBJOknVQJ58S5goQyjmwRw", "review_count": 28, "categories": [{"alias": "serbocroatian", "title": "Serbo Croatian"}], "rating": 4.0, "coordinates": {"latitude": 53.682752, "longitude": 9.9985156}, "transactions": [], "price": "\u20ac\u20ac", "location": {"address1": "Ulzburger Str. 2", "address2": null, "address3": null, "city": "Norderstedt", "zip_code": "22850", "country": "DE", "state": "SH", "display_address": ["Ulzburger Str. 2", "22850 Norderstedt", "Germany"]}, "phone": "+49405296742", "display_phone": "+49 40 5296742", "distance": 1883.677554686691}, {"id": "Oo1mgoMxPxpKscJOUaLN0g", "alias": "romantica-norderstedt", "name": "Romantica", "image_url": "https://s3-media1.fl.yelpcdn.com/bphoto/gNi6gIFcxhITo-Gs-W-_pw/o.jpg", "is_closed": false, "url": "https://www.yelp.com/biz/romantica-norderstedt?adjust_creative=hBJOknVQJ58S5goQyjmwRw&utm_campaign=yelp_api_v3&utm_medium=api_v3_business_search&utm_source=hBJOknVQJ58S5goQyjmwRw", "review_count": 30, "categories": [{"alias": "italian", "title": "Italian"}], "rating": 4.0, "coordinates": {"latitude": 53.6814, "longitude": 9.99709}, "transactions": [], "price": "\u20ac\u20ac", "location": {"address1": "Am Tarpenufer 8", "address2": null, "address3": null, "city": "Norderstedt", "zip_code": "22848", "country": "DE", "state": "SH", "display_address": ["Am Tarpenufer 8", "22848 Norderstedt", "Germany"]}, "phone": "+49405293042", "display_phone": "+49 40 5293042", "distance": 2045.4519595313288}, {"id": "QaQgwwrlH8TzVt9Q9z0K0g", "alias": "fantasia-bei-alberto-norderstedt", "name": "Fantasia bei Alberto", "image_url": "https://s3-media3.fl.yelpcdn.com/bphoto/A3q7QmFyQrTwTxMydxgoNQ/o.jpg", "is_closed": false, "url": "https://www.yelp.com/biz/fantasia-bei-alberto-norderstedt?adjust_creative=hBJOknVQJ58S5goQyjmwRw&utm_campaign=yelp_api_v3&utm_medium=api_v3_business_search&utm_source=hBJOknVQJ58S5goQyjmwRw", "review_count": 31, "categories": [{"alias": "icecream", "title": "Ice Cream & Frozen Yogurt"}, {"alias": "italian", "title": "Italian"}], "rating": 4.0, "coordinates": {"latitude": 53.7068, "longitude": 9.99583}, "transactions": [], "price": "\u20ac\u20ac", "location": {"address1": "Rathausallee 10", "address2": null, "address3": null, "city": "Norderstedt", "zip_code": "22846", "country": "DE", "state": "SH", "display_address": ["Rathausallee 10", "22846 Norderstedt", "Germany"]}, "phone": "+494094363894", "display_phone": "+49 40 94363894", "distance": 897.3958329254876}, {"id": "BEIDz6tJNrN9_GaYSF6Svw", "alias": "restaurant-hellas-norderstedt", "name": "Restaurant Hellas", "image_url": "https://s3-media3.fl.yelpcdn.com/bphoto/r3AQDRMy0WF-Gc4cH_pbcQ/o.jpg", "is_closed": false, "url": "https://www.yelp.com/biz/restaurant-hellas-norderstedt?adjust_creative=hBJOknVQJ58S5goQyjmwRw&utm_campaign=yelp_api_v3&utm_medium=api_v3_business_search&utm_source=hBJOknVQJ58S5goQyjmwRw", "review_count": 18, "categories": [{"alias": "greek", "title": "Greek"}], "rating": 3.5, "coordinates": {"latitude": 53.6871, "longitude": 9.9911095}, "transactions": [], "price": "\u20ac\u20ac", "location": {"address1": "L\u00fctjenmoor 44", "address2": null, "address3": null, "city": "Norderstedt", "zip_code": "22850", "country": "DE", "state": "SH", "display_address": ["L\u00fctjenmoor 44", "22850 Norderstedt", "Germany"]}, "phone": "+49405217545", "display_phone": "+49 40 5217545", "distance": 1558.327838792806}, {"id": "Z1P0ImhIccUyvVugVKavTw", "alias": "burger-lounge-hamburg-5", "name": "Burger Lounge", "image_url": "https://s3-media4.fl.yelpcdn.com/bphoto/qzuHujozMJOyjN27VNm06Q/o.jpg", "is_closed": false, "url": "https://www.yelp.com/biz/burger-lounge-hamburg-5?adjust_creative=hBJOknVQJ58S5goQyjmwRw&utm_campaign=yelp_api_v3&utm_medium=api_v3_business_search&utm_source=hBJOknVQJ58S5goQyjmwRw", "review_count": 8, "categories": [{"alias": "burgers", "title": "Burgers"}], "rating": 3.5, "coordinates": {"latitude": 53.6807709, "longitude": 10.0004101}, "transactions": [], "price": "\u20ac\u20ac", "location": {"address1": "Langenhorner Chaussee 679", "address2": "", "address3": "", "city": "Hamburg", "zip_code": "22419", "country": "DE", "state": "HH", "display_address": ["Langenhorner Chaussee 679", "22419 Hamburg", "Germany"]}, "phone": "+494046630740", "display_phone": "+49 40 46630740", "distance": 2091.4883188363483}, {"id": "4Dz-MLoIclcYYRbIKiOROg", "alias": "oxpark-hamburg", "name": "Oxpark", "image_url": "https://s3-media2.fl.yelpcdn.com/bphoto/mPH9oDK8FGTbXTqTkhoWig/o.jpg", "is_closed": false, "url": "https://www.yelp.com/biz/oxpark-hamburg?adjust_creative=hBJOknVQJ58S5goQyjmwRw&utm_campaign=yelp_api_v3&utm_medium=api_v3_business_search&utm_source=hBJOknVQJ58S5goQyjmwRw", "review_count": 1, "categories": [{"alias": "cafes", "title": "Cafes"}], "rating": 5.0, "coordinates": {"latitude": 53.67034, "longitude": 10.00819}, "transactions": [], "location": {"address1": "J\u00fctlandring 12", "address2": "", "address3": null, "city": "Hamburg", "zip_code": "22419", "country": "DE", "state": "HH", "display_address": ["J\u00fctlandring 12", "22419 Hamburg", "Germany"]}, "phone": "+494063735404", "display_phone": "+49 40 63735404", "distance": 3282.7798076746044}, {"id": "-pgy27zFndFK3aOBsoAb8Q", "alias": "gastst\u00e4tte-zum-krokodil-hamburg", "name": "Gastst\u00e4tte Zum Krokodil", "image_url": "https://s3-media2.fl.yelpcdn.com/bphoto/MirjgROQKDm7edI8nzvxxA/o.jpg", "is_closed": false, "url": "https://www.yelp.com/biz/gastst%C3%A4tte-zum-krokodil-hamburg?adjust_creative=hBJOknVQJ58S5goQyjmwRw&utm_campaign=yelp_api_v3&utm_medium=api_v3_business_search&utm_source=hBJOknVQJ58S5goQyjmwRw", "review_count": 18, "categories": [{"alias": "german", "title": "German"}], "rating": 4.5, "coordinates": {"latitude": 53.66422, "longitude": 10.02386}, "transactions": [], "price": "\u20ac\u20ac", "location": {"address1": "Tangstedter Landstr. 232", "address2": null, "address3": null, "city": "Hamburg", "zip_code": "22417", "country": "DE", "state": "HH", "display_address": ["Tangstedter Landstr. 232", "22417 Hamburg", "Germany"]}, "phone": "+49405202227", "display_phone": "+49 40 5202227", "distance": 4190.258206182279}, {"id": "Mxtt954LUWYd7yIa1YnQ0Q", "alias": "kapadokya-norderstedt", "name": "Kapadokya", "image_url": "https://s3-media1.fl.yelpcdn.com/bphoto/xC-RkOq6ZM-YbJbPMFwauw/o.jpg", "is_closed": false, "url": "https://www.yelp.com/biz/kapadokya-norderstedt?adjust_creative=hBJOknVQJ58S5goQyjmwRw&utm_campaign=yelp_api_v3&utm_medium=api_v3_business_search&utm_source=hBJOknVQJ58S5goQyjmwRw", "review_count": 16, "categories": [{"alias": "kebab", "title": "Kebab"}], "rating": 3.5, "coordinates": {"latitude": 53.6817, "longitude": 9.99893}, "transactions": [], "price": "\u20ac\u20ac", "location": {"address1": "Am Tarpenufer 2 b", "address2": null, "address3": null, "city": "Norderstedt", "zip_code": "22844", "country": "DE", "state": "SH", "display_address": ["Am Tarpenufer 2 b", "22844 Norderstedt", "Germany"]}, "phone": "+494030850860", "display_phone": "+49 40 30850860", "distance": 1997.0257200945512}, {"id": "DvpKJIVQcmVY2_HH1c8VOQ", "alias": "china-restaurant-happy-palace-hamburg", "name": "China Restaurant Happy Palace", "image_url": "https://s3-media3.fl.yelpcdn.com/bphoto/anMatxs3mWtyupZa6SO6SQ/o.jpg", "is_closed": false, "url": "https://www.yelp.com/biz/china-restaurant-happy-palace-hamburg?adjust_creative=hBJOknVQJ58S5goQyjmwRw&utm_campaign=yelp_api_v3&utm_medium=api_v3_business_search&utm_source=hBJOknVQJ58S5goQyjmwRw", "review_count": 17, "categories": [{"alias": "chinese", "title": "Chinese"}], "rating": 4.0, "coordinates": {"latitude": 53.6653239, "longitude": 10.0242332}, "transactions": [], "price": "\u20ac\u20ac", "location": {"address1": "Tangstedter Landstr. 244", "address2": "", "address3": null, "city": "Hamburg", "zip_code": "22417", "country": "DE", "state": "HH", "display_address": ["Tangstedter Landstr. 244", "22417 Hamburg", "Germany"]}, "phone": "+49405208388", "display_phone": "+49 40 5208388", "distance": 4082.5195524310943}, {"id": "vviOvLVDnUx70bxMKCBQLg", "alias": "restaurant-el-greco-norderstedt-2", "name": "Restaurant El Greco", "image_url": "https://s3-media1.fl.yelpcdn.com/bphoto/DGmJTXk4jUddIrv4SxSr1w/o.jpg", "is_closed": false, "url": "https://www.yelp.com/biz/restaurant-el-greco-norderstedt-2?adjust_creative=hBJOknVQJ58S5goQyjmwRw&utm_campaign=yelp_api_v3&utm_medium=api_v3_business_search&utm_source=hBJOknVQJ58S5goQyjmwRw", "review_count": 1, "categories": [{"alias": "greek", "title": "Greek"}], "rating": 4.0, "coordinates": {"latitude": 53.6831089791004, "longitude": 10.0079860165715}, "transactions": [], "location": {"address1": "Segeberger Chaussee 51 A", "address2": "", "address3": null, "city": "Norderstedt", "zip_code": "22850", "country": "DE", "state": "SH", "display_address": ["Segeberger Chaussee 51 A", "22850 Norderstedt", "Germany"]}, "phone": "+49405296180", "display_phone": "+49 40 5296180", "distance": 1874.1090073347987}, {"id": "104AWqx7cLH-_cQtRA0WQQ", "alias": "china-restaurant-yu-norderstedt", "name": "China Restaurant Yu", "image_url": "https://s3-media3.fl.yelpcdn.com/bphoto/km957T_6xhUgV182-E7azg/o.jpg", "is_closed": false, "url": "https://www.yelp.com/biz/china-restaurant-yu-norderstedt?adjust_creative=hBJOknVQJ58S5goQyjmwRw&utm_campaign=yelp_api_v3&utm_medium=api_v3_business_search&utm_source=hBJOknVQJ58S5goQyjmwRw", "review_count": 11, "categories": [{"alias": "chinese", "title": "Chinese"}], "rating": 4.0, "coordinates": {"latitude": 53.6727, "longitude": 9.98458}, "transactions": [], "price": "\u20ac\u20ac\u20ac", "location": {"address1": "Ohechaussee 138", "address2": null, "address3": null, "city": "Norderstedt", "zip_code": "22848", "country": "DE", "state": "SH", "display_address": ["Ohechaussee 138", "22848 Norderstedt", "Germany"]}, "phone": "+49405282299", "display_phone": "+49 40 5282299", "distance": 3198.43371367635}, {"id": "hbZ9aRxGMu5yo11A_97wDg", "alias": "dinos-norderstedt", "name": "Dino's", "image_url": "https://s3-media3.fl.yelpcdn.com/bphoto/DzOfnKmB1D4TdY6RnpIrJA/o.jpg", "is_closed": false, "url": "https://www.yelp.com/biz/dinos-norderstedt?adjust_creative=hBJOknVQJ58S5goQyjmwRw&utm_campaign=yelp_api_v3&utm_medium=api_v3_business_search&utm_source=hBJOknVQJ58S5goQyjmwRw", "review_count": 19, "categories": [{"alias": "pizza", "title": "Pizza"}], "rating": 3.5, "coordinates": {"latitude": 53.7047, "longitude": 10.0077}, "transactions": [], "price": "\u20ac\u20ac", "location": {"address1": "Alter Kirchenweg 45", "address2": null, "address3": null, "city": "Norderstedt", "zip_code": "22844", "country": "DE", "state": "SH", "display_address": ["Alter Kirchenweg 45", "22844 Norderstedt", "Germany"]}, "phone": "+49405257778", "display_phone": "+49 40 5257778", "distance": 686.107684661662}, {"id": "6mg-FH14wONzsrxP_Ksnyw", "alias": "la-fontana-norderstedt-3", "name": "La Fontana", "image_url": "https://s3-media2.fl.yelpcdn.com/bphoto/Vg40cOGjwE1O_3lghBEucw/o.jpg", "is_closed": false, "url": "https://www.yelp.com/biz/la-fontana-norderstedt-3?adjust_creative=hBJOknVQJ58S5goQyjmwRw&utm_campaign=yelp_api_v3&utm_medium=api_v3_business_search&utm_source=hBJOknVQJ58S5goQyjmwRw", "review_count": 4, "categories": [{"alias": "italian", "title": "Italian"}], "rating": 4.5, "coordinates": {"latitude": 53.6733256605235, "longitude": 9.98744636649676}, "transactions": [], "price": "\u20ac\u20ac", "location": {"address1": "Rugenbarg 13", "address2": "", "address3": "", "city": "Norderstedt", "zip_code": "22848", "country": "DE", "state": "SH", "display_address": ["Rugenbarg 13", "22848 Norderstedt", "Germany"]}, "phone": "+494063864000", "display_phone": "+49 40 63864000", "distance": 3069.8719680418108}, {"id": "lVzxs6f924UpdDbyXcvCng", "alias": "taverna-kavala-norderstedt", "name": "Taverna Kavala", "image_url": "https://s3-media4.fl.yelpcdn.com/bphoto/M8IrkpECjG2YuMZ4vg6BPg/o.jpg", "is_closed": false, "url": "https://www.yelp.com/biz/taverna-kavala-norderstedt?adjust_creative=hBJOknVQJ58S5goQyjmwRw&utm_campaign=yelp_api_v3&utm_medium=api_v3_business_search&utm_source=hBJOknVQJ58S5goQyjmwRw", "review_count": 13, "categories": [{"alias": "greek", "title": "Greek"}], "rating": 4.5, "coordinates": {"latitude": 53.6922, "longitude": 9.97744}, "transactions": [], "price": "\u20ac\u20ac", "location": {"address1": "Friedrichsgaber Weg 174", "address2": null, "address3": null, "city": "Norderstedt", "zip_code": "22846", "country": "DE", "state": "SH", "display_address": ["Friedrichsgaber Weg 174", "22846 Norderstedt", "Germany"]}, "phone": "+49405232733", "display_phone": "+49 40 5232733", "distance": 1807.0043058982783}, {"id": "c2eI5cbpAuIl2yud2LvVDw", "alias": "la-veranda-norderstedt", "name": "La Veranda", "image_url": "https://s3-media2.fl.yelpcdn.com/bphoto/KtvMA-hrfM8bB46geUUNRA/o.jpg", "is_closed": false, "url": "https://www.yelp.com/biz/la-veranda-norderstedt?adjust_creative=hBJOknVQJ58S5goQyjmwRw&utm_campaign=yelp_api_v3&utm_medium=api_v3_business_search&utm_source=hBJOknVQJ58S5goQyjmwRw", "review_count": 29, "categories": [{"alias": "italian", "title": "Italian"}, {"alias": "spanish", "title": "Spanish"}], "rating": 4.0, "coordinates": {"latitude": 53.7342203059385, "longitude": 9.98909299055004}, "transactions": [], "price": "\u20ac\u20ac", "location": {"address1": "Quickborner Str. 50", "address2": null, "address3": null, "city": "Norderstedt", "zip_code": "22844", "country": "DE", "state": "SH", "display_address": ["Quickborner Str. 50", "22844 Norderstedt", "Germany"]}, "phone": "+4940646661032", "display_phone": "+49 40 646661032", "distance": 3943.6416358693214}, {"id": "j2IOdvuuxWqCJ3YxDFyn2A", "alias": "rio-grande-norderstedt", "name": "Rio Grande", "image_url": "https://s3-media2.fl.yelpcdn.com/bphoto/vRFhhV7Ei_m4PpWRL19ZuA/o.jpg", "is_closed": false, "url": "https://www.yelp.com/biz/rio-grande-norderstedt?adjust_creative=hBJOknVQJ58S5goQyjmwRw&utm_campaign=yelp_api_v3&utm_medium=api_v3_business_search&utm_source=hBJOknVQJ58S5goQyjmwRw", "review_count": 1, "categories": [{"alias": "international", "title": "International"}], "rating": 4.0, "coordinates": {"latitude": 53.73241, "longitude": 9.99645}, "transactions": [], "location": {"address1": "Ulzburger Str. 593", "address2": null, "address3": "", "city": "Norderstedt", "zip_code": "22844", "country": "DE", "state": "SH", "display_address": ["Ulzburger Str. 593", "22844 Norderstedt", "Germany"]}, "phone": "+494052208808", "display_phone": "+49 40 52208808", "distance": 3669.5180044614594}, {"id": "LNCFSTjypSK8jIoqtt8cyQ", "alias": "restaurant-marlin-im-valvo-park-hamburg", "name": "Restaurant Marlin im Valvo Park", "image_url": "https://s3-media3.fl.yelpcdn.com/bphoto/YJsDdmQwwqRgVKvG3VBFtQ/o.jpg", "is_closed": false, "url": "https://www.yelp.com/biz/restaurant-marlin-im-valvo-park-hamburg?adjust_creative=hBJOknVQJ58S5goQyjmwRw&utm_campaign=yelp_api_v3&utm_medium=api_v3_business_search&utm_source=hBJOknVQJ58S5goQyjmwRw", "review_count": 93, "categories": [{"alias": "seafood", "title": "Seafood"}], "rating": 3.5, "coordinates": {"latitude": 53.66531, "longitude": 9.99474}, "transactions": [], "price": "\u20ac\u20ac\u20ac", "location": {"address1": "Tarpen 40", "address2": "Geb\u00e4ude 11", "address3": "", "city": "Hamburg", "zip_code": "22419", "country": "DE", "state": "HH", "display_address": ["Tarpen 40", "Geb\u00e4ude 11", "22419 Hamburg", "Germany"]}, "phone": "+494030850040", "display_phone": "+49 40 30850040", "distance": 3828.4682212282305}, {"id": "9Ao1En9z_TYXgT2fUDJnWw", "alias": "la-pugliese-norderstedt", "name": "La Pugliese", "image_url": "https://s3-media3.fl.yelpcdn.com/bphoto/e4CTLKJqxkYH2n6Nd7HsLw/o.jpg", "is_closed": false, "url": "https://www.yelp.com/biz/la-pugliese-norderstedt?adjust_creative=hBJOknVQJ58S5goQyjmwRw&utm_campaign=yelp_api_v3&utm_medium=api_v3_business_search&utm_source=hBJOknVQJ58S5goQyjmwRw", "review_count": 10, "categories": [{"alias": "greek", "title": "Greek"}, {"alias": "mediterranean", "title": "Mediterranean"}], "rating": 3.5, "coordinates": {"latitude": 53.7136, "longitude": 9.9998}, "transactions": [], "price": "\u20ac\u20ac", "location": {"address1": "Ulzburger Str. 381", "address2": null, "address3": null, "city": "Norderstedt", "zip_code": "22846", "country": "DE", "state": "SH", "display_address": ["Ulzburger Str. 381", "22846 Norderstedt", "Germany"]}, "phone": "+49405225252", "display_phone": "+49 40 5225252", "distance": 1565.7923880073188}, {"id": "1zRwj9-KSLtO9aKkotan3g", "alias": "restaurant-zum-griechen-norderstedt", "name": "Restaurant Zum Griechen", "image_url": "https://s3-media3.fl.yelpcdn.com/bphoto/pslUmNq-fhVy4msOKItksA/o.jpg", "is_closed": false, "url": "https://www.yelp.com/biz/restaurant-zum-griechen-norderstedt?adjust_creative=hBJOknVQJ58S5goQyjmwRw&utm_campaign=yelp_api_v3&utm_medium=api_v3_business_search&utm_source=hBJOknVQJ58S5goQyjmwRw", "review_count": 21, "categories": [{"alias": "greek", "title": "Greek"}], "rating": 4.5, "coordinates": {"latitude": 53.6811, "longitude": 9.9784}, "transactions": [], "price": "\u20ac\u20ac", "location": {"address1": "Ochsenzoller Str. 90", "address2": null, "address3": null, "city": "Norderstedt", "zip_code": "22848", "country": "DE", "state": "SH", "display_address": ["Ochsenzoller Str. 90", "22848 Norderstedt", "Germany"]}, "phone": "+49405236823", "display_phone": "+49 40 5236823", "distance": 2571.7027192799055}, {"id": "3B_ke7yR8sEeuzDFGnNgLQ", "alias": "schlemmereck-norderstedt", "name": "Schlemmereck", "image_url": "https://s3-media3.fl.yelpcdn.com/bphoto/xWuo8t79BMqWJAt2acbAqA/o.jpg", "is_closed": false, "url": "https://www.yelp.com/biz/schlemmereck-norderstedt?adjust_creative=hBJOknVQJ58S5goQyjmwRw&utm_campaign=yelp_api_v3&utm_medium=api_v3_business_search&utm_source=hBJOknVQJ58S5goQyjmwRw", "review_count": 1, "categories": [{"alias": "pizza", "title": "Pizza"}, {"alias": "salad", "title": "Salad"}, {"alias": "desserts", "title": "Desserts"}], "rating": 5.0, "coordinates": {"latitude": 53.674711, "longitude": 9.987552}, "transactions": [], "location": {"address1": "Ohechaussee 113", "address2": null, "address3": null, "city": "Norderstedt", "zip_code": "22848", "country": "DE", "state": "SH", "display_address": ["Ohechaussee 113", "22848 Norderstedt", "Germany"]}, "phone": "", "display_phone": "", "distance": 2921.547524215686}, {"id": "0mtKbL5nKR8Vqvrlk6O20g", "alias": "pizzalotti-norderstedt", "name": "Pizzalotti", "image_url": "https://s3-media2.fl.yelpcdn.com/bphoto/MKaomz1pil-ma254NVDNvA/o.jpg", "is_closed": false, "url": "https://www.yelp.com/biz/pizzalotti-norderstedt?adjust_creative=hBJOknVQJ58S5goQyjmwRw&utm_campaign=yelp_api_v3&utm_medium=api_v3_business_search&utm_source=hBJOknVQJ58S5goQyjmwRw", "review_count": 3, "categories": [{"alias": "italian", "title": "Italian"}], "rating": 4.5, "coordinates": {"latitude": 53.685, "longitude": 9.98447}, "transactions": [], "price": "\u20ac", "location": {"address1": "Berliner Allee 38-44", "address2": null, "address3": null, "city": "Norderstedt", "zip_code": "22850", "country": "DE", "state": "SH", "display_address": ["Berliner Allee 38-44", "22850 Norderstedt", "Germany"]}, "phone": "+494032595381", "display_phone": "+49 40 32595381", "distance": 1985.6748171779423}, {"id": "9NTC9N3ccVR9q5rZTMmJ_A", "alias": "erlen-caf\u00e9-norderstedt", "name": "Erlen Caf\u00e9", "image_url": "https://s3-media1.fl.yelpcdn.com/bphoto/dtFFvfUbzjhXNdcGBH87jA/o.jpg", "is_closed": false, "url": "https://www.yelp.com/biz/erlen-caf%C3%A9-norderstedt?adjust_creative=hBJOknVQJ58S5goQyjmwRw&utm_campaign=yelp_api_v3&utm_medium=api_v3_business_search&utm_source=hBJOknVQJ58S5goQyjmwRw", "review_count": 1, "categories": [{"alias": "cafes", "title": "Cafes"}, {"alias": "cakeshop", "title": "Patisserie/Cake Shop"}, {"alias": "bakeries", "title": "Bakeries"}], "rating": 5.0, "coordinates": {"latitude": 53.727424, "longitude": 9.996438}, "transactions": [], "location": {"address1": "Erlengang 5 - 7", "address2": "", "address3": null, "city": "Norderstedt", "zip_code": "22846", "country": "DE", "state": "SH", "display_address": ["Erlengang 5 - 7", "22846 Norderstedt", "Germany"]}, "phone": "+494032593141", "display_phone": "+49 40 32593141", "distance": 3117.6258429175828}, {"id": "IgMynYpIjB9Oso2DXpdWFA", "alias": "jade-running-sushi-norderstedt-2", "name": "Jade Running Sushi", "image_url": "https://s3-media2.fl.yelpcdn.com/bphoto/PhyJdYunvhBcxw9UnsC64Q/o.jpg", "is_closed": false, "url": "https://www.yelp.com/biz/jade-running-sushi-norderstedt-2?adjust_creative=hBJOknVQJ58S5goQyjmwRw&utm_campaign=yelp_api_v3&utm_medium=api_v3_business_search&utm_source=hBJOknVQJ58S5goQyjmwRw", "review_count": 5, "categories": [{"alias": "conveyorsushi", "title": "Conveyor Belt Sushi"}], "rating": 4.5, "coordinates": {"latitude": 53.6814199297732, "longitude": 9.99390006065369}, "transactions": [], "location": {"address1": "Ochsenzoller Str. 194", "address2": "", "address3": null, "city": "Norderstedt", "zip_code": "22848", "country": "DE", "state": "SH", "display_address": ["Ochsenzoller Str. 194", "22848 Norderstedt", "Germany"]}, "phone": "+494042947888", "display_phone": "+49 40 42947888", "distance": 2086.160202722996}, {"id": "bLjDqJz18PYLX4yawE5Ljg", "alias": "oxen-caf\u00e9-norderstedt", "name": "OXEN Caf\u00e9", "image_url": "https://s3-media3.fl.yelpcdn.com/bphoto/KbcJjMRvIMkLUA960dei-A/o.jpg", "is_closed": false, "url": "https://www.yelp.com/biz/oxen-caf%C3%A9-norderstedt?adjust_creative=hBJOknVQJ58S5goQyjmwRw&utm_campaign=yelp_api_v3&utm_medium=api_v3_business_search&utm_source=hBJOknVQJ58S5goQyjmwRw", "review_count": 4, "categories": [{"alias": "bakeries", "title": "Bakeries"}, {"alias": "cakeshop", "title": "Patisserie/Cake Shop"}, {"alias": "breakfast_brunch", "title": "Breakfast & Brunch"}], "rating": 3.0, "coordinates": {"latitude": 53.6818804849911, "longitude": 9.97990919343369}, "transactions": [], "price": "\u20ac\u20ac", "location": {"address1": "Ochsenzoller Str. 103", "address2": "", "address3": "", "city": "Norderstedt", "zip_code": "22848", "country": "DE", "state": "SH", "display_address": ["Ochsenzoller Str. 103", "22848 Norderstedt", "Germany"]}, "phone": "+494035730170", "display_phone": "+49 40 35730170", "distance": 2442.737553163028}, {"id": "PrOF_1GTNLEcSSRdzZsvtw", "alias": "mr-phung-hannover", "name": "Mr.Phung", "image_url": "https://s3-media1.fl.yelpcdn.com/bphoto/hco-_25OWM1wBUov3l81rw/o.jpg", "is_closed": false, "url": "https://www.yelp.com/biz/mr-phung-hannover?adjust_creative=hBJOknVQJ58S5goQyjmwRw&utm_campaign=yelp_api_v3&utm_medium=api_v3_business_search&utm_source=hBJOknVQJ58S5goQyjmwRw", "review_count": 1, "categories": [{"alias": "chinese", "title": "Chinese"}], "rating": 2.0, "coordinates": {"latitude": 53.6861160334082, "longitude": 9.98661171386919}, "transactions": [], "price": "\u20ac\u20ac", "location": {"address1": "Varrelheide 190", "address2": "", "address3": "", "city": "Hannover", "zip_code": "30657", "country": "DE", "state": "SH", "display_address": ["Varrelheide 190", "30657 Hannover", "Germany"]}, "phone": "+495113530562", "display_phone": "+49 511 3530562", "distance": 1803.4197590025205}, {"id": "1CkMFgQU7GcCyiOu_XDBLg", "alias": "bistro-und-restaurant-einstein-norderstedt", "name": "Bistro & Restaurant Einstein", "image_url": "https://s3-media2.fl.yelpcdn.com/bphoto/oWef-eIhwoZi3iUVnREyTw/o.jpg", "is_closed": false, "url": "https://www.yelp.com/biz/bistro-und-restaurant-einstein-norderstedt?adjust_creative=hBJOknVQJ58S5goQyjmwRw&utm_campaign=yelp_api_v3&utm_medium=api_v3_business_search&utm_source=hBJOknVQJ58S5goQyjmwRw", "review_count": 61, "categories": [{"alias": "cocktailbars", "title": "Cocktail Bars"}, {"alias": "steak", "title": "Steakhouses"}], "rating": 3.0, "coordinates": {"latitude": 53.6828066, "longitude": 9.998444}, "transactions": [], "price": "\u20ac\u20ac", "location": {"address1": "Ulzburger Str. 2", "address2": null, "address3": null, "city": "Norderstedt", "zip_code": "22850", "country": "DE", "state": "SH", "display_address": ["Ulzburger Str. 2", "22850 Norderstedt", "Germany"]}, "phone": "+494052950295", "display_phone": "+49 40 52950295", "distance": 1878.2142975822856}, {"id": "Ne3MCclvIdbowaasFxEXsw", "alias": "adria-restaurant-norderstedt", "name": "Adria Restaurant", "image_url": "", "is_closed": false, "url": "https://www.yelp.com/biz/adria-restaurant-norderstedt?adjust_creative=hBJOknVQJ58S5goQyjmwRw&utm_campaign=yelp_api_v3&utm_medium=api_v3_business_search&utm_source=hBJOknVQJ58S5goQyjmwRw", "review_count": 1, "categories": [{"alias": "mediterranean", "title": "Mediterranean"}], "rating": 4.0, "coordinates": {"latitude": 53.6813, "longitude": 9.98836}, "transactions": [], "location": {"address1": "Ochsenzoller Str. 162", "address2": null, "address3": null, "city": "Norderstedt", "zip_code": "22848", "country": "DE", "state": "SH", "display_address": ["Ochsenzoller Str. 162", "22848 Norderstedt", "Germany"]}, "phone": "+494032597046", "display_phone": "+49 40 32597046", "distance": 2218.875869778455}, {"id": "TKz2hECyw1FjvTU3bVGgkw", "alias": "wattkorn-hamburg", "name": "Wattkorn", "image_url": "https://s3-media4.fl.yelpcdn.com/bphoto/ImqOG545zAFvz5Lgi5ADqA/o.jpg", "is_closed": false, "url": "https://www.yelp.com/biz/wattkorn-hamburg?adjust_creative=hBJOknVQJ58S5goQyjmwRw&utm_campaign=yelp_api_v3&utm_medium=api_v3_business_search&utm_source=hBJOknVQJ58S5goQyjmwRw", "review_count": 154, "categories": [{"alias": "german", "title": "German"}, {"alias": "sushi", "title": "Sushi Bars"}], "rating": 3.5, "coordinates": {"latitude": 53.66379, "longitude": 10.0236699}, "transactions": [], "price": "\u20ac\u20ac\u20ac", "location": {"address1": "Tangstedter Landstr. 230", "address2": null, "address3": null, "city": "Hamburg", "zip_code": "22417", "country": "DE", "state": "HH", "display_address": ["Tangstedter Landstr. 230", "22417 Hamburg", "Germany"]}, "phone": "+49405203797", "display_phone": "+49 40 5203797", "distance": 4230.900827651556}, {"id": "iMZ0Z6KDQA2wBVjMI8ncag", "alias": "die-stube-norderstedt", "name": "Die Stube", "image_url": "", "is_closed": false, "url": "https://www.yelp.com/biz/die-stube-norderstedt?adjust_creative=hBJOknVQJ58S5goQyjmwRw&utm_campaign=yelp_api_v3&utm_medium=api_v3_business_search&utm_source=hBJOknVQJ58S5goQyjmwRw", "review_count": 1, "categories": [{"alias": "international", "title": "International"}], "rating": 5.0, "coordinates": {"latitude": 53.6831, "longitude": 10.0066}, "transactions": [], "location": {"address1": "Wilhelm-Busch-Platz 45", "address2": null, "address3": null, "city": "Norderstedt", "zip_code": "22850", "country": "DE", "state": "SH", "display_address": ["Wilhelm-Busch-Platz 45", "22850 Norderstedt", "Germany"]}, "phone": "+494052990019", "display_phone": "+49 40 52990019", "distance": 1857.7205041646403}, {"id": "Xl5ZxPTlyWt7Hisr7NyXiQ", "alias": "taverna-syrtaki-norderstedt", "name": "Taverna Syrtaki", "image_url": "https://s3-media3.fl.yelpcdn.com/bphoto/p_PnaE1LlBWaZsHEBLFTMw/o.jpg", "is_closed": false, "url": "https://www.yelp.com/biz/taverna-syrtaki-norderstedt?adjust_creative=hBJOknVQJ58S5goQyjmwRw&utm_campaign=yelp_api_v3&utm_medium=api_v3_business_search&utm_source=hBJOknVQJ58S5goQyjmwRw", "review_count": 30, "categories": [{"alias": "greek", "title": "Greek"}], "rating": 4.0, "coordinates": {"latitude": 53.7126, "longitude": 9.99246}, "transactions": [], "price": "\u20ac\u20ac", "location": {"address1": "Waldstr. 40", "address2": null, "address3": null, "city": "Norderstedt", "zip_code": "22846", "country": "DE", "state": "SH", "display_address": ["Waldstr. 40", "22846 Norderstedt", "Germany"]}, "phone": "+494032595388", "display_phone": "+49 40 32595388", "distance": 1576.1127298241397}, {"id": "TIrE7SHuQoEQ5FcXJWil-g", "alias": "haus-am-see-norderstedt", "name": "Haus am See", "image_url": "https://s3-media3.fl.yelpcdn.com/bphoto/Z1x8WXQ5t3J0moc7UWzt1Q/o.jpg", "is_closed": false, "url": "https://www.yelp.com/biz/haus-am-see-norderstedt?adjust_creative=hBJOknVQJ58S5goQyjmwRw&utm_campaign=yelp_api_v3&utm_medium=api_v3_business_search&utm_source=hBJOknVQJ58S5goQyjmwRw", "review_count": 14, "categories": [{"alias": "german", "title": "German"}], "rating": 3.0, "coordinates": {"latitude": 53.7127950129965, "longitude": 10.0200945387716}, "transactions": [], "price": "\u20ac\u20ac\u20ac", "location": {"address1": "Stormarnstra\u00dfe - Sch\u00f6ne Aussicht 4", "address2": "", "address3": "", "city": "Norderstedt", "zip_code": "22844", "country": "DE", "state": "SH", "display_address": ["Stormarnstra\u00dfe - Sch\u00f6ne Aussicht 4", "22844 Norderstedt", "Germany"]}, "phone": "+494032040120", "display_phone": "+49 40 32040120", "distance": 1896.2096212803428}, {"id": "B2l2Bm6VRRUUN6AbE-dL7A", "alias": "k\u00f6z-bing\u00f6l-hamburg", "name": "K\u00f6z Bing\u00f6l", "image_url": "https://s3-media4.fl.yelpcdn.com/bphoto/zgsaPjxfpqNvc4LhmbL46g/o.jpg", "is_closed": false, "url": "https://www.yelp.com/biz/k%C3%B6z-bing%C3%B6l-hamburg?adjust_creative=hBJOknVQJ58S5goQyjmwRw&utm_campaign=yelp_api_v3&utm_medium=api_v3_business_search&utm_source=hBJOknVQJ58S5goQyjmwRw", "review_count": 6, "categories": [{"alias": "kebab", "title": "Kebab"}, {"alias": "turkish", "title": "Turkish"}, {"alias": "bakeries", "title": "Bakeries"}], "rating": 3.5, "coordinates": {"latitude": 53.67825, "longitude": 10.00044}, "transactions": [], "price": "\u20ac\u20ac", "location": {"address1": "Langenhorner Chaussee 655", "address2": "", "address3": "", "city": "Hamburg", "zip_code": "22419", "country": "DE", "state": "HH", "display_address": ["Langenhorner Chaussee 655", "22419 Hamburg", "Germany"]}, "phone": "+494053035550", "display_phone": "+49 40 53035550", "distance": 2371.87561909652}, {"id": "xfPZdTpGCn2uqcwjhmypoQ", "alias": "asia-imbiss-star-norderstedt", "name": "Asia Imbiss Star", "image_url": "", "is_closed": false, "url": "https://www.yelp.com/biz/asia-imbiss-star-norderstedt?adjust_creative=hBJOknVQJ58S5goQyjmwRw&utm_campaign=yelp_api_v3&utm_medium=api_v3_business_search&utm_source=hBJOknVQJ58S5goQyjmwRw", "review_count": 1, "categories": [{"alias": "panasian", "title": "Pan Asian"}, {"alias": "hotdogs", "title": "Fast Food"}], "rating": 5.0, "coordinates": {"latitude": 53.68211, "longitude": 9.99828}, "transactions": [], "location": {"address1": "Ohechaussee 1 a", "address2": "", "address3": null, "city": "Norderstedt", "zip_code": "22848", "country": "DE", "state": "SH", "display_address": ["Ohechaussee 1 a", "22848 Norderstedt", "Germany"]}, "phone": "+49405294429", "display_phone": "+49 40 5294429", "distance": 1936.4979697109545}, {"id": "8CvWWy3QmAMjC0pVfixfhg", "alias": "schweinske-norderstedt-2", "name": "Schweinske", "image_url": "https://s3-media3.fl.yelpcdn.com/bphoto/1ABuV4KauVBwSl_958kRSA/o.jpg", "is_closed": false, "url": "https://www.yelp.com/biz/schweinske-norderstedt-2?adjust_creative=hBJOknVQJ58S5goQyjmwRw&utm_campaign=yelp_api_v3&utm_medium=api_v3_business_search&utm_source=hBJOknVQJ58S5goQyjmwRw", "review_count": 47, "categories": [{"alias": "german", "title": "German"}, {"alias": "breakfast_brunch", "title": "Breakfast & Brunch"}], "rating": 3.5, "coordinates": {"latitude": 53.7166, "longitude": 10.0}, "transactions": [], "price": "\u20ac", "location": {"address1": "Ulzburger Str. 334", "address2": null, "address3": null, "city": "Norderstedt", "zip_code": "22846", "country": "DE", "state": "SH", "display_address": ["Ulzburger Str. 334", "22846 Norderstedt", "Germany"]}, "phone": "+49405266664", "display_phone": "+49 40 5266664", "distance": 1897.3903877697442}, {"id": "fws9cf8ZVt2jLnPR5Aswqg", "alias": "siesta-im-arriba-norderstedt", "name": "Siesta im Arriba", "image_url": "https://s3-media1.fl.yelpcdn.com/bphoto/O6FUKfwU5Coiw7Mp0-_q0Q/o.jpg", "is_closed": false, "url": "https://www.yelp.com/biz/siesta-im-arriba-norderstedt?adjust_creative=hBJOknVQJ58S5goQyjmwRw&utm_campaign=yelp_api_v3&utm_medium=api_v3_business_search&utm_source=hBJOknVQJ58S5goQyjmwRw", "review_count": 6, "categories": [{"alias": "cafes", "title": "Cafes"}], "rating": 4.0, "coordinates": {"latitude": 53.6893068086042, "longitude": 10.0001097097993}, "transactions": [], "price": "\u20ac\u20ac", "location": {"address1": "Am Hallenbad 14", "address2": null, "address3": null, "city": "Norderstedt", "zip_code": "22850", "country": "DE", "state": "SH", "display_address": ["Am Hallenbad 14", "22850 Norderstedt", "Germany"]}, "phone": "+49405254923", "display_phone": "+49 40 5254923", "distance": 1147.6589920450065}, {"id": "MbpDbLH9K-0V1VqDowgDRg", "alias": "fisch-und-kebaphaus-norderstedt", "name": "Fisch Und Kebaphaus", "image_url": "https://s3-media3.fl.yelpcdn.com/bphoto/PBGpJdu7e7uRJuopDuY7Nw/o.jpg", "is_closed": false, "url": "https://www.yelp.com/biz/fisch-und-kebaphaus-norderstedt?adjust_creative=hBJOknVQJ58S5goQyjmwRw&utm_campaign=yelp_api_v3&utm_medium=api_v3_business_search&utm_source=hBJOknVQJ58S5goQyjmwRw", "review_count": 1, "categories": [{"alias": "seafood", "title": "Seafood"}, {"alias": "kebab", "title": "Kebab"}], "rating": 3.0, "coordinates": {"latitude": 53.7064123237291, "longitude": 9.99639371914331}, "transactions": [], "price": "\u20ac", "location": {"address1": "Rathausallee 5b", "address2": "", "address3": "", "city": "Norderstedt", "zip_code": "22846", "country": "DE", "state": "SH", "display_address": ["Rathausallee 5b", "22846 Norderstedt", "Germany"]}, "phone": "", "display_phone": "", "distance": 842.3940159535522}, {"id": "EuYPNta_qtin6fQAzvzUcA", "alias": "corfu-grill-norderstedt", "name": "Corfu Grill", "image_url": "https://s3-media2.fl.yelpcdn.com/bphoto/sjfBYxqKKV2N39qULNWfoQ/o.jpg", "is_closed": false, "url": "https://www.yelp.com/biz/corfu-grill-norderstedt?adjust_creative=hBJOknVQJ58S5goQyjmwRw&utm_campaign=yelp_api_v3&utm_medium=api_v3_business_search&utm_source=hBJOknVQJ58S5goQyjmwRw", "review_count": 18, "categories": [{"alias": "greek", "title": "Greek"}], "rating": 4.0, "coordinates": {"latitude": 53.6816, "longitude": 9.98539}, "transactions": [], "price": "\u20ac", "location": {"address1": "Ochsenzoller Str. 136", "address2": null, "address3": null, "city": "Norderstedt", "zip_code": "22848", "country": "DE", "state": "SH", "display_address": ["Ochsenzoller Str. 136", "22848 Norderstedt", "Germany"]}, "phone": "+494030985690", "display_phone": "+49 40 30985690", "distance": 2275.0530471993757}, {"id": "OP6hV6ATf6oORJzEO7EGjQ", "alias": "pizzeria-konfetti-echte-steinofen-pizza-hamburg", "name": "Pizzeria Konfetti - Echte Steinofen Pizza", "image_url": "", "is_closed": false, "url": "https://www.yelp.com/biz/pizzeria-konfetti-echte-steinofen-pizza-hamburg?adjust_creative=hBJOknVQJ58S5goQyjmwRw&utm_campaign=yelp_api_v3&utm_medium=api_v3_business_search&utm_source=hBJOknVQJ58S5goQyjmwRw", "review_count": 4, "categories": [{"alias": "italian", "title": "Italian"}, {"alias": "food", "title": "Food"}], "rating": 5.0, "coordinates": {"latitude": 53.6719, "longitude": 9.99959}, "transactions": [], "price": "\u20ac\u20ac", "location": {"address1": "K\u00e4kenflur 14b", "address2": null, "address3": null, "city": "Hamburg", "zip_code": "22419", "country": "DE", "state": "HH", "display_address": ["K\u00e4kenflur 14b", "22419 Hamburg", "Germany"]}, "phone": "+494069666030", "display_phone": "+49 40 69666030", "distance": 3080.8962918804846}, {"id": "rtG_TnUsdbX_O6awX_haBA", "alias": "moorbek-d\u00f6ner-norderstedt", "name": "Moorbek D\u00f6ner", "image_url": "", "is_closed": false, "url": "https://www.yelp.com/biz/moorbek-d%C3%B6ner-norderstedt?adjust_creative=hBJOknVQJ58S5goQyjmwRw&utm_campaign=yelp_api_v3&utm_medium=api_v3_business_search&utm_source=hBJOknVQJ58S5goQyjmwRw", "review_count": 3, "categories": [{"alias": "kebab", "title": "Kebab"}, {"alias": "turkish", "title": "Turkish"}], "rating": 4.0, "coordinates": {"latitude": 53.7067, "longitude": 9.98861}, "transactions": [], "price": "\u20ac", "location": {"address1": "Buckh\u00f6rner Moor 110", "address2": null, "address3": null, "city": "Norderstedt", "zip_code": "22846", "country": "DE", "state": "SH", "display_address": ["Buckh\u00f6rner Moor 110", "22846 Norderstedt", "Germany"]}, "phone": "+494052682469", "display_phone": "+49 40 52682469", "distance": 1180.3277971719494}, {"id": "PxSKTJtI9PkeEcACawSJZA", "alias": "croquerie-norderstedt-norderstedt", "name": "Croquerie Norderstedt", "image_url": "https://s3-media4.fl.yelpcdn.com/bphoto/Cbg0R8aM5TKnpJXA0-Fltg/o.jpg", "is_closed": false, "url": "https://www.yelp.com/biz/croquerie-norderstedt-norderstedt?adjust_creative=hBJOknVQJ58S5goQyjmwRw&utm_campaign=yelp_api_v3&utm_medium=api_v3_business_search&utm_source=hBJOknVQJ58S5goQyjmwRw", "review_count": 15, "categories": [{"alias": "sandwiches", "title": "Sandwiches"}], "rating": 3.5, "coordinates": {"latitude": 53.6824, "longitude": 9.99731}, "transactions": [], "price": "\u20ac\u20ac", "location": {"address1": "Ohechaussee 8", "address2": null, "address3": null, "city": "Norderstedt", "zip_code": "22848", "country": "DE", "state": "SH", "display_address": ["Ohechaussee 8", "22848 Norderstedt", "Germany"]}, "phone": "+4940296565", "display_phone": "+49 40 296565", "distance": 1933.356820558716}, {"id": "xZP6cPbOVMd21T6Yi6D9NQ", "alias": "bei-angelo-norderstedt", "name": "Bei Angelo", "image_url": "", "is_closed": false, "url": "https://www.yelp.com/biz/bei-angelo-norderstedt?adjust_creative=hBJOknVQJ58S5goQyjmwRw&utm_campaign=yelp_api_v3&utm_medium=api_v3_business_search&utm_source=hBJOknVQJ58S5goQyjmwRw", "review_count": 6, "categories": [{"alias": "greek", "title": "Greek"}], "rating": 2.5, "coordinates": {"latitude": 53.6828, "longitude": 10.0082}, "transactions": [], "price": "\u20ac\u20ac", "location": {"address1": "Segeberger Chaussee 51a", "address2": null, "address3": null, "city": "Norderstedt", "zip_code": "22850", "country": "DE", "state": "SH", "display_address": ["Segeberger Chaussee 51a", "22850 Norderstedt", "Germany"]}, "phone": "+49405296180", "display_phone": "+49 40 5296180", "distance": 1910.6950627602826}, {"id": "s9yImhOOv34TUCP5z37rPA", "alias": "pizza-max-norderstedt-norderstedt", "name": "Pizza Max Norderstedt", "image_url": "", "is_closed": false, "url": "https://www.yelp.com/biz/pizza-max-norderstedt-norderstedt?adjust_creative=hBJOknVQJ58S5goQyjmwRw&utm_campaign=yelp_api_v3&utm_medium=api_v3_business_search&utm_source=hBJOknVQJ58S5goQyjmwRw", "review_count": 6, "categories": [{"alias": "pizza", "title": "Pizza"}, {"alias": "burgers", "title": "Burgers"}], "rating": 4.5, "coordinates": {"latitude": 53.6937, "longitude": 9.99484}, "transactions": [], "price": "\u20ac\u20ac\u20ac", "location": {"address1": "Ulzburger Str.112", "address2": null, "address3": null, "city": "Norderstedt", "zip_code": "22850", "country": "DE", "state": "SH", "display_address": ["Ulzburger Str.112", "22850 Norderstedt", "Germany"]}, "phone": "+494053309933", "display_phone": "+49 40 53309933", "distance": 801.5784470143649}, {"id": "e9FGCmx2rkuR-aVsAgPy2Q", "alias": "zwischenmahlzeit-norderstedt-norderstedt", "name": "Zwischenmahlzeit Norderstedt", "image_url": "", "is_closed": false, "url": "https://www.yelp.com/biz/zwischenmahlzeit-norderstedt-norderstedt?adjust_creative=hBJOknVQJ58S5goQyjmwRw&utm_campaign=yelp_api_v3&utm_medium=api_v3_business_search&utm_source=hBJOknVQJ58S5goQyjmwRw", "review_count": 1, "categories": [{"alias": "hotdogs", "title": "Fast Food"}], "rating": 4.0, "coordinates": {"latitude": 53.73226, "longitude": 10.023}, "transactions": [], "location": {"address1": "Oststr. 78a", "address2": null, "address3": null, "city": "Norderstedt", "zip_code": "22844", "country": "DE", "state": "SH", "display_address": ["Oststr. 78a", "22844 Norderstedt", "Germany"]}, "phone": "+494052679351", "display_phone": "+49 40 52679351", "distance": 3890.768274922623}, {"id": "7TP8cFXACuD64xxYwCKxkw", "alias": "restaurant-binnen-un-buten-norderstedt", "name": "Restaurant Binnen un Buten", "image_url": "https://s3-media2.fl.yelpcdn.com/bphoto/tX1-561pZWyapJIAnmKHFw/o.jpg", "is_closed": false, "url": "https://www.yelp.com/biz/restaurant-binnen-un-buten-norderstedt?adjust_creative=hBJOknVQJ58S5goQyjmwRw&utm_campaign=yelp_api_v3&utm_medium=api_v3_business_search&utm_source=hBJOknVQJ58S5goQyjmwRw", "review_count": 26, "categories": [{"alias": "german", "title": "German"}, {"alias": "beergarden", "title": "Beer Garden"}], "rating": 4.0, "coordinates": {"latitude": 53.7323, "longitude": 9.99708}, "transactions": [], "price": "\u20ac\u20ac\u20ac", "location": {"address1": "Ulzburger Str. 476a", "address2": null, "address3": null, "city": "Norderstedt", "zip_code": "22844", "country": "DE", "state": "SH", "display_address": ["Ulzburger Str. 476a", "22844 Norderstedt", "Germany"]}, "phone": "+49405223134", "display_phone": "+49 40 5223134", "distance": 3652.818963300377}, {"id": "kZsG-XSBM_rwAQapvUwAPg", "alias": "dominos-norderstedt", "name": "Domino's", "image_url": "", "is_closed": false, "url": "https://www.yelp.com/biz/dominos-norderstedt?adjust_creative=hBJOknVQJ58S5goQyjmwRw&utm_campaign=yelp_api_v3&utm_medium=api_v3_business_search&utm_source=hBJOknVQJ58S5goQyjmwRw", "review_count": 1, "categories": [{"alias": "pizza", "title": "Pizza"}], "rating": 4.0, "coordinates": {"latitude": 53.7056, "longitude": 9.9961}, "transactions": [], "price": "\u20ac", "location": {"address1": "Ulzburger Str. 283", "address2": "", "address3": null, "city": "Norderstedt", "zip_code": "22850", "country": "DE", "state": "SH", "display_address": ["Ulzburger Str. 283", "22850 Norderstedt", "Germany"]}, "phone": "+49405218385", "display_phone": "+49 40 5218385", "distance": 781.1147932326069}, {"id": "APvIA_7ssxgC0atmQEFMcg", "alias": "burgerkultour-food-truck-hamburg-2", "name": "BurgerKultour Food Truck", "image_url": "https://s3-media4.fl.yelpcdn.com/bphoto/KoAuwalMnlAO8139MmdYBQ/o.jpg", "is_closed": false, "url": "https://www.yelp.com/biz/burgerkultour-food-truck-hamburg-2?adjust_creative=hBJOknVQJ58S5goQyjmwRw&utm_campaign=yelp_api_v3&utm_medium=api_v3_business_search&utm_source=hBJOknVQJ58S5goQyjmwRw", "review_count": 3, "categories": [{"alias": "foodtrucks", "title": "Food Trucks"}, {"alias": "burgers", "title": "Burgers"}], "rating": 4.5, "coordinates": {"latitude": 53.57154, "longitude": 9.95575}, "transactions": [], "price": "\u20ac\u20ac", "location": {"address1": "", "address2": "", "address3": "", "city": "Hamburg", "zip_code": "20259", "country": "DE", "state": "HH", "display_address": ["20259 Hamburg", "Germany"]}, "phone": "+4917626055122", "display_phone": "+49 176 26055122", "distance": 14612.717960736538}, {"id": "zr3RpusXARvJwS4zg1LOBw", "alias": "bugsy-burger-norderstedt", "name": "Bugsy Burger", "image_url": "https://s3-media1.fl.yelpcdn.com/bphoto/zp9rkLf5hKImsvdpLikT7Q/o.jpg", "is_closed": false, "url": "https://www.yelp.com/biz/bugsy-burger-norderstedt?adjust_creative=hBJOknVQJ58S5goQyjmwRw&utm_campaign=yelp_api_v3&utm_medium=api_v3_business_search&utm_source=hBJOknVQJ58S5goQyjmwRw", "review_count": 1, "categories": [{"alias": "burgers", "title": "Burgers"}], "rating": 2.0, "coordinates": {"latitude": 53.719299, "longitude": 9.998963}, "transactions": [], "location": {"address1": "Ulzburger Str. 358", "address2": "", "address3": null, "city": "Norderstedt", "zip_code": "22846", "country": "DE", "state": "SH", "display_address": ["Ulzburger Str. 358", "22846 Norderstedt", "Germany"]}, "phone": "+494035700654", "display_phone": "+49 40 35700654", "distance": 2193.6928642291723}, {"id": "m60k2GmBL82gdprjFcWCUw", "alias": "athena-norderstedt", "name": "Athena", "image_url": "https://s3-media3.fl.yelpcdn.com/bphoto/OB9SjELdviasvjuCA2-D1g/o.jpg", "is_closed": false, "url": "https://www.yelp.com/biz/athena-norderstedt?adjust_creative=hBJOknVQJ58S5goQyjmwRw&utm_campaign=yelp_api_v3&utm_medium=api_v3_business_search&utm_source=hBJOknVQJ58S5goQyjmwRw", "review_count": 7, "categories": [{"alias": "greek", "title": "Greek"}, {"alias": "mediterranean", "title": "Mediterranean"}], "rating": 3.5, "coordinates": {"latitude": 53.7297302494986, "longitude": 9.99673000093833}, "transactions": [], "price": "\u20ac\u20ac", "location": {"address1": "Ulzburger Str. 567", "address2": null, "address3": null, "city": "Norderstedt", "zip_code": "22844", "country": "DE", "state": "SH", "display_address": ["Ulzburger Str. 567", "22844 Norderstedt", "Germany"]}, "phone": "+49405224716", "display_phone": "+49 40 5224716", "distance": 3370.4939803045336}, {"id": "bXQc8XhzbbOWQIhkY_unEA", "alias": "villari-hamburg", "name": "Villari", "image_url": "https://s3-media1.fl.yelpcdn.com/bphoto/eWjaF2t4VbGCyHUbYB_xRA/o.jpg", "is_closed": false, "url": "https://www.yelp.com/biz/villari-hamburg?adjust_creative=hBJOknVQJ58S5goQyjmwRw&utm_campaign=yelp_api_v3&utm_medium=api_v3_business_search&utm_source=hBJOknVQJ58S5goQyjmwRw", "review_count": 2, "categories": [{"alias": "italian", "title": "Italian"}, {"alias": "wine_bars", "title": "Wine Bars"}], "rating": 3.5, "coordinates": {"latitude": 53.6721380840628, "longitude": 10.0057959929109}, "transactions": [], "price": "\u20ac\u20ac\u20ac", "location": {"address1": "Henny-Sch\u00fctz-Allee 7", "address2": "", "address3": null, "city": "Hamburg", "zip_code": "22419", "country": "DE", "state": "HH", "display_address": ["Henny-Sch\u00fctz-Allee 7", "22419 Hamburg", "Germany"]}, "phone": "+494052572552", "display_phone": "+49 40 52572552", "distance": 3061.4383827955753}, {"id": "nktdmga8RxQPOF8qw4Qr4A", "alias": "chutney-norderstedt", "name": "Chutney", "image_url": "https://s3-media3.fl.yelpcdn.com/bphoto/NCLA7nkQcCL_X6YbyI6fsw/o.jpg", "is_closed": false, "url": "https://www.yelp.com/biz/chutney-norderstedt?adjust_creative=hBJOknVQJ58S5goQyjmwRw&utm_campaign=yelp_api_v3&utm_medium=api_v3_business_search&utm_source=hBJOknVQJ58S5goQyjmwRw", "review_count": 1, "categories": [{"alias": "indpak", "title": "Indian"}, {"alias": "hotdogs", "title": "Fast Food"}], "rating": 4.0, "coordinates": {"latitude": 53.6857720631729, "longitude": 9.9864303298306}, "transactions": [], "location": {"address1": "Berliner Allee 38", "address2": "", "address3": "", "city": "Norderstedt", "zip_code": "22850", "country": "DE", "state": "SH", "display_address": ["Berliner Allee 38", "22850 Norderstedt", "Germany"]}, "phone": "", "display_phone": "", "distance": 1841.8590803706213}, {"id": "MtacZLfI-uykRIWVaqQKhg", "alias": "mr-gyros-norderstedt", "name": "Mr. Gyros", "image_url": "https://s3-media2.fl.yelpcdn.com/bphoto/j3eCBB2Hwy4h1VLqu_Q-bA/o.jpg", "is_closed": false, "url": "https://www.yelp.com/biz/mr-gyros-norderstedt?adjust_creative=hBJOknVQJ58S5goQyjmwRw&utm_campaign=yelp_api_v3&utm_medium=api_v3_business_search&utm_source=hBJOknVQJ58S5goQyjmwRw", "review_count": 7, "categories": [{"alias": "hotdogs", "title": "Fast Food"}], "rating": 3.0, "coordinates": {"latitude": 53.732, "longitude": 9.99699}, "transactions": [], "price": "\u20ac\u20ac", "location": {"address1": "Ulzburger Str.  472", "address2": null, "address3": null, "city": "Norderstedt", "zip_code": "22844", "country": "DE", "state": "SH", "display_address": ["Ulzburger Str.  472", "22844 Norderstedt", "Germany"]}, "phone": "+494035739007", "display_phone": "+49 40 35739007", "distance": 3620.111457766497}, {"id": "bIR5jkv_h7BlwKKVlaqlOw", "alias": "asia-imbiss-norderstedt", "name": "Asia-Imbiss", "image_url": "", "is_closed": false, "url": "https://www.yelp.com/biz/asia-imbiss-norderstedt?adjust_creative=hBJOknVQJ58S5goQyjmwRw&utm_campaign=yelp_api_v3&utm_medium=api_v3_business_search&utm_source=hBJOknVQJ58S5goQyjmwRw", "review_count": 3, "categories": [{"alias": "food", "title": "Food"}, {"alias": "hotdogs", "title": "Fast Food"}], "rating": 5.0, "coordinates": {"latitude": 53.7244, "longitude": 9.99791}, "transactions": [], "price": "\u20ac", "location": {"address1": "Ulzburger Str. 406A", "address2": null, "address3": null, "city": "Norderstedt", "zip_code": "22844", "country": "DE", "state": "SH", "display_address": ["Ulzburger Str. 406A", "22844 Norderstedt", "Germany"]}, "phone": "+49405224530", "display_phone": "+49 40 5224530", "distance": 2773.043606193781}, {"id": "FpDoZjguYTwJ0-iS6aOlMA", "alias": "moorbek-cafe-norderstedt", "name": "Moorbek Cafe", "image_url": "https://s3-media1.fl.yelpcdn.com/bphoto/vbc5fzqYagm5FVungxPtYA/o.jpg", "is_closed": false, "url": "https://www.yelp.com/biz/moorbek-cafe-norderstedt?adjust_creative=hBJOknVQJ58S5goQyjmwRw&utm_campaign=yelp_api_v3&utm_medium=api_v3_business_search&utm_source=hBJOknVQJ58S5goQyjmwRw", "review_count": 4, "categories": [{"alias": "cafes", "title": "Cafes"}, {"alias": "cocktailbars", "title": "Cocktail Bars"}], "rating": 3.5, "coordinates": {"latitude": 53.707187, "longitude": 9.988963}, "transactions": [], "price": "\u20ac", "location": {"address1": "Rathausallee 35 - 39", "address2": null, "address3": null, "city": "Norderstedt", "zip_code": "22846", "country": "DE", "state": "SH", "display_address": ["Rathausallee 35 - 39", "22846 Norderstedt", "Germany"]}, "phone": "+49405261230", "display_phone": "+49 40 5261230", "distance": 1200.753898236111}, {"id": "sJ6GsqYgjqlducCpthoM8Q", "alias": "ha-long-norderstedt", "name": "Ha Long", "image_url": "", "is_closed": false, "url": "https://www.yelp.com/biz/ha-long-norderstedt?adjust_creative=hBJOknVQJ58S5goQyjmwRw&utm_campaign=yelp_api_v3&utm_medium=api_v3_business_search&utm_source=hBJOknVQJ58S5goQyjmwRw", "review_count": 3, "categories": [{"alias": "hotdogs", "title": "Fast Food"}], "rating": 3.0, "coordinates": {"latitude": 53.7128, "longitude": 9.99947}, "transactions": [], "price": "\u20ac", "location": {"address1": "Ulzburger Str. 369", "address2": null, "address3": null, "city": "Norderstedt", "zip_code": "22846", "country": "DE", "state": "SH", "display_address": ["Ulzburger Str. 369", "22846 Norderstedt", "Germany"]}, "phone": "+494058979390", "display_phone": "+49 40 58979390", "distance": 1479.3945236300397}, {"id": "UePPKwDepOjBg7cr3Dpf4Q", "alias": "mcdonalds-norderstedt", "name": "McDonald's", "image_url": "", "is_closed": false, "url": "https://www.yelp.com/biz/mcdonalds-norderstedt?adjust_creative=hBJOknVQJ58S5goQyjmwRw&utm_campaign=yelp_api_v3&utm_medium=api_v3_business_search&utm_source=hBJOknVQJ58S5goQyjmwRw", "review_count": 3, "categories": [{"alias": "hotdogs", "title": "Fast Food"}, {"alias": "burgers", "title": "Burgers"}], "rating": 2.5, "coordinates": {"latitude": 53.6853, "longitude": 9.98936}, "transactions": [], "location": {"address1": "Berliner Allee 43", "address2": null, "address3": null, "city": "Norderstedt", "zip_code": "22850", "country": "DE", "state": "SH", "display_address": ["Berliner Allee 43", "22850 Norderstedt", "Germany"]}, "phone": "", "display_phone": "", "distance": 1789.0246547456018}, {"id": "lhC2Gmqee-4kuYPKDJ_TzQ", "alias": "mekong-norderstedt", "name": "Mekong", "image_url": "", "is_closed": false, "url": "https://www.yelp.com/biz/mekong-norderstedt?adjust_creative=hBJOknVQJ58S5goQyjmwRw&utm_campaign=yelp_api_v3&utm_medium=api_v3_business_search&utm_source=hBJOknVQJ58S5goQyjmwRw", "review_count": 16, "categories": [{"alias": "panasian", "title": "Pan Asian"}], "rating": 2.5, "coordinates": {"latitude": 53.69, "longitude": 9.98026}, "transactions": [], "price": "\u20ac\u20ac", "location": {"address1": "Stettiner Str. 6", "address2": null, "address3": null, "city": "Norderstedt", "zip_code": "22850", "country": "DE", "state": "SH", "display_address": ["Stettiner Str. 6", "22850 Norderstedt", "Germany"]}, "phone": "+4952878036", "display_phone": "+49 5287 8036", "distance": 1778.4534868153096}, {"id": "yI9pkqFXb-30HUN7s4qakA", "alias": "pizzeria-american-pizza-drive-norderstedt", "name": "Pizzeria American-Pizza-Drive", "image_url": "https://s3-media1.fl.yelpcdn.com/bphoto/0XcUsTWXQu11v7zaFxwy2g/o.jpg", "is_closed": false, "url": "https://www.yelp.com/biz/pizzeria-american-pizza-drive-norderstedt?adjust_creative=hBJOknVQJ58S5goQyjmwRw&utm_campaign=yelp_api_v3&utm_medium=api_v3_business_search&utm_source=hBJOknVQJ58S5goQyjmwRw", "review_count": 1, "categories": [{"alias": "food", "title": "Food"}, {"alias": "pizza", "title": "Pizza"}], "rating": 4.0, "coordinates": {"latitude": 53.73188, "longitude": 9.99654}, "transactions": [], "location": {"address1": "Ulzburger Str. 587", "address2": null, "address3": null, "city": "Norderstedt", "zip_code": "22844", "country": "DE", "state": "SH", "display_address": ["Ulzburger Str. 587", "22844 Norderstedt", "Germany"]}, "phone": "+494053530153", "display_phone": "+49 40 53530153", "distance": 3608.0663323982053}, {"id": "q2pqrlNA06gTi0lXSY3QCA", "alias": "restaurant-hof-immenhorst-norderstedt", "name": "Restaurant Hof Immenhorst", "image_url": "", "is_closed": false, "url": "https://www.yelp.com/biz/restaurant-hof-immenhorst-norderstedt?adjust_creative=hBJOknVQJ58S5goQyjmwRw&utm_campaign=yelp_api_v3&utm_medium=api_v3_business_search&utm_source=hBJOknVQJ58S5goQyjmwRw", "review_count": 3, "categories": [{"alias": "international", "title": "International"}, {"alias": "german", "title": "German"}], "rating": 3.5, "coordinates": {"latitude": 53.6883, "longitude": 10.0065}, "transactions": [], "location": {"address1": "Immenhorst 22", "address2": null, "address3": null, "city": "Norderstedt", "zip_code": "22850", "country": "DE", "state": "SH", "display_address": ["Immenhorst 22", "22850 Norderstedt", "Germany"]}, "phone": "+494052983167", "display_phone": "+49 40 52983167", "distance": 1289.6197135089433}, {"id": "wlmxcIIW4hZrAJg8Gem--Q", "alias": "bistro-europa-norderstedt", "name": "Bistro Europa", "image_url": "", "is_closed": false, "url": "https://www.yelp.com/biz/bistro-europa-norderstedt?adjust_creative=hBJOknVQJ58S5goQyjmwRw&utm_campaign=yelp_api_v3&utm_medium=api_v3_business_search&utm_source=hBJOknVQJ58S5goQyjmwRw", "review_count": 2, "categories": [{"alias": "german", "title": "German"}], "rating": 3.5, "coordinates": {"latitude": 53.683, "longitude": 9.98647}, "transactions": [], "price": "\u20ac\u20ac", "location": {"address1": "Europaallee 8", "address2": null, "address3": null, "city": "Norderstedt", "zip_code": "22850", "country": "DE", "state": "SH", "display_address": ["Europaallee 8", "22850 Norderstedt", "Germany"]}, "phone": "+49405236209", "display_phone": "+49 40 5236209", "distance": 2104.348311074981}, {"id": "-xJ9Gj8OCqj1PAduKmuQhA", "alias": "die-friesenstube-norderstedt", "name": "Die Friesenstube", "image_url": "https://s3-media4.fl.yelpcdn.com/bphoto/BpT0oDIWDtepH1LEdkLhIA/o.jpg", "is_closed": false, "url": "https://www.yelp.com/biz/die-friesenstube-norderstedt?adjust_creative=hBJOknVQJ58S5goQyjmwRw&utm_campaign=yelp_api_v3&utm_medium=api_v3_business_search&utm_source=hBJOknVQJ58S5goQyjmwRw", "review_count": 1, "categories": [{"alias": "northerngerman", "title": "Northern German"}], "rating": 3.0, "coordinates": {"latitude": 53.705859, "longitude": 9.997212}, "transactions": [], "price": "\u20ac\u20ac", "location": {"address1": "Alter Kirchenweg 2", "address2": "", "address3": "", "city": "Norderstedt", "zip_code": "22844", "country": "DE", "state": "SH", "display_address": ["Alter Kirchenweg 2", "22844 Norderstedt", "Germany"]}, "phone": "+494052142x0", "display_phone": "+49 40 52142 ext. 0", "distance": 752.7670102882961}, {"id": "bw1ZyNis-QiZQZ3cfEA5cg", "alias": "kochgenuss-zwei-norderstedt", "name": "Kochgenuss Zwei", "image_url": "https://s3-media4.fl.yelpcdn.com/bphoto/Md8ruGAdoriSvFt-G1EMKw/o.jpg", "is_closed": false, "url": "https://www.yelp.com/biz/kochgenuss-zwei-norderstedt?adjust_creative=hBJOknVQJ58S5goQyjmwRw&utm_campaign=yelp_api_v3&utm_medium=api_v3_business_search&utm_source=hBJOknVQJ58S5goQyjmwRw", "review_count": 1, "categories": [{"alias": "breakfast_brunch", "title": "Breakfast & Brunch"}], "rating": 3.0, "coordinates": {"latitude": 53.6582099, "longitude": 9.98279}, "transactions": [], "price": "\u20ac", "location": {"address1": "Gutenbergring 69 C", "address2": "", "address3": null, "city": "Norderstedt", "zip_code": "22848", "country": "DE", "state": "SH", "display_address": ["Gutenbergring 69 C", "22848 Norderstedt", "Germany"]}, "phone": "+494030982002", "display_phone": "+49 40 30982002", "distance": 4775.130956055624}, {"id": "YNkID11YZnYy9uz7LlQH6A", "alias": "croque-h\u00fctte-hamburg-3", "name": "Croque H\u00fctte", "image_url": "", "is_closed": false, "url": "https://www.yelp.com/biz/croque-h%C3%BCtte-hamburg-3?adjust_creative=hBJOknVQJ58S5goQyjmwRw&utm_campaign=yelp_api_v3&utm_medium=api_v3_business_search&utm_source=hBJOknVQJ58S5goQyjmwRw", "review_count": 1, "categories": [{"alias": "pizza", "title": "Pizza"}, {"alias": "burgers", "title": "Burgers"}, {"alias": "sandwiches", "title": "Sandwiches"}], "rating": 4.0, "coordinates": {"latitude": 53.6615212060624, "longitude": 10.0180835288774}, "transactions": [], "location": {"address1": "Immenh\u00f6ven 2", "address2": "", "address3": "", "city": "Hamburg", "zip_code": "22417", "country": "DE", "state": "HH", "display_address": ["Immenh\u00f6ven 2", "22417 Hamburg", "Germany"]}, "phone": "+494053326909", "display_phone": "+49 40 53326909", "distance": 4363.393099343244}, {"id": "vosATr3yhAp-sVSOKxP8eg", "alias": "schnell-restaurant-apadokya-norderstedt", "name": "Schnell-Restaurant apadokya", "image_url": "", "is_closed": false, "url": "https://www.yelp.com/biz/schnell-restaurant-apadokya-norderstedt?adjust_creative=hBJOknVQJ58S5goQyjmwRw&utm_campaign=yelp_api_v3&utm_medium=api_v3_business_search&utm_source=hBJOknVQJ58S5goQyjmwRw", "review_count": 1, "categories": [{"alias": "chinese", "title": "Chinese"}], "rating": 5.0, "coordinates": {"latitude": 53.6735, "longitude": 9.98559}, "transactions": [], "location": {"address1": null, "address2": null, "address3": null, "city": "Norderstedt", "zip_code": "22848", "country": "DE", "state": "SH", "display_address": ["22848 Norderstedt", "Germany"]}, "phone": "", "display_phone": "", "distance": 3091.7557327796353}, {"id": "ePZK09OmPRwXObt9HAsk_w", "alias": "dayan-kebab-haus-hamburg", "name": "Dayan Kebab Haus", "image_url": "https://s3-media2.fl.yelpcdn.com/bphoto/wlIQxRSX7Nf3cOJ5QmY1jA/o.jpg", "is_closed": false, "url": "https://www.yelp.com/biz/dayan-kebab-haus-hamburg?adjust_creative=hBJOknVQJ58S5goQyjmwRw&utm_campaign=yelp_api_v3&utm_medium=api_v3_business_search&utm_source=hBJOknVQJ58S5goQyjmwRw", "review_count": 2, "categories": [{"alias": "kebab", "title": "Kebab"}], "rating": 3.0, "coordinates": {"latitude": 53.6795, "longitude": 10.0006}, "transactions": [], "location": {"address1": "Langenhorner Chaussee 674", "address2": null, "address3": null, "city": "Hamburg", "zip_code": "22419", "country": "DE", "state": "HH", "display_address": ["Langenhorner Chaussee 674", "22419 Hamburg", "Germany"]}, "phone": "", "display_phone": "", "distance": 2233.6993254086674}, {"id": "WGeBtPx7ZR5oGEePvHyT_A", "alias": "croque-house-norderstedt", "name": "Croque House", "image_url": "https://s3-media2.fl.yelpcdn.com/bphoto/RWF7cBkEWAWjy7ssODZ3WQ/o.jpg", "is_closed": false, "url": "https://www.yelp.com/biz/croque-house-norderstedt?adjust_creative=hBJOknVQJ58S5goQyjmwRw&utm_campaign=yelp_api_v3&utm_medium=api_v3_business_search&utm_source=hBJOknVQJ58S5goQyjmwRw", "review_count": 12, "categories": [{"alias": "sandwiches", "title": "Sandwiches"}], "rating": 2.5, "coordinates": {"latitude": 53.6848997, "longitude": 10.0193}, "transactions": [], "price": "\u20ac", "location": {"address1": "Segeberger Chaussee 115", "address2": null, "address3": null, "city": "Norderstedt", "zip_code": "22850", "country": "DE", "state": "SH", "display_address": ["Segeberger Chaussee 115", "22850 Norderstedt", "Germany"]}, "phone": "+49405246302", "display_phone": "+49 40 5246302", "distance": 1993.6911370538692}, {"id": "YMu9EG5Vn0fOR1-C2iuBgA", "alias": "die-pizza-profis-norderstedt", "name": "Die Pizza Profis", "image_url": "https://s3-media1.fl.yelpcdn.com/bphoto/HlNnqfVK3i0CRPBY-SCpOg/o.jpg", "is_closed": false, "url": "https://www.yelp.com/biz/die-pizza-profis-norderstedt?adjust_creative=hBJOknVQJ58S5goQyjmwRw&utm_campaign=yelp_api_v3&utm_medium=api_v3_business_search&utm_source=hBJOknVQJ58S5goQyjmwRw", "review_count": 4, "categories": [{"alias": "italian", "title": "Italian"}, {"alias": "pizza", "title": "Pizza"}], "rating": 3.0, "coordinates": {"latitude": 53.661525, "longitude": 9.984811}, "transactions": [], "price": "\u20ac", "location": {"address1": "Gutenbergring 30a", "address2": null, "address3": null, "city": "Norderstedt", "zip_code": "22848", "country": "DE", "state": "SH", "display_address": ["Gutenbergring 30a", "22848 Norderstedt", "Germany"]}, "phone": "+494060924092", "display_phone": "+49 40 60924092", "distance": 4377.916812107044}, {"id": "8eAANWYmYg9F6nxMNqJ1bQ", "alias": "eiscafe-jacobs-hamburg-2", "name": "Eiscafe Jacobs", "image_url": "https://s3-media4.fl.yelpcdn.com/bphoto/H_UjiEfhAHXX8Y-l1Go0Ig/o.jpg", "is_closed": false, "url": "https://www.yelp.com/biz/eiscafe-jacobs-hamburg-2?adjust_creative=hBJOknVQJ58S5goQyjmwRw&utm_campaign=yelp_api_v3&utm_medium=api_v3_business_search&utm_source=hBJOknVQJ58S5goQyjmwRw", "review_count": 61, "categories": [{"alias": "icecream", "title": "Ice Cream & Frozen Yogurt"}, {"alias": "cafes", "title": "Cafes"}], "rating": 3.5, "coordinates": {"latitude": 53.660965, "longitude": 10.021473}, "transactions": [], "price": "\u20ac\u20ac", "location": {"address1": "Immenh\u00f6ven 23", "address2": null, "address3": null, "city": "Hamburg", "zip_code": "22417", "country": "DE", "state": "HH", "display_address": ["Immenh\u00f6ven 23", "22417 Hamburg", "Germany"]}, "phone": "+49405205599", "display_phone": "+49 40 5205599", "distance": 4482.423119693558}, {"id": "I1zgJC0PZ3DrZkaCI0nusg", "alias": "roggen-eisen-norderstedt", "name": "Roggen + Eisen", "image_url": "", "is_closed": false, "url": "https://www.yelp.com/biz/roggen-eisen-norderstedt?adjust_creative=hBJOknVQJ58S5goQyjmwRw&utm_campaign=yelp_api_v3&utm_medium=api_v3_business_search&utm_source=hBJOknVQJ58S5goQyjmwRw", "review_count": 1, "categories": [{"alias": "pubs", "title": "Pubs"}, {"alias": "german", "title": "German"}], "rating": 2.0, "coordinates": {"latitude": 53.6825, "longitude": 9.99819}, "transactions": [], "location": {"address1": "Ohechaussee 1", "address2": null, "address3": null, "city": "Norderstedt", "zip_code": "22848", "country": "DE", "state": "SH", "display_address": ["Ohechaussee 1", "22848 Norderstedt", "Germany"]}, "phone": "+49405296878", "display_phone": "+49 40 5296878", "distance": 1914.12217607425}, {"id": "Oc2xlXPaoa5l93pHXBo2vQ", "alias": "eiscaf\u00e9-geppetto-norderstedt-2", "name": "Eiscaf\u00e9 Geppetto", "image_url": "", "is_closed": false, "url": "https://www.yelp.com/biz/eiscaf%C3%A9-geppetto-norderstedt-2?adjust_creative=hBJOknVQJ58S5goQyjmwRw&utm_campaign=yelp_api_v3&utm_medium=api_v3_business_search&utm_source=hBJOknVQJ58S5goQyjmwRw", "review_count": 2, "categories": [{"alias": "icecream", "title": "Ice Cream & Frozen Yogurt"}, {"alias": "cafes", "title": "Cafes"}, {"alias": "coffee", "title": "Coffee & Tea"}], "rating": 3.0, "coordinates": {"latitude": 53.6817272, "longitude": 9.9988458}, "transactions": [], "price": "\u20ac\u20ac", "location": {"address1": "Am Tarpenufer 2", "address2": null, "address3": null, "city": "Norderstedt", "zip_code": "22848", "country": "DE", "state": "SH", "display_address": ["Am Tarpenufer 2", "22848 Norderstedt", "Germany"]}, "phone": "+49405296875", "display_phone": "+49 40 5296875", "distance": 1994.5670109049115}, {"id": "0K-1I95AAVd41fzDH3UKZg", "alias": "american-pizza-drive-norderstedt", "name": "American Pizza-Drive", "image_url": "https://s3-media1.fl.yelpcdn.com/bphoto/3QMsoZxF4noAnwNm6F2Bzw/o.jpg", "is_closed": false, "url": "https://www.yelp.com/biz/american-pizza-drive-norderstedt?adjust_creative=hBJOknVQJ58S5goQyjmwRw&utm_campaign=yelp_api_v3&utm_medium=api_v3_business_search&utm_source=hBJOknVQJ58S5goQyjmwRw", "review_count": 2, "categories": [{"alias": "pizza", "title": "Pizza"}, {"alias": "fooddeliveryservices", "title": "Food Delivery Services"}], "rating": 1.0, "coordinates": {"latitude": 53.7187, "longitude": 9.98679}, "transactions": [], "location": {"address1": "Syltkuhlen 3", "address2": null, "address3": null, "city": "Norderstedt", "zip_code": "22846", "country": "DE", "state": "SH", "display_address": ["Syltkuhlen 3", "22846 Norderstedt", "Germany"]}, "phone": "+494053530153", "display_phone": "+49 40 53530153", "distance": 2347.776616279637}, {"id": "x0Lhma7b57Bv7J-FnYk9yQ", "alias": "speedys-pizzaservice-norderstedt", "name": "Speedy's Pizzaservice", "image_url": "", "is_closed": false, "url": "https://www.yelp.com/biz/speedys-pizzaservice-norderstedt?adjust_creative=hBJOknVQJ58S5goQyjmwRw&utm_campaign=yelp_api_v3&utm_medium=api_v3_business_search&utm_source=hBJOknVQJ58S5goQyjmwRw", "review_count": 8, "categories": [{"alias": "catering", "title": "Caterers"}, {"alias": "fooddeliveryservices", "title": "Food Delivery Services"}, {"alias": "italian", "title": "Italian"}], "rating": 2.0, "coordinates": {"latitude": 53.6815, "longitude": 9.9814}, "transactions": [], "price": "\u20ac", "location": {"address1": "Tannenhofstr. 8", "address2": null, "address3": null, "city": "Norderstedt", "zip_code": "22848", "country": "DE", "state": "SH", "display_address": ["Tannenhofstr. 8", "22848 Norderstedt", "Germany"]}, "phone": "+494052878650", "display_phone": "+49 40 52878650", "distance": 2420.872875254215}, {"id": "UNHHzXxoZ4RVKfAOEtL3GQ", "alias": "smileys-norderstedt", "name": "Smiley's", "image_url": "", "is_closed": false, "url": "https://www.yelp.com/biz/smileys-norderstedt?adjust_creative=hBJOknVQJ58S5goQyjmwRw&utm_campaign=yelp_api_v3&utm_medium=api_v3_business_search&utm_source=hBJOknVQJ58S5goQyjmwRw", "review_count": 12, "categories": [{"alias": "pizza", "title": "Pizza"}], "rating": 3.5, "coordinates": {"latitude": 53.71484, "longitude": 10.00034}, "transactions": [], "price": "\u20ac\u20ac\u20ac", "location": {"address1": "Ulzburger Str. 328", "address2": null, "address3": null, "city": "Norderstedt", "zip_code": "22846", "country": "DE", "state": "SH", "display_address": ["Ulzburger Str. 328", "22846 Norderstedt", "Germany"]}, "phone": "+49405261199", "display_phone": "+49 40 5261199", "distance": 1700.6646739110065}, {"id": "h5HtlV2YkYRQexI6WkMMQQ", "alias": "thai-special-hamburg", "name": "Thai Special", "image_url": "", "is_closed": false, "url": "https://www.yelp.com/biz/thai-special-hamburg?adjust_creative=hBJOknVQJ58S5goQyjmwRw&utm_campaign=yelp_api_v3&utm_medium=api_v3_business_search&utm_source=hBJOknVQJ58S5goQyjmwRw", "review_count": 2, "categories": [{"alias": "thai", "title": "Thai"}, {"alias": "panasian", "title": "Pan Asian"}], "rating": 1.5, "coordinates": {"latitude": 53.6591, "longitude": 10.0037}, "transactions": [], "location": {"address1": "Langenhorner Chaussee 370", "address2": null, "address3": null, "city": "Hamburg", "zip_code": "22419", "country": "DE", "state": "HH", "display_address": ["Langenhorner Chaussee 370", "22419 Hamburg", "Germany"]}, "phone": "+49405313163", "display_phone": "+49 40 5313163", "distance": 4501.995919584736}, {"id": "5gvlBQeIzXzBLS30nJBmgw", "alias": "eiscaf\u00e8-veneto-norderstedt-2", "name": "Eiscaf\u00e8 Veneto", "image_url": "", "is_closed": false, "url": "https://www.yelp.com/biz/eiscaf%C3%A8-veneto-norderstedt-2?adjust_creative=hBJOknVQJ58S5goQyjmwRw&utm_campaign=yelp_api_v3&utm_medium=api_v3_business_search&utm_source=hBJOknVQJ58S5goQyjmwRw", "review_count": 6, "categories": [{"alias": "icecream", "title": "Ice Cream & Frozen Yogurt"}, {"alias": "restaurants", "title": "Restaurants"}], "rating": 3.5, "coordinates": {"latitude": 53.6848, "longitude": 9.98482}, "transactions": [], "price": "\u20ac\u20ac\u20ac", "location": {"address1": "Berliner Allee 42", "address2": null, "address3": null, "city": "Norderstedt", "zip_code": "22850", "country": "DE", "state": "SH", "display_address": ["Berliner Allee 42", "22850 Norderstedt", "Germany"]}, "phone": "+49405233674", "display_phone": "+49 40 5233674", "distance": 1990.759169740628}, {"id": "3eAOkrEzaCatUcaMFBjfkA", "alias": "schweinske-hamburg-40", "name": "Schweinske", "image_url": "https://s3-media2.fl.yelpcdn.com/bphoto/LKSWYWWcbvno_qJFDx-wXw/o.jpg", "is_closed": false, "url": "https://www.yelp.com/biz/schweinske-hamburg-40?adjust_creative=hBJOknVQJ58S5goQyjmwRw&utm_campaign=yelp_api_v3&utm_medium=api_v3_business_search&utm_source=hBJOknVQJ58S5goQyjmwRw", "review_count": 28, "categories": [{"alias": "german", "title": "German"}], "rating": 2.5, "coordinates": {"latitude": 53.677719, "longitude": 10.001278}, "transactions": [], "price": "\u20ac\u20ac", "location": {"address1": "Langenhorner Chaussee 660", "address2": "", "address3": "", "city": "Hamburg", "zip_code": "22419", "country": "DE", "state": "BW", "display_address": ["Langenhorner Chaussee 660", "22419 Hamburg", "Germany"]}, "phone": "+494041540604", "display_phone": "+49 40 41540604", "distance": 2430.4423770720887}, {"id": "aJAkmu6m_A9gmdIxSf0SYg", "alias": "burger-king-norderstedt", "name": "Burger King", "image_url": "https://s3-media1.fl.yelpcdn.com/bphoto/PgBPMDh5M1v-eFdR5-8_iA/o.jpg", "is_closed": false, "url": "https://www.yelp.com/biz/burger-king-norderstedt?adjust_creative=hBJOknVQJ58S5goQyjmwRw&utm_campaign=yelp_api_v3&utm_medium=api_v3_business_search&utm_source=hBJOknVQJ58S5goQyjmwRw", "review_count": 8, "categories": [{"alias": "hotdogs", "title": "Fast Food"}, {"alias": "burgers", "title": "Burgers"}], "rating": 3.5, "coordinates": {"latitude": 53.6846762346846, "longitude": 9.98520815534032}, "transactions": [], "price": "\u20ac\u20ac", "location": {"address1": "Berliner Allee  38-44a", "address2": null, "address3": null, "city": "Norderstedt", "zip_code": "22850", "country": "DE", "state": "SH", "display_address": ["Berliner Allee  38-44a", "22850 Norderstedt", "Germany"]}, "phone": "+494051312123", "display_phone": "+49 40 51312123", "distance": 1987.8894761878953}, {"id": "Fl495ERzZ3vsF3lJiJ_0Ww", "alias": "pizza-express-hamburg-3", "name": "Pizza Express", "image_url": "", "is_closed": false, "url": "https://www.yelp.com/biz/pizza-express-hamburg-3?adjust_creative=hBJOknVQJ58S5goQyjmwRw&utm_campaign=yelp_api_v3&utm_medium=api_v3_business_search&utm_source=hBJOknVQJ58S5goQyjmwRw", "review_count": 11, "categories": [{"alias": "pizza", "title": "Pizza"}], "rating": 3.0, "coordinates": {"latitude": 53.6591, "longitude": 10.0037}, "transactions": [], "price": "\u20ac\u20ac", "location": {"address1": "Langenhorner Chaussee 370", "address2": null, "address3": null, "city": "Hamburg", "zip_code": "22419", "country": "DE", "state": "HH", "display_address": ["Langenhorner Chaussee 370", "22419 Hamburg", "Germany"]}, "phone": "+49405313163", "display_phone": "+49 40 5313163", "distance": 4501.995919584736}, {"id": "Jwh_u9PfU5-YSHJoqNiLgA", "alias": "burger-king-hamburg-21", "name": "Burger King", "image_url": "", "is_closed": false, "url": "https://www.yelp.com/biz/burger-king-hamburg-21?adjust_creative=hBJOknVQJ58S5goQyjmwRw&utm_campaign=yelp_api_v3&utm_medium=api_v3_business_search&utm_source=hBJOknVQJ58S5goQyjmwRw", "review_count": 15, "categories": [{"alias": "hotdogs", "title": "Fast Food"}, {"alias": "burgers", "title": "Burgers"}], "rating": 1.5, "coordinates": {"latitude": 53.665329131687, "longitude": 10.0008581717547}, "transactions": [], "price": "\u20ac\u20ac", "location": {"address1": "Langenhorner Chaussee 471", "address2": "", "address3": "", "city": "Hamburg", "zip_code": "22419", "country": "DE", "state": "HH", "display_address": ["Langenhorner Chaussee 471", "22419 Hamburg", "Germany"]}, "phone": "+494046646253", "display_phone": "+49 40 46646253", "distance": 3808.4042786890864}, {"id": "cGIKCcR0wZszz8VldC2-7g", "alias": "currywerk-hamburg", "name": "curryWERK", "image_url": "https://s3-media4.fl.yelpcdn.com/bphoto/j_ZPQAB6JrAru84VDuLiRA/o.jpg", "is_closed": false, "url": "https://www.yelp.com/biz/currywerk-hamburg?adjust_creative=hBJOknVQJ58S5goQyjmwRw&utm_campaign=yelp_api_v3&utm_medium=api_v3_business_search&utm_source=hBJOknVQJ58S5goQyjmwRw", "review_count": 1, "categories": [{"alias": "foodtrucks", "title": "Food Trucks"}, {"alias": "currysausage", "title": "Curry Sausage"}], "rating": 4.0, "coordinates": {"latitude": 53.5498886108398, "longitude": 9.94732189178467}, "transactions": [], "price": "\u20ac\u20ac", "location": {"address1": "", "address2": "", "address3": "", "city": "Hamburg", "zip_code": "22767", "country": "DE", "state": "HH", "display_address": ["22767 Hamburg", "Germany"]}, "phone": "+4917632443433", "display_phone": "+49 176 32443433", "distance": 17205.58100116706}]