[{"id": "ZQz5Ymoqjjg8NJ81EFATfA", "alias": "vietstreet-norderstedt", "name": "VietStreet", "image_url": "https://s3-media1.fl.yelpcdn.com/bphoto/LU4Uw_TTiF2IhCRSU4xZKw/o.jpg", "is_closed": false, "url": "https://www.yelp.com/biz/vietstreet-norderstedt?adjust_creative=hBJOknVQJ58S5goQyjmwRw&utm_campaign=yelp_api_v3&utm_medium=api_v3_business_search&utm_source=hBJOknVQJ58S5goQyjmwRw", "review_count": 6, "categories": [{"alias": "vietnamese", "title": "Vietnamese"}], "rating": 4.0, "coordinates": {"latitude": 53.687892795006, "longitude": 10.0393799319863}, "transactions": [], "price": "\u20ac", "location": {"address1": "Mittelstr. 60", "address2": "", "address3": null, "city": "Norderstedt", "zip_code": "22851", "country": "DE", "state": "SH", "display_address": ["Mittelstr. 60", "22851 Norderstedt", "Germany"]}, "phone": "+494080007488", "display_phone": "+49 40 80007488", "distance": 1355.6115812729386}, {"id": "HfF4qFTfpRxncLGVAwQ1pw", "alias": "amfipolis-norderstedt", "name": "Amfipolis", "image_url": "https://s3-media2.fl.yelpcdn.com/bphoto/8AUpLJXgTDlBVoA3zZ8row/o.jpg", "is_closed": false, "url": "https://www.yelp.com/biz/amfipolis-norderstedt?adjust_creative=hBJOknVQJ58S5goQyjmwRw&utm_campaign=yelp_api_v3&utm_medium=api_v3_business_search&utm_source=hBJOknVQJ58S5goQyjmwRw", "review_count": 13, "categories": [{"alias": "greek", "title": "Greek"}], "rating": 4.5, "coordinates": {"latitude": 53.6857, "longitude": 10.0252}, "transactions": [], "price": "\u20ac\u20ac", "location": {"address1": "Segeberger Chaussee 156", "address2": null, "address3": null, "city": "Norderstedt", "zip_code": "22851", "country": "DE", "state": "SH", "display_address": ["Segeberger Chaussee 156", "22851 Norderstedt", "Germany"]}, "phone": "+494064668103", "display_phone": "+49 40 64668103", "distance": 1582.4246680816736}, {"id": "fsqoTlQ1pGsdfp_QG74qeA", "alias": "barolo-norderstedt", "name": "Barolo", "image_url": "https://s3-media2.fl.yelpcdn.com/bphoto/zNqdQDcNMjYHd6JfCa7S9g/o.jpg", "is_closed": false, "url": "https://www.yelp.com/biz/barolo-norderstedt?adjust_creative=hBJOknVQJ58S5goQyjmwRw&utm_campaign=yelp_api_v3&utm_medium=api_v3_business_search&utm_source=hBJOknVQJ58S5goQyjmwRw", "review_count": 35, "categories": [{"alias": "italian", "title": "Italian"}], "rating": 4.0, "coordinates": {"latitude": 53.6942, "longitude": 10.045}, "transactions": [], "price": "\u20ac\u20ac", "location": {"address1": "Segeberger Chaussee 241", "address2": null, "address3": null, "city": "Norderstedt", "zip_code": "22851", "country": "DE", "state": "SH", "display_address": ["Segeberger Chaussee 241", "22851 Norderstedt", "Germany"]}, "phone": "+494052901110", "display_phone": "+49 40 52901110", "distance": 1017.3783073849817}, {"id": "25oe-rzOVBbXSyCDfgYJVg", "alias": "odysseus-norderstedt-2", "name": "Odysseus", "image_url": "https://s3-media1.fl.yelpcdn.com/bphoto/mDXyu342Nb2eSJH5XTFbhA/o.jpg", "is_closed": false, "url": "https://www.yelp.com/biz/odysseus-norderstedt-2?adjust_creative=hBJOknVQJ58S5goQyjmwRw&utm_campaign=yelp_api_v3&utm_medium=api_v3_business_search&utm_source=hBJOknVQJ58S5goQyjmwRw", "review_count": 21, "categories": [{"alias": "greek", "title": "Greek"}], "rating": 4.0, "coordinates": {"latitude": 53.683336, "longitude": 10.031087}, "transactions": [], "price": "\u20ac\u20ac", "location": {"address1": "Tangstedter Landstr. 559", "address2": "", "address3": "", "city": "Norderstedt", "zip_code": "22851", "country": "DE", "state": "SH", "display_address": ["Tangstedter Landstr. 559", "22851 Norderstedt", "Germany"]}, "phone": "+49405243912", "display_phone": "+49 40 5243912", "distance": 1781.3983229630978}, {"id": "d4iSYmQqtBJBTI1lVs66Xw", "alias": "china-restaurant-maixims-norderstedt", "name": "China Restaurant Maixims", "image_url": "https://s3-media3.fl.yelpcdn.com/bphoto/84313GFm4u_3mXIA3mfkAQ/o.jpg", "is_closed": false, "url": "https://www.yelp.com/biz/china-restaurant-maixims-norderstedt?adjust_creative=hBJOknVQJ58S5goQyjmwRw&utm_campaign=yelp_api_v3&utm_medium=api_v3_business_search&utm_source=hBJOknVQJ58S5goQyjmwRw", "review_count": 8, "categories": [{"alias": "chinese", "title": "Chinese"}], "rating": 4.0, "coordinates": {"latitude": 53.6948, "longitude": 10.0455}, "transactions": [], "price": "\u20ac", "location": {"address1": "Segeberger Chaussee 273", "address2": null, "address3": null, "city": "Norderstedt", "zip_code": "22851", "country": "DE", "state": "SH", "display_address": ["Segeberger Chaussee 273", "22851 Norderstedt", "Germany"]}, "phone": "+49405291628", "display_phone": "+49 40 5291628", "distance": 1010.0491406077471}, {"id": "EuUXnJ0w0KVlmK-JiUgLHw", "alias": "la-cucina-hamburg", "name": "La Cucina", "image_url": "https://s3-media4.fl.yelpcdn.com/bphoto/dvdqBsc7TMAYIcRsyzcctA/o.jpg", "is_closed": false, "url": "https://www.yelp.com/biz/la-cucina-hamburg?adjust_creative=hBJOknVQJ58S5goQyjmwRw&utm_campaign=yelp_api_v3&utm_medium=api_v3_business_search&utm_source=hBJOknVQJ58S5goQyjmwRw", "review_count": 9, "categories": [{"alias": "italian", "title": "Italian"}], "rating": 4.0, "coordinates": {"latitude": 53.6616578, "longitude": 10.022459}, "transactions": [], "price": "\u20ac\u20ac", "location": {"address1": "Tangstedter Landstr. 208", "address2": "", "address3": "", "city": "Hamburg", "zip_code": "22417", "country": "DE", "state": "HH", "display_address": ["Tangstedter Landstr. 208", "22417 Hamburg", "Germany"]}, "phone": "+49405209920", "display_phone": "+49 40 5209920", "distance": 4236.16580784301}, {"id": "wvsAqnOJ0A5ASHzpAiY64g", "alias": "restaurant-schm\u00f6ker-norderstedt", "name": "Restaurant Schm\u00f6ker", "image_url": "https://s3-media1.fl.yelpcdn.com/bphoto/NG9FpWshGBwH_NZceF67AA/o.jpg", "is_closed": false, "url": "https://www.yelp.com/biz/restaurant-schm%C3%B6ker-norderstedt?adjust_creative=hBJOknVQJ58S5goQyjmwRw&utm_campaign=yelp_api_v3&utm_medium=api_v3_business_search&utm_source=hBJOknVQJ58S5goQyjmwRw", "review_count": 1, "categories": [{"alias": "international", "title": "International"}, {"alias": "german", "title": "German"}], "rating": 5.0, "coordinates": {"latitude": 53.7222957088864, "longitude": 10.0256953015924}, "transactions": [], "location": {"address1": "Hotel Schm\u00f6ker - Hof", "address2": "Oststr. 18", "address3": null, "city": "Norderstedt", "zip_code": "22844", "country": "DE", "state": "SH", "display_address": ["Hotel Schm\u00f6ker - Hof", "Oststr. 18", "22844 Norderstedt", "Germany"]}, "phone": "+4940526070", "display_phone": "+49 40 526070", "distance": 2590.6784904604315}, {"id": "DvpKJIVQcmVY2_HH1c8VOQ", "alias": "china-restaurant-happy-palace-hamburg", "name": "China Restaurant Happy Palace", "image_url": "https://s3-media3.fl.yelpcdn.com/bphoto/anMatxs3mWtyupZa6SO6SQ/o.jpg", "is_closed": false, "url": "https://www.yelp.com/biz/china-restaurant-happy-palace-hamburg?adjust_creative=hBJOknVQJ58S5goQyjmwRw&utm_campaign=yelp_api_v3&utm_medium=api_v3_business_search&utm_source=hBJOknVQJ58S5goQyjmwRw", "review_count": 17, "categories": [{"alias": "chinese", "title": "Chinese"}], "rating": 4.0, "coordinates": {"latitude": 53.6653239, "longitude": 10.0242332}, "transactions": [], "price": "\u20ac\u20ac", "location": {"address1": "Tangstedter Landstr. 244", "address2": "", "address3": null, "city": "Hamburg", "zip_code": "22417", "country": "DE", "state": "HH", "display_address": ["Tangstedter Landstr. 244", "22417 Hamburg", "Germany"]}, "phone": "+49405208388", "display_phone": "+49 40 5208388", "distance": 3815.907414919538}, {"id": "LNZ7Gv0FnfUEgtvBRRV6BA", "alias": "alter-reporter-norderstedt", "name": "Alter Reporter", "image_url": "https://s3-media2.fl.yelpcdn.com/bphoto/U_7Q6I97b89z5VMKSV7Q2A/o.jpg", "is_closed": false, "url": "https://www.yelp.com/biz/alter-reporter-norderstedt?adjust_creative=hBJOknVQJ58S5goQyjmwRw&utm_campaign=yelp_api_v3&utm_medium=api_v3_business_search&utm_source=hBJOknVQJ58S5goQyjmwRw", "review_count": 73, "categories": [{"alias": "german", "title": "German"}, {"alias": "beergarden", "title": "Beer Garden"}, {"alias": "bowling", "title": "Bowling"}], "rating": 3.5, "coordinates": {"latitude": 53.6916, "longitude": 10.0227}, "transactions": [], "price": "\u20ac\u20ac", "location": {"address1": "J\u00e4gerlauf 1", "address2": null, "address3": null, "city": "Norderstedt", "zip_code": "22851", "country": "DE", "state": "SH", "display_address": ["J\u00e4gerlauf 1", "22851 Norderstedt", "Germany"]}, "phone": "+49405240807", "display_phone": "+49 40 5240807", "distance": 1061.311714878193}, {"id": "7TFBVnQaSRk9JDdwfnHXFg", "alias": "alibaba-norderstedt", "name": "Alibaba", "image_url": "https://s3-media4.fl.yelpcdn.com/bphoto/yCk50Yb8nSqiA9rjdCVYfw/o.jpg", "is_closed": false, "url": "https://www.yelp.com/biz/alibaba-norderstedt?adjust_creative=hBJOknVQJ58S5goQyjmwRw&utm_campaign=yelp_api_v3&utm_medium=api_v3_business_search&utm_source=hBJOknVQJ58S5goQyjmwRw", "review_count": 13, "categories": [{"alias": "hotdogs", "title": "Fast Food"}], "rating": 4.0, "coordinates": {"latitude": 53.7047, "longitude": 10.007}, "transactions": [], "price": "\u20ac\u20ac", "location": {"address1": "Alter Kirchenweg 37", "address2": null, "address3": null, "city": "Norderstedt", "zip_code": "22844", "country": "DE", "state": "SH", "display_address": ["Alter Kirchenweg 37", "22844 Norderstedt", "Germany"]}, "phone": "+494051328377", "display_phone": "+49 40 51328377", "distance": 1762.7915751772923}, {"id": "-pgy27zFndFK3aOBsoAb8Q", "alias": "gastst\u00e4tte-zum-krokodil-hamburg", "name": "Gastst\u00e4tte Zum Krokodil", "image_url": "https://s3-media2.fl.yelpcdn.com/bphoto/MirjgROQKDm7edI8nzvxxA/o.jpg", "is_closed": false, "url": "https://www.yelp.com/biz/gastst%C3%A4tte-zum-krokodil-hamburg?adjust_creative=hBJOknVQJ58S5goQyjmwRw&utm_campaign=yelp_api_v3&utm_medium=api_v3_business_search&utm_source=hBJOknVQJ58S5goQyjmwRw", "review_count": 18, "categories": [{"alias": "german", "title": "German"}], "rating": 4.5, "coordinates": {"latitude": 53.66422, "longitude": 10.02386}, "transactions": [], "price": "\u20ac\u20ac", "location": {"address1": "Tangstedter Landstr. 232", "address2": null, "address3": null, "city": "Hamburg", "zip_code": "22417", "country": "DE", "state": "HH", "display_address": ["Tangstedter Landstr. 232", "22417 Hamburg", "Germany"]}, "phone": "+49405202227", "display_phone": "+49 40 5202227", "distance": 3941.897160955137}, {"id": "0AJR6GQ2Fos9vEHoyisS6A", "alias": "restaurant-thessaloniki-hamburg-3", "name": "Restaurant Thessaloniki", "image_url": "https://s3-media2.fl.yelpcdn.com/bphoto/pHBR0cr0R3eS0yULM46hqw/o.jpg", "is_closed": false, "url": "https://www.yelp.com/biz/restaurant-thessaloniki-hamburg-3?adjust_creative=hBJOknVQJ58S5goQyjmwRw&utm_campaign=yelp_api_v3&utm_medium=api_v3_business_search&utm_source=hBJOknVQJ58S5goQyjmwRw", "review_count": 14, "categories": [{"alias": "greek", "title": "Greek"}], "rating": 4.5, "coordinates": {"latitude": 53.6727, "longitude": 10.0167}, "transactions": [], "price": "\u20ac\u20ac", "location": {"address1": "Fibigerstr. 259", "address2": null, "address3": null, "city": "Hamburg", "zip_code": "22419", "country": "DE", "state": "HH", "display_address": ["Fibigerstr. 259", "22419 Hamburg", "Germany"]}, "phone": "+49405321384", "display_phone": "+49 40 5321384", "distance": 3130.396887703801}, {"id": "QtptKJUzaBGqRTPtp8fTSw", "alias": "das-strandhaus-norderstedt", "name": "Das Strandhaus", "image_url": "https://s3-media1.fl.yelpcdn.com/bphoto/PZJmURvn5N_qK-x8sgnt4g/o.jpg", "is_closed": false, "url": "https://www.yelp.com/biz/das-strandhaus-norderstedt?adjust_creative=hBJOknVQJ58S5goQyjmwRw&utm_campaign=yelp_api_v3&utm_medium=api_v3_business_search&utm_source=hBJOknVQJ58S5goQyjmwRw", "review_count": 3, "categories": [{"alias": "bars", "title": "Bars"}, {"alias": "cafes", "title": "Cafes"}], "rating": 4.0, "coordinates": {"latitude": 53.7156118293451, "longitude": 10.022783001104}, "transactions": [], "price": "\u20ac\u20ac\u20ac", "location": {"address1": "Am Strandbad 1", "address2": "", "address3": "", "city": "Norderstedt", "zip_code": "", "country": "DE", "state": "SH", "display_address": ["Am Strandbad 1", "Norderstedt, Schleswig-Holstein", "Germany"]}, "phone": "+494035731376", "display_phone": "+49 40 35731376", "distance": 1914.802583552068}, {"id": "vviOvLVDnUx70bxMKCBQLg", "alias": "restaurant-el-greco-norderstedt-2", "name": "Restaurant El Greco", "image_url": "https://s3-media1.fl.yelpcdn.com/bphoto/DGmJTXk4jUddIrv4SxSr1w/o.jpg", "is_closed": false, "url": "https://www.yelp.com/biz/restaurant-el-greco-norderstedt-2?adjust_creative=hBJOknVQJ58S5goQyjmwRw&utm_campaign=yelp_api_v3&utm_medium=api_v3_business_search&utm_source=hBJOknVQJ58S5goQyjmwRw", "review_count": 1, "categories": [{"alias": "greek", "title": "Greek"}], "rating": 4.0, "coordinates": {"latitude": 53.6831089791004, "longitude": 10.0079860165715}, "transactions": [], "location": {"address1": "Segeberger Chaussee 51 A", "address2": "", "address3": null, "city": "Norderstedt", "zip_code": "22850", "country": "DE", "state": "SH", "display_address": ["Segeberger Chaussee 51 A", "22850 Norderstedt", "Germany"]}, "phone": "+49405296180", "display_phone": "+49 40 5296180", "distance": 2405.6488288395644}, {"id": "TKz2hECyw1FjvTU3bVGgkw", "alias": "wattkorn-hamburg", "name": "Wattkorn", "image_url": "https://s3-media4.fl.yelpcdn.com/bphoto/ImqOG545zAFvz5Lgi5ADqA/o.jpg", "is_closed": false, "url": "https://www.yelp.com/biz/wattkorn-hamburg?adjust_creative=hBJOknVQJ58S5goQyjmwRw&utm_campaign=yelp_api_v3&utm_medium=api_v3_business_search&utm_source=hBJOknVQJ58S5goQyjmwRw", "review_count": 154, "categories": [{"alias": "german", "title": "German"}, {"alias": "sushi", "title": "Sushi Bars"}], "rating": 3.5, "coordinates": {"latitude": 53.66379, "longitude": 10.0236699}, "transactions": [], "price": "\u20ac\u20ac\u20ac", "location": {"address1": "Tangstedter Landstr. 230", "address2": null, "address3": null, "city": "Hamburg", "zip_code": "22417", "country": "DE", "state": "HH", "display_address": ["Tangstedter Landstr. 230", "22417 Hamburg", "Germany"]}, "phone": "+49405203797", "display_phone": "+49 40 5203797", "distance": 3989.61165150601}, {"id": "jWlpEI6ro6s6x8fNdaCH0w", "alias": "caf\u00e9-vero-hamburg-2", "name": "Caf\u00e9 Vero", "image_url": "https://s3-media3.fl.yelpcdn.com/bphoto/3kd94Wi_f69O3BHCJuU_jg/o.jpg", "is_closed": false, "url": "https://www.yelp.com/biz/caf%C3%A9-vero-hamburg-2?adjust_creative=hBJOknVQJ58S5goQyjmwRw&utm_campaign=yelp_api_v3&utm_medium=api_v3_business_search&utm_source=hBJOknVQJ58S5goQyjmwRw", "review_count": 1, "categories": [{"alias": "cafes", "title": "Cafes"}], "rating": 4.0, "coordinates": {"latitude": 53.674004070684, "longitude": 10.0289766490459}, "transactions": [], "price": "\u20ac\u20ac", "location": {"address1": "Asklepios Klinik Nord - Heidberg", "address2": "Tangstedter Landstr. 400", "address3": "", "city": "Hamburg", "zip_code": "22417", "country": "DE", "state": "HH", "display_address": ["Asklepios Klinik Nord - Heidberg", "Tangstedter Landstr. 400", "22417 Hamburg", "Germany"]}, "phone": "", "display_phone": "", "distance": 2822.5178744301957}, {"id": "rGaqMOmvTGIyDslRwCGBwQ", "alias": "bella-italia-norderstedt", "name": "Bella Italia", "image_url": "", "is_closed": false, "url": "https://www.yelp.com/biz/bella-italia-norderstedt?adjust_creative=hBJOknVQJ58S5goQyjmwRw&utm_campaign=yelp_api_v3&utm_medium=api_v3_business_search&utm_source=hBJOknVQJ58S5goQyjmwRw", "review_count": 2, "categories": [{"alias": "italian", "title": "Italian"}], "rating": 4.5, "coordinates": {"latitude": 53.693756, "longitude": 10.027747}, "transactions": [], "price": "\u20ac\u20ac", "location": {"address1": "Poppenb\u00fcttelerstr. 180", "address2": "", "address3": "", "city": "Norderstedt", "zip_code": "22851", "country": "DE", "state": "SH", "display_address": ["Poppenb\u00fcttelerstr. 180", "22851 Norderstedt", "Germany"]}, "phone": "+494053008629", "display_phone": "+49 40 53008629", "distance": 686.0078616378215}, {"id": "hbZ9aRxGMu5yo11A_97wDg", "alias": "dinos-norderstedt", "name": "Dino's", "image_url": "https://s3-media3.fl.yelpcdn.com/bphoto/DzOfnKmB1D4TdY6RnpIrJA/o.jpg", "is_closed": false, "url": "https://www.yelp.com/biz/dinos-norderstedt?adjust_creative=hBJOknVQJ58S5goQyjmwRw&utm_campaign=yelp_api_v3&utm_medium=api_v3_business_search&utm_source=hBJOknVQJ58S5goQyjmwRw", "review_count": 19, "categories": [{"alias": "pizza", "title": "Pizza"}], "rating": 3.5, "coordinates": {"latitude": 53.7047, "longitude": 10.0077}, "transactions": [], "price": "\u20ac\u20ac", "location": {"address1": "Alter Kirchenweg 45", "address2": null, "address3": null, "city": "Norderstedt", "zip_code": "22844", "country": "DE", "state": "SH", "display_address": ["Alter Kirchenweg 45", "22844 Norderstedt", "Germany"]}, "phone": "+49405257778", "display_phone": "+49 40 5257778", "distance": 1719.5232360362702}, {"id": "OM_AaoDLC5413uortWkAaw", "alias": "restaurant-eichenstuben-norderstedt", "name": "Restaurant Eichenstuben", "image_url": "", "is_closed": false, "url": "https://www.yelp.com/biz/restaurant-eichenstuben-norderstedt?adjust_creative=hBJOknVQJ58S5goQyjmwRw&utm_campaign=yelp_api_v3&utm_medium=api_v3_business_search&utm_source=hBJOknVQJ58S5goQyjmwRw", "review_count": 2, "categories": [{"alias": "international", "title": "International"}, {"alias": "german", "title": "German"}], "rating": 4.0, "coordinates": {"latitude": 53.6868, "longitude": 10.0379}, "transactions": [], "location": {"address1": "Mittelstr. 54", "address2": null, "address3": null, "city": "Norderstedt", "zip_code": "22851", "country": "DE", "state": "SH", "display_address": ["Mittelstr. 54", "22851 Norderstedt", "Germany"]}, "phone": "+49405240046", "display_phone": "+49 40 5240046", "distance": 1441.6564025436644}, {"id": "oGv4o6GxasfDnCXtdRjing", "alias": "mongolei-norderstedt", "name": "Mongolei", "image_url": "https://s3-media2.fl.yelpcdn.com/bphoto/qQFh-roeX3yScoEP_iAbVw/o.jpg", "is_closed": false, "url": "https://www.yelp.com/biz/mongolei-norderstedt?adjust_creative=hBJOknVQJ58S5goQyjmwRw&utm_campaign=yelp_api_v3&utm_medium=api_v3_business_search&utm_source=hBJOknVQJ58S5goQyjmwRw", "review_count": 67, "categories": [{"alias": "chinese", "title": "Chinese"}], "rating": 3.5, "coordinates": {"latitude": 53.7040821482736, "longitude": 10.0087121963809}, "transactions": [], "price": "\u20ac\u20ac", "location": {"address1": "Marktplatz 3", "address2": null, "address3": null, "city": "Norderstedt", "zip_code": "22844", "country": "DE", "state": "SH", "display_address": ["Marktplatz 3", "22844 Norderstedt", "Germany"]}, "phone": "+494055440598", "display_phone": "+49 40 55440598", "distance": 1633.6752791379888}, {"id": "WBAdbsKl1PtOnrB5FOUI9g", "alias": "brutzelh\u00fctte-norderstedt", "name": "Brutzelh\u00fctte", "image_url": "https://s3-media4.fl.yelpcdn.com/bphoto/lpantAzVsVBIxQPeSeIQcQ/o.jpg", "is_closed": false, "url": "https://www.yelp.com/biz/brutzelh%C3%BCtte-norderstedt?adjust_creative=hBJOknVQJ58S5goQyjmwRw&utm_campaign=yelp_api_v3&utm_medium=api_v3_business_search&utm_source=hBJOknVQJ58S5goQyjmwRw", "review_count": 2, "categories": [{"alias": "foodstands", "title": "Food Stands"}, {"alias": "currysausage", "title": "Curry Sausage"}, {"alias": "hotdogs", "title": "Fast Food"}], "rating": 4.5, "coordinates": {"latitude": 53.708214, "longitude": 10.020559}, "transactions": [], "price": "\u20ac", "location": {"address1": "Stormarnstra\u00dfe", "address2": "", "address3": "", "city": "Norderstedt", "zip_code": "22844", "country": "DE", "state": "SH", "display_address": ["Stormarnstra\u00dfe", "22844 Norderstedt", "Germany"]}, "phone": "", "display_phone": "", "distance": 1250.926422536433}, {"id": "e9FGCmx2rkuR-aVsAgPy2Q", "alias": "zwischenmahlzeit-norderstedt-norderstedt", "name": "Zwischenmahlzeit Norderstedt", "image_url": "", "is_closed": false, "url": "https://www.yelp.com/biz/zwischenmahlzeit-norderstedt-norderstedt?adjust_creative=hBJOknVQJ58S5goQyjmwRw&utm_campaign=yelp_api_v3&utm_medium=api_v3_business_search&utm_source=hBJOknVQJ58S5goQyjmwRw", "review_count": 1, "categories": [{"alias": "hotdogs", "title": "Fast Food"}], "rating": 4.0, "coordinates": {"latitude": 53.73226, "longitude": 10.023}, "transactions": [], "location": {"address1": "Oststr. 78a", "address2": null, "address3": null, "city": "Norderstedt", "zip_code": "22844", "country": "DE", "state": "SH", "display_address": ["Oststr. 78a", "22844 Norderstedt", "Germany"]}, "phone": "+494052679351", "display_phone": "+49 40 52679351", "distance": 3712.7346266426807}, {"id": "M1rqw4ENl5a5sxImTeZk7Q", "alias": "schweinske-hamburg-19", "name": "Schweinske", "image_url": "https://s3-media2.fl.yelpcdn.com/bphoto/H8tWP4UNNWuf6neEwT3S6g/o.jpg", "is_closed": false, "url": "https://www.yelp.com/biz/schweinske-hamburg-19?adjust_creative=hBJOknVQJ58S5goQyjmwRw&utm_campaign=yelp_api_v3&utm_medium=api_v3_business_search&utm_source=hBJOknVQJ58S5goQyjmwRw", "review_count": 36, "categories": [{"alias": "german", "title": "German"}], "rating": 3.5, "coordinates": {"latitude": 53.675067376075, "longitude": 10.0277330528637}, "transactions": [], "price": "\u20ac\u20ac", "location": {"address1": "Tangstedter Landstr. 465", "address2": null, "address3": null, "city": "Hamburg", "zip_code": "22417", "country": "DE", "state": "HH", "display_address": ["Tangstedter Landstr. 465", "22417 Hamburg", "Germany"]}, "phone": "+49405373378", "display_phone": "+49 40 5373378", "distance": 2712.262374421725}, {"id": "Yv7-W_pf1dJFzw5PYuj72g", "alias": "zur-glash\u00fctte-norderstedt", "name": "Zur Glash\u00fctte", "image_url": "", "is_closed": false, "url": "https://www.yelp.com/biz/zur-glash%C3%BCtte-norderstedt?adjust_creative=hBJOknVQJ58S5goQyjmwRw&utm_campaign=yelp_api_v3&utm_medium=api_v3_business_search&utm_source=hBJOknVQJ58S5goQyjmwRw", "review_count": 6, "categories": [{"alias": "german", "title": "German"}], "rating": 4.0, "coordinates": {"latitude": 53.6975, "longitude": 10.0502}, "transactions": [], "location": {"address1": "Segeberger Chaussee 309", "address2": null, "address3": null, "city": "Norderstedt", "zip_code": "22851", "country": "DE", "state": "SH", "display_address": ["Segeberger Chaussee 309", "22851 Norderstedt", "Germany"]}, "phone": "+49405298660", "display_phone": "+49 40 5298660", "distance": 1202.8166523548362}, {"id": "TIrE7SHuQoEQ5FcXJWil-g", "alias": "haus-am-see-norderstedt", "name": "Haus am See", "image_url": "https://s3-media3.fl.yelpcdn.com/bphoto/Z1x8WXQ5t3J0moc7UWzt1Q/o.jpg", "is_closed": false, "url": "https://www.yelp.com/biz/haus-am-see-norderstedt?adjust_creative=hBJOknVQJ58S5goQyjmwRw&utm_campaign=yelp_api_v3&utm_medium=api_v3_business_search&utm_source=hBJOknVQJ58S5goQyjmwRw", "review_count": 14, "categories": [{"alias": "german", "title": "German"}], "rating": 3.0, "coordinates": {"latitude": 53.7127950129965, "longitude": 10.0200945387716}, "transactions": [], "price": "\u20ac\u20ac\u20ac", "location": {"address1": "Stormarnstra\u00dfe - Sch\u00f6ne Aussicht 4", "address2": "", "address3": "", "city": "Norderstedt", "zip_code": "22844", "country": "DE", "state": "SH", "display_address": ["Stormarnstra\u00dfe - Sch\u00f6ne Aussicht 4", "22844 Norderstedt", "Germany"]}, "phone": "+494032040120", "display_phone": "+49 40 32040120", "distance": 1697.0303785056544}, {"id": "nSnobRFEjg5aeKd3Mn0KwQ", "alias": "golden-cup-norderstedt", "name": "Golden Cup", "image_url": "https://s3-media2.fl.yelpcdn.com/bphoto/UQ_yrHwxGkB3L_5duZ55fg/o.jpg", "is_closed": false, "url": "https://www.yelp.com/biz/golden-cup-norderstedt?adjust_creative=hBJOknVQJ58S5goQyjmwRw&utm_campaign=yelp_api_v3&utm_medium=api_v3_business_search&utm_source=hBJOknVQJ58S5goQyjmwRw", "review_count": 19, "categories": [{"alias": "sportsbars", "title": "Sports Bars"}, {"alias": "tapasmallplates", "title": "Tapas/Small Plates"}], "rating": 2.5, "coordinates": {"latitude": 53.6868679, "longitude": 10.0309449}, "transactions": [], "price": "\u20ac\u20ac", "location": {"address1": "Segeberger Chaussee 188 A", "address2": null, "address3": null, "city": "Norderstedt", "zip_code": "22851", "country": "DE", "state": "SH", "display_address": ["Segeberger Chaussee 188 A", "22851 Norderstedt", "Germany"]}, "phone": "+494064667799", "display_phone": "+49 40 64667799", "distance": 1386.6114810519543}, {"id": "xZP6cPbOVMd21T6Yi6D9NQ", "alias": "bei-angelo-norderstedt", "name": "Bei Angelo", "image_url": "", "is_closed": false, "url": "https://www.yelp.com/biz/bei-angelo-norderstedt?adjust_creative=hBJOknVQJ58S5goQyjmwRw&utm_campaign=yelp_api_v3&utm_medium=api_v3_business_search&utm_source=hBJOknVQJ58S5goQyjmwRw", "review_count": 6, "categories": [{"alias": "greek", "title": "Greek"}], "rating": 2.5, "coordinates": {"latitude": 53.6828, "longitude": 10.0082}, "transactions": [], "price": "\u20ac\u20ac", "location": {"address1": "Segeberger Chaussee 51a", "address2": null, "address3": null, "city": "Norderstedt", "zip_code": "22850", "country": "DE", "state": "SH", "display_address": ["Segeberger Chaussee 51a", "22850 Norderstedt", "Germany"]}, "phone": "+49405296180", "display_phone": "+49 40 5296180", "distance": 2422.2868965706516}, {"id": "YNkID11YZnYy9uz7LlQH6A", "alias": "croque-h\u00fctte-hamburg-3", "name": "Croque H\u00fctte", "image_url": "", "is_closed": false, "url": "https://www.yelp.com/biz/croque-h%C3%BCtte-hamburg-3?adjust_creative=hBJOknVQJ58S5goQyjmwRw&utm_campaign=yelp_api_v3&utm_medium=api_v3_business_search&utm_source=hBJOknVQJ58S5goQyjmwRw", "review_count": 1, "categories": [{"alias": "pizza", "title": "Pizza"}, {"alias": "burgers", "title": "Burgers"}, {"alias": "sandwiches", "title": "Sandwiches"}], "rating": 4.0, "coordinates": {"latitude": 53.6615212060624, "longitude": 10.0180835288774}, "transactions": [], "location": {"address1": "Immenh\u00f6ven 2", "address2": "", "address3": "", "city": "Hamburg", "zip_code": "22417", "country": "DE", "state": "HH", "display_address": ["Immenh\u00f6ven 2", "22417 Hamburg", "Germany"]}, "phone": "+494053326909", "display_phone": "+49 40 53326909", "distance": 4304.052009369177}, {"id": "8eAANWYmYg9F6nxMNqJ1bQ", "alias": "eiscafe-jacobs-hamburg-2", "name": "Eiscafe Jacobs", "image_url": "https://s3-media4.fl.yelpcdn.com/bphoto/H_UjiEfhAHXX8Y-l1Go0Ig/o.jpg", "is_closed": false, "url": "https://www.yelp.com/biz/eiscafe-jacobs-hamburg-2?adjust_creative=hBJOknVQJ58S5goQyjmwRw&utm_campaign=yelp_api_v3&utm_medium=api_v3_business_search&utm_source=hBJOknVQJ58S5goQyjmwRw", "review_count": 61, "categories": [{"alias": "icecream", "title": "Ice Cream & Frozen Yogurt"}, {"alias": "cafes", "title": "Cafes"}], "rating": 3.5, "coordinates": {"latitude": 53.660965, "longitude": 10.021473}, "transactions": [], "price": "\u20ac\u20ac", "location": {"address1": "Immenh\u00f6ven 23", "address2": null, "address3": null, "city": "Hamburg", "zip_code": "22417", "country": "DE", "state": "HH", "display_address": ["Immenh\u00f6ven 23", "22417 Hamburg", "Germany"]}, "phone": "+49405205599", "display_phone": "+49 40 5205599", "distance": 4322.45779232473}, {"id": "WGeBtPx7ZR5oGEePvHyT_A", "alias": "croque-house-norderstedt", "name": "Croque House", "image_url": "https://s3-media2.fl.yelpcdn.com/bphoto/RWF7cBkEWAWjy7ssODZ3WQ/o.jpg", "is_closed": false, "url": "https://www.yelp.com/biz/croque-house-norderstedt?adjust_creative=hBJOknVQJ58S5goQyjmwRw&utm_campaign=yelp_api_v3&utm_medium=api_v3_business_search&utm_source=hBJOknVQJ58S5goQyjmwRw", "review_count": 12, "categories": [{"alias": "sandwiches", "title": "Sandwiches"}], "rating": 2.5, "coordinates": {"latitude": 53.6848997, "longitude": 10.0193}, "transactions": [], "price": "\u20ac", "location": {"address1": "Segeberger Chaussee 115", "address2": null, "address3": null, "city": "Norderstedt", "zip_code": "22850", "country": "DE", "state": "SH", "display_address": ["Segeberger Chaussee 115", "22850 Norderstedt", "Germany"]}, "phone": "+49405246302", "display_phone": "+49 40 5246302", "distance": 1813.7902581149772}]