[{"id": "dMOGOXCY6U_MZu0aBA_ohw", "alias": "taverna-pegasus-hamburg", "name": "Taverna Pegasus", "image_url": "https://s3-media4.fl.yelpcdn.com/bphoto/LRKHH5mePsvM-t6pSdu-hg/o.jpg", "is_closed": false, "url": "https://www.yelp.com/biz/taverna-pegasus-hamburg?adjust_creative=hBJOknVQJ58S5goQyjmwRw&utm_campaign=yelp_api_v3&utm_medium=api_v3_business_search&utm_source=hBJOknVQJ58S5goQyjmwRw", "review_count": 9, "categories": [{"alias": "greek", "title": "Greek"}], "rating": 3.5, "coordinates": {"latitude": 53.67012, "longitude": 10.12642}, "transactions": [], "price": "\u20ac\u20ac", "location": {"address1": "Bergstedter Chaussee 128", "address2": "", "address3": null, "city": "Hamburg", "zip_code": "22395", "country": "DE", "state": "HH", "display_address": ["Bergstedter Chaussee 128", "22395 Hamburg", "Germany"]}, "phone": "+494064430710", "display_phone": "+49 40 64430710", "distance": 3169.8754257469213}, {"id": "8x14AO14Qzu_Kr1k5F5gWQ", "alias": "zur-kastanie-hamburg-2", "name": "Zur Kastanie", "image_url": "https://s3-media4.fl.yelpcdn.com/bphoto/uUQJsafxvys3m925Xy2Y6A/o.jpg", "is_closed": false, "url": "https://www.yelp.com/biz/zur-kastanie-hamburg-2?adjust_creative=hBJOknVQJ58S5goQyjmwRw&utm_campaign=yelp_api_v3&utm_medium=api_v3_business_search&utm_source=hBJOknVQJ58S5goQyjmwRw", "review_count": 14, "categories": [{"alias": "german", "title": "German"}], "rating": 4.0, "coordinates": {"latitude": 53.70517, "longitude": 10.11532}, "transactions": [], "price": "\u20ac\u20ac\u20ac", "location": {"address1": "Specksaalredder 14", "address2": null, "address3": null, "city": "Hamburg", "zip_code": "22397", "country": "DE", "state": "HH", "display_address": ["Specksaalredder 14", "22397 Hamburg", "Germany"]}, "phone": "+49406072525", "display_phone": "+49 40 6072525", "distance": 836.9649992935967}, {"id": "ByLnXlZ8Dcpx6bkQy7OZ3Q", "alias": "die-m\u00fchle-hamburg", "name": "Die M\u00fchle", "image_url": "https://s3-media3.fl.yelpcdn.com/bphoto/7XffThMeNk9m6kBU4CihAg/o.jpg", "is_closed": false, "url": "https://www.yelp.com/biz/die-m%C3%BChle-hamburg?adjust_creative=hBJOknVQJ58S5goQyjmwRw&utm_campaign=yelp_api_v3&utm_medium=api_v3_business_search&utm_source=hBJOknVQJ58S5goQyjmwRw", "review_count": 21, "categories": [{"alias": "german", "title": "German"}], "rating": 4.0, "coordinates": {"latitude": 53.709764, "longitude": 10.130082}, "transactions": [], "price": "\u20ac\u20ac", "location": {"address1": "M\u00fchlenredder 38", "address2": null, "address3": null, "city": "Hamburg", "zip_code": "22397", "country": "DE", "state": "HH", "display_address": ["M\u00fchlenredder 38", "22397 Hamburg", "Germany"]}, "phone": "+49406076650", "display_phone": "+49 40 6076650", "distance": 1335.3757711430906}, {"id": "hz50-hDcuY8KxhG5S4xLDg", "alias": "gasthaus-offen-hamburg", "name": "Gasthaus Offen", "image_url": "https://s3-media2.fl.yelpcdn.com/bphoto/z60mHTwqI2onQiOeUjFPSg/o.jpg", "is_closed": false, "url": "https://www.yelp.com/biz/gasthaus-offen-hamburg?adjust_creative=hBJOknVQJ58S5goQyjmwRw&utm_campaign=yelp_api_v3&utm_medium=api_v3_business_search&utm_source=hBJOknVQJ58S5goQyjmwRw", "review_count": 55, "categories": [{"alias": "german", "title": "German"}], "rating": 4.0, "coordinates": {"latitude": 53.6865, "longitude": 10.105}, "transactions": [], "price": "\u20ac\u20ac", "location": {"address1": "Lemsahler Dorfstr. 39", "address2": null, "address3": null, "city": "Hamburg", "zip_code": "22397", "country": "DE", "state": "HH", "display_address": ["Lemsahler Dorfstr. 39", "22397 Hamburg", "Germany"]}, "phone": "+49406083835", "display_phone": "+49 40 6083835", "distance": 1786.8072371555982}, {"id": "mprwg5_US2YgAZHZoWs86w", "alias": "alster-au-hamburg-2", "name": "Alster Au", "image_url": "https://s3-media1.fl.yelpcdn.com/bphoto/4ay6sPJGVPtMBR7Ehcxpmg/o.jpg", "is_closed": false, "url": "https://www.yelp.com/biz/alster-au-hamburg-2?adjust_creative=hBJOknVQJ58S5goQyjmwRw&utm_campaign=yelp_api_v3&utm_medium=api_v3_business_search&utm_source=hBJOknVQJ58S5goQyjmwRw", "review_count": 20, "categories": [{"alias": "hotels", "title": "Hotels"}, {"alias": "german", "title": "German"}], "rating": 4.0, "coordinates": {"latitude": 53.70657, "longitude": 10.11733}, "transactions": [], "price": "\u20ac\u20ac", "location": {"address1": "Duvenstedter Damm  6", "address2": null, "address3": null, "city": "Hamburg", "zip_code": "22397", "country": "DE", "state": "HH", "display_address": ["Duvenstedter Damm  6", "22397 Hamburg", "Germany"]}, "phone": "+49406442400", "display_phone": "+49 40 6442400", "distance": 973.2866744110822}, {"id": "BAPz48pmYBDBfXbOikW2DQ", "alias": "lenz-hamburg", "name": "Lenz", "image_url": "https://s3-media3.fl.yelpcdn.com/bphoto/9graD77lr-0YQC4FQt5PaQ/o.jpg", "is_closed": false, "url": "https://www.yelp.com/biz/lenz-hamburg?adjust_creative=hBJOknVQJ58S5goQyjmwRw&utm_campaign=yelp_api_v3&utm_medium=api_v3_business_search&utm_source=hBJOknVQJ58S5goQyjmwRw", "review_count": 87, "categories": [{"alias": "wine_bars", "title": "Wine Bars"}, {"alias": "german", "title": "German"}], "rating": 4.5, "coordinates": {"latitude": 53.70815, "longitude": 10.10589}, "transactions": [], "price": "\u20ac\u20ac\u20ac", "location": {"address1": "Poppenb\u00fctteler Chaussee 3", "address2": null, "address3": null, "city": "Hamburg", "zip_code": "22397", "country": "DE", "state": "HH", "display_address": ["Poppenb\u00fctteler Chaussee 3", "22397 Hamburg", "Germany"]}, "phone": "+494060558887", "display_phone": "+49 40 60558887", "distance": 1565.5010312344266}, {"id": "lPP7z4ItqTPpA_XX52QnrA", "alias": "alte-m\u00fchle-hamburg", "name": "Alte M\u00fchle", "image_url": "https://s3-media2.fl.yelpcdn.com/bphoto/aQx2TqQhVkygL5E089prJQ/o.jpg", "is_closed": false, "url": "https://www.yelp.com/biz/alte-m%C3%BChle-hamburg?adjust_creative=hBJOknVQJ58S5goQyjmwRw&utm_campaign=yelp_api_v3&utm_medium=api_v3_business_search&utm_source=hBJOknVQJ58S5goQyjmwRw", "review_count": 34, "categories": [{"alias": "german", "title": "German"}, {"alias": "cafes", "title": "Cafes"}], "rating": 4.0, "coordinates": {"latitude": 53.6701998, "longitude": 10.1083718}, "transactions": [], "price": "\u20ac\u20ac", "location": {"address1": "Alte M\u00fchle 34", "address2": null, "address3": null, "city": "Hamburg", "zip_code": "22395", "country": "DE", "state": "HH", "display_address": ["Alte M\u00fchle 34", "22395 Hamburg", "Germany"]}, "phone": "+49406049171", "display_phone": "+49 40 6049171", "distance": 3291.849874922447}, {"id": "JYW4LsJPYmWM5RI-DNrfBw", "alias": "la-rucola-hamburg", "name": "La Rucola", "image_url": "https://s3-media4.fl.yelpcdn.com/bphoto/1_Q54uR6iMNlJDfx8nCdNQ/o.jpg", "is_closed": false, "url": "https://www.yelp.com/biz/la-rucola-hamburg?adjust_creative=hBJOknVQJ58S5goQyjmwRw&utm_campaign=yelp_api_v3&utm_medium=api_v3_business_search&utm_source=hBJOknVQJ58S5goQyjmwRw", "review_count": 10, "categories": [{"alias": "italian", "title": "Italian"}], "rating": 4.0, "coordinates": {"latitude": 53.6695114717445, "longitude": 10.1428208803824}, "transactions": [], "price": "\u20ac\u20ac\u20ac", "location": {"address1": "St\u00fcffeleck 2", "address2": "", "address3": null, "city": "Hamburg", "zip_code": "22359", "country": "DE", "state": "HH", "display_address": ["St\u00fcffeleck 2", "22359 Hamburg", "Germany"]}, "phone": "+49406048062", "display_phone": "+49 40 6048062", "distance": 3476.240376205118}, {"id": "dwwCa9FmB9iqg4f-0QMgVQ", "alias": "restaurant-zum-haselknick-hamburg", "name": "Restaurant zum Haselknick", "image_url": "https://s3-media4.fl.yelpcdn.com/bphoto/LfUgcMoKxm4AtIbxgZzdbg/o.jpg", "is_closed": false, "url": "https://www.yelp.com/biz/restaurant-zum-haselknick-hamburg?adjust_creative=hBJOknVQJ58S5goQyjmwRw&utm_campaign=yelp_api_v3&utm_medium=api_v3_business_search&utm_source=hBJOknVQJ58S5goQyjmwRw", "review_count": 7, "categories": [{"alias": "german", "title": "German"}], "rating": 4.0, "coordinates": {"latitude": 53.6932272340552, "longitude": 10.1185979515594}, "transactions": [], "price": "\u20ac", "location": {"address1": "Haselknick 77", "address2": "", "address3": "", "city": "Hamburg", "zip_code": "22397", "country": "DE", "state": "HH", "display_address": ["Haselknick 77", "22397 Hamburg", "Germany"]}, "phone": "+49406050494", "display_phone": "+49 40 6050494", "distance": 655.4124106417206}, {"id": "Xop8tuUgi1wWhZ2UNo8I9Q", "alias": "restaurant-mellingburger-schleuse-hamburg", "name": "Restaurant Mellingburger Schleuse", "image_url": "https://s3-media2.fl.yelpcdn.com/bphoto/ihfZ5LheEmuWRPg8-kqSVw/o.jpg", "is_closed": false, "url": "https://www.yelp.com/biz/restaurant-mellingburger-schleuse-hamburg?adjust_creative=hBJOknVQJ58S5goQyjmwRw&utm_campaign=yelp_api_v3&utm_medium=api_v3_business_search&utm_source=hBJOknVQJ58S5goQyjmwRw", "review_count": 5, "categories": [{"alias": "german", "title": "German"}], "rating": 4.0, "coordinates": {"latitude": 53.66999, "longitude": 10.09828}, "transactions": [], "location": {"address1": "Mellingburgredder 1", "address2": "", "address3": "", "city": "Hamburg", "zip_code": "22395", "country": "DE", "state": "HH", "display_address": ["Mellingburgredder 1", "22395 Hamburg", "Germany"]}, "phone": "+49406024001", "display_phone": "+49 40 6024001", "distance": 3674.307165812876}, {"id": "tQhh6Ac0uPL-7ue1f848pA", "alias": "gasthaus-zum-b\u00e4cker-hamburg", "name": "Gasthaus Zum B\u00e4cker", "image_url": "https://s3-media3.fl.yelpcdn.com/bphoto/Qx95kZ9VvRkT8TDu-u-_GA/o.jpg", "is_closed": false, "url": "https://www.yelp.com/biz/gasthaus-zum-b%C3%A4cker-hamburg?adjust_creative=hBJOknVQJ58S5goQyjmwRw&utm_campaign=yelp_api_v3&utm_medium=api_v3_business_search&utm_source=hBJOknVQJ58S5goQyjmwRw", "review_count": 31, "categories": [{"alias": "german", "title": "German"}], "rating": 4.0, "coordinates": {"latitude": 53.709966, "longitude": 10.131952}, "transactions": [], "price": "\u20ac\u20ac", "location": {"address1": "Herrenhausallee 9", "address2": null, "address3": null, "city": "Hamburg", "zip_code": "22397", "country": "DE", "state": "HH", "display_address": ["Herrenhausallee 9", "22397 Hamburg", "Germany"]}, "phone": "+494060765397", "display_phone": "+49 40 60765397", "distance": 1403.2377040834115}, {"id": "qDQLMRQxlDdkGZFNw8w1-A", "alias": "gutsk\u00fcche-tangstedt", "name": "Gutsk\u00fcche", "image_url": "https://s3-media1.fl.yelpcdn.com/bphoto/W9Gzq2yvPlxheckjNYtqkQ/o.jpg", "is_closed": false, "url": "https://www.yelp.com/biz/gutsk%C3%BCche-tangstedt?adjust_creative=hBJOknVQJ58S5goQyjmwRw&utm_campaign=yelp_api_v3&utm_medium=api_v3_business_search&utm_source=hBJOknVQJ58S5goQyjmwRw", "review_count": 51, "categories": [{"alias": "modern_european", "title": "Modern European"}, {"alias": "international", "title": "International"}], "rating": 4.0, "coordinates": {"latitude": 53.71843, "longitude": 10.11176}, "transactions": [], "price": "\u20ac\u20ac\u20ac", "location": {"address1": "Wulksfelder Damm 15 - 17", "address2": "", "address3": "", "city": "Tangstedt", "zip_code": "22889", "country": "DE", "state": "SH", "display_address": ["Wulksfelder Damm 15 - 17", "22889 Tangstedt", "Germany"]}, "phone": "+494064419441", "display_phone": "+49 40 64419441", "distance": 2275.2794302603124}, {"id": "5tp5KcW-tVRYKWq95ZK6iQ", "alias": "ristorante-italia-hamburg", "name": "Ristorante Italia", "image_url": "https://s3-media1.fl.yelpcdn.com/bphoto/zzCb9cJx5f7VE2F9vJQmEQ/o.jpg", "is_closed": false, "url": "https://www.yelp.com/biz/ristorante-italia-hamburg?adjust_creative=hBJOknVQJ58S5goQyjmwRw&utm_campaign=yelp_api_v3&utm_medium=api_v3_business_search&utm_source=hBJOknVQJ58S5goQyjmwRw", "review_count": 35, "categories": [{"alias": "italian", "title": "Italian"}], "rating": 4.0, "coordinates": {"latitude": 53.70802, "longitude": 10.10804}, "transactions": [], "price": "\u20ac\u20ac", "location": {"address1": "Duvenstedter Damm 45", "address2": "", "address3": null, "city": "Hamburg", "zip_code": "22397", "country": "DE", "state": "HH", "display_address": ["Duvenstedter Damm 45", "22397 Hamburg", "Germany"]}, "phone": "+49406072750", "display_phone": "+49 40 6072750", "distance": 1442.6110595199175}, {"id": "TvXUyRWBFExD8Wpv0iCkXw", "alias": "caros-konditorei-und-davids-caf\u00e9-hamburg", "name": "caros konditorei und davids caf\u00e9", "image_url": "https://s3-media2.fl.yelpcdn.com/bphoto/m7coPZEcBFtM7UBI4l98uw/o.jpg", "is_closed": false, "url": "https://www.yelp.com/biz/caros-konditorei-und-davids-caf%C3%A9-hamburg?adjust_creative=hBJOknVQJ58S5goQyjmwRw&utm_campaign=yelp_api_v3&utm_medium=api_v3_business_search&utm_source=hBJOknVQJ58S5goQyjmwRw", "review_count": 12, "categories": [{"alias": "cakeshop", "title": "Patisserie/Cake Shop"}, {"alias": "cafes", "title": "Cafes"}], "rating": 4.5, "coordinates": {"latitude": 53.708009, "longitude": 10.108087}, "transactions": [], "price": "\u20ac\u20ac\u20ac", "location": {"address1": "Duvenstedter Damm 45", "address2": "", "address3": "", "city": "Hamburg", "zip_code": "22397", "country": "DE", "state": "HH", "display_address": ["Duvenstedter Damm 45", "22397 Hamburg", "Germany"]}, "phone": "+494024439468", "display_phone": "+49 40 24439468", "distance": 1443.227868503858}, {"id": "jEExdSHO_hWAyiNh7SkDdw", "alias": "restaurant-landhaus-ohlstedt-hamburg", "name": "Restaurant Landhaus Ohlstedt", "image_url": "https://s3-media1.fl.yelpcdn.com/bphoto/u5kyzRpGLcfY9RrR8zVJug/o.jpg", "is_closed": false, "url": "https://www.yelp.com/biz/restaurant-landhaus-ohlstedt-hamburg?adjust_creative=hBJOknVQJ58S5goQyjmwRw&utm_campaign=yelp_api_v3&utm_medium=api_v3_business_search&utm_source=hBJOknVQJ58S5goQyjmwRw", "review_count": 16, "categories": [{"alias": "german", "title": "German"}, {"alias": "breakfast_brunch", "title": "Breakfast & Brunch"}], "rating": 3.5, "coordinates": {"latitude": 53.69562, "longitude": 10.13842}, "transactions": [], "price": "\u20ac\u20ac", "location": {"address1": "Alte Dorfstr. 5", "address2": null, "address3": null, "city": "Hamburg", "zip_code": "22397", "country": "DE", "state": "HH", "display_address": ["Alte Dorfstr. 5", "22397 Hamburg", "Germany"]}, "phone": "+49406056700", "display_phone": "+49 40 6056700", "distance": 1056.9709707911666}, {"id": "mxT59tks7phC1hUiaqMAJA", "alias": "gasthaus-quellenhof-aubert-fromm\u00e9-hamburg", "name": "Gasthaus Quellenhof Aubert Fromm\u00e9", "image_url": "https://s3-media2.fl.yelpcdn.com/bphoto/7UQJ0pSOgXBWrqp88VmuAg/o.jpg", "is_closed": false, "url": "https://www.yelp.com/biz/gasthaus-quellenhof-aubert-fromm%C3%A9-hamburg?adjust_creative=hBJOknVQJ58S5goQyjmwRw&utm_campaign=yelp_api_v3&utm_medium=api_v3_business_search&utm_source=hBJOknVQJ58S5goQyjmwRw", "review_count": 19, "categories": [{"alias": "cafes", "title": "Cafes"}, {"alias": "german", "title": "German"}], "rating": 3.5, "coordinates": {"latitude": 53.6847, "longitude": 10.1175}, "transactions": [], "price": "\u20ac\u20ac", "location": {"address1": "Rodenbeker Str. 126", "address2": null, "address3": null, "city": "Hamburg", "zip_code": "22395", "country": "DE", "state": "HH", "display_address": ["Rodenbeker Str. 126", "22395 Hamburg", "Germany"]}, "phone": "+49406049228", "display_phone": "+49 40 6049228", "distance": 1577.296241295845}, {"id": "LACckalF24FdKUnuGEB3FQ", "alias": "rio-grande-hamburg-6", "name": "Rio Grande", "image_url": "https://s3-media1.fl.yelpcdn.com/bphoto/cu9QzBIXNR43OqEdFMjaVQ/o.jpg", "is_closed": false, "url": "https://www.yelp.com/biz/rio-grande-hamburg-6?adjust_creative=hBJOknVQJ58S5goQyjmwRw&utm_campaign=yelp_api_v3&utm_medium=api_v3_business_search&utm_source=hBJOknVQJ58S5goQyjmwRw", "review_count": 40, "categories": [{"alias": "steak", "title": "Steakhouses"}, {"alias": "tradamerican", "title": "American (Traditional)"}], "rating": 3.5, "coordinates": {"latitude": 53.70887, "longitude": 10.10634}, "transactions": [], "price": "\u20ac\u20ac", "location": {"address1": "Duvenstedter Damm 72", "address2": "", "address3": "", "city": "Hamburg", "zip_code": "22397", "country": "DE", "state": "HH", "display_address": ["Duvenstedter Damm 72", "22397 Hamburg", "Germany"]}, "phone": "+494064419300", "display_phone": "+49 40 64419300", "distance": 1598.7685256659158}, {"id": "_hxqSzun5OLd6d1mBZdD6A", "alias": "taverna-petros-and-marietta-hamburg", "name": "Taverna Petros & Marietta", "image_url": "https://s3-media1.fl.yelpcdn.com/bphoto/Ga5yBMjksrcsliXHNWPxEg/o.jpg", "is_closed": false, "url": "https://www.yelp.com/biz/taverna-petros-and-marietta-hamburg?adjust_creative=hBJOknVQJ58S5goQyjmwRw&utm_campaign=yelp_api_v3&utm_medium=api_v3_business_search&utm_source=hBJOknVQJ58S5goQyjmwRw", "review_count": 14, "categories": [{"alias": "greek", "title": "Greek"}], "rating": 3.5, "coordinates": {"latitude": 53.70565, "longitude": 10.10657}, "transactions": [], "price": "\u20ac\u20ac", "location": {"address1": "Im Ellernbusch 41", "address2": "", "address3": "", "city": "Hamburg", "zip_code": "22397", "country": "DE", "state": "HH", "display_address": ["Im Ellernbusch 41", "22397 Hamburg", "Germany"]}, "phone": "+49406071733", "display_phone": "+49 40 6071733", "distance": 1334.9631956521648}, {"id": "TGz8lKgoxwEQM4IhdasDWw", "alias": "\u00f6kologisches-zentrum-siemerscher-hof-hamburg", "name": "\u00d6kologisches Zentrum Siemerscher Hof", "image_url": "https://s3-media1.fl.yelpcdn.com/bphoto/RYBWYt2K7VwQe2So7ETtRQ/o.jpg", "is_closed": false, "url": "https://www.yelp.com/biz/%C3%B6kologisches-zentrum-siemerscher-hof-hamburg?adjust_creative=hBJOknVQJ58S5goQyjmwRw&utm_campaign=yelp_api_v3&utm_medium=api_v3_business_search&utm_source=hBJOknVQJ58S5goQyjmwRw", "review_count": 1, "categories": [{"alias": "cafes", "title": "Cafes"}, {"alias": "coffee", "title": "Coffee & Tea"}], "rating": 5.0, "coordinates": {"latitude": 53.6707, "longitude": 10.1241}, "transactions": [], "location": {"address1": "Bergstedter Markt 1", "address2": null, "address3": null, "city": "Hamburg", "zip_code": "22395", "country": "DE", "state": "HH", "display_address": ["Bergstedter Markt 1", "22395 Hamburg", "Germany"]}, "phone": "+494060679140", "display_phone": "+49 40 60679140", "distance": 3091.8590761385417}, {"id": "wQXci5HPimPT00Ub1oHRTA", "alias": "shin-shin-hamburg", "name": "Shin Shin", "image_url": "https://s3-media1.fl.yelpcdn.com/bphoto/AmnCNLLIqKxbmb1JjlfkVA/o.jpg", "is_closed": false, "url": "https://www.yelp.com/biz/shin-shin-hamburg?adjust_creative=hBJOknVQJ58S5goQyjmwRw&utm_campaign=yelp_api_v3&utm_medium=api_v3_business_search&utm_source=hBJOknVQJ58S5goQyjmwRw", "review_count": 60, "categories": [{"alias": "chinese", "title": "Chinese"}], "rating": 3.5, "coordinates": {"latitude": 53.6599219019676, "longitude": 10.1155304326125}, "transactions": [], "price": "\u20ac\u20ac", "location": {"address1": "Saseler Chaussee 254", "address2": null, "address3": null, "city": "Hamburg", "zip_code": "22393", "country": "DE", "state": "HH", "display_address": ["Saseler Chaussee 254", "22393 Hamburg", "Germany"]}, "phone": "+49406019064", "display_phone": "+49 40 6019064", "distance": 4318.061577375581}, {"id": "2hzpvfdlgGOqGXzgjujLiQ", "alias": "zum-bergstedter-hamburg", "name": "Zum Bergstedter", "image_url": "", "is_closed": false, "url": "https://www.yelp.com/biz/zum-bergstedter-hamburg?adjust_creative=hBJOknVQJ58S5goQyjmwRw&utm_campaign=yelp_api_v3&utm_medium=api_v3_business_search&utm_source=hBJOknVQJ58S5goQyjmwRw", "review_count": 1, "categories": [{"alias": "amateursportsteams", "title": "Amateur Sports Teams"}, {"alias": "german", "title": "German"}], "rating": 4.0, "coordinates": {"latitude": 53.6709998, "longitude": 10.1343}, "transactions": [], "location": {"address1": "Teekoppel 9", "address2": null, "address3": null, "city": "Hamburg", "zip_code": "22395", "country": "DE", "state": "HH", "display_address": ["Teekoppel 9", "22395 Hamburg", "Germany"]}, "phone": "+49406049066", "display_phone": "+49 40 6049066", "distance": 3146.1970780788965}, {"id": "m_V1tGdPNMKHiK2AQbuKKQ", "alias": "duvenstedter-eiscaf\u00e9-hamburg-2", "name": "Duvenstedter Eiscaf\u00e9", "image_url": "https://s3-media2.fl.yelpcdn.com/bphoto/tI70Wf2bTa2eH2rURHYp5Q/o.jpg", "is_closed": false, "url": "https://www.yelp.com/biz/duvenstedter-eiscaf%C3%A9-hamburg-2?adjust_creative=hBJOknVQJ58S5goQyjmwRw&utm_campaign=yelp_api_v3&utm_medium=api_v3_business_search&utm_source=hBJOknVQJ58S5goQyjmwRw", "review_count": 30, "categories": [{"alias": "icecream", "title": "Ice Cream & Frozen Yogurt"}, {"alias": "breakfast_brunch", "title": "Breakfast & Brunch"}, {"alias": "cafes", "title": "Cafes"}], "rating": 4.0, "coordinates": {"latitude": 53.70825, "longitude": 10.1047}, "transactions": [], "price": "\u20ac\u20ac", "location": {"address1": "Poppenb\u00fctteler Chaussee 8", "address2": null, "address3": null, "city": "Hamburg", "zip_code": "22397", "country": "DE", "state": "HH", "display_address": ["Poppenb\u00fctteler Chaussee 8", "22397 Hamburg", "Germany"]}, "phone": "+494060761377", "display_phone": "+49 40 60761377", "distance": 1628.1440266421505}, {"id": "5X3yGustepaQnEkkxIb3Xg", "alias": "braaker-m\u00fchle-hamburg-7", "name": "Braaker M\u00fchle", "image_url": "https://s3-media1.fl.yelpcdn.com/bphoto/qIu1O5S5gH3tk84HWewL0w/o.jpg", "is_closed": false, "url": "https://www.yelp.com/biz/braaker-m%C3%BChle-hamburg-7?adjust_creative=hBJOknVQJ58S5goQyjmwRw&utm_campaign=yelp_api_v3&utm_medium=api_v3_business_search&utm_source=hBJOknVQJ58S5goQyjmwRw", "review_count": 2, "categories": [{"alias": "bakeries", "title": "Bakeries"}, {"alias": "cakeshop", "title": "Patisserie/Cake Shop"}, {"alias": "cafes", "title": "Cafes"}], "rating": 3.5, "coordinates": {"latitude": 53.6703923, "longitude": 10.1265993}, "transactions": [], "price": "\u20ac\u20ac", "location": {"address1": "Bergstedter Chaussee 130 a", "address2": null, "address3": null, "city": "Hamburg", "zip_code": "22395", "country": "DE", "state": "HH", "display_address": ["Bergstedter Chaussee 130 a", "22395 Hamburg", "Germany"]}, "phone": "+494069464668", "display_phone": "+49 40 69464668", "distance": 3134.023547545829}, {"id": "g6-fQG5tkTmKufTKxJxS9Q", "alias": "isi-grill-hamburg", "name": "Isi Grill", "image_url": "https://s3-media2.fl.yelpcdn.com/bphoto/XWXJNxPuuWnRGs8_gr_j0A/o.jpg", "is_closed": false, "url": "https://www.yelp.com/biz/isi-grill-hamburg?adjust_creative=hBJOknVQJ58S5goQyjmwRw&utm_campaign=yelp_api_v3&utm_medium=api_v3_business_search&utm_source=hBJOknVQJ58S5goQyjmwRw", "review_count": 10, "categories": [{"alias": "hotdogs", "title": "Fast Food"}, {"alias": "pizza", "title": "Pizza"}, {"alias": "kebab", "title": "Kebab"}], "rating": 4.0, "coordinates": {"latitude": 53.6784228, "longitude": 10.1472348}, "transactions": [], "price": "\u20ac", "location": {"address1": "Hamburger Str. 103", "address2": null, "address3": null, "city": "Hamburg", "zip_code": "22949", "country": "DE", "state": "HH", "display_address": ["Hamburger Str. 103", "22949 Hamburg", "Germany"]}, "phone": "+494060559903", "display_phone": "+49 40 60559903", "distance": 2742.1046268790947}, {"id": "a_D612wDcgOYT5UM0tMjTQ", "alias": "mundfein-pizzawerkstatt-hamburg-7", "name": "Mundfein Pizzawerkstatt", "image_url": "", "is_closed": false, "url": "https://www.yelp.com/biz/mundfein-pizzawerkstatt-hamburg-7?adjust_creative=hBJOknVQJ58S5goQyjmwRw&utm_campaign=yelp_api_v3&utm_medium=api_v3_business_search&utm_source=hBJOknVQJ58S5goQyjmwRw", "review_count": 3, "categories": [{"alias": "pizza", "title": "Pizza"}], "rating": 3.0, "coordinates": {"latitude": 53.66581, "longitude": 10.12076}, "transactions": [], "price": "\u20ac\u20ac", "location": {"address1": "Bergstedter Chaussee 77", "address2": "", "address3": "", "city": "Hamburg", "zip_code": "22395", "country": "DE", "state": "HH", "display_address": ["Bergstedter Chaussee 77", "22395 Hamburg", "Germany"]}, "phone": "+494021007896", "display_phone": "+49 40 21007896", "distance": 3633.0890303500464}]