[{"id": "ncZdbHM6gv-vgWAGl6p8pg", "alias": "da-sinito-norderstedt", "name": "Da Sinito", "image_url": "https://s3-media2.fl.yelpcdn.com/bphoto/_fIqepgtYf4h6koVb3V47Q/o.jpg", "is_closed": false, "url": "https://www.yelp.com/biz/da-sinito-norderstedt?adjust_creative=hBJOknVQJ58S5goQyjmwRw&utm_campaign=yelp_api_v3&utm_medium=api_v3_business_search&utm_source=hBJOknVQJ58S5goQyjmwRw", "review_count": 1, "categories": [{"alias": "italian", "title": "Italian"}], "rating": 4.0, "coordinates": {"latitude": 53.67486, "longitude": 9.96512}, "transactions": [], "location": {"address1": "Ohlenhoff 18", "address2": "", "address3": null, "city": "Norderstedt", "zip_code": "22848", "country": "DE", "state": "SH", "display_address": ["Ohlenhoff 18", "22848 Norderstedt", "Germany"]}, "phone": "+494050016151", "display_phone": "+49 40 50016151", "distance": 3211.032372606568}, {"id": "LM7Ly9kgEGwWAvN-8IeZbw", "alias": "seeterrasse-quickborn", "name": "Seeterrasse", "image_url": "https://s3-media3.fl.yelpcdn.com/bphoto/Zm-PHqQn4zigOlcbsuDyjg/o.jpg", "is_closed": false, "url": "https://www.yelp.com/biz/seeterrasse-quickborn?adjust_creative=hBJOknVQJ58S5goQyjmwRw&utm_campaign=yelp_api_v3&utm_medium=api_v3_business_search&utm_source=hBJOknVQJ58S5goQyjmwRw", "review_count": 4, "categories": [{"alias": "beergarden", "title": "Beer Garden"}], "rating": 4.5, "coordinates": {"latitude": 53.7236, "longitude": 9.93791}, "transactions": [], "price": "\u20ac", "location": {"address1": "Harksheider Weg 264", "address2": "Tennisclubhaus", "address3": null, "city": "Quickborn", "zip_code": "25451", "country": "DE", "state": "SH", "display_address": ["Harksheider Weg 264", "Tennisclubhaus", "25451 Quickborn", "Germany"]}, "phone": "+4941063920", "display_phone": "+49 4106 3920", "distance": 2626.604377009063}, {"id": "guZahoBDeSMSGSTpqd5GhA", "alias": "freiluft-hasloh-2", "name": "Freiluft", "image_url": "https://s3-media3.fl.yelpcdn.com/bphoto/4db8pfegMwzeKBDJxNc6aQ/o.jpg", "is_closed": false, "url": "https://www.yelp.com/biz/freiluft-hasloh-2?adjust_creative=hBJOknVQJ58S5goQyjmwRw&utm_campaign=yelp_api_v3&utm_medium=api_v3_business_search&utm_source=hBJOknVQJ58S5goQyjmwRw", "review_count": 3, "categories": [{"alias": "cafes", "title": "Cafes"}, {"alias": "breakfast_brunch", "title": "Breakfast & Brunch"}], "rating": 5.0, "coordinates": {"latitude": 53.6922063607989, "longitude": 9.92644350975752}, "transactions": [], "location": {"address1": "Garstedter Weg 36 A", "address2": null, "address3": null, "city": "Hasloh", "zip_code": "25474", "country": "DE", "state": "SH", "display_address": ["Garstedter Weg 36 A", "25474 Hasloh", "Germany"]}, "phone": "+4941069779025", "display_phone": "+49 4106 9779025", "distance": 1312.5727413278871}, {"id": "jFvtF_WCsb2IAlkOYzL0Bg", "alias": "landhaus-kaminski-norderstedt", "name": "Landhaus Kaminski", "image_url": "", "is_closed": false, "url": "https://www.yelp.com/biz/landhaus-kaminski-norderstedt?adjust_creative=hBJOknVQJ58S5goQyjmwRw&utm_campaign=yelp_api_v3&utm_medium=api_v3_business_search&utm_source=hBJOknVQJ58S5goQyjmwRw", "review_count": 4, "categories": [{"alias": "german", "title": "German"}], "rating": 5.0, "coordinates": {"latitude": 53.6583450958209, "longitude": 9.95852675288916}, "transactions": [], "location": {"address1": "Ohechaussee 442", "address2": "", "address3": null, "city": "Norderstedt", "zip_code": "22848", "country": "DE", "state": "SH", "display_address": ["Ohechaussee 442", "22848 Norderstedt", "Germany"]}, "phone": "+494018881703", "display_phone": "+49 40 18881703", "distance": 4775.414826812113}, {"id": "qheb5F4ieQ1EaI_gHrJ6Dg", "alias": "restaurant-seegarten-quickborn", "name": "Restaurant Seegarten", "image_url": "", "is_closed": false, "url": "https://www.yelp.com/biz/restaurant-seegarten-quickborn?adjust_creative=hBJOknVQJ58S5goQyjmwRw&utm_campaign=yelp_api_v3&utm_medium=api_v3_business_search&utm_source=hBJOknVQJ58S5goQyjmwRw", "review_count": 2, "categories": [{"alias": "german", "title": "German"}], "rating": 5.0, "coordinates": {"latitude": 53.7243, "longitude": 9.93564}, "transactions": [], "location": {"address1": "Harksheider Weg 258", "address2": null, "address3": null, "city": "Quickborn", "zip_code": "25451", "country": "DE", "state": "SH", "display_address": ["Harksheider Weg 258", "25451 Quickborn", "Germany"]}, "phone": "+49410663670", "display_phone": "+49 4106 63670", "distance": 2720.64006864892}, {"id": "qC8eb5-vpUSzcH-Nx9SBGg", "alias": "seegarten-quickborn", "name": "Seegarten", "image_url": "https://s3-media4.fl.yelpcdn.com/bphoto/SxVi_bH6DTKSy5XG-49LCQ/o.jpg", "is_closed": false, "url": "https://www.yelp.com/biz/seegarten-quickborn?adjust_creative=hBJOknVQJ58S5goQyjmwRw&utm_campaign=yelp_api_v3&utm_medium=api_v3_business_search&utm_source=hBJOknVQJ58S5goQyjmwRw", "review_count": 6, "categories": [{"alias": "hotels", "title": "Hotels"}, {"alias": "international", "title": "International"}, {"alias": "german", "title": "German"}], "rating": 3.5, "coordinates": {"latitude": 53.7242, "longitude": 9.93571}, "transactions": [], "price": "\u20ac\u20ac\u20ac", "location": {"address1": "Harksheider Weg 258", "address2": null, "address3": null, "city": "Quickborn", "zip_code": "25451", "country": "DE", "state": "SH", "display_address": ["Harksheider Weg 258", "25451 Quickborn", "Germany"]}, "phone": "+49410663670", "display_phone": "+49 4106 63670", "distance": 2708.994818452917}, {"id": "DssxavSA9nAfrFVeO7gozg", "alias": "auf-dem-halenberg-quickborn", "name": "Auf dem Halenberg", "image_url": "", "is_closed": false, "url": "https://www.yelp.com/biz/auf-dem-halenberg-quickborn?adjust_creative=hBJOknVQJ58S5goQyjmwRw&utm_campaign=yelp_api_v3&utm_medium=api_v3_business_search&utm_source=hBJOknVQJ58S5goQyjmwRw", "review_count": 1, "categories": [{"alias": "german", "title": "German"}], "rating": 3.0, "coordinates": {"latitude": 53.742, "longitude": 9.94366}, "transactions": [], "location": {"address1": "Auf dem Halenberg 6", "address2": null, "address3": null, "city": "Quickborn", "zip_code": "25451", "country": "DE", "state": "SH", "display_address": ["Auf dem Halenberg 6", "25451 Quickborn", "Germany"]}, "phone": "+494106618580", "display_phone": "+49 4106 618580", "distance": 4665.520058487464}, {"id": "APvIA_7ssxgC0atmQEFMcg", "alias": "burgerkultour-food-truck-hamburg-2", "name": "BurgerKultour Food Truck", "image_url": "https://s3-media4.fl.yelpcdn.com/bphoto/KoAuwalMnlAO8139MmdYBQ/o.jpg", "is_closed": false, "url": "https://www.yelp.com/biz/burgerkultour-food-truck-hamburg-2?adjust_creative=hBJOknVQJ58S5goQyjmwRw&utm_campaign=yelp_api_v3&utm_medium=api_v3_business_search&utm_source=hBJOknVQJ58S5goQyjmwRw", "review_count": 3, "categories": [{"alias": "foodtrucks", "title": "Food Trucks"}, {"alias": "burgers", "title": "Burgers"}], "rating": 4.5, "coordinates": {"latitude": 53.57154, "longitude": 9.95575}, "transactions": [], "price": "\u20ac\u20ac", "location": {"address1": "", "address2": "", "address3": "", "city": "Hamburg", "zip_code": "20259", "country": "DE", "state": "HH", "display_address": ["20259 Hamburg", "Germany"]}, "phone": "+4917626055122", "display_phone": "+49 176 26055122", "distance": 14389.868096757873}, {"id": "YVXM1rqCVL9Zxn1wZc8wMg", "alias": "mcdonalds-quickborn", "name": "McDonald's", "image_url": "https://s3-media2.fl.yelpcdn.com/bphoto/imrCHyml0SC_ufG6Hp9oUw/o.jpg", "is_closed": false, "url": "https://www.yelp.com/biz/mcdonalds-quickborn?adjust_creative=hBJOknVQJ58S5goQyjmwRw&utm_campaign=yelp_api_v3&utm_medium=api_v3_business_search&utm_source=hBJOknVQJ58S5goQyjmwRw", "review_count": 14, "categories": [{"alias": "burgers", "title": "Burgers"}, {"alias": "hotdogs", "title": "Fast Food"}], "rating": 3.0, "coordinates": {"latitude": 53.7424, "longitude": 9.94411}, "transactions": [], "price": "\u20ac\u20ac", "location": {"address1": "Auf dem Halenberg 250", "address2": null, "address3": null, "city": "Quickborn", "zip_code": "25451", "country": "DE", "state": "SH", "display_address": ["Auf dem Halenberg 250", "25451 Quickborn", "Germany"]}, "phone": "", "display_phone": "", "distance": 4711.034466076853}, {"id": "cGIKCcR0wZszz8VldC2-7g", "alias": "currywerk-hamburg", "name": "curryWERK", "image_url": "https://s3-media4.fl.yelpcdn.com/bphoto/j_ZPQAB6JrAru84VDuLiRA/o.jpg", "is_closed": false, "url": "https://www.yelp.com/biz/currywerk-hamburg?adjust_creative=hBJOknVQJ58S5goQyjmwRw&utm_campaign=yelp_api_v3&utm_medium=api_v3_business_search&utm_source=hBJOknVQJ58S5goQyjmwRw", "review_count": 1, "categories": [{"alias": "foodtrucks", "title": "Food Trucks"}, {"alias": "currysausage", "title": "Curry Sausage"}], "rating": 4.0, "coordinates": {"latitude": 53.5498886108398, "longitude": 9.94732189178467}, "transactions": [], "price": "\u20ac\u20ac", "location": {"address1": "", "address2": "", "address3": "", "city": "Hamburg", "zip_code": "22767", "country": "DE", "state": "HH", "display_address": ["22767 Hamburg", "Germany"]}, "phone": "+4917632443433", "display_phone": "+49 176 32443433", "distance": 16810.2288869931}]