[{"id": "ByLnXlZ8Dcpx6bkQy7OZ3Q", "alias": "die-m\u00fchle-hamburg", "name": "Die M\u00fchle", "image_url": "https://s3-media3.fl.yelpcdn.com/bphoto/7XffThMeNk9m6kBU4CihAg/o.jpg", "is_closed": false, "url": "https://www.yelp.com/biz/die-m%C3%BChle-hamburg?adjust_creative=hBJOknVQJ58S5goQyjmwRw&utm_campaign=yelp_api_v3&utm_medium=api_v3_business_search&utm_source=hBJOknVQJ58S5goQyjmwRw", "review_count": 21, "categories": [{"alias": "german", "title": "German"}], "rating": 4.0, "coordinates": {"latitude": 53.709764, "longitude": 10.130082}, "transactions": [], "price": "\u20ac\u20ac", "location": {"address1": "M\u00fchlenredder 38", "address2": null, "address3": null, "city": "Hamburg", "zip_code": "22397", "country": "DE", "state": "HH", "display_address": ["M\u00fchlenredder 38", "22397 Hamburg", "Germany"]}, "phone": "+49406076650", "display_phone": "+49 40 6076650", "distance": 1718.1366196061351}, {"id": "tQhh6Ac0uPL-7ue1f848pA", "alias": "gasthaus-zum-b\u00e4cker-hamburg", "name": "Gasthaus Zum B\u00e4cker", "image_url": "https://s3-media3.fl.yelpcdn.com/bphoto/Qx95kZ9VvRkT8TDu-u-_GA/o.jpg", "is_closed": false, "url": "https://www.yelp.com/biz/gasthaus-zum-b%C3%A4cker-hamburg?adjust_creative=hBJOknVQJ58S5goQyjmwRw&utm_campaign=yelp_api_v3&utm_medium=api_v3_business_search&utm_source=hBJOknVQJ58S5goQyjmwRw", "review_count": 31, "categories": [{"alias": "german", "title": "German"}], "rating": 4.0, "coordinates": {"latitude": 53.709966, "longitude": 10.131952}, "transactions": [], "price": "\u20ac\u20ac", "location": {"address1": "Herrenhausallee 9", "address2": null, "address3": null, "city": "Hamburg", "zip_code": "22397", "country": "DE", "state": "HH", "display_address": ["Herrenhausallee 9", "22397 Hamburg", "Germany"]}, "phone": "+494060765397", "display_phone": "+49 40 60765397", "distance": 1597.1596813558053}, {"id": "Grb8z5E-aUEYCeIy8FTCng", "alias": "restaurant-am-brook-henners-stuuv-tangstedt", "name": "Restaurant am Brook - Henners Stuuv", "image_url": "https://s3-media2.fl.yelpcdn.com/bphoto/09nUTzuPt3owrLjdyOcBMg/o.jpg", "is_closed": false, "url": "https://www.yelp.com/biz/restaurant-am-brook-henners-stuuv-tangstedt?adjust_creative=hBJOknVQJ58S5goQyjmwRw&utm_campaign=yelp_api_v3&utm_medium=api_v3_business_search&utm_source=hBJOknVQJ58S5goQyjmwRw", "review_count": 1, "categories": [{"alias": "german", "title": "German"}], "rating": 4.0, "coordinates": {"latitude": 53.7389603, "longitude": 10.1586199}, "transactions": [], "location": {"address1": "Wiemerskamper Weg 133", "address2": "", "address3": "", "city": "Tangstedt", "zip_code": "22889", "country": "DE", "state": "SH", "display_address": ["Wiemerskamper Weg 133", "22889 Tangstedt", "Germany"]}, "phone": "+4915224278853", "display_phone": "+49 1522 4278853", "distance": 2491.463487195655}, {"id": "dvB6oLtP1vQ0CqotRJuELg", "alias": "alsterschleuse-tangstedt", "name": "Alsterschleuse", "image_url": "https://s3-media2.fl.yelpcdn.com/bphoto/ArewhkXYBLBf6d4SvPE8aQ/o.jpg", "is_closed": false, "url": "https://www.yelp.com/biz/alsterschleuse-tangstedt?adjust_creative=hBJOknVQJ58S5goQyjmwRw&utm_campaign=yelp_api_v3&utm_medium=api_v3_business_search&utm_source=hBJOknVQJ58S5goQyjmwRw", "review_count": 3, "categories": [{"alias": "mediterranean", "title": "Mediterranean"}, {"alias": "italian", "title": "Italian"}], "rating": 3.5, "coordinates": {"latitude": 53.75301, "longitude": 10.13827}, "transactions": [], "location": {"address1": "Ehlersberg 26", "address2": "", "address3": "", "city": "Tangstedt", "zip_code": "22889", "country": "DE", "state": "SH", "display_address": ["Ehlersberg 26", "22889 Tangstedt", "Germany"]}, "phone": "+4941092134080", "display_phone": "+49 4109 2134080", "distance": 4209.708756747786}, {"id": "OBMxtGUY2M0uR9ZDJESQCw", "alias": "zum-dorfkrug-am-gutshof-ammersbek", "name": "Zum Dorfkrug am Gutshof", "image_url": "", "is_closed": false, "url": "https://www.yelp.com/biz/zum-dorfkrug-am-gutshof-ammersbek?adjust_creative=hBJOknVQJ58S5goQyjmwRw&utm_campaign=yelp_api_v3&utm_medium=api_v3_business_search&utm_source=hBJOknVQJ58S5goQyjmwRw", "review_count": 1, "categories": [{"alias": "german", "title": "German"}], "rating": 5.0, "coordinates": {"latitude": 53.691685, "longitude": 10.165921}, "transactions": [], "location": {"address1": "Am Gutshof 1", "address2": null, "address3": null, "city": "Ammersbek", "zip_code": "22949", "country": "DE", "state": "SH", "display_address": ["Am Gutshof 1", "22949 Ammersbek", "Germany"]}, "phone": "+494074129645", "display_phone": "+49 40 74129645", "distance": 2848.8383941947072}, {"id": "jEExdSHO_hWAyiNh7SkDdw", "alias": "restaurant-landhaus-ohlstedt-hamburg", "name": "Restaurant Landhaus Ohlstedt", "image_url": "https://s3-media1.fl.yelpcdn.com/bphoto/u5kyzRpGLcfY9RrR8zVJug/o.jpg", "is_closed": false, "url": "https://www.yelp.com/biz/restaurant-landhaus-ohlstedt-hamburg?adjust_creative=hBJOknVQJ58S5goQyjmwRw&utm_campaign=yelp_api_v3&utm_medium=api_v3_business_search&utm_source=hBJOknVQJ58S5goQyjmwRw", "review_count": 16, "categories": [{"alias": "german", "title": "German"}, {"alias": "breakfast_brunch", "title": "Breakfast & Brunch"}], "rating": 3.5, "coordinates": {"latitude": 53.69562, "longitude": 10.13842}, "transactions": [], "price": "\u20ac\u20ac", "location": {"address1": "Alte Dorfstr. 5", "address2": null, "address3": null, "city": "Hamburg", "zip_code": "22397", "country": "DE", "state": "HH", "display_address": ["Alte Dorfstr. 5", "22397 Hamburg", "Germany"]}, "phone": "+49406056700", "display_phone": "+49 40 6056700", "distance": 2494.066430404384}, {"id": "tUzeOrsR-8KAHItbnCKQeA", "alias": "china-ente-ha-ammersbek", "name": "China Ente Ha", "image_url": "https://s3-media1.fl.yelpcdn.com/bphoto/A1wVmkXBW1jB5rkDp9BvgA/o.jpg", "is_closed": false, "url": "https://www.yelp.com/biz/china-ente-ha-ammersbek?adjust_creative=hBJOknVQJ58S5goQyjmwRw&utm_campaign=yelp_api_v3&utm_medium=api_v3_business_search&utm_source=hBJOknVQJ58S5goQyjmwRw", "review_count": 5, "categories": [{"alias": "chinese", "title": "Chinese"}], "rating": 4.0, "coordinates": {"latitude": 53.6920240862307, "longitude": 10.1684083319408}, "transactions": [], "price": "\u20ac\u20ac", "location": {"address1": "L\u00fcbecker Str. 8-10", "address2": null, "address3": null, "city": "Ammersbek", "zip_code": "22949", "country": "DE", "state": "SH", "display_address": ["L\u00fcbecker Str. 8-10", "22949 Ammersbek", "Germany"]}, "phone": "+49406050533", "display_phone": "+49 40 6050533", "distance": 2852.710551170253}, {"id": "jttUzCQqE8-y8v_49Edtsw", "alias": "zum-pferdestall-am-gutshof-ammersbek", "name": "Zum Pferdestall am Gutshof", "image_url": "", "is_closed": false, "url": "https://www.yelp.com/biz/zum-pferdestall-am-gutshof-ammersbek?adjust_creative=hBJOknVQJ58S5goQyjmwRw&utm_campaign=yelp_api_v3&utm_medium=api_v3_business_search&utm_source=hBJOknVQJ58S5goQyjmwRw", "review_count": 1, "categories": [{"alias": "german", "title": "German"}], "rating": 4.0, "coordinates": {"latitude": 53.69169, "longitude": 10.16593}, "transactions": [], "location": {"address1": "Am Gutshof 1", "address2": null, "address3": null, "city": "Ammersbek", "zip_code": "22949", "country": "DE", "state": "SH", "display_address": ["Am Gutshof 1", "22949 Ammersbek", "Germany"]}, "phone": "+494074129645", "display_phone": "+49 40 74129645", "distance": 2848.8383941947072}, {"id": "Cl0P6OkgTc5m1RtcNqBToQ", "alias": "dein-caf\u00e9-ammersbek-2", "name": "Dein Caf\u00e9", "image_url": "https://s3-media4.fl.yelpcdn.com/bphoto/rkOx6mbD_lsHK27dOT4v1w/o.jpg", "is_closed": false, "url": "https://www.yelp.com/biz/dein-caf%C3%A9-ammersbek-2?adjust_creative=hBJOknVQJ58S5goQyjmwRw&utm_campaign=yelp_api_v3&utm_medium=api_v3_business_search&utm_source=hBJOknVQJ58S5goQyjmwRw", "review_count": 8, "categories": [{"alias": "cafes", "title": "Cafes"}, {"alias": "icecream", "title": "Ice Cream & Frozen Yogurt"}, {"alias": "coffee", "title": "Coffee & Tea"}], "rating": 5.0, "coordinates": {"latitude": 53.6775983507195, "longitude": 10.1496058794512}, "transactions": [], "price": "\u20ac\u20ac", "location": {"address1": "Georg-Sasse-Str. 16", "address2": "", "address3": "", "city": "Ammersbek", "zip_code": "22949", "country": "DE", "state": "SH", "display_address": ["Georg-Sasse-Str. 16", "22949 Ammersbek", "Germany"]}, "phone": "+494102x9742081", "display_phone": "+49 4102 ext. 9742081", "distance": 4299.540989819843}, {"id": "EDK_j12cIyv66gMJHO8PiA", "alias": "gasthaus-waldesruh-bargfeld-stegen", "name": "Gasthaus Waldesruh", "image_url": "https://s3-media3.fl.yelpcdn.com/bphoto/30rPAQ9d3hj2-qkXT00qUg/o.jpg", "is_closed": false, "url": "https://www.yelp.com/biz/gasthaus-waldesruh-bargfeld-stegen?adjust_creative=hBJOknVQJ58S5goQyjmwRw&utm_campaign=yelp_api_v3&utm_medium=api_v3_business_search&utm_source=hBJOknVQJ58S5goQyjmwRw", "review_count": 2, "categories": [{"alias": "german", "title": "German"}, {"alias": "guesthouses", "title": "Guest Houses"}], "rating": 3.0, "coordinates": {"latitude": 53.7483, "longitude": 10.1737}, "transactions": [], "price": "\u20ac\u20ac", "location": {"address1": "Forstweg 2", "address2": null, "address3": null, "city": "Bargfeld-Stegen", "zip_code": "23863", "country": "DE", "state": "SH", "display_address": ["Forstweg 2", "23863 Bargfeld-Stegen", "Germany"]}, "phone": "+49453222192", "display_phone": "+49 4532 22192", "distance": 3802.788925325968}, {"id": "APvIA_7ssxgC0atmQEFMcg", "alias": "burgerkultour-food-truck-hamburg-2", "name": "BurgerKultour Food Truck", "image_url": "https://s3-media4.fl.yelpcdn.com/bphoto/KoAuwalMnlAO8139MmdYBQ/o.jpg", "is_closed": false, "url": "https://www.yelp.com/biz/burgerkultour-food-truck-hamburg-2?adjust_creative=hBJOknVQJ58S5goQyjmwRw&utm_campaign=yelp_api_v3&utm_medium=api_v3_business_search&utm_source=hBJOknVQJ58S5goQyjmwRw", "review_count": 3, "categories": [{"alias": "foodtrucks", "title": "Food Trucks"}, {"alias": "burgers", "title": "Burgers"}], "rating": 4.5, "coordinates": {"latitude": 53.57154, "longitude": 9.95575}, "transactions": [], "price": "\u20ac\u20ac", "location": {"address1": "", "address2": "", "address3": "", "city": "Hamburg", "zip_code": "20259", "country": "DE", "state": "HH", "display_address": ["20259 Hamburg", "Germany"]}, "phone": "+4917626055122", "display_phone": "+49 176 26055122", "distance": 20740.84485374178}, {"id": "g6-fQG5tkTmKufTKxJxS9Q", "alias": "isi-grill-hamburg", "name": "Isi Grill", "image_url": "https://s3-media2.fl.yelpcdn.com/bphoto/XWXJNxPuuWnRGs8_gr_j0A/o.jpg", "is_closed": false, "url": "https://www.yelp.com/biz/isi-grill-hamburg?adjust_creative=hBJOknVQJ58S5goQyjmwRw&utm_campaign=yelp_api_v3&utm_medium=api_v3_business_search&utm_source=hBJOknVQJ58S5goQyjmwRw", "review_count": 10, "categories": [{"alias": "hotdogs", "title": "Fast Food"}, {"alias": "pizza", "title": "Pizza"}, {"alias": "kebab", "title": "Kebab"}], "rating": 4.0, "coordinates": {"latitude": 53.6784228, "longitude": 10.1472348}, "transactions": [], "price": "\u20ac", "location": {"address1": "Hamburger Str. 103", "address2": null, "address3": null, "city": "Hamburg", "zip_code": "22949", "country": "DE", "state": "HH", "display_address": ["Hamburger Str. 103", "22949 Hamburg", "Germany"]}, "phone": "+494060559903", "display_phone": "+49 40 60559903", "distance": 4221.25177776077}, {"id": "cGIKCcR0wZszz8VldC2-7g", "alias": "currywerk-hamburg", "name": "curryWERK", "image_url": "https://s3-media4.fl.yelpcdn.com/bphoto/j_ZPQAB6JrAru84VDuLiRA/o.jpg", "is_closed": false, "url": "https://www.yelp.com/biz/currywerk-hamburg?adjust_creative=hBJOknVQJ58S5goQyjmwRw&utm_campaign=yelp_api_v3&utm_medium=api_v3_business_search&utm_source=hBJOknVQJ58S5goQyjmwRw", "review_count": 1, "categories": [{"alias": "foodtrucks", "title": "Food Trucks"}, {"alias": "currysausage", "title": "Curry Sausage"}], "rating": 4.0, "coordinates": {"latitude": 53.5498886108398, "longitude": 9.94732189178467}, "transactions": [], "price": "\u20ac\u20ac", "location": {"address1": "", "address2": "", "address3": "", "city": "Hamburg", "zip_code": "22767", "country": "DE", "state": "HH", "display_address": ["22767 Hamburg", "Germany"]}, "phone": "+4917632443433", "display_phone": "+49 176 32443433", "distance": 23237.989501073826}]