[{"id": "HstocBIyrIBMYakh2bzpYA", "alias": "mr-grande-tornesch", "name": "Mr. Grande", "image_url": "https://s3-media4.fl.yelpcdn.com/bphoto/TmsB-dU9_JmZoCgtpkY-Mw/o.jpg", "is_closed": false, "url": "https://www.yelp.com/biz/mr-grande-tornesch?adjust_creative=hBJOknVQJ58S5goQyjmwRw&utm_campaign=yelp_api_v3&utm_medium=api_v3_business_search&utm_source=hBJOknVQJ58S5goQyjmwRw", "review_count": 11, "categories": [{"alias": "steak", "title": "Steakhouses"}], "rating": 4.0, "coordinates": {"latitude": 53.697, "longitude": 9.71389}, "transactions": [], "price": "\u20ac\u20ac", "location": {"address1": "Esinger Str. 1 a", "address2": null, "address3": null, "city": "Tornesch", "zip_code": "25436", "country": "DE", "state": "SH", "display_address": ["Esinger Str. 1 a", "25436 Tornesch", "Germany"]}, "phone": "+4941229788400", "display_phone": "+49 4122 9788400", "distance": 2708.844766479256}, {"id": "3rQm4ges4ykNu04JxHyt7Q", "alias": "gastst\u00e4tte-walthers-elmshorn", "name": "Gastst\u00e4tte Walthers", "image_url": "", "is_closed": false, "url": "https://www.yelp.com/biz/gastst%C3%A4tte-walthers-elmshorn?adjust_creative=hBJOknVQJ58S5goQyjmwRw&utm_campaign=yelp_api_v3&utm_medium=api_v3_business_search&utm_source=hBJOknVQJ58S5goQyjmwRw", "review_count": 1, "categories": [{"alias": "restaurants", "title": "Restaurants"}], "rating": 5.0, "coordinates": {"latitude": 53.7411, "longitude": 9.70526}, "transactions": [], "price": "\u20ac", "location": {"address1": "Ramskamp 71-75", "address2": null, "address3": null, "city": "Elmshorn", "zip_code": "25337", "country": "DE", "state": "SH", "display_address": ["Ramskamp 71-75", "25337 Elmshorn", "Germany"]}, "phone": "+494121471670", "display_phone": "+49 4121 471670", "distance": 2884.5973795921755}, {"id": "qvec_5DbH7v7PHuwJD1Mcw", "alias": "himara-tornesch", "name": "Himara", "image_url": "https://s3-media1.fl.yelpcdn.com/bphoto/35PonVgPDtUod_UWa_yMHw/o.jpg", "is_closed": false, "url": "https://www.yelp.com/biz/himara-tornesch?adjust_creative=hBJOknVQJ58S5goQyjmwRw&utm_campaign=yelp_api_v3&utm_medium=api_v3_business_search&utm_source=hBJOknVQJ58S5goQyjmwRw", "review_count": 30, "categories": [{"alias": "greek", "title": "Greek"}, {"alias": "mediterranean", "title": "Mediterranean"}], "rating": 4.5, "coordinates": {"latitude": 53.7033899517144, "longitude": 9.71423014998436}, "transactions": [], "price": "\u20ac\u20ac", "location": {"address1": "Heimst\u00e4ttenstr. 1", "address2": "", "address3": "", "city": "Tornesch", "zip_code": "25436", "country": "DE", "state": "SH", "display_address": ["Heimst\u00e4ttenstr. 1", "25436 Tornesch", "Germany"]}, "phone": "+4941229831049", "display_phone": "+49 4122 9831049", "distance": 2058.766220755673}, {"id": "IhyQn2jIl2PNGfDbybF7fw", "alias": "brathahn-elmshorn", "name": "Brathahn", "image_url": "https://s3-media4.fl.yelpcdn.com/bphoto/rwcHwfvpLiQ-djlZ7TzqWg/o.jpg", "is_closed": false, "url": "https://www.yelp.com/biz/brathahn-elmshorn?adjust_creative=hBJOknVQJ58S5goQyjmwRw&utm_campaign=yelp_api_v3&utm_medium=api_v3_business_search&utm_source=hBJOknVQJ58S5goQyjmwRw", "review_count": 1, "categories": [{"alias": "hotdogs", "title": "Fast Food"}], "rating": 5.0, "coordinates": {"latitude": 53.7425, "longitude": 9.70936}, "transactions": [], "location": {"address1": "Ramskamp 102", "address2": null, "address3": null, "city": "Elmshorn", "zip_code": "25337", "country": "DE", "state": "SH", "display_address": ["Ramskamp 102", "25337 Elmshorn", "Germany"]}, "phone": "", "display_phone": "", "distance": 2881.2435235125554}, {"id": "tvB9l5ZXd81t8mXgnIg5Tg", "alias": "ali-baba-elmshorn", "name": "Ali Baba", "image_url": "https://s3-media4.fl.yelpcdn.com/bphoto/uyS0NuAlTNaQNAa5ZnwN-g/o.jpg", "is_closed": false, "url": "https://www.yelp.com/biz/ali-baba-elmshorn?adjust_creative=hBJOknVQJ58S5goQyjmwRw&utm_campaign=yelp_api_v3&utm_medium=api_v3_business_search&utm_source=hBJOknVQJ58S5goQyjmwRw", "review_count": 1, "categories": [{"alias": "kebab", "title": "Kebab"}], "rating": 4.0, "coordinates": {"latitude": 53.7434103746847, "longitude": 9.70878529951131}, "transactions": [], "location": {"address1": "Ramskamp 102", "address2": "", "address3": "", "city": "Elmshorn", "zip_code": "25337", "country": "DE", "state": "SH", "display_address": ["Ramskamp 102", "25337 Elmshorn", "Germany"]}, "phone": "+4941215797719", "display_phone": "+49 4121 5797719", "distance": 2988.5104286865003}, {"id": "ETO7FWjeaKWqclkOKM9U-Q", "alias": "restaurant-lindenkrug-tornesch", "name": "Restaurant Lindenkrug", "image_url": "https://s3-media1.fl.yelpcdn.com/bphoto/bhx02cZDxmd6pFyWhekxlA/o.jpg", "is_closed": false, "url": "https://www.yelp.com/biz/restaurant-lindenkrug-tornesch?adjust_creative=hBJOknVQJ58S5goQyjmwRw&utm_campaign=yelp_api_v3&utm_medium=api_v3_business_search&utm_source=hBJOknVQJ58S5goQyjmwRw", "review_count": 4, "categories": [{"alias": "greek", "title": "Greek"}], "rating": 4.5, "coordinates": {"latitude": 53.6853, "longitude": 9.7284}, "transactions": [], "price": "\u20ac\u20ac", "location": {"address1": "Hafenstr.  1", "address2": null, "address3": null, "city": "Tornesch", "zip_code": "25436", "country": "DE", "state": "SH", "display_address": ["Hafenstr.  1", "25436 Tornesch", "Germany"]}, "phone": "+494122954940", "display_phone": "+49 4122 954940", "distance": 3805.728674891619}, {"id": "fo-Z7Sr_QkG4DsxTFKU27g", "alias": "mamma-mia-tornesch", "name": "Mamma Mia", "image_url": "https://s3-media1.fl.yelpcdn.com/bphoto/KpXJZPR0u1KQdLrCaKmXAA/o.jpg", "is_closed": false, "url": "https://www.yelp.com/biz/mamma-mia-tornesch?adjust_creative=hBJOknVQJ58S5goQyjmwRw&utm_campaign=yelp_api_v3&utm_medium=api_v3_business_search&utm_source=hBJOknVQJ58S5goQyjmwRw", "review_count": 9, "categories": [{"alias": "italian", "title": "Italian"}], "rating": 4.0, "coordinates": {"latitude": 53.7042367287825, "longitude": 9.7301111977903}, "transactions": [], "price": "\u20ac\u20ac", "location": {"address1": "Ahrenlohe Str. 99", "address2": "", "address3": "", "city": "Tornesch", "zip_code": "25436", "country": "DE", "state": "SH", "display_address": ["Ahrenlohe Str. 99", "25436 Tornesch", "Germany"]}, "phone": "+4941229991293", "display_phone": "+49 4122 9991293", "distance": 1699.5948753289406}, {"id": "ORCpV4AAdQb_Kh66kzTXMg", "alias": "landcafe-uhlenhoff-k\u00f6lln-reisiek", "name": "Landcafe Uhlenhoff", "image_url": "https://s3-media4.fl.yelpcdn.com/bphoto/AjqW7QnO1d96cFqdSp1dPw/o.jpg", "is_closed": false, "url": "https://www.yelp.com/biz/landcafe-uhlenhoff-k%C3%B6lln-reisiek?adjust_creative=hBJOknVQJ58S5goQyjmwRw&utm_campaign=yelp_api_v3&utm_medium=api_v3_business_search&utm_source=hBJOknVQJ58S5goQyjmwRw", "review_count": 4, "categories": [{"alias": "cafes", "title": "Cafes"}, {"alias": "kids_activities", "title": "Kids Activities"}], "rating": 5.0, "coordinates": {"latitude": 53.74754, "longitude": 9.71883}, "transactions": [], "location": {"address1": "Waldweg 52", "address2": null, "address3": null, "city": "K\u00f6lln-Reisiek", "zip_code": "25337", "country": "DE", "state": "SH", "display_address": ["Waldweg 52", "25337 K\u00f6lln-Reisiek", "Germany"]}, "phone": "+49412171613", "display_phone": "+49 4121 71613", "distance": 3195.259892368597}, {"id": "hoEjxXdEVDAs_SRuvIHpqw", "alias": "grillstube-corfu-tornesch", "name": "Grillstube Corfu", "image_url": "https://s3-media2.fl.yelpcdn.com/bphoto/u_NJegZ7UVQZEF0Bj_-3JA/o.jpg", "is_closed": false, "url": "https://www.yelp.com/biz/grillstube-corfu-tornesch?adjust_creative=hBJOknVQJ58S5goQyjmwRw&utm_campaign=yelp_api_v3&utm_medium=api_v3_business_search&utm_source=hBJOknVQJ58S5goQyjmwRw", "review_count": 13, "categories": [{"alias": "steak", "title": "Steakhouses"}, {"alias": "greek", "title": "Greek"}], "rating": 4.0, "coordinates": {"latitude": 53.6967, "longitude": 9.70784}, "transactions": [], "price": "\u20ac\u20ac", "location": {"address1": "An der Kirche 8", "address2": null, "address3": null, "city": "Tornesch", "zip_code": "25436", "country": "DE", "state": "SH", "display_address": ["An der Kirche 8", "25436 Tornesch", "Germany"]}, "phone": "+49412255757", "display_phone": "+49 4122 55757", "distance": 2913.3532556795326}, {"id": "Dfc-2WYroti35vIYjQjRTw", "alias": "hotel-kr\u00f6gers-gasthof-tornesch-2", "name": "Hotel Kr\u00f6ger's Gasthof", "image_url": "https://s3-media3.fl.yelpcdn.com/bphoto/ymNPblFMy8ElYC5_dXYC_w/o.jpg", "is_closed": false, "url": "https://www.yelp.com/biz/hotel-kr%C3%B6gers-gasthof-tornesch-2?adjust_creative=hBJOknVQJ58S5goQyjmwRw&utm_campaign=yelp_api_v3&utm_medium=api_v3_business_search&utm_source=hBJOknVQJ58S5goQyjmwRw", "review_count": 3, "categories": [{"alias": "german", "title": "German"}], "rating": 3.5, "coordinates": {"latitude": 53.7088, "longitude": 9.74103}, "transactions": [], "location": {"address1": "Ahrenloher Str. 169", "address2": null, "address3": null, "city": "Tornesch", "zip_code": "25436", "country": "DE", "state": "SH", "display_address": ["Ahrenloher Str. 169", "25436 Tornesch", "Germany"]}, "phone": "+49412297870", "display_phone": "+49 4122 97870", "distance": 1409.5894062948946}, {"id": "7_WZgwLK28pTlvWUW_rR6g", "alias": "pizza-classica-tornesch", "name": "Pizza Classica", "image_url": "https://s3-media2.fl.yelpcdn.com/bphoto/xTxdxJZl_59CSmtlsMt23A/o.jpg", "is_closed": false, "url": "https://www.yelp.com/biz/pizza-classica-tornesch?adjust_creative=hBJOknVQJ58S5goQyjmwRw&utm_campaign=yelp_api_v3&utm_medium=api_v3_business_search&utm_source=hBJOknVQJ58S5goQyjmwRw", "review_count": 8, "categories": [{"alias": "pizza", "title": "Pizza"}], "rating": 5.0, "coordinates": {"latitude": 53.69749, "longitude": 9.71403}, "transactions": [], "price": "\u20ac", "location": {"address1": "Bahnhofsplatz 7", "address2": "", "address3": "", "city": "Tornesch", "zip_code": "25436", "country": "DE", "state": "SH", "display_address": ["Bahnhofsplatz 7", "25436 Tornesch", "Germany"]}, "phone": "+4941224028840", "display_phone": "+49 4122 4028840", "distance": 2654.991325726667}, {"id": "L2ZrV6ealyBzzJERtyqhnw", "alias": "ping-jie-tornesch", "name": "Ping Jie", "image_url": "", "is_closed": false, "url": "https://www.yelp.com/biz/ping-jie-tornesch?adjust_creative=hBJOknVQJ58S5goQyjmwRw&utm_campaign=yelp_api_v3&utm_medium=api_v3_business_search&utm_source=hBJOknVQJ58S5goQyjmwRw", "review_count": 6, "categories": [{"alias": "chinese", "title": "Chinese"}, {"alias": "panasian", "title": "Pan Asian"}], "rating": 4.0, "coordinates": {"latitude": 53.6988172, "longitude": 9.7107872}, "transactions": [], "price": "\u20ac\u20ac", "location": {"address1": "Friedrichstr. 22", "address2": "", "address3": "", "city": "Tornesch", "zip_code": "25436", "country": "DE", "state": "SH", "display_address": ["Friedrichstr. 22", "25436 Tornesch", "Germany"]}, "phone": "+4941229817174", "display_phone": "+49 4122 9817174", "distance": 2613.524243626163}, {"id": "zU4eDVWiOWFyMHgKTkB7Qg", "alias": "panorama-restaurant-elmshorn", "name": "Panorama Restaurant", "image_url": "https://s3-media1.fl.yelpcdn.com/bphoto/9RwpVAcBbXIBt9v0c4iKkA/o.jpg", "is_closed": false, "url": "https://www.yelp.com/biz/panorama-restaurant-elmshorn?adjust_creative=hBJOknVQJ58S5goQyjmwRw&utm_campaign=yelp_api_v3&utm_medium=api_v3_business_search&utm_source=hBJOknVQJ58S5goQyjmwRw", "review_count": 15, "categories": [{"alias": "german", "title": "German"}], "rating": 3.5, "coordinates": {"latitude": 53.7409, "longitude": 9.71003}, "transactions": [], "price": "\u20ac\u20ac", "location": {"address1": "Rampskamp 100", "address2": "im Teppich Kibek", "address3": null, "city": "Elmshorn", "zip_code": "25337", "country": "DE", "state": "SH", "display_address": ["Rampskamp 100", "im Teppich Kibek", "25337 Elmshorn", "Germany"]}, "phone": "", "display_phone": "", "distance": 2703.4472665219196}, {"id": "qwijeTYgrmk_dFumUwB4tA", "alias": "croque-laden-tornesch", "name": "Croque Laden", "image_url": "", "is_closed": false, "url": "https://www.yelp.com/biz/croque-laden-tornesch?adjust_creative=hBJOknVQJ58S5goQyjmwRw&utm_campaign=yelp_api_v3&utm_medium=api_v3_business_search&utm_source=hBJOknVQJ58S5goQyjmwRw", "review_count": 1, "categories": [{"alias": "shopping", "title": "Shopping"}, {"alias": "fooddeliveryservices", "title": "Food Delivery Services"}, {"alias": "sandwiches", "title": "Sandwiches"}], "rating": 5.0, "coordinates": {"latitude": 53.6968, "longitude": 9.71279}, "transactions": [], "location": {"address1": "Esinger Str. 2a", "address2": null, "address3": null, "city": "Tornesch", "zip_code": "25436", "country": "DE", "state": "SH", "display_address": ["Esinger Str. 2a", "25436 Tornesch", "Germany"]}, "phone": "+49412256262", "display_phone": "+49 4122 56262", "distance": 2757.6435060281756}, {"id": "eWCxGyJCJDOMt3_F8KAk3w", "alias": "birkenhain-tornesch", "name": "Birkenhain", "image_url": "https://s3-media2.fl.yelpcdn.com/bphoto/RqwTsfH1tJKJsiFQmq6ENw/o.jpg", "is_closed": false, "url": "https://www.yelp.com/biz/birkenhain-tornesch?adjust_creative=hBJOknVQJ58S5goQyjmwRw&utm_campaign=yelp_api_v3&utm_medium=api_v3_business_search&utm_source=hBJOknVQJ58S5goQyjmwRw", "review_count": 2, "categories": [{"alias": "german", "title": "German"}], "rating": 4.5, "coordinates": {"latitude": 53.7108803, "longitude": 9.7112103}, "transactions": [], "price": "\u20ac\u20ac", "location": {"address1": "Heimst\u00e4ttenstr. 87", "address2": "", "address3": "", "city": "Tornesch", "zip_code": "25436", "country": "DE", "state": "SH", "display_address": ["Heimst\u00e4ttenstr. 87", "25436 Tornesch", "Germany"]}, "phone": "+49412252612", "display_phone": "+49 4122 52612", "distance": 1555.5927164790871}, {"id": "4h-o9rP5xtL4ts5_KByj-A", "alias": "burger-king-elmshorn", "name": "Burger King", "image_url": "https://s3-media1.fl.yelpcdn.com/bphoto/SI9TlnIVNPezmzqvkCRtUQ/o.jpg", "is_closed": false, "url": "https://www.yelp.com/biz/burger-king-elmshorn?adjust_creative=hBJOknVQJ58S5goQyjmwRw&utm_campaign=yelp_api_v3&utm_medium=api_v3_business_search&utm_source=hBJOknVQJ58S5goQyjmwRw", "review_count": 11, "categories": [{"alias": "hotdogs", "title": "Fast Food"}, {"alias": "burgers", "title": "Burgers"}], "rating": 2.0, "coordinates": {"latitude": 53.74536, "longitude": 9.70479}, "transactions": [], "price": "\u20ac\u20ac", "location": {"address1": "Werner-v.-Siemens-Str. 3", "address2": null, "address3": null, "city": "Elmshorn", "zip_code": "25337", "country": "DE", "state": "SH", "display_address": ["Werner-v.-Siemens-Str. 3", "25337 Elmshorn", "Germany"]}, "phone": "+4941212623483", "display_phone": "+49 4121 2623483", "distance": 3304.3035268331823}]