[{"id": "tkdvEE9lZEpTGbs1UW0ONw", "alias": "zum-dorfkrug-ammersbek", "name": "Zum Dorfkrug", "image_url": "https://s3-media2.fl.yelpcdn.com/bphoto/dFTx2L-DcN8hFsLO7bpA_Q/o.jpg", "is_closed": false, "url": "https://www.yelp.com/biz/zum-dorfkrug-ammersbek?adjust_creative=hBJOknVQJ58S5goQyjmwRw&utm_campaign=yelp_api_v3&utm_medium=api_v3_business_search&utm_source=hBJOknVQJ58S5goQyjmwRw", "review_count": 23, "categories": [{"alias": "german", "title": "German"}, {"alias": "guesthouses", "title": "Guest Houses"}], "rating": 4.5, "coordinates": {"latitude": 53.70817, "longitude": 10.21122}, "transactions": [], "price": "\u20ac", "location": {"address1": "Alte Landstr. 47", "address2": "", "address3": "", "city": "Ammersbek", "zip_code": "22949", "country": "DE", "state": "SH", "display_address": ["Alte Landstr. 47", "22949 Ammersbek", "Germany"]}, "phone": "+4945326115", "display_phone": "+49 4532 6115", "distance": 849.5375054923651}, {"id": "tmxq61VUBMQDZsD6Lhyhbw", "alias": "zum-fasanenhof-jersbek", "name": "Zum Fasanenhof", "image_url": "https://s3-media3.fl.yelpcdn.com/bphoto/8IN155QIed3A1Dp48VCHkA/o.jpg", "is_closed": false, "url": "https://www.yelp.com/biz/zum-fasanenhof-jersbek?adjust_creative=hBJOknVQJ58S5goQyjmwRw&utm_campaign=yelp_api_v3&utm_medium=api_v3_business_search&utm_source=hBJOknVQJ58S5goQyjmwRw", "review_count": 19, "categories": [{"alias": "german", "title": "German"}], "rating": 3.5, "coordinates": {"latitude": 53.7422, "longitude": 10.2202}, "transactions": [], "price": "\u20ac\u20ac", "location": {"address1": "Allee 18", "address2": null, "address3": null, "city": "Jersbek", "zip_code": "22941", "country": "DE", "state": "SH", "display_address": ["Allee 18", "22941 Jersbek", "Germany"]}, "phone": "+4945321849", "display_phone": "+49 4532 1849", "distance": 2983.6894078665664}, {"id": "55-UTI9pN-jA98ZXgrETBA", "alias": "il-grappolo-ammersbek", "name": "Il Grappolo", "image_url": "https://s3-media2.fl.yelpcdn.com/bphoto/KFZidx5vgxXx5uV8NwHM1g/o.jpg", "is_closed": false, "url": "https://www.yelp.com/biz/il-grappolo-ammersbek?adjust_creative=hBJOknVQJ58S5goQyjmwRw&utm_campaign=yelp_api_v3&utm_medium=api_v3_business_search&utm_source=hBJOknVQJ58S5goQyjmwRw", "review_count": 7, "categories": [{"alias": "italian", "title": "Italian"}], "rating": 4.5, "coordinates": {"latitude": 53.7087343, "longitude": 10.2123374}, "transactions": [], "location": {"address1": "Weg zu den Tannen 5", "address2": null, "address3": null, "city": "Ammersbek", "zip_code": "22949", "country": "DE", "state": "SH", "display_address": ["Weg zu den Tannen 5", "22949 Ammersbek", "Germany"]}, "phone": "+4945322678950", "display_phone": "+49 4532 2678950", "distance": 804.7705193728783}, {"id": "9BoptuqV6JKp816-hL0rxw", "alias": "kroatien-restaurant-mediterraneo-ahrensburg-4", "name": "Kroatien Restaurant Mediterraneo", "image_url": "https://s3-media1.fl.yelpcdn.com/bphoto/0l52YvMZbBZdSOww8rigOA/o.jpg", "is_closed": false, "url": "https://www.yelp.com/biz/kroatien-restaurant-mediterraneo-ahrensburg-4?adjust_creative=hBJOknVQJ58S5goQyjmwRw&utm_campaign=yelp_api_v3&utm_medium=api_v3_business_search&utm_source=hBJOknVQJ58S5goQyjmwRw", "review_count": 9, "categories": [{"alias": "bowling", "title": "Bowling"}, {"alias": "mediterranean", "title": "Mediterranean"}], "rating": 4.0, "coordinates": {"latitude": 53.6803176227514, "longitude": 10.2351419627666}, "transactions": [], "price": "\u20ac\u20ac\u20ac", "location": {"address1": "Reeshoop 48", "address2": null, "address3": "", "city": "Ahrensburg", "zip_code": "22926", "country": "DE", "state": "SH", "display_address": ["Reeshoop 48", "22926 Ahrensburg", "Germany"]}, "phone": "+4941024737184", "display_phone": "+49 4102 4737184", "distance": 4151.910692542094}, {"id": "EA_eMoKrim3_9srIh4siwg", "alias": "new-long-ahrensburg", "name": "New Long", "image_url": "https://s3-media3.fl.yelpcdn.com/bphoto/_QtZznlgmYfEhyQnd59hbw/o.jpg", "is_closed": false, "url": "https://www.yelp.com/biz/new-long-ahrensburg?adjust_creative=hBJOknVQJ58S5goQyjmwRw&utm_campaign=yelp_api_v3&utm_medium=api_v3_business_search&utm_source=hBJOknVQJ58S5goQyjmwRw", "review_count": 11, "categories": [{"alias": "thai", "title": "Thai"}, {"alias": "chinese", "title": "Chinese"}], "rating": 4.5, "coordinates": {"latitude": 53.6747411800218, "longitude": 10.238852524477}, "transactions": [], "price": "\u20ac\u20ac", "location": {"address1": "Gro\u00dfe Str. 16 - 20", "address2": "", "address3": "", "city": "Ahrensburg", "zip_code": "22926", "country": "DE", "state": "SH", "display_address": ["Gro\u00dfe Str. 16 - 20", "22926 Ahrensburg", "Germany"]}, "phone": "+49410232883", "display_phone": "+49 4102 32883", "distance": 4817.924534086144}, {"id": "4GkNM5czryu7wrLurCrnSA", "alias": "restaurant-strehl-ahrensburg-2", "name": "Restaurant Strehl", "image_url": "https://s3-media2.fl.yelpcdn.com/bphoto/opzw9-5TgccXmJ2ddbJA_A/o.jpg", "is_closed": false, "url": "https://www.yelp.com/biz/restaurant-strehl-ahrensburg-2?adjust_creative=hBJOknVQJ58S5goQyjmwRw&utm_campaign=yelp_api_v3&utm_medium=api_v3_business_search&utm_source=hBJOknVQJ58S5goQyjmwRw", "review_count": 13, "categories": [{"alias": "catering", "title": "Caterers"}, {"alias": "german", "title": "German"}], "rating": 3.5, "coordinates": {"latitude": 53.6804, "longitude": 10.235}, "transactions": [], "price": "\u20ac\u20ac", "location": {"address1": "Reeshoop 50", "address2": null, "address3": null, "city": "Ahrensburg", "zip_code": "22926", "country": "DE", "state": "SH", "display_address": ["Reeshoop 50", "22926 Ahrensburg", "Germany"]}, "phone": "+49410241261", "display_phone": "+49 4102 41261", "distance": 4140.193035606401}, {"id": "JOq6siJT8d6dz-C3EICOyA", "alias": "go-asia-ahrensburg", "name": "Go-Asia", "image_url": "https://s3-media4.fl.yelpcdn.com/bphoto/UTJ0dTyRXZe60puNdE_Vng/o.jpg", "is_closed": false, "url": "https://www.yelp.com/biz/go-asia-ahrensburg?adjust_creative=hBJOknVQJ58S5goQyjmwRw&utm_campaign=yelp_api_v3&utm_medium=api_v3_business_search&utm_source=hBJOknVQJ58S5goQyjmwRw", "review_count": 4, "categories": [{"alias": "panasian", "title": "Pan Asian"}], "rating": 5.0, "coordinates": {"latitude": 53.6743852, "longitude": 10.2381118}, "transactions": [], "price": "\u20ac\u20ac", "location": {"address1": "Gro\u00dfe Str. 24", "address2": "", "address3": "", "city": "Ahrensburg", "zip_code": "22926", "country": "DE", "state": "SH", "display_address": ["Gro\u00dfe Str. 24", "22926 Ahrensburg", "Germany"]}, "phone": "+494102667875", "display_phone": "+49 4102 667875", "distance": 4839.325172732413}, {"id": "xBWobvwGsxbkIR2QC5CXZg", "alias": "b\u00fcrgervereinshaus-ahrensburg", "name": "B\u00fcrgervereinshaus", "image_url": "", "is_closed": false, "url": "https://www.yelp.com/biz/b%C3%BCrgervereinshaus-ahrensburg?adjust_creative=hBJOknVQJ58S5goQyjmwRw&utm_campaign=yelp_api_v3&utm_medium=api_v3_business_search&utm_source=hBJOknVQJ58S5goQyjmwRw", "review_count": 1, "categories": [{"alias": "cafes", "title": "Cafes"}, {"alias": "coffee", "title": "Coffee & Tea"}], "rating": 4.0, "coordinates": {"latitude": 53.68, "longitude": 10.2388}, "transactions": [], "location": {"address1": "Bagatelle", "address2": null, "address3": null, "city": "Ahrensburg", "zip_code": "22926", "country": "DE", "state": "SH", "display_address": ["Bagatelle", "22926 Ahrensburg", "Germany"]}, "phone": "", "display_phone": "", "distance": 4269.826397512191}, {"id": "f4QeydE1uJaPgmdO0zyr3w", "alias": "china-restaurant-huy-hoang-ahrensburg", "name": "China-Restaurant Huy-Hoang", "image_url": "https://s3-media2.fl.yelpcdn.com/bphoto/WMEMhl81BMPyjWDWQlqrzQ/o.jpg", "is_closed": false, "url": "https://www.yelp.com/biz/china-restaurant-huy-hoang-ahrensburg?adjust_creative=hBJOknVQJ58S5goQyjmwRw&utm_campaign=yelp_api_v3&utm_medium=api_v3_business_search&utm_source=hBJOknVQJ58S5goQyjmwRw", "review_count": 7, "categories": [{"alias": "chinese", "title": "Chinese"}], "rating": 4.5, "coordinates": {"latitude": 53.6735, "longitude": 10.2388}, "transactions": [], "price": "\u20ac\u20ac", "location": {"address1": "Rathausplatz 25", "address2": null, "address3": null, "city": "Ahrensburg", "zip_code": "22926", "country": "DE", "state": "SH", "display_address": ["Rathausplatz 25", "22926 Ahrensburg", "Germany"]}, "phone": "+49410259528", "display_phone": "+49 4102 59528", "distance": 4947.122468665829}, {"id": "TAfqyQEh0__QlLylFOTaGw", "alias": "china-restaurant-yau-ahrensburg", "name": "China-Restaurant Yau", "image_url": "", "is_closed": false, "url": "https://www.yelp.com/biz/china-restaurant-yau-ahrensburg?adjust_creative=hBJOknVQJ58S5goQyjmwRw&utm_campaign=yelp_api_v3&utm_medium=api_v3_business_search&utm_source=hBJOknVQJ58S5goQyjmwRw", "review_count": 1, "categories": [{"alias": "chinese", "title": "Chinese"}], "rating": 5.0, "coordinates": {"latitude": 53.6757, "longitude": 10.2369}, "transactions": [], "price": "\u20ac\u20ac\u20ac", "location": {"address1": "Reeshoop 16", "address2": null, "address3": null, "city": "Ahrensburg", "zip_code": "22926", "country": "DE", "state": "SH", "display_address": ["Reeshoop 16", "22926 Ahrensburg", "Germany"]}, "phone": "+49410257800", "display_phone": "+49 4102 57800", "distance": 4675.296045618732}, {"id": "KSd_Z8iubV7SySmgcQYimA", "alias": "ruges-croque-shop-ahrensburg", "name": "Ruge's Croque-Shop", "image_url": "https://s3-media2.fl.yelpcdn.com/bphoto/fS3AQPrX6Kec9YcwEANWOA/o.jpg", "is_closed": false, "url": "https://www.yelp.com/biz/ruges-croque-shop-ahrensburg?adjust_creative=hBJOknVQJ58S5goQyjmwRw&utm_campaign=yelp_api_v3&utm_medium=api_v3_business_search&utm_source=hBJOknVQJ58S5goQyjmwRw", "review_count": 22, "categories": [{"alias": "german", "title": "German"}, {"alias": "sandwiches", "title": "Sandwiches"}], "rating": 4.0, "coordinates": {"latitude": 53.67266, "longitude": 10.2387599}, "transactions": [], "price": "\u20ac\u20ac", "location": {"address1": "Rondeel 8", "address2": null, "address3": null, "city": "Ahrensburg", "zip_code": "22926", "country": "DE", "state": "SH", "display_address": ["Rondeel 8", "22926 Ahrensburg", "Germany"]}, "phone": "+49410232200", "display_phone": "+49 4102 32200", "distance": 5029.7409889764185}, {"id": "7HDhzAe10JF5-r7b41h6dw", "alias": "cocktailbar-zeitlos-ahrensburg", "name": "Cocktailbar Zeitlos", "image_url": "https://s3-media3.fl.yelpcdn.com/bphoto/ARHx864oZOPYyPcRbC2-dw/o.jpg", "is_closed": false, "url": "https://www.yelp.com/biz/cocktailbar-zeitlos-ahrensburg?adjust_creative=hBJOknVQJ58S5goQyjmwRw&utm_campaign=yelp_api_v3&utm_medium=api_v3_business_search&utm_source=hBJOknVQJ58S5goQyjmwRw", "review_count": 1, "categories": [{"alias": "cocktailbars", "title": "Cocktail Bars"}, {"alias": "cafes", "title": "Cafes"}], "rating": 5.0, "coordinates": {"latitude": 53.6741674975278, "longitude": 10.2392771850331}, "transactions": [], "location": {"address1": "Gro\u00dfe Str. 40", "address2": "", "address3": null, "city": "Ahrensburg", "zip_code": "22926", "country": "DE", "state": "SH", "display_address": ["Gro\u00dfe Str. 40", "22926 Ahrensburg", "Germany"]}, "phone": "+4941028247472", "display_phone": "+49 4102 8247472", "distance": 4887.394857196102}, {"id": "a9zTyvX_iY0jygqIfuqjJg", "alias": "d\u00f6ner-harem-ahrensburg", "name": "D\u00f6ner-Harem", "image_url": "https://s3-media2.fl.yelpcdn.com/bphoto/KoLUsGxu4aVGI6jLjjB02A/o.jpg", "is_closed": false, "url": "https://www.yelp.com/biz/d%C3%B6ner-harem-ahrensburg?adjust_creative=hBJOknVQJ58S5goQyjmwRw&utm_campaign=yelp_api_v3&utm_medium=api_v3_business_search&utm_source=hBJOknVQJ58S5goQyjmwRw", "review_count": 6, "categories": [{"alias": "kebab", "title": "Kebab"}], "rating": 3.0, "coordinates": {"latitude": 53.6729, "longitude": 10.2362}, "transactions": [], "price": "\u20ac\u20ac", "location": {"address1": "Manfred-Samusch-Str. 1", "address2": null, "address3": null, "city": "Ahrensburg", "zip_code": "22926", "country": "DE", "state": "SH", "display_address": ["Manfred-Samusch-Str. 1", "22926 Ahrensburg", "Germany"]}, "phone": "+49410253091", "display_phone": "+49 4102 53091", "distance": 4958.112219617209}, {"id": "3emsLbdBi4PHclK8kuFhPg", "alias": "schlemmerst\u00fcbchen-ahrensburg", "name": "Schlemmerst\u00fcbchen", "image_url": "", "is_closed": false, "url": "https://www.yelp.com/biz/schlemmerst%C3%BCbchen-ahrensburg?adjust_creative=hBJOknVQJ58S5goQyjmwRw&utm_campaign=yelp_api_v3&utm_medium=api_v3_business_search&utm_source=hBJOknVQJ58S5goQyjmwRw", "review_count": 1, "categories": [{"alias": "foodstands", "title": "Food Stands"}], "rating": 5.0, "coordinates": {"latitude": 53.673183095609, "longitude": 10.2374708429222}, "transactions": [], "location": {"address1": "Rathausstr. 24", "address2": "", "address3": null, "city": "Ahrensburg", "zip_code": "22926", "country": "DE", "state": "SH", "display_address": ["Rathausstr. 24", "22926 Ahrensburg", "Germany"]}, "phone": "+4941021330", "display_phone": "+49 4102 1330", "distance": 4952.96945678944}, {"id": "CB428jsOtLG8E4jiQlkB4w", "alias": "dailyfresh-ahrensburg", "name": "Dailyfresh", "image_url": "https://s3-media2.fl.yelpcdn.com/bphoto/wWniJ4FP-e8k28543rWi3Q/o.jpg", "is_closed": false, "url": "https://www.yelp.com/biz/dailyfresh-ahrensburg?adjust_creative=hBJOknVQJ58S5goQyjmwRw&utm_campaign=yelp_api_v3&utm_medium=api_v3_business_search&utm_source=hBJOknVQJ58S5goQyjmwRw", "review_count": 4, "categories": [{"alias": "salad", "title": "Salad"}, {"alias": "bistros", "title": "Bistros"}], "rating": 5.0, "coordinates": {"latitude": 53.6724892, "longitude": 10.2382803}, "transactions": [], "price": "\u20ac", "location": {"address1": "Hamburger Str. 3-5", "address2": "", "address3": "", "city": "Ahrensburg", "zip_code": "22926", "country": "DE", "state": "SH", "display_address": ["Hamburger Str. 3-5", "22926 Ahrensburg", "Germany"]}, "phone": "+494102824431", "display_phone": "+49 4102 824431", "distance": 5050.7146571196445}, {"id": "jq6s0C9nD7I0yTDcYzgkfg", "alias": "berlin-millj\u00f6h-ahrensburg", "name": "Berlin Millj\u00f6h", "image_url": "https://s3-media2.fl.yelpcdn.com/bphoto/eVhwIEpASXhOwg4b8IFZMQ/o.jpg", "is_closed": false, "url": "https://www.yelp.com/biz/berlin-millj%C3%B6h-ahrensburg?adjust_creative=hBJOknVQJ58S5goQyjmwRw&utm_campaign=yelp_api_v3&utm_medium=api_v3_business_search&utm_source=hBJOknVQJ58S5goQyjmwRw", "review_count": 28, "categories": [{"alias": "german", "title": "German"}, {"alias": "beergarden", "title": "Beer Garden"}], "rating": 4.0, "coordinates": {"latitude": 53.6757848, "longitude": 10.2394167}, "transactions": [], "price": "\u20ac\u20ac", "location": {"address1": "Gro\u00dfe Str. 15a", "address2": null, "address3": null, "city": "Ahrensburg", "zip_code": "22926", "country": "DE", "state": "SH", "display_address": ["Gro\u00dfe Str. 15a", "22926 Ahrensburg", "Germany"]}, "phone": "+49410252919", "display_phone": "+49 4102 52919", "distance": 4721.499932993908}, {"id": "ONOZStpGX8Nn0UtFiXXzVw", "alias": "selale-ahrensburg", "name": "Selale", "image_url": "", "is_closed": false, "url": "https://www.yelp.com/biz/selale-ahrensburg?adjust_creative=hBJOknVQJ58S5goQyjmwRw&utm_campaign=yelp_api_v3&utm_medium=api_v3_business_search&utm_source=hBJOknVQJ58S5goQyjmwRw", "review_count": 1, "categories": [{"alias": "turkish", "title": "Turkish"}], "rating": 4.0, "coordinates": {"latitude": 53.6762279, "longitude": 10.2392492}, "transactions": [], "location": {"address1": "Bei der alten Kate 6", "address2": "", "address3": "", "city": "Ahrensburg", "zip_code": "22926", "country": "DE", "state": "SH", "display_address": ["Bei der alten Kate 6", "22926 Ahrensburg", "Germany"]}, "phone": "+4941026912361", "display_phone": "+49 4102 6912361", "distance": 4671.476859597311}, {"id": "WN7cuBMNTQ9-yhtKw1kLzQ", "alias": "richters-im-golfclub-jersbek-jersbek", "name": "Richter's im Golfclub Jersbek", "image_url": "", "is_closed": false, "url": "https://www.yelp.com/biz/richters-im-golfclub-jersbek-jersbek?adjust_creative=hBJOknVQJ58S5goQyjmwRw&utm_campaign=yelp_api_v3&utm_medium=api_v3_business_search&utm_source=hBJOknVQJ58S5goQyjmwRw", "review_count": 1, "categories": [{"alias": "restaurants", "title": "Restaurants"}], "rating": 3.0, "coordinates": {"latitude": 53.7477, "longitude": 10.2336}, "transactions": [], "location": {"address1": "Oberteicher Weg", "address2": null, "address3": null, "city": "Jersbek", "zip_code": "22941", "country": "DE", "state": "SH", "display_address": ["Oberteicher Weg", "22941 Jersbek", "Germany"]}, "phone": "+49453220950", "display_phone": "+49 4532 20950", "distance": 3787.15478737035}, {"id": "vYzdcrNTGdpLbSbgCWeTaQ", "alias": "leckere-bratwurst-bude-ahrensburg", "name": "Leckere Bratwurst Bude", "image_url": "", "is_closed": false, "url": "https://www.yelp.com/biz/leckere-bratwurst-bude-ahrensburg?adjust_creative=hBJOknVQJ58S5goQyjmwRw&utm_campaign=yelp_api_v3&utm_medium=api_v3_business_search&utm_source=hBJOknVQJ58S5goQyjmwRw", "review_count": 1, "categories": [{"alias": "currysausage", "title": "Curry Sausage"}], "rating": 4.0, "coordinates": {"latitude": 53.6764136, "longitude": 10.2378854}, "transactions": [], "price": "\u20ac", "location": {"address1": "Kornkamp 34", "address2": "", "address3": "", "city": "Ahrensburg", "zip_code": "22926", "country": "DE", "state": "SH", "display_address": ["Kornkamp 34", "22926 Ahrensburg", "Germany"]}, "phone": "", "display_phone": "", "distance": 4621.362753454499}, {"id": "XxOP1O3vQGLvuoodWk68Aw", "alias": "ok-pizza-ahrensburg", "name": "OK Pizza", "image_url": "https://s3-media4.fl.yelpcdn.com/bphoto/dQ1dw8W9WuZKwuw11ZwSwQ/o.jpg", "is_closed": false, "url": "https://www.yelp.com/biz/ok-pizza-ahrensburg?adjust_creative=hBJOknVQJ58S5goQyjmwRw&utm_campaign=yelp_api_v3&utm_medium=api_v3_business_search&utm_source=hBJOknVQJ58S5goQyjmwRw", "review_count": 6, "categories": [{"alias": "pizza", "title": "Pizza"}], "rating": 3.5, "coordinates": {"latitude": 53.6752525088791, "longitude": 10.239392441608}, "transactions": [], "price": "\u20ac\u20ac\u20ac", "location": {"address1": "Gro\u00dfe Str. 16 - 20", "address2": "", "address3": "", "city": "Ahrensburg", "zip_code": "22926", "country": "DE", "state": "SH", "display_address": ["Gro\u00dfe Str. 16 - 20", "22926 Ahrensburg", "Germany"]}, "phone": "+49410240555", "display_phone": "+49 4102 40555", "distance": 4776.476887130467}, {"id": "zdvVMN4s0wk7Rn4DxjU4Nw", "alias": "cake-and-coffee-ahrensburg", "name": "Cake & Coffee", "image_url": "https://s3-media2.fl.yelpcdn.com/bphoto/FzoqemyvSDFCO01SEt7mpw/o.jpg", "is_closed": false, "url": "https://www.yelp.com/biz/cake-and-coffee-ahrensburg?adjust_creative=hBJOknVQJ58S5goQyjmwRw&utm_campaign=yelp_api_v3&utm_medium=api_v3_business_search&utm_source=hBJOknVQJ58S5goQyjmwRw", "review_count": 2, "categories": [{"alias": "cafes", "title": "Cafes"}, {"alias": "coffee", "title": "Coffee & Tea"}], "rating": 4.0, "coordinates": {"latitude": 53.67371, "longitude": 10.23894}, "transactions": [], "location": {"address1": "Gro\u00dfe Str. 42", "address2": null, "address3": null, "city": "Ahrensburg", "zip_code": "22926", "country": "DE", "state": "SH", "display_address": ["Gro\u00dfe Str. 42", "22926 Ahrensburg", "Germany"]}, "phone": "+494102983174", "display_phone": "+49 4102 983174", "distance": 4916.3088222892275}, {"id": "KX5viLCOnnASgNtKgZNfdg", "alias": "big-d\u00f6ner-ahrensburg", "name": "Big-D\u00f6ner", "image_url": "https://s3-media1.fl.yelpcdn.com/bphoto/s5NisHTc_gtpmwDNvA4BLQ/o.jpg", "is_closed": false, "url": "https://www.yelp.com/biz/big-d%C3%B6ner-ahrensburg?adjust_creative=hBJOknVQJ58S5goQyjmwRw&utm_campaign=yelp_api_v3&utm_medium=api_v3_business_search&utm_source=hBJOknVQJ58S5goQyjmwRw", "review_count": 3, "categories": [{"alias": "kebab", "title": "Kebab"}], "rating": 4.0, "coordinates": {"latitude": 53.6743852, "longitude": 10.2381118}, "transactions": [], "price": "\u20ac\u20ac", "location": {"address1": "Klaus-Groth-Str. 2 - 4", "address2": "", "address3": "", "city": "Ahrensburg", "zip_code": "22926", "country": "DE", "state": "SH", "display_address": ["Klaus-Groth-Str. 2 - 4", "22926 Ahrensburg", "Germany"]}, "phone": "+4917647049817", "display_phone": "+49 176 47049817", "distance": 4839.325172732413}, {"id": "eXJVATOCTFSv2jhsQWGUCQ", "alias": "croque-shop-imbi\u00dfbetriebe-ahrensburg-3", "name": "Croque Shop Imbi\u00dfbetriebe", "image_url": "https://s3-media3.fl.yelpcdn.com/bphoto/zwaPBOkqWJxDozfezOtAoQ/o.jpg", "is_closed": false, "url": "https://www.yelp.com/biz/croque-shop-imbi%C3%9Fbetriebe-ahrensburg-3?adjust_creative=hBJOknVQJ58S5goQyjmwRw&utm_campaign=yelp_api_v3&utm_medium=api_v3_business_search&utm_source=hBJOknVQJ58S5goQyjmwRw", "review_count": 1, "categories": [{"alias": "hotdogs", "title": "Fast Food"}], "rating": 1.0, "coordinates": {"latitude": 53.6726717117947, "longitude": 10.2387651559083}, "transactions": [], "location": {"address1": "Rondeel 8", "address2": null, "address3": null, "city": "Ahrensburg", "zip_code": "22926", "country": "DE", "state": "SH", "display_address": ["Rondeel 8", "22926 Ahrensburg", "Germany"]}, "phone": "+49410232200", "display_phone": "+49 4102 32200", "distance": 5033.607303283752}, {"id": "7DT39R64fx3OxYm5ahIt9g", "alias": "eiscafe-la-volpe-ahrensburg", "name": "Eiscafe La Volpe", "image_url": "https://s3-media3.fl.yelpcdn.com/bphoto/OvND0RyZjqRIh-2o67kaog/o.jpg", "is_closed": false, "url": "https://www.yelp.com/biz/eiscafe-la-volpe-ahrensburg?adjust_creative=hBJOknVQJ58S5goQyjmwRw&utm_campaign=yelp_api_v3&utm_medium=api_v3_business_search&utm_source=hBJOknVQJ58S5goQyjmwRw", "review_count": 7, "categories": [{"alias": "icecream", "title": "Ice Cream & Frozen Yogurt"}, {"alias": "cafes", "title": "Cafes"}, {"alias": "coffee", "title": "Coffee & Tea"}], "rating": 5.0, "coordinates": {"latitude": 53.6732, "longitude": 10.2376}, "transactions": [], "price": "\u20ac\u20ac", "location": {"address1": "Rathausplatz 25", "address2": null, "address3": null, "city": "Ahrensburg", "zip_code": "22926", "country": "DE", "state": "SH", "display_address": ["Rathausplatz 25", "22926 Ahrensburg", "Germany"]}, "phone": "+49410250130", "display_phone": "+49 4102 50130", "distance": 4953.792257802069}, {"id": "0xkPxwwWkQpsembjKyjg_A", "alias": "die-k\u00f6nigliche-wurst-ahrensburg", "name": "Die K\u00f6nigliche Wurst", "image_url": "https://s3-media1.fl.yelpcdn.com/bphoto/nrt1YhE7NU07j_F92q1OlQ/o.jpg", "is_closed": false, "url": "https://www.yelp.com/biz/die-k%C3%B6nigliche-wurst-ahrensburg?adjust_creative=hBJOknVQJ58S5goQyjmwRw&utm_campaign=yelp_api_v3&utm_medium=api_v3_business_search&utm_source=hBJOknVQJ58S5goQyjmwRw", "review_count": 1, "categories": [{"alias": "currysausage", "title": "Curry Sausage"}, {"alias": "bbq", "title": "Barbeque"}, {"alias": "foodstands", "title": "Food Stands"}], "rating": 2.0, "coordinates": {"latitude": 53.673693, "longitude": 10.2395457}, "transactions": [], "price": "\u20ac\u20ac\u20ac", "location": {"address1": "Gro\u00dfe Str. 43", "address2": null, "address3": null, "city": "Ahrensburg", "zip_code": "22926", "country": "DE", "state": "SH", "display_address": ["Gro\u00dfe Str. 43", "22926 Ahrensburg", "Germany"]}, "phone": "+4941028914713", "display_phone": "+49 4102 8914713", "distance": 4943.033525926905}, {"id": "APvIA_7ssxgC0atmQEFMcg", "alias": "burgerkultour-food-truck-hamburg-2", "name": "BurgerKultour Food Truck", "image_url": "https://s3-media4.fl.yelpcdn.com/bphoto/KoAuwalMnlAO8139MmdYBQ/o.jpg", "is_closed": false, "url": "https://www.yelp.com/biz/burgerkultour-food-truck-hamburg-2?adjust_creative=hBJOknVQJ58S5goQyjmwRw&utm_campaign=yelp_api_v3&utm_medium=api_v3_business_search&utm_source=hBJOknVQJ58S5goQyjmwRw", "review_count": 3, "categories": [{"alias": "foodtrucks", "title": "Food Trucks"}, {"alias": "burgers", "title": "Burgers"}], "rating": 4.5, "coordinates": {"latitude": 53.57154, "longitude": 9.95575}, "transactions": [], "price": "\u20ac\u20ac", "location": {"address1": "", "address2": "", "address3": "", "city": "Hamburg", "zip_code": "20259", "country": "DE", "state": "HH", "display_address": ["20259 Hamburg", "Germany"]}, "phone": "+4917626055122", "display_phone": "+49 176 26055122", "distance": 23408.976289858485}, {"id": "7xNC4Frn4ZBQ-MdMrze4AA", "alias": "caligo-coffee-ahrensburg-2", "name": "Caligo Coffee", "image_url": "https://s3-media4.fl.yelpcdn.com/bphoto/w1YfA3-ta3TOnPDjy0vNnw/o.jpg", "is_closed": false, "url": "https://www.yelp.com/biz/caligo-coffee-ahrensburg-2?adjust_creative=hBJOknVQJ58S5goQyjmwRw&utm_campaign=yelp_api_v3&utm_medium=api_v3_business_search&utm_source=hBJOknVQJ58S5goQyjmwRw", "review_count": 21, "categories": [{"alias": "cafes", "title": "Cafes"}], "rating": 4.0, "coordinates": {"latitude": 53.673167, "longitude": 10.238838}, "transactions": [], "price": "\u20ac\u20ac", "location": {"address1": "Rondeel 4", "address2": null, "address3": null, "city": "Ahrensburg", "zip_code": "22926", "country": "DE", "state": "SH", "display_address": ["Rondeel 4", "22926 Ahrensburg", "Germany"]}, "phone": "", "display_phone": "", "distance": 4982.971295363011}, {"id": "5JSnV2Zy0YUcxK0WiBGCGg", "alias": "villa-romana-ahrensburg", "name": "Villa Romana", "image_url": "https://s3-media2.fl.yelpcdn.com/bphoto/6BY1KIF-TkWws7kr9H8oRw/o.jpg", "is_closed": false, "url": "https://www.yelp.com/biz/villa-romana-ahrensburg?adjust_creative=hBJOknVQJ58S5goQyjmwRw&utm_campaign=yelp_api_v3&utm_medium=api_v3_business_search&utm_source=hBJOknVQJ58S5goQyjmwRw", "review_count": 4, "categories": [{"alias": "italian", "title": "Italian"}], "rating": 4.0, "coordinates": {"latitude": 53.6761124665944, "longitude": 10.2392913401127}, "transactions": [], "price": "\u20ac\u20ac\u20ac", "location": {"address1": "Bei der Alten Kate 6", "address2": "", "address3": "", "city": "Ahrensburg", "zip_code": "22926", "country": "DE", "state": "SH", "display_address": ["Bei der Alten Kate 6", "22926 Ahrensburg", "Germany"]}, "phone": "+4941026672596", "display_phone": "+49 4102 6672596", "distance": 4684.473146428728}, {"id": "cGIKCcR0wZszz8VldC2-7g", "alias": "currywerk-hamburg", "name": "curryWERK", "image_url": "https://s3-media4.fl.yelpcdn.com/bphoto/j_ZPQAB6JrAru84VDuLiRA/o.jpg", "is_closed": false, "url": "https://www.yelp.com/biz/currywerk-hamburg?adjust_creative=hBJOknVQJ58S5goQyjmwRw&utm_campaign=yelp_api_v3&utm_medium=api_v3_business_search&utm_source=hBJOknVQJ58S5goQyjmwRw", "review_count": 1, "categories": [{"alias": "foodtrucks", "title": "Food Trucks"}, {"alias": "currysausage", "title": "Curry Sausage"}], "rating": 4.0, "coordinates": {"latitude": 53.5498886108398, "longitude": 9.94732189178467}, "transactions": [], "price": "\u20ac\u20ac", "location": {"address1": "", "address2": "", "address3": "", "city": "Hamburg", "zip_code": "22767", "country": "DE", "state": "HH", "display_address": ["22767 Hamburg", "Germany"]}, "phone": "+4917632443433", "display_phone": "+49 176 32443433", "distance": 25783.44873706687}]