[{"id": "18tAOhQGukEhRskUe5_7kA", "alias": "jp-steakhouse-ellerau", "name": "JP - Steakhouse", "image_url": "https://s3-media2.fl.yelpcdn.com/bphoto/cNHrGu4tf9GxomBLlGYQEg/o.jpg", "is_closed": false, "url": "https://www.yelp.com/biz/jp-steakhouse-ellerau?adjust_creative=hBJOknVQJ58S5goQyjmwRw&utm_campaign=yelp_api_v3&utm_medium=api_v3_business_search&utm_source=hBJOknVQJ58S5goQyjmwRw", "review_count": 1, "categories": [{"alias": "steak", "title": "Steakhouses"}], "rating": 4.0, "coordinates": {"latitude": 53.750122, "longitude": 9.91963}, "transactions": [], "location": {"address1": "Berliner Damm 2 a", "address2": "", "address3": null, "city": "Ellerau", "zip_code": "24579", "country": "DE", "state": "BW", "display_address": ["Berliner Damm 2 a", "24579 Ellerau", "Germany"]}, "phone": "+494106798581", "display_phone": "+49 4106 798581", "distance": 3582.3459043331372}, {"id": "o-KanEI2DlkukakpjeT1yQ", "alias": "bistro-italiano-unico-quickborn", "name": "Bistro Italiano Unico", "image_url": "https://s3-media2.fl.yelpcdn.com/bphoto/qPQ4m2OtlJTcygB6yakQlA/o.jpg", "is_closed": false, "url": "https://www.yelp.com/biz/bistro-italiano-unico-quickborn?adjust_creative=hBJOknVQJ58S5goQyjmwRw&utm_campaign=yelp_api_v3&utm_medium=api_v3_business_search&utm_source=hBJOknVQJ58S5goQyjmwRw", "review_count": 10, "categories": [{"alias": "italian", "title": "Italian"}], "rating": 4.5, "coordinates": {"latitude": 53.73076, "longitude": 9.90172}, "transactions": [], "price": "\u20ac\u20ac", "location": {"address1": "Bahnhofstr.  58", "address2": null, "address3": null, "city": "Quickborn", "zip_code": "25451", "country": "DE", "state": "SH", "display_address": ["Bahnhofstr.  58", "25451 Quickborn", "Germany"]}, "phone": "+4917662613608", "display_phone": "+49 176 62613608", "distance": 1528.058396125177}, {"id": "wFWi1kp5HG6bPNX9RWBVoQ", "alias": "ristorante-da-calogero-quickborn", "name": "Ristorante Da Calogero", "image_url": "https://s3-media4.fl.yelpcdn.com/bphoto/mNIyBBwqIiiSJAF_1GQOUg/o.jpg", "is_closed": false, "url": "https://www.yelp.com/biz/ristorante-da-calogero-quickborn?adjust_creative=hBJOknVQJ58S5goQyjmwRw&utm_campaign=yelp_api_v3&utm_medium=api_v3_business_search&utm_source=hBJOknVQJ58S5goQyjmwRw", "review_count": 34, "categories": [{"alias": "italian", "title": "Italian"}, {"alias": "mediterranean", "title": "Mediterranean"}], "rating": 4.0, "coordinates": {"latitude": 53.7469, "longitude": 9.93409}, "transactions": [], "price": "\u20ac\u20ac", "location": {"address1": "Carl-Zeiss-Str. 8", "address2": null, "address3": null, "city": "Quickborn", "zip_code": "25451", "country": "DE", "state": "SH", "display_address": ["Carl-Zeiss-Str. 8", "25451 Quickborn", "Germany"]}, "phone": "+49410672611", "display_phone": "+49 4106 72611", "distance": 3515.129475242309}, {"id": "b9plgjHVHc05qihILkiyKQ", "alias": "restaurant-ambrosia-quickborn", "name": "Restaurant Ambrosia", "image_url": "https://s3-media3.fl.yelpcdn.com/bphoto/pWXw6tYKYmBR_2KWXCsTQQ/o.jpg", "is_closed": false, "url": "https://www.yelp.com/biz/restaurant-ambrosia-quickborn?adjust_creative=hBJOknVQJ58S5goQyjmwRw&utm_campaign=yelp_api_v3&utm_medium=api_v3_business_search&utm_source=hBJOknVQJ58S5goQyjmwRw", "review_count": 14, "categories": [{"alias": "mediterranean", "title": "Mediterranean"}, {"alias": "greek", "title": "Greek"}], "rating": 4.5, "coordinates": {"latitude": 53.7344284, "longitude": 9.8930397}, "transactions": [], "price": "\u20ac\u20ac", "location": {"address1": "Kieler Str.  117", "address2": "", "address3": "", "city": "Quickborn", "zip_code": "25451", "country": "DE", "state": "SH", "display_address": ["Kieler Str.  117", "25451 Quickborn", "Germany"]}, "phone": "+4941065811", "display_phone": "+49 4106 5811", "distance": 2164.776313090988}, {"id": "Vx-8p1d8iptmHEzxV_k2tA", "alias": "la-bella-vita-quickborn", "name": "La Bella Vita", "image_url": "https://s3-media1.fl.yelpcdn.com/bphoto/iwWqV79FMVSQgmBYhbo2gA/o.jpg", "is_closed": false, "url": "https://www.yelp.com/biz/la-bella-vita-quickborn?adjust_creative=hBJOknVQJ58S5goQyjmwRw&utm_campaign=yelp_api_v3&utm_medium=api_v3_business_search&utm_source=hBJOknVQJ58S5goQyjmwRw", "review_count": 18, "categories": [{"alias": "italian", "title": "Italian"}, {"alias": "pizza", "title": "Pizza"}], "rating": 4.0, "coordinates": {"latitude": 53.7288, "longitude": 9.89799}, "transactions": [], "price": "\u20ac\u20ac", "location": {"address1": "Kieler Str. 61", "address2": null, "address3": null, "city": "Quickborn", "zip_code": "25451", "country": "DE", "state": "SH", "display_address": ["Kieler Str. 61", "25451 Quickborn", "Germany"]}, "phone": "+494106998888", "display_phone": "+49 4106 998888", "distance": 1466.52524113565}, {"id": "W0x3aeqBwe4g7GwN4BQakQ", "alias": "steakhouse-quickborn-quickborn", "name": "Steakhouse Quickborn", "image_url": "https://s3-media3.fl.yelpcdn.com/bphoto/AUPxlfMYx7h73URVfPUsRg/o.jpg", "is_closed": false, "url": "https://www.yelp.com/biz/steakhouse-quickborn-quickborn?adjust_creative=hBJOknVQJ58S5goQyjmwRw&utm_campaign=yelp_api_v3&utm_medium=api_v3_business_search&utm_source=hBJOknVQJ58S5goQyjmwRw", "review_count": 15, "categories": [{"alias": "steak", "title": "Steakhouses"}], "rating": 4.0, "coordinates": {"latitude": 53.72868, "longitude": 9.8978}, "transactions": [], "price": "\u20ac\u20ac", "location": {"address1": "Kielerstr. 63", "address2": "", "address3": "", "city": "Quickborn", "zip_code": "25451", "country": "DE", "state": "SH", "display_address": ["Kielerstr. 63", "25451 Quickborn", "Germany"]}, "phone": "+4941066268384", "display_phone": "+49 4106 6268384", "distance": 1461.695835098751}, {"id": "UjiTIjK8lWYjfRIhPUETWQ", "alias": "lukullus-quickborn", "name": "Lukullus", "image_url": "https://s3-media3.fl.yelpcdn.com/bphoto/OZr8ihjzYssVrgWHOvn43w/o.jpg", "is_closed": false, "url": "https://www.yelp.com/biz/lukullus-quickborn?adjust_creative=hBJOknVQJ58S5goQyjmwRw&utm_campaign=yelp_api_v3&utm_medium=api_v3_business_search&utm_source=hBJOknVQJ58S5goQyjmwRw", "review_count": 27, "categories": [{"alias": "mediterranean", "title": "Mediterranean"}, {"alias": "greek", "title": "Greek"}], "rating": 4.0, "coordinates": {"latitude": 53.7288, "longitude": 9.90894}, "transactions": [], "price": "\u20ac\u20ac", "location": {"address1": "Harksheider Weg 69", "address2": null, "address3": null, "city": "Quickborn", "zip_code": "25451", "country": "DE", "state": "SH", "display_address": ["Harksheider Weg 69", "25451 Quickborn", "Germany"]}, "phone": "+49410660878", "display_phone": "+49 4106 60878", "distance": 1181.813954602099}, {"id": "9H0epPzzVI5drkb4yY2qPA", "alias": "das-caf\u00e9-quickborn", "name": "Das Caf\u00e9", "image_url": "https://s3-media2.fl.yelpcdn.com/bphoto/sGD9FOIqR3h_qY3DX1gMQA/o.jpg", "is_closed": false, "url": "https://www.yelp.com/biz/das-caf%C3%A9-quickborn?adjust_creative=hBJOknVQJ58S5goQyjmwRw&utm_campaign=yelp_api_v3&utm_medium=api_v3_business_search&utm_source=hBJOknVQJ58S5goQyjmwRw", "review_count": 1, "categories": [{"alias": "cafes", "title": "Cafes"}, {"alias": "breakfast_brunch", "title": "Breakfast & Brunch"}, {"alias": "cakeshop", "title": "Patisserie/Cake Shop"}], "rating": 5.0, "coordinates": {"latitude": 53.72932, "longitude": 9.89735}, "transactions": [], "price": "\u20ac\u20ac", "location": {"address1": "Kieler Str. 69", "address2": "", "address3": null, "city": "Quickborn", "zip_code": "25451", "country": "DE", "state": "SH", "display_address": ["Kieler Str. 69", "25451 Quickborn", "Germany"]}, "phone": "+4941066270932", "display_phone": "+49 4106 6270932", "distance": 1545.9946651977718}, {"id": "Bgl8kH8grANEe3axBAGavQ", "alias": "ristorante-casa-mia-quickborn", "name": "Ristorante Casa Mia", "image_url": "https://s3-media1.fl.yelpcdn.com/bphoto/cJ2EndZOl0AIqwsX4enIkA/o.jpg", "is_closed": false, "url": "https://www.yelp.com/biz/ristorante-casa-mia-quickborn?adjust_creative=hBJOknVQJ58S5goQyjmwRw&utm_campaign=yelp_api_v3&utm_medium=api_v3_business_search&utm_source=hBJOknVQJ58S5goQyjmwRw", "review_count": 7, "categories": [{"alias": "italian", "title": "Italian"}], "rating": 4.0, "coordinates": {"latitude": 53.7265, "longitude": 9.91538}, "transactions": [], "price": "\u20ac\u20ac", "location": {"address1": "Harksheider Weg 111", "address2": null, "address3": null, "city": "Quickborn", "zip_code": "25451", "country": "DE", "state": "SH", "display_address": ["Harksheider Weg 111", "25451 Quickborn", "Germany"]}, "phone": "+4941067972928", "display_phone": "+49 4106 7972928", "distance": 951.1549354210296}, {"id": "guZahoBDeSMSGSTpqd5GhA", "alias": "freiluft-hasloh-2", "name": "Freiluft", "image_url": "https://s3-media3.fl.yelpcdn.com/bphoto/4db8pfegMwzeKBDJxNc6aQ/o.jpg", "is_closed": false, "url": "https://www.yelp.com/biz/freiluft-hasloh-2?adjust_creative=hBJOknVQJ58S5goQyjmwRw&utm_campaign=yelp_api_v3&utm_medium=api_v3_business_search&utm_source=hBJOknVQJ58S5goQyjmwRw", "review_count": 3, "categories": [{"alias": "cafes", "title": "Cafes"}, {"alias": "breakfast_brunch", "title": "Breakfast & Brunch"}], "rating": 5.0, "coordinates": {"latitude": 53.6922063607989, "longitude": 9.92644350975752}, "transactions": [], "location": {"address1": "Garstedter Weg 36 A", "address2": null, "address3": null, "city": "Hasloh", "zip_code": "25474", "country": "DE", "state": "SH", "display_address": ["Garstedter Weg 36 A", "25474 Hasloh", "Germany"]}, "phone": "+4941069779025", "display_phone": "+49 4106 9779025", "distance": 3062.5746827081703}, {"id": "wKh25KDgrT6o1Br8YN-cMQ", "alias": "citycroque-quickborn", "name": "CityCroque", "image_url": "https://s3-media4.fl.yelpcdn.com/bphoto/rkEt6c7eYAqINClORKrJbA/o.jpg", "is_closed": false, "url": "https://www.yelp.com/biz/citycroque-quickborn?adjust_creative=hBJOknVQJ58S5goQyjmwRw&utm_campaign=yelp_api_v3&utm_medium=api_v3_business_search&utm_source=hBJOknVQJ58S5goQyjmwRw", "review_count": 2, "categories": [{"alias": "hotdogs", "title": "Fast Food"}], "rating": 5.0, "coordinates": {"latitude": 53.7312, "longitude": 9.89766}, "transactions": [], "location": {"address1": "Bahnhofstr. 12", "address2": null, "address3": null, "city": "Quickborn", "zip_code": "25451", "country": "DE", "state": "SH", "display_address": ["Bahnhofstr. 12", "25451 Quickborn", "Germany"]}, "phone": "+4941061215400", "display_phone": "+49 4106 1215400", "distance": 1698.659392128195}, {"id": "NFF6Rqp0NZGpQ5XmKLOf8w", "alias": "kebap-haus-quickborn", "name": "Kebap Haus", "image_url": "https://s3-media2.fl.yelpcdn.com/bphoto/mjhUUyS1XDbH8MeuywO9IQ/o.jpg", "is_closed": false, "url": "https://www.yelp.com/biz/kebap-haus-quickborn?adjust_creative=hBJOknVQJ58S5goQyjmwRw&utm_campaign=yelp_api_v3&utm_medium=api_v3_business_search&utm_source=hBJOknVQJ58S5goQyjmwRw", "review_count": 20, "categories": [{"alias": "turkish", "title": "Turkish"}, {"alias": "kebab", "title": "Kebab"}], "rating": 4.0, "coordinates": {"latitude": 53.7307973, "longitude": 9.9013378}, "transactions": [], "price": "\u20ac", "location": {"address1": "Bahnhofstr. 40", "address2": null, "address3": null, "city": "Quickborn", "zip_code": "25451", "country": "DE", "state": "SH", "display_address": ["Bahnhofstr. 40", "25451 Quickborn", "Germany"]}, "phone": "+49410667715", "display_phone": "+49 4106 67715", "distance": 1542.4718234819447}, {"id": "06G6xojm6oH1UMokZN8AkQ", "alias": "tapas-compostela-quickborn", "name": "Tapas Compostela", "image_url": "https://s3-media4.fl.yelpcdn.com/bphoto/IlveR7DMBGjiiEhTH8XN9Q/o.jpg", "is_closed": false, "url": "https://www.yelp.com/biz/tapas-compostela-quickborn?adjust_creative=hBJOknVQJ58S5goQyjmwRw&utm_campaign=yelp_api_v3&utm_medium=api_v3_business_search&utm_source=hBJOknVQJ58S5goQyjmwRw", "review_count": 12, "categories": [{"alias": "spanish", "title": "Spanish"}, {"alias": "tapasmallplates", "title": "Tapas/Small Plates"}], "rating": 3.5, "coordinates": {"latitude": 53.731079971809, "longitude": 9.8980201408267}, "transactions": [], "price": "\u20ac\u20ac", "location": {"address1": "Bahnhofstr.12", "address2": "", "address3": "", "city": "Quickborn", "zip_code": "25451", "country": "DE", "state": "SH", "display_address": ["Bahnhofstr.12", "25451 Quickborn", "Germany"]}, "phone": "+491755289557", "display_phone": "+49 175 5289557", "distance": 1674.7901784456433}, {"id": "iP9KRcc3ROup85hZLPtmlA", "alias": "palmencaf\u00e9-hasloh-3", "name": "Palmencaf\u00e9", "image_url": "https://s3-media1.fl.yelpcdn.com/bphoto/BibwdTZyZn0ksSPOCTPd0Q/o.jpg", "is_closed": false, "url": "https://www.yelp.com/biz/palmencaf%C3%A9-hasloh-3?adjust_creative=hBJOknVQJ58S5goQyjmwRw&utm_campaign=yelp_api_v3&utm_medium=api_v3_business_search&utm_source=hBJOknVQJ58S5goQyjmwRw", "review_count": 6, "categories": [{"alias": "cafes", "title": "Cafes"}], "rating": 4.0, "coordinates": {"latitude": 53.6907914, "longitude": 9.9101964}, "transactions": [], "price": "\u20ac\u20ac", "location": {"address1": "Kieler Str. 5", "address2": null, "address3": null, "city": "Hasloh", "zip_code": "25474", "country": "DE", "state": "SH", "display_address": ["Kieler Str. 5", "25474 Hasloh", "Germany"]}, "phone": "+4941066402666", "display_phone": "+49 4106 6402666", "distance": 3125.8935346816725}, {"id": "ebAxquDfjja58FblOYP7vQ", "alias": "french-connection-ellerau", "name": "French Connection", "image_url": "https://s3-media4.fl.yelpcdn.com/bphoto/bFNXc4HzA2mlpEpaJCUIGw/o.jpg", "is_closed": false, "url": "https://www.yelp.com/biz/french-connection-ellerau?adjust_creative=hBJOknVQJ58S5goQyjmwRw&utm_campaign=yelp_api_v3&utm_medium=api_v3_business_search&utm_source=hBJOknVQJ58S5goQyjmwRw", "review_count": 2, "categories": [{"alias": "french", "title": "French"}], "rating": 4.5, "coordinates": {"latitude": 53.750937, "longitude": 9.921258}, "transactions": [], "price": "\u20ac", "location": {"address1": "Steindamm 6", "address2": "", "address3": "", "city": "Ellerau", "zip_code": "25479", "country": "DE", "state": "SH", "display_address": ["Steindamm 6", "25479 Ellerau", "Germany"]}, "phone": "+4941068092788", "display_phone": "+49 4106 8092788", "distance": 3687.160180132161}, {"id": "epDQK29L5xcE8Z7igIEskw", "alias": "la-famiglia-quickborn", "name": "La Famiglia", "image_url": "https://s3-media1.fl.yelpcdn.com/bphoto/EXMy5iMLCLQRefTKjugVwQ/o.jpg", "is_closed": false, "url": "https://www.yelp.com/biz/la-famiglia-quickborn?adjust_creative=hBJOknVQJ58S5goQyjmwRw&utm_campaign=yelp_api_v3&utm_medium=api_v3_business_search&utm_source=hBJOknVQJ58S5goQyjmwRw", "review_count": 3, "categories": [{"alias": "bars", "title": "Bars"}, {"alias": "italian", "title": "Italian"}], "rating": 4.5, "coordinates": {"latitude": 53.7288005244379, "longitude": 9.89705179590326}, "transactions": [], "price": "\u20ac\u20ac", "location": {"address1": "An der Retloh 1", "address2": "", "address3": "", "city": "Quickborn", "zip_code": "25451", "country": "DE", "state": "SH", "display_address": ["An der Retloh 1", "25451 Quickborn", "Germany"]}, "phone": "+4941066221877", "display_phone": "+49 4106 6221877", "distance": 1504.5651271325867}, {"id": "aaUYpgIfufaWmdq7TNytyg", "alias": "der-grieche-quickborn", "name": "Der Grieche", "image_url": "https://s3-media1.fl.yelpcdn.com/bphoto/EkfeBr6A6piybSfOVZg5Vw/o.jpg", "is_closed": false, "url": "https://www.yelp.com/biz/der-grieche-quickborn?adjust_creative=hBJOknVQJ58S5goQyjmwRw&utm_campaign=yelp_api_v3&utm_medium=api_v3_business_search&utm_source=hBJOknVQJ58S5goQyjmwRw", "review_count": 8, "categories": [{"alias": "pizza", "title": "Pizza"}, {"alias": "kebab", "title": "Kebab"}], "rating": 4.0, "coordinates": {"latitude": 53.7306, "longitude": 9.89618}, "transactions": [], "price": "\u20ac\u20ac", "location": {"address1": "Kieler Str. 85", "address2": null, "address3": null, "city": "Quickborn", "zip_code": "25451", "country": "DE", "state": "SH", "display_address": ["Kieler Str. 85", "25451 Quickborn", "Germany"]}, "phone": "+494106628777", "display_phone": "+49 4106 628777", "distance": 1698.197639115516}, {"id": "lhXB8h5CWkab1gVE1ysLhA", "alias": "b\u00e4ckerei-konditorei-kolls-cafe-quickborn", "name": "B\u00e4ckerei Konditorei Kolls Cafe", "image_url": "https://s3-media2.fl.yelpcdn.com/bphoto/V7ZxfJ410asLFC9BCI47ag/o.jpg", "is_closed": false, "url": "https://www.yelp.com/biz/b%C3%A4ckerei-konditorei-kolls-cafe-quickborn?adjust_creative=hBJOknVQJ58S5goQyjmwRw&utm_campaign=yelp_api_v3&utm_medium=api_v3_business_search&utm_source=hBJOknVQJ58S5goQyjmwRw", "review_count": 2, "categories": [{"alias": "bakeries", "title": "Bakeries"}, {"alias": "cakeshop", "title": "Patisserie/Cake Shop"}, {"alias": "cafes", "title": "Cafes"}], "rating": 4.5, "coordinates": {"latitude": 53.7313, "longitude": 9.89911}, "transactions": [], "price": "\u20ac\u20ac", "location": {"address1": "Bahnhofstr. 11", "address2": null, "address3": null, "city": "Quickborn", "zip_code": "25451", "country": "DE", "state": "SH", "display_address": ["Bahnhofstr. 11", "25451 Quickborn", "Germany"]}, "phone": "+49410666244", "display_phone": "+49 4106 66244", "distance": 1659.4956436098805}, {"id": "Mrf0owowhxTgM4XLWDQB-g", "alias": "restaurant-maria-und-toni-ellerau", "name": "Restaurant Maria & Toni", "image_url": "https://s3-media4.fl.yelpcdn.com/bphoto/MQzzVKc8Y9TnzMebTtlANg/o.jpg", "is_closed": false, "url": "https://www.yelp.com/biz/restaurant-maria-und-toni-ellerau?adjust_creative=hBJOknVQJ58S5goQyjmwRw&utm_campaign=yelp_api_v3&utm_medium=api_v3_business_search&utm_source=hBJOknVQJ58S5goQyjmwRw", "review_count": 25, "categories": [{"alias": "pizza", "title": "Pizza"}, {"alias": "catering", "title": "Caterers"}, {"alias": "italian", "title": "Italian"}], "rating": 3.5, "coordinates": {"latitude": 53.7511429567739, "longitude": 9.91931587457657}, "transactions": [], "price": "\u20ac\u20ac", "location": {"address1": "Berliner Damm 17", "address2": "", "address3": null, "city": "Ellerau", "zip_code": "25479", "country": "DE", "state": "SH", "display_address": ["Berliner Damm 17", "25479 Ellerau", "Germany"]}, "phone": "+49410672046", "display_phone": "+49 4106 72046", "distance": 3691.6484509443953}, {"id": "owq5OsYAop1Iem3OXHjEsA", "alias": "restaurant-santorini-quickborn", "name": "Restaurant Santorini", "image_url": "https://s3-media1.fl.yelpcdn.com/bphoto/hmMcVAcGF9n0qUznXhXpXw/o.jpg", "is_closed": false, "url": "https://www.yelp.com/biz/restaurant-santorini-quickborn?adjust_creative=hBJOknVQJ58S5goQyjmwRw&utm_campaign=yelp_api_v3&utm_medium=api_v3_business_search&utm_source=hBJOknVQJ58S5goQyjmwRw", "review_count": 9, "categories": [{"alias": "greek", "title": "Greek"}], "rating": 3.5, "coordinates": {"latitude": 53.7341, "longitude": 9.89374}, "transactions": [], "price": "\u20ac\u20ac", "location": {"address1": "Kieler Str. 120", "address2": null, "address3": null, "city": "Quickborn", "zip_code": "25451", "country": "DE", "state": "SH", "display_address": ["Kieler Str. 120", "25451 Quickborn", "Germany"]}, "phone": "+494106760982", "display_phone": "+49 4106 760982", "distance": 2109.4433568627405}, {"id": "uowEDko0lSmfymCD01uzig", "alias": "burger-brothers-quickborn", "name": "Burger Brothers", "image_url": "https://s3-media1.fl.yelpcdn.com/bphoto/vau3V4arK1cIAhY-p_fRQw/o.jpg", "is_closed": false, "url": "https://www.yelp.com/biz/burger-brothers-quickborn?adjust_creative=hBJOknVQJ58S5goQyjmwRw&utm_campaign=yelp_api_v3&utm_medium=api_v3_business_search&utm_source=hBJOknVQJ58S5goQyjmwRw", "review_count": 6, "categories": [{"alias": "burgers", "title": "Burgers"}, {"alias": "tradamerican", "title": "American (Traditional)"}], "rating": 3.5, "coordinates": {"latitude": 53.72941, "longitude": 9.89764}, "transactions": [], "price": "\u20ac\u20ac", "location": {"address1": "Kielerstr. 84", "address2": null, "address3": null, "city": "Quickborn", "zip_code": "25451", "country": "DE", "state": "SH", "display_address": ["Kielerstr. 84", "25451 Quickborn", "Germany"]}, "phone": "+4941067988776", "display_phone": "+49 4106 7988776", "distance": 1534.6965413949108}, {"id": "qheb5F4ieQ1EaI_gHrJ6Dg", "alias": "restaurant-seegarten-quickborn", "name": "Restaurant Seegarten", "image_url": "", "is_closed": false, "url": "https://www.yelp.com/biz/restaurant-seegarten-quickborn?adjust_creative=hBJOknVQJ58S5goQyjmwRw&utm_campaign=yelp_api_v3&utm_medium=api_v3_business_search&utm_source=hBJOknVQJ58S5goQyjmwRw", "review_count": 2, "categories": [{"alias": "german", "title": "German"}], "rating": 5.0, "coordinates": {"latitude": 53.7243, "longitude": 9.93564}, "transactions": [], "location": {"address1": "Harksheider Weg 258", "address2": null, "address3": null, "city": "Quickborn", "zip_code": "25451", "country": "DE", "state": "SH", "display_address": ["Harksheider Weg 258", "25451 Quickborn", "Germany"]}, "phone": "+49410663670", "display_phone": "+49 4106 63670", "distance": 1728.7932316013143}, {"id": "JxhNwoGJ4j5d8v8oIsbuvQ", "alias": "taste-of-asia-quickborn", "name": "Taste Of Asia", "image_url": "https://s3-media3.fl.yelpcdn.com/bphoto/rSUqci8DU_9kx2LELvpWQw/o.jpg", "is_closed": false, "url": "https://www.yelp.com/biz/taste-of-asia-quickborn?adjust_creative=hBJOknVQJ58S5goQyjmwRw&utm_campaign=yelp_api_v3&utm_medium=api_v3_business_search&utm_source=hBJOknVQJ58S5goQyjmwRw", "review_count": 4, "categories": [{"alias": "panasian", "title": "Pan Asian"}], "rating": 4.0, "coordinates": {"latitude": 53.74968, "longitude": 9.91938}, "transactions": [], "location": {"address1": "Bahnstr. 2", "address2": "", "address3": "", "city": "Quickborn", "zip_code": "25451", "country": "DE", "state": "SH", "display_address": ["Bahnstr. 2", "25451 Quickborn", "Germany"]}, "phone": "+4941068079889", "display_phone": "+49 4106 8079889", "distance": 3531.844941573121}, {"id": "qC8eb5-vpUSzcH-Nx9SBGg", "alias": "seegarten-quickborn", "name": "Seegarten", "image_url": "https://s3-media4.fl.yelpcdn.com/bphoto/SxVi_bH6DTKSy5XG-49LCQ/o.jpg", "is_closed": false, "url": "https://www.yelp.com/biz/seegarten-quickborn?adjust_creative=hBJOknVQJ58S5goQyjmwRw&utm_campaign=yelp_api_v3&utm_medium=api_v3_business_search&utm_source=hBJOknVQJ58S5goQyjmwRw", "review_count": 6, "categories": [{"alias": "hotels", "title": "Hotels"}, {"alias": "international", "title": "International"}, {"alias": "german", "title": "German"}], "rating": 3.5, "coordinates": {"latitude": 53.7242, "longitude": 9.93571}, "transactions": [], "price": "\u20ac\u20ac\u20ac", "location": {"address1": "Harksheider Weg 258", "address2": null, "address3": null, "city": "Quickborn", "zip_code": "25451", "country": "DE", "state": "SH", "display_address": ["Harksheider Weg 258", "25451 Quickborn", "Germany"]}, "phone": "+49410663670", "display_phone": "+49 4106 63670", "distance": 1728.7722559112985}, {"id": "aNFjY-kF1VO6gJBbCcRQzg", "alias": "taverna-corfu-quickborn-2", "name": "Taverna Corfu", "image_url": "https://s3-media2.fl.yelpcdn.com/bphoto/4_8By19cfblH8soqfEX4WA/o.jpg", "is_closed": false, "url": "https://www.yelp.com/biz/taverna-corfu-quickborn-2?adjust_creative=hBJOknVQJ58S5goQyjmwRw&utm_campaign=yelp_api_v3&utm_medium=api_v3_business_search&utm_source=hBJOknVQJ58S5goQyjmwRw", "review_count": 7, "categories": [{"alias": "greek", "title": "Greek"}], "rating": 4.0, "coordinates": {"latitude": 53.73182, "longitude": 9.8994699}, "transactions": [], "price": "\u20ac\u20ac", "location": {"address1": "Am Freibad 4 a", "address2": null, "address3": null, "city": "Quickborn", "zip_code": "25451", "country": "DE", "state": "SH", "display_address": ["Am Freibad 4 a", "25451 Quickborn", "Germany"]}, "phone": "+49410669490", "display_phone": "+49 4106 69490", "distance": 1699.1116100041513}, {"id": "Q8UvUnkjFXgCqaAE44NjRQ", "alias": "kramers-gasthof-ellerau", "name": "Kramer's Gasthof", "image_url": "https://s3-media3.fl.yelpcdn.com/bphoto/b6kTTslnA6Aw4181zqSqsw/o.jpg", "is_closed": false, "url": "https://www.yelp.com/biz/kramers-gasthof-ellerau?adjust_creative=hBJOknVQJ58S5goQyjmwRw&utm_campaign=yelp_api_v3&utm_medium=api_v3_business_search&utm_source=hBJOknVQJ58S5goQyjmwRw", "review_count": 6, "categories": [{"alias": "hotels", "title": "Hotels"}, {"alias": "restaurants", "title": "Restaurants"}], "rating": 3.5, "coordinates": {"latitude": 53.7576, "longitude": 9.92018}, "transactions": [], "price": "\u20ac", "location": {"address1": "Dorfstr. 24", "address2": null, "address3": null, "city": "Ellerau", "zip_code": "25479", "country": "DE", "state": "SH", "display_address": ["Dorfstr. 24", "25479 Ellerau", "Germany"]}, "phone": "+49410672132", "display_phone": "+49 4106 72132", "distance": 4410.714041562315}, {"id": "hXrSBcr_JxcaWG0hTSkwPA", "alias": "landhaus-schadendorf-hasloh", "name": "Landhaus Schadendorf", "image_url": "https://s3-media4.fl.yelpcdn.com/bphoto/zJNxqe6yQY7YQ_G9FqUmtw/o.jpg", "is_closed": false, "url": "https://www.yelp.com/biz/landhaus-schadendorf-hasloh?adjust_creative=hBJOknVQJ58S5goQyjmwRw&utm_campaign=yelp_api_v3&utm_medium=api_v3_business_search&utm_source=hBJOknVQJ58S5goQyjmwRw", "review_count": 3, "categories": [{"alias": "greek", "title": "Greek"}], "rating": 3.0, "coordinates": {"latitude": 53.6925, "longitude": 9.9114}, "transactions": [], "price": "\u20ac\u20ac", "location": {"address1": "Kieler Str. 34", "address2": null, "address3": null, "city": "Hasloh", "zip_code": "25474", "country": "DE", "state": "SH", "display_address": ["Kieler Str. 34", "25474 Hasloh", "Germany"]}, "phone": "+494106658933", "display_phone": "+49 4106 658933", "distance": 2865.8665884777574}, {"id": "LEbcSKaoa94e6zq6zMm-LQ", "alias": "restaurant-beograd-ellerau-4", "name": "Restaurant Beograd", "image_url": "https://s3-media1.fl.yelpcdn.com/bphoto/CPHCcPGYXa2llaxEoyS2gw/o.jpg", "is_closed": false, "url": "https://www.yelp.com/biz/restaurant-beograd-ellerau-4?adjust_creative=hBJOknVQJ58S5goQyjmwRw&utm_campaign=yelp_api_v3&utm_medium=api_v3_business_search&utm_source=hBJOknVQJ58S5goQyjmwRw", "review_count": 3, "categories": [{"alias": "german", "title": "German"}, {"alias": "serbocroatian", "title": "Serbo Croatian"}], "rating": 3.0, "coordinates": {"latitude": 53.75254, "longitude": 9.92095}, "transactions": [], "price": "\u20ac\u20ac\u20ac", "location": {"address1": "Hojerweg 2", "address2": "", "address3": "", "city": "Ellerau", "zip_code": "25479", "country": "DE", "state": "SH", "display_address": ["Hojerweg 2", "25479 Ellerau", "Germany"]}, "phone": "+4941061248497", "display_phone": "+49 4106 1248497", "distance": 3920.8019623108007}, {"id": "GSfGNq8ZgBtQYaDW0L0YkA", "alias": "die-pizza-profis-quickborn", "name": "Die Pizza Profis", "image_url": "https://s3-media4.fl.yelpcdn.com/bphoto/jVnV9YlvpQS5M3Qvgx8wMQ/o.jpg", "is_closed": false, "url": "https://www.yelp.com/biz/die-pizza-profis-quickborn?adjust_creative=hBJOknVQJ58S5goQyjmwRw&utm_campaign=yelp_api_v3&utm_medium=api_v3_business_search&utm_source=hBJOknVQJ58S5goQyjmwRw", "review_count": 10, "categories": [{"alias": "italian", "title": "Italian"}, {"alias": "pizza", "title": "Pizza"}], "rating": 3.0, "coordinates": {"latitude": 53.7271, "longitude": 9.91427}, "transactions": [], "price": "\u20ac", "location": {"address1": "Harksheider Weg 99", "address2": null, "address3": null, "city": "Quickborn", "zip_code": "25451", "country": "DE", "state": "SH", "display_address": ["Harksheider Weg 99", "25451 Quickborn", "Germany"]}, "phone": "+494106121213", "display_phone": "+49 4106 121213", "distance": 999.2370704353026}, {"id": "APvIA_7ssxgC0atmQEFMcg", "alias": "burgerkultour-food-truck-hamburg-2", "name": "BurgerKultour Food Truck", "image_url": "https://s3-media4.fl.yelpcdn.com/bphoto/KoAuwalMnlAO8139MmdYBQ/o.jpg", "is_closed": false, "url": "https://www.yelp.com/biz/burgerkultour-food-truck-hamburg-2?adjust_creative=hBJOknVQJ58S5goQyjmwRw&utm_campaign=yelp_api_v3&utm_medium=api_v3_business_search&utm_source=hBJOknVQJ58S5goQyjmwRw", "review_count": 3, "categories": [{"alias": "foodtrucks", "title": "Food Trucks"}, {"alias": "burgers", "title": "Burgers"}], "rating": 4.5, "coordinates": {"latitude": 53.57154, "longitude": 9.95575}, "transactions": [], "price": "\u20ac\u20ac", "location": {"address1": "", "address2": "", "address3": "", "city": "Hamburg", "zip_code": "20259", "country": "DE", "state": "HH", "display_address": ["20259 Hamburg", "Germany"]}, "phone": "+4917626055122", "display_phone": "+49 176 26055122", "distance": 16646.106625812863}, {"id": "1dumSlB6PuJwoNH7eDJU7g", "alias": "imbiss-im-freibad-ellerau", "name": "Imbiss im Freibad", "image_url": "", "is_closed": false, "url": "https://www.yelp.com/biz/imbiss-im-freibad-ellerau?adjust_creative=hBJOknVQJ58S5goQyjmwRw&utm_campaign=yelp_api_v3&utm_medium=api_v3_business_search&utm_source=hBJOknVQJ58S5goQyjmwRw", "review_count": 1, "categories": [{"alias": "hotdogs", "title": "Fast Food"}], "rating": 3.0, "coordinates": {"latitude": 53.7530105966164, "longitude": 9.91930346935987}, "transactions": [], "location": {"address1": "Am Freibad", "address2": "", "address3": "", "city": "Ellerau", "zip_code": "25479", "country": "DE", "state": "SH", "display_address": ["Am Freibad", "25479 Ellerau", "Germany"]}, "phone": "+494106998875", "display_phone": "+49 4106 998875", "distance": 3897.2538164359808}, {"id": "QpNYfMfd1W3tYxPuIMW-Yg", "alias": "pizzaservice-empire-quickborn", "name": "Pizzaservice Empire", "image_url": "", "is_closed": false, "url": "https://www.yelp.com/biz/pizzaservice-empire-quickborn?adjust_creative=hBJOknVQJ58S5goQyjmwRw&utm_campaign=yelp_api_v3&utm_medium=api_v3_business_search&utm_source=hBJOknVQJ58S5goQyjmwRw", "review_count": 2, "categories": [{"alias": "pizza", "title": "Pizza"}, {"alias": "fooddeliveryservices", "title": "Food Delivery Services"}, {"alias": "italian", "title": "Italian"}], "rating": 4.0, "coordinates": {"latitude": 53.7309, "longitude": 9.89582}, "transactions": [], "price": "\u20ac", "location": {"address1": "Kieler Str. 87", "address2": null, "address3": null, "city": "Quickborn", "zip_code": "25451", "country": "DE", "state": "SH", "display_address": ["Kieler Str. 87", "25451 Quickborn", "Germany"]}, "phone": "+49410660640", "display_phone": "+49 4106 60640", "distance": 1739.1029340163464}, {"id": "cGIKCcR0wZszz8VldC2-7g", "alias": "currywerk-hamburg", "name": "curryWERK", "image_url": "https://s3-media4.fl.yelpcdn.com/bphoto/j_ZPQAB6JrAru84VDuLiRA/o.jpg", "is_closed": false, "url": "https://www.yelp.com/biz/currywerk-hamburg?adjust_creative=hBJOknVQJ58S5goQyjmwRw&utm_campaign=yelp_api_v3&utm_medium=api_v3_business_search&utm_source=hBJOknVQJ58S5goQyjmwRw", "review_count": 1, "categories": [{"alias": "foodtrucks", "title": "Food Trucks"}, {"alias": "currysausage", "title": "Curry Sausage"}], "rating": 4.0, "coordinates": {"latitude": 53.5498886108398, "longitude": 9.94732189178467}, "transactions": [], "price": "\u20ac\u20ac", "location": {"address1": "", "address2": "", "address3": "", "city": "Hamburg", "zip_code": "22767", "country": "DE", "state": "HH", "display_address": ["22767 Hamburg", "Germany"]}, "phone": "+4917632443433", "display_phone": "+49 176 32443433", "distance": 18946.63763545071}]