[{"id": "LG1nmHX3eRTDH7sLZQUhLA", "alias": "klassenzimmer-hammoor", "name": "Klassenzimmer", "image_url": "https://s3-media3.fl.yelpcdn.com/bphoto/DQqkVR8qPqCw4t8fjoLUrg/o.jpg", "is_closed": false, "url": "https://www.yelp.com/biz/klassenzimmer-hammoor?adjust_creative=hBJOknVQJ58S5goQyjmwRw&utm_campaign=yelp_api_v3&utm_medium=api_v3_business_search&utm_source=hBJOknVQJ58S5goQyjmwRw", "review_count": 20, "categories": [{"alias": "international", "title": "International"}], "rating": 4.0, "coordinates": {"latitude": 53.7139, "longitude": 10.32197}, "transactions": [], "price": "\u20ac\u20ac\u20ac", "location": {"address1": "Hauptstr. 14", "address2": "", "address3": "", "city": "Hammoor", "zip_code": "22941", "country": "DE", "state": "SH", "display_address": ["Hauptstr. 14", "22941 Hammoor", "Germany"]}, "phone": "+494532278641", "display_phone": "+49 4532 278641", "distance": 1105.1823852791968}, {"id": "bNoUJSPt7apCQuwCtz8-AQ", "alias": "restaurant-europa-tremsb\u00fcttel", "name": "Restaurant Europa", "image_url": "https://s3-media4.fl.yelpcdn.com/bphoto/0co_6-Qq-sNUjgQKT71uKA/o.jpg", "is_closed": false, "url": "https://www.yelp.com/biz/restaurant-europa-tremsb%C3%BCttel?adjust_creative=hBJOknVQJ58S5goQyjmwRw&utm_campaign=yelp_api_v3&utm_medium=api_v3_business_search&utm_source=hBJOknVQJ58S5goQyjmwRw", "review_count": 11, "categories": [{"alias": "modern_european", "title": "Modern European"}, {"alias": "german", "title": "German"}], "rating": 4.0, "coordinates": {"latitude": 53.7365363, "longitude": 10.3034105}, "transactions": [], "price": "\u20ac\u20ac", "location": {"address1": "Hauptstr. 22", "address2": null, "address3": null, "city": "Tremsb\u00fcttel", "zip_code": "22967", "country": "DE", "state": "SH", "display_address": ["Hauptstr. 22", "22967 Tremsb\u00fcttel", "Germany"]}, "phone": "+4945325145", "display_phone": "+49 4532 5145", "distance": 2439.1705983663005}, {"id": "YWPSwDzTr1WbBCHdJROGow", "alias": "restaurant-louise-tremsb\u00fcttel", "name": "Restaurant Louise", "image_url": "https://s3-media2.fl.yelpcdn.com/bphoto/tDFF5wU1eHLwdNbD02oDvw/o.jpg", "is_closed": false, "url": "https://www.yelp.com/biz/restaurant-louise-tremsb%C3%BCttel?adjust_creative=hBJOknVQJ58S5goQyjmwRw&utm_campaign=yelp_api_v3&utm_medium=api_v3_business_search&utm_source=hBJOknVQJ58S5goQyjmwRw", "review_count": 5, "categories": [{"alias": "modern_european", "title": "Modern European"}], "rating": 4.0, "coordinates": {"latitude": 53.74379, "longitude": 10.31291}, "transactions": [], "location": {"address1": "Schlo\u00dfstr. 10", "address2": "", "address3": null, "city": "Tremsb\u00fcttel", "zip_code": "22967", "country": "DE", "state": "SH", "display_address": ["Schlo\u00dfstr. 10", "22967 Tremsb\u00fcttel", "Germany"]}, "phone": "+4945322640", "display_phone": "+49 4532 2640", "distance": 3323.866715085268}, {"id": "4mTRKEA4CFNgln7iDX4lPA", "alias": "burger-king-todendorf-3", "name": "Burger King", "image_url": "https://s3-media3.fl.yelpcdn.com/bphoto/ee0IUoPtnO7NOQGLFtXE6w/o.jpg", "is_closed": false, "url": "https://www.yelp.com/biz/burger-king-todendorf-3?adjust_creative=hBJOknVQJ58S5goQyjmwRw&utm_campaign=yelp_api_v3&utm_medium=api_v3_business_search&utm_source=hBJOknVQJ58S5goQyjmwRw", "review_count": 2, "categories": [{"alias": "hotdogs", "title": "Fast Food"}, {"alias": "burgers", "title": "Burgers"}], "rating": 3.0, "coordinates": {"latitude": 53.694286333028, "longitude": 10.3243524596638}, "transactions": [], "price": "\u20ac\u20ac", "location": {"address1": "Herbertweg 1 / BAB1", "address2": "", "address3": "", "city": "Todendorf", "zip_code": "22965", "country": "DE", "state": "SH", "display_address": ["Herbertweg 1 / BAB1", "22965 Todendorf", "Germany"]}, "phone": "", "display_phone": "", "distance": 2585.7847173434134}, {"id": "KwnWGUzxBUH7Edy9t-_u9g", "alias": "mcdonalds-todendorf", "name": "McDonald's", "image_url": "https://s3-media3.fl.yelpcdn.com/bphoto/-agfYV3u5cM6XRjCC4enww/o.jpg", "is_closed": false, "url": "https://www.yelp.com/biz/mcdonalds-todendorf?adjust_creative=hBJOknVQJ58S5goQyjmwRw&utm_campaign=yelp_api_v3&utm_medium=api_v3_business_search&utm_source=hBJOknVQJ58S5goQyjmwRw", "review_count": 3, "categories": [{"alias": "hotdogs", "title": "Fast Food"}, {"alias": "burgers", "title": "Burgers"}], "rating": 2.0, "coordinates": {"latitude": 53.6934834504299, "longitude": 10.321371294558}, "transactions": [], "price": "\u20ac\u20ac", "location": {"address1": "E22", "address2": "", "address3": "", "city": "Todendorf", "zip_code": "22965", "country": "DE", "state": "SH", "display_address": ["E22", "22965 Todendorf", "Germany"]}, "phone": "+4945342049623", "display_phone": "+49 4534 2049623", "distance": 2577.793371264561}, {"id": "APvIA_7ssxgC0atmQEFMcg", "alias": "burgerkultour-food-truck-hamburg-2", "name": "BurgerKultour Food Truck", "image_url": "https://s3-media4.fl.yelpcdn.com/bphoto/KoAuwalMnlAO8139MmdYBQ/o.jpg", "is_closed": false, "url": "https://www.yelp.com/biz/burgerkultour-food-truck-hamburg-2?adjust_creative=hBJOknVQJ58S5goQyjmwRw&utm_campaign=yelp_api_v3&utm_medium=api_v3_business_search&utm_source=hBJOknVQJ58S5goQyjmwRw", "review_count": 3, "categories": [{"alias": "foodtrucks", "title": "Food Trucks"}, {"alias": "burgers", "title": "Burgers"}], "rating": 4.5, "coordinates": {"latitude": 53.57154, "longitude": 9.95575}, "transactions": [], "price": "\u20ac\u20ac", "location": {"address1": "", "address2": "", "address3": "", "city": "Hamburg", "zip_code": "20259", "country": "DE", "state": "HH", "display_address": ["20259 Hamburg", "Germany"]}, "phone": "+4917626055122", "display_phone": "+49 176 26055122", "distance": 28005.66502871624}, {"id": "u21FcA9109JVW9jBbflhPQ", "alias": "rastst\u00e4tte-buddikate-ost-todendorf-2", "name": "Rastst\u00e4tte Buddikate Ost", "image_url": "https://s3-media1.fl.yelpcdn.com/bphoto/yjVQbzfggZz6dAJtffertA/o.jpg", "is_closed": false, "url": "https://www.yelp.com/biz/rastst%C3%A4tte-buddikate-ost-todendorf-2?adjust_creative=hBJOknVQJ58S5goQyjmwRw&utm_campaign=yelp_api_v3&utm_medium=api_v3_business_search&utm_source=hBJOknVQJ58S5goQyjmwRw", "review_count": 4, "categories": [{"alias": "hotdogs", "title": "Fast Food"}, {"alias": "german", "title": "German"}, {"alias": "cafes", "title": "Cafes"}], "rating": 2.5, "coordinates": {"latitude": 53.6943389348779, "longitude": 10.3242511267833}, "transactions": [], "price": "\u20ac\u20ac\u20ac\u20ac", "location": {"address1": "Herbertweg 1", "address2": "", "address3": "", "city": "Todendorf", "zip_code": "22965", "country": "DE", "state": "SH", "display_address": ["Herbertweg 1", "22965 Todendorf", "Germany"]}, "phone": "+494534204847", "display_phone": "+49 4534 204847", "distance": 2577.437863032902}, {"id": "cGIKCcR0wZszz8VldC2-7g", "alias": "currywerk-hamburg", "name": "curryWERK", "image_url": "https://s3-media4.fl.yelpcdn.com/bphoto/j_ZPQAB6JrAru84VDuLiRA/o.jpg", "is_closed": false, "url": "https://www.yelp.com/biz/currywerk-hamburg?adjust_creative=hBJOknVQJ58S5goQyjmwRw&utm_campaign=yelp_api_v3&utm_medium=api_v3_business_search&utm_source=hBJOknVQJ58S5goQyjmwRw", "review_count": 1, "categories": [{"alias": "foodtrucks", "title": "Food Trucks"}, {"alias": "currysausage", "title": "Curry Sausage"}], "rating": 4.0, "coordinates": {"latitude": 53.5498886108398, "longitude": 9.94732189178467}, "transactions": [], "price": "\u20ac\u20ac", "location": {"address1": "", "address2": "", "address3": "", "city": "Hamburg", "zip_code": "22767", "country": "DE", "state": "HH", "display_address": ["22767 Hamburg", "Germany"]}, "phone": "+4917632443433", "display_phone": "+49 176 32443433", "distance": 30192.71324044652}]