[{"id": "o-KanEI2DlkukakpjeT1yQ", "alias": "bistro-italiano-unico-quickborn", "name": "Bistro Italiano Unico", "image_url": "https://s3-media2.fl.yelpcdn.com/bphoto/qPQ4m2OtlJTcygB6yakQlA/o.jpg", "is_closed": false, "url": "https://www.yelp.com/biz/bistro-italiano-unico-quickborn?adjust_creative=hBJOknVQJ58S5goQyjmwRw&utm_campaign=yelp_api_v3&utm_medium=api_v3_business_search&utm_source=hBJOknVQJ58S5goQyjmwRw", "review_count": 10, "categories": [{"alias": "italian", "title": "Italian"}], "rating": 4.5, "coordinates": {"latitude": 53.73076, "longitude": 9.90172}, "transactions": [], "price": "\u20ac\u20ac", "location": {"address1": "Bahnhofstr.  58", "address2": null, "address3": null, "city": "Quickborn", "zip_code": "25451", "country": "DE", "state": "SH", "display_address": ["Bahnhofstr.  58", "25451 Quickborn", "Germany"]}, "phone": "+4917662613608", "display_phone": "+49 176 62613608", "distance": 1922.493688787326}, {"id": "b9plgjHVHc05qihILkiyKQ", "alias": "restaurant-ambrosia-quickborn", "name": "Restaurant Ambrosia", "image_url": "https://s3-media3.fl.yelpcdn.com/bphoto/pWXw6tYKYmBR_2KWXCsTQQ/o.jpg", "is_closed": false, "url": "https://www.yelp.com/biz/restaurant-ambrosia-quickborn?adjust_creative=hBJOknVQJ58S5goQyjmwRw&utm_campaign=yelp_api_v3&utm_medium=api_v3_business_search&utm_source=hBJOknVQJ58S5goQyjmwRw", "review_count": 14, "categories": [{"alias": "mediterranean", "title": "Mediterranean"}, {"alias": "greek", "title": "Greek"}], "rating": 4.5, "coordinates": {"latitude": 53.7344284, "longitude": 9.8930397}, "transactions": [], "price": "\u20ac\u20ac", "location": {"address1": "Kieler Str.  117", "address2": "", "address3": "", "city": "Quickborn", "zip_code": "25451", "country": "DE", "state": "SH", "display_address": ["Kieler Str.  117", "25451 Quickborn", "Germany"]}, "phone": "+4941065811", "display_phone": "+49 4106 5811", "distance": 1934.4343458424057}, {"id": "Vx-8p1d8iptmHEzxV_k2tA", "alias": "la-bella-vita-quickborn", "name": "La Bella Vita", "image_url": "https://s3-media1.fl.yelpcdn.com/bphoto/iwWqV79FMVSQgmBYhbo2gA/o.jpg", "is_closed": false, "url": "https://www.yelp.com/biz/la-bella-vita-quickborn?adjust_creative=hBJOknVQJ58S5goQyjmwRw&utm_campaign=yelp_api_v3&utm_medium=api_v3_business_search&utm_source=hBJOknVQJ58S5goQyjmwRw", "review_count": 18, "categories": [{"alias": "italian", "title": "Italian"}, {"alias": "pizza", "title": "Pizza"}], "rating": 4.0, "coordinates": {"latitude": 53.7288, "longitude": 9.89799}, "transactions": [], "price": "\u20ac\u20ac", "location": {"address1": "Kieler Str. 61", "address2": null, "address3": null, "city": "Quickborn", "zip_code": "25451", "country": "DE", "state": "SH", "display_address": ["Kieler Str. 61", "25451 Quickborn", "Germany"]}, "phone": "+494106998888", "display_phone": "+49 4106 998888", "distance": 1595.0670258647365}, {"id": "W0x3aeqBwe4g7GwN4BQakQ", "alias": "steakhouse-quickborn-quickborn", "name": "Steakhouse Quickborn", "image_url": "https://s3-media3.fl.yelpcdn.com/bphoto/AUPxlfMYx7h73URVfPUsRg/o.jpg", "is_closed": false, "url": "https://www.yelp.com/biz/steakhouse-quickborn-quickborn?adjust_creative=hBJOknVQJ58S5goQyjmwRw&utm_campaign=yelp_api_v3&utm_medium=api_v3_business_search&utm_source=hBJOknVQJ58S5goQyjmwRw", "review_count": 15, "categories": [{"alias": "steak", "title": "Steakhouses"}], "rating": 4.0, "coordinates": {"latitude": 53.72868, "longitude": 9.8978}, "transactions": [], "price": "\u20ac\u20ac", "location": {"address1": "Kielerstr. 63", "address2": "", "address3": "", "city": "Quickborn", "zip_code": "25451", "country": "DE", "state": "SH", "display_address": ["Kielerstr. 63", "25451 Quickborn", "Germany"]}, "phone": "+4941066268384", "display_phone": "+49 4106 6268384", "distance": 1575.2645385931226}, {"id": "_KYXeqQRjqH_o2n8p4ELJg", "alias": "golfclub-an-der-pinnau-quickborn", "name": "Golfclub an der Pinnau", "image_url": "https://s3-media4.fl.yelpcdn.com/bphoto/x4JP2SkS2h5aF--XOotT8Q/o.jpg", "is_closed": false, "url": "https://www.yelp.com/biz/golfclub-an-der-pinnau-quickborn?adjust_creative=hBJOknVQJ58S5goQyjmwRw&utm_campaign=yelp_api_v3&utm_medium=api_v3_business_search&utm_source=hBJOknVQJ58S5goQyjmwRw", "review_count": 5, "categories": [{"alias": "golf", "title": "Golf"}, {"alias": "amateursportsteams", "title": "Amateur Sports Teams"}, {"alias": "restaurants", "title": "Restaurants"}], "rating": 4.0, "coordinates": {"latitude": 53.72141, "longitude": 9.86741}, "transactions": [], "price": "\u20ac\u20ac\u20ac", "location": {"address1": "Pinneberger Str.  81a", "address2": null, "address3": null, "city": "Quickborn", "zip_code": "25451", "country": "DE", "state": "SH", "display_address": ["Pinneberger Str.  81a", "25451 Quickborn", "Germany"]}, "phone": "+494106625256", "display_phone": "+49 4106 625256", "distance": 958.0922405704399}, {"id": "RlCQUw0oZFf8LWH6ksJgyw", "alias": "restaurant-jagdhaus-waldfrieden-quickborn", "name": "Restaurant Jagdhaus Waldfrieden", "image_url": "https://s3-media3.fl.yelpcdn.com/bphoto/ZqApxgxc6uGH7SVGvmGb2Q/o.jpg", "is_closed": false, "url": "https://www.yelp.com/biz/restaurant-jagdhaus-waldfrieden-quickborn?adjust_creative=hBJOknVQJ58S5goQyjmwRw&utm_campaign=yelp_api_v3&utm_medium=api_v3_business_search&utm_source=hBJOknVQJ58S5goQyjmwRw", "review_count": 21, "categories": [{"alias": "german", "title": "German"}], "rating": 4.5, "coordinates": {"latitude": 53.755289, "longitude": 9.882149}, "transactions": [], "price": "\u20ac\u20ac\u20ac", "location": {"address1": "Kieler Str. 1", "address2": "", "address3": null, "city": "Quickborn", "zip_code": "25451", "country": "DE", "state": "SH", "display_address": ["Kieler Str. 1", "25451 Quickborn", "Germany"]}, "phone": "+49410661020", "display_phone": "+49 4106 61020", "distance": 4091.3035224736886}, {"id": "wKh25KDgrT6o1Br8YN-cMQ", "alias": "citycroque-quickborn", "name": "CityCroque", "image_url": "https://s3-media4.fl.yelpcdn.com/bphoto/rkEt6c7eYAqINClORKrJbA/o.jpg", "is_closed": false, "url": "https://www.yelp.com/biz/citycroque-quickborn?adjust_creative=hBJOknVQJ58S5goQyjmwRw&utm_campaign=yelp_api_v3&utm_medium=api_v3_business_search&utm_source=hBJOknVQJ58S5goQyjmwRw", "review_count": 2, "categories": [{"alias": "hotdogs", "title": "Fast Food"}], "rating": 5.0, "coordinates": {"latitude": 53.7312, "longitude": 9.89766}, "transactions": [], "location": {"address1": "Bahnhofstr. 12", "address2": null, "address3": null, "city": "Quickborn", "zip_code": "25451", "country": "DE", "state": "SH", "display_address": ["Bahnhofstr. 12", "25451 Quickborn", "Germany"]}, "phone": "+4941061215400", "display_phone": "+49 4106 1215400", "distance": 1782.9582453527632}, {"id": "NFF6Rqp0NZGpQ5XmKLOf8w", "alias": "kebap-haus-quickborn", "name": "Kebap Haus", "image_url": "https://s3-media2.fl.yelpcdn.com/bphoto/mjhUUyS1XDbH8MeuywO9IQ/o.jpg", "is_closed": false, "url": "https://www.yelp.com/biz/kebap-haus-quickborn?adjust_creative=hBJOknVQJ58S5goQyjmwRw&utm_campaign=yelp_api_v3&utm_medium=api_v3_business_search&utm_source=hBJOknVQJ58S5goQyjmwRw", "review_count": 20, "categories": [{"alias": "turkish", "title": "Turkish"}, {"alias": "kebab", "title": "Kebab"}], "rating": 4.0, "coordinates": {"latitude": 53.7307973, "longitude": 9.9013378}, "transactions": [], "price": "\u20ac", "location": {"address1": "Bahnhofstr. 40", "address2": null, "address3": null, "city": "Quickborn", "zip_code": "25451", "country": "DE", "state": "SH", "display_address": ["Bahnhofstr. 40", "25451 Quickborn", "Germany"]}, "phone": "+49410667715", "display_phone": "+49 4106 67715", "distance": 1907.8172706200312}, {"id": "epDQK29L5xcE8Z7igIEskw", "alias": "la-famiglia-quickborn", "name": "La Famiglia", "image_url": "https://s3-media1.fl.yelpcdn.com/bphoto/EXMy5iMLCLQRefTKjugVwQ/o.jpg", "is_closed": false, "url": "https://www.yelp.com/biz/la-famiglia-quickborn?adjust_creative=hBJOknVQJ58S5goQyjmwRw&utm_campaign=yelp_api_v3&utm_medium=api_v3_business_search&utm_source=hBJOknVQJ58S5goQyjmwRw", "review_count": 3, "categories": [{"alias": "bars", "title": "Bars"}, {"alias": "italian", "title": "Italian"}], "rating": 4.5, "coordinates": {"latitude": 53.7288005244379, "longitude": 9.89705179590326}, "transactions": [], "price": "\u20ac\u20ac", "location": {"address1": "An der Retloh 1", "address2": "", "address3": "", "city": "Quickborn", "zip_code": "25451", "country": "DE", "state": "SH", "display_address": ["An der Retloh 1", "25451 Quickborn", "Germany"]}, "phone": "+4941066221877", "display_phone": "+49 4106 6221877", "distance": 1552.7803272774922}, {"id": "uowEDko0lSmfymCD01uzig", "alias": "burger-brothers-quickborn", "name": "Burger Brothers", "image_url": "https://s3-media1.fl.yelpcdn.com/bphoto/vau3V4arK1cIAhY-p_fRQw/o.jpg", "is_closed": false, "url": "https://www.yelp.com/biz/burger-brothers-quickborn?adjust_creative=hBJOknVQJ58S5goQyjmwRw&utm_campaign=yelp_api_v3&utm_medium=api_v3_business_search&utm_source=hBJOknVQJ58S5goQyjmwRw", "review_count": 6, "categories": [{"alias": "burgers", "title": "Burgers"}, {"alias": "tradamerican", "title": "American (Traditional)"}], "rating": 3.5, "coordinates": {"latitude": 53.72941, "longitude": 9.89764}, "transactions": [], "price": "\u20ac\u20ac", "location": {"address1": "Kielerstr. 84", "address2": null, "address3": null, "city": "Quickborn", "zip_code": "25451", "country": "DE", "state": "SH", "display_address": ["Kielerstr. 84", "25451 Quickborn", "Germany"]}, "phone": "+4941067988776", "display_phone": "+49 4106 7988776", "distance": 1628.9850473999104}, {"id": "aaUYpgIfufaWmdq7TNytyg", "alias": "der-grieche-quickborn", "name": "Der Grieche", "image_url": "https://s3-media1.fl.yelpcdn.com/bphoto/EkfeBr6A6piybSfOVZg5Vw/o.jpg", "is_closed": false, "url": "https://www.yelp.com/biz/der-grieche-quickborn?adjust_creative=hBJOknVQJ58S5goQyjmwRw&utm_campaign=yelp_api_v3&utm_medium=api_v3_business_search&utm_source=hBJOknVQJ58S5goQyjmwRw", "review_count": 8, "categories": [{"alias": "pizza", "title": "Pizza"}, {"alias": "kebab", "title": "Kebab"}], "rating": 4.0, "coordinates": {"latitude": 53.7306, "longitude": 9.89618}, "transactions": [], "price": "\u20ac\u20ac", "location": {"address1": "Kieler Str. 85", "address2": null, "address3": null, "city": "Quickborn", "zip_code": "25451", "country": "DE", "state": "SH", "display_address": ["Kieler Str. 85", "25451 Quickborn", "Germany"]}, "phone": "+494106628777", "display_phone": "+49 4106 628777", "distance": 1671.0752400492217}, {"id": "lhXB8h5CWkab1gVE1ysLhA", "alias": "b\u00e4ckerei-konditorei-kolls-cafe-quickborn", "name": "B\u00e4ckerei Konditorei Kolls Cafe", "image_url": "https://s3-media2.fl.yelpcdn.com/bphoto/V7ZxfJ410asLFC9BCI47ag/o.jpg", "is_closed": false, "url": "https://www.yelp.com/biz/b%C3%A4ckerei-konditorei-kolls-cafe-quickborn?adjust_creative=hBJOknVQJ58S5goQyjmwRw&utm_campaign=yelp_api_v3&utm_medium=api_v3_business_search&utm_source=hBJOknVQJ58S5goQyjmwRw", "review_count": 2, "categories": [{"alias": "bakeries", "title": "Bakeries"}, {"alias": "cakeshop", "title": "Patisserie/Cake Shop"}, {"alias": "cafes", "title": "Cafes"}], "rating": 4.5, "coordinates": {"latitude": 53.7313, "longitude": 9.89911}, "transactions": [], "price": "\u20ac\u20ac", "location": {"address1": "Bahnhofstr. 11", "address2": null, "address3": null, "city": "Quickborn", "zip_code": "25451", "country": "DE", "state": "SH", "display_address": ["Bahnhofstr. 11", "25451 Quickborn", "Germany"]}, "phone": "+49410666244", "display_phone": "+49 4106 66244", "distance": 1851.278482298913}, {"id": "owq5OsYAop1Iem3OXHjEsA", "alias": "restaurant-santorini-quickborn", "name": "Restaurant Santorini", "image_url": "https://s3-media1.fl.yelpcdn.com/bphoto/hmMcVAcGF9n0qUznXhXpXw/o.jpg", "is_closed": false, "url": "https://www.yelp.com/biz/restaurant-santorini-quickborn?adjust_creative=hBJOknVQJ58S5goQyjmwRw&utm_campaign=yelp_api_v3&utm_medium=api_v3_business_search&utm_source=hBJOknVQJ58S5goQyjmwRw", "review_count": 9, "categories": [{"alias": "greek", "title": "Greek"}], "rating": 3.5, "coordinates": {"latitude": 53.7341, "longitude": 9.89374}, "transactions": [], "price": "\u20ac\u20ac", "location": {"address1": "Kieler Str. 120", "address2": null, "address3": null, "city": "Quickborn", "zip_code": "25451", "country": "DE", "state": "SH", "display_address": ["Kieler Str. 120", "25451 Quickborn", "Germany"]}, "phone": "+494106760982", "display_phone": "+49 4106 760982", "distance": 1923.2058742282916}, {"id": "aNFjY-kF1VO6gJBbCcRQzg", "alias": "taverna-corfu-quickborn-2", "name": "Taverna Corfu", "image_url": "https://s3-media2.fl.yelpcdn.com/bphoto/4_8By19cfblH8soqfEX4WA/o.jpg", "is_closed": false, "url": "https://www.yelp.com/biz/taverna-corfu-quickborn-2?adjust_creative=hBJOknVQJ58S5goQyjmwRw&utm_campaign=yelp_api_v3&utm_medium=api_v3_business_search&utm_source=hBJOknVQJ58S5goQyjmwRw", "review_count": 7, "categories": [{"alias": "greek", "title": "Greek"}], "rating": 4.0, "coordinates": {"latitude": 53.73182, "longitude": 9.8994699}, "transactions": [], "price": "\u20ac\u20ac", "location": {"address1": "Am Freibad 4 a", "address2": null, "address3": null, "city": "Quickborn", "zip_code": "25451", "country": "DE", "state": "SH", "display_address": ["Am Freibad 4 a", "25451 Quickborn", "Germany"]}, "phone": "+49410669490", "display_phone": "+49 4106 69490", "distance": 1910.9610306351917}, {"id": "QpNYfMfd1W3tYxPuIMW-Yg", "alias": "pizzaservice-empire-quickborn", "name": "Pizzaservice Empire", "image_url": "", "is_closed": false, "url": "https://www.yelp.com/biz/pizzaservice-empire-quickborn?adjust_creative=hBJOknVQJ58S5goQyjmwRw&utm_campaign=yelp_api_v3&utm_medium=api_v3_business_search&utm_source=hBJOknVQJ58S5goQyjmwRw", "review_count": 2, "categories": [{"alias": "pizza", "title": "Pizza"}, {"alias": "fooddeliveryservices", "title": "Food Delivery Services"}, {"alias": "italian", "title": "Italian"}], "rating": 4.0, "coordinates": {"latitude": 53.7309, "longitude": 9.89582}, "transactions": [], "price": "\u20ac", "location": {"address1": "Kieler Str. 87", "address2": null, "address3": null, "city": "Quickborn", "zip_code": "25451", "country": "DE", "state": "SH", "display_address": ["Kieler Str. 87", "25451 Quickborn", "Germany"]}, "phone": "+49410660640", "display_phone": "+49 4106 60640", "distance": 1684.3327645856014}, {"id": "06G6xojm6oH1UMokZN8AkQ", "alias": "tapas-compostela-quickborn", "name": "Tapas Compostela", "image_url": "https://s3-media4.fl.yelpcdn.com/bphoto/IlveR7DMBGjiiEhTH8XN9Q/o.jpg", "is_closed": false, "url": "https://www.yelp.com/biz/tapas-compostela-quickborn?adjust_creative=hBJOknVQJ58S5goQyjmwRw&utm_campaign=yelp_api_v3&utm_medium=api_v3_business_search&utm_source=hBJOknVQJ58S5goQyjmwRw", "review_count": 12, "categories": [{"alias": "spanish", "title": "Spanish"}, {"alias": "tapasmallplates", "title": "Tapas/Small Plates"}], "rating": 3.5, "coordinates": {"latitude": 53.731079971809, "longitude": 9.8980201408267}, "transactions": [], "price": "\u20ac\u20ac", "location": {"address1": "Bahnhofstr.12", "address2": "", "address3": "", "city": "Quickborn", "zip_code": "25451", "country": "DE", "state": "SH", "display_address": ["Bahnhofstr.12", "25451 Quickborn", "Germany"]}, "phone": "+491755289557", "display_phone": "+49 175 5289557", "distance": 1787.0553461824825}, {"id": "9H0epPzzVI5drkb4yY2qPA", "alias": "das-caf\u00e9-quickborn", "name": "Das Caf\u00e9", "image_url": "https://s3-media2.fl.yelpcdn.com/bphoto/sGD9FOIqR3h_qY3DX1gMQA/o.jpg", "is_closed": false, "url": "https://www.yelp.com/biz/das-caf%C3%A9-quickborn?adjust_creative=hBJOknVQJ58S5goQyjmwRw&utm_campaign=yelp_api_v3&utm_medium=api_v3_business_search&utm_source=hBJOknVQJ58S5goQyjmwRw", "review_count": 1, "categories": [{"alias": "cafes", "title": "Cafes"}, {"alias": "breakfast_brunch", "title": "Breakfast & Brunch"}, {"alias": "cakeshop", "title": "Patisserie/Cake Shop"}], "rating": 5.0, "coordinates": {"latitude": 53.72932, "longitude": 9.89735}, "transactions": [], "price": "\u20ac\u20ac", "location": {"address1": "Kieler Str. 69", "address2": "", "address3": null, "city": "Quickborn", "zip_code": "25451", "country": "DE", "state": "SH", "display_address": ["Kieler Str. 69", "25451 Quickborn", "Germany"]}, "phone": "+4941066270932", "display_phone": "+49 4106 6270932", "distance": 1600.1119461167245}]