[{"id": "8x14AO14Qzu_Kr1k5F5gWQ", "alias": "zur-kastanie-hamburg-2", "name": "Zur Kastanie", "image_url": "https://s3-media4.fl.yelpcdn.com/bphoto/uUQJsafxvys3m925Xy2Y6A/o.jpg", "is_closed": false, "url": "https://www.yelp.com/biz/zur-kastanie-hamburg-2?adjust_creative=hBJOknVQJ58S5goQyjmwRw&utm_campaign=yelp_api_v3&utm_medium=api_v3_business_search&utm_source=hBJOknVQJ58S5goQyjmwRw", "review_count": 14, "categories": [{"alias": "german", "title": "German"}], "rating": 4.0, "coordinates": {"latitude": 53.70517, "longitude": 10.11532}, "transactions": [], "price": "\u20ac\u20ac\u20ac", "location": {"address1": "Specksaalredder 14", "address2": null, "address3": null, "city": "Hamburg", "zip_code": "22397", "country": "DE", "state": "HH", "display_address": ["Specksaalredder 14", "22397 Hamburg", "Germany"]}, "phone": "+49406072525", "display_phone": "+49 40 6072525", "distance": 1437.2730043693396}, {"id": "5tp5KcW-tVRYKWq95ZK6iQ", "alias": "ristorante-italia-hamburg", "name": "Ristorante Italia", "image_url": "https://s3-media1.fl.yelpcdn.com/bphoto/zzCb9cJx5f7VE2F9vJQmEQ/o.jpg", "is_closed": false, "url": "https://www.yelp.com/biz/ristorante-italia-hamburg?adjust_creative=hBJOknVQJ58S5goQyjmwRw&utm_campaign=yelp_api_v3&utm_medium=api_v3_business_search&utm_source=hBJOknVQJ58S5goQyjmwRw", "review_count": 35, "categories": [{"alias": "italian", "title": "Italian"}], "rating": 4.0, "coordinates": {"latitude": 53.70802, "longitude": 10.10804}, "transactions": [], "price": "\u20ac\u20ac", "location": {"address1": "Duvenstedter Damm 45", "address2": "", "address3": null, "city": "Hamburg", "zip_code": "22397", "country": "DE", "state": "HH", "display_address": ["Duvenstedter Damm 45", "22397 Hamburg", "Germany"]}, "phone": "+49406072750", "display_phone": "+49 40 6072750", "distance": 1389.13297125933}, {"id": "BAPz48pmYBDBfXbOikW2DQ", "alias": "lenz-hamburg", "name": "Lenz", "image_url": "https://s3-media3.fl.yelpcdn.com/bphoto/9graD77lr-0YQC4FQt5PaQ/o.jpg", "is_closed": false, "url": "https://www.yelp.com/biz/lenz-hamburg?adjust_creative=hBJOknVQJ58S5goQyjmwRw&utm_campaign=yelp_api_v3&utm_medium=api_v3_business_search&utm_source=hBJOknVQJ58S5goQyjmwRw", "review_count": 87, "categories": [{"alias": "wine_bars", "title": "Wine Bars"}, {"alias": "german", "title": "German"}], "rating": 4.5, "coordinates": {"latitude": 53.70815, "longitude": 10.10589}, "transactions": [], "price": "\u20ac\u20ac\u20ac", "location": {"address1": "Poppenb\u00fctteler Chaussee 3", "address2": null, "address3": null, "city": "Hamburg", "zip_code": "22397", "country": "DE", "state": "HH", "display_address": ["Poppenb\u00fctteler Chaussee 3", "22397 Hamburg", "Germany"]}, "phone": "+494060558887", "display_phone": "+49 40 60558887", "distance": 1489.4447816590878}, {"id": "mprwg5_US2YgAZHZoWs86w", "alias": "alster-au-hamburg-2", "name": "Alster Au", "image_url": "https://s3-media1.fl.yelpcdn.com/bphoto/4ay6sPJGVPtMBR7Ehcxpmg/o.jpg", "is_closed": false, "url": "https://www.yelp.com/biz/alster-au-hamburg-2?adjust_creative=hBJOknVQJ58S5goQyjmwRw&utm_campaign=yelp_api_v3&utm_medium=api_v3_business_search&utm_source=hBJOknVQJ58S5goQyjmwRw", "review_count": 20, "categories": [{"alias": "hotels", "title": "Hotels"}, {"alias": "german", "title": "German"}], "rating": 4.0, "coordinates": {"latitude": 53.70657, "longitude": 10.11733}, "transactions": [], "price": "\u20ac\u20ac", "location": {"address1": "Duvenstedter Damm  6", "address2": null, "address3": null, "city": "Hamburg", "zip_code": "22397", "country": "DE", "state": "HH", "display_address": ["Duvenstedter Damm  6", "22397 Hamburg", "Germany"]}, "phone": "+49406442400", "display_phone": "+49 40 6442400", "distance": 1174.2376824162043}, {"id": "ByLnXlZ8Dcpx6bkQy7OZ3Q", "alias": "die-m\u00fchle-hamburg", "name": "Die M\u00fchle", "image_url": "https://s3-media3.fl.yelpcdn.com/bphoto/7XffThMeNk9m6kBU4CihAg/o.jpg", "is_closed": false, "url": "https://www.yelp.com/biz/die-m%C3%BChle-hamburg?adjust_creative=hBJOknVQJ58S5goQyjmwRw&utm_campaign=yelp_api_v3&utm_medium=api_v3_business_search&utm_source=hBJOknVQJ58S5goQyjmwRw", "review_count": 21, "categories": [{"alias": "german", "title": "German"}], "rating": 4.0, "coordinates": {"latitude": 53.709764, "longitude": 10.130082}, "transactions": [], "price": "\u20ac\u20ac", "location": {"address1": "M\u00fchlenredder 38", "address2": null, "address3": null, "city": "Hamburg", "zip_code": "22397", "country": "DE", "state": "HH", "display_address": ["M\u00fchlenredder 38", "22397 Hamburg", "Germany"]}, "phone": "+49406076650", "display_phone": "+49 40 6076650", "distance": 861.55752417912}, {"id": "qDQLMRQxlDdkGZFNw8w1-A", "alias": "gutsk\u00fcche-tangstedt", "name": "Gutsk\u00fcche", "image_url": "https://s3-media1.fl.yelpcdn.com/bphoto/W9Gzq2yvPlxheckjNYtqkQ/o.jpg", "is_closed": false, "url": "https://www.yelp.com/biz/gutsk%C3%BCche-tangstedt?adjust_creative=hBJOknVQJ58S5goQyjmwRw&utm_campaign=yelp_api_v3&utm_medium=api_v3_business_search&utm_source=hBJOknVQJ58S5goQyjmwRw", "review_count": 51, "categories": [{"alias": "modern_european", "title": "Modern European"}, {"alias": "international", "title": "International"}], "rating": 4.0, "coordinates": {"latitude": 53.71843, "longitude": 10.11176}, "transactions": [], "price": "\u20ac\u20ac\u20ac", "location": {"address1": "Wulksfelder Damm 15 - 17", "address2": "", "address3": "", "city": "Tangstedt", "zip_code": "22889", "country": "DE", "state": "SH", "display_address": ["Wulksfelder Damm 15 - 17", "22889 Tangstedt", "Germany"]}, "phone": "+494064419441", "display_phone": "+49 40 64419441", "distance": 796.3580657254403}, {"id": "bP0sQmMF9MpIL7rqwy-wPQ", "alias": "fresh-fast-kayhude", "name": "Fresh + Fast", "image_url": "https://s3-media2.fl.yelpcdn.com/bphoto/W-oNSTtd1M_BjNlYU6cBxQ/o.jpg", "is_closed": false, "url": "https://www.yelp.com/biz/fresh-fast-kayhude?adjust_creative=hBJOknVQJ58S5goQyjmwRw&utm_campaign=yelp_api_v3&utm_medium=api_v3_business_search&utm_source=hBJOknVQJ58S5goQyjmwRw", "review_count": 2, "categories": [{"alias": "pizza", "title": "Pizza"}, {"alias": "salad", "title": "Salad"}, {"alias": "burgers", "title": "Burgers"}], "rating": 4.5, "coordinates": {"latitude": 53.750302, "longitude": 10.126376}, "transactions": [], "location": {"address1": "Segeberger Str. 9 - 13 a", "address2": "", "address3": null, "city": "Kayhude", "zip_code": "23863", "country": "DE", "state": "SH", "display_address": ["Segeberger Str. 9 - 13 a", "23863 Kayhude", "Germany"]}, "phone": "+494035731600", "display_phone": "+49 40 35731600", "distance": 3765.460950896314}, {"id": "tQhh6Ac0uPL-7ue1f848pA", "alias": "gasthaus-zum-b\u00e4cker-hamburg", "name": "Gasthaus Zum B\u00e4cker", "image_url": "https://s3-media3.fl.yelpcdn.com/bphoto/Qx95kZ9VvRkT8TDu-u-_GA/o.jpg", "is_closed": false, "url": "https://www.yelp.com/biz/gasthaus-zum-b%C3%A4cker-hamburg?adjust_creative=hBJOknVQJ58S5goQyjmwRw&utm_campaign=yelp_api_v3&utm_medium=api_v3_business_search&utm_source=hBJOknVQJ58S5goQyjmwRw", "review_count": 31, "categories": [{"alias": "german", "title": "German"}], "rating": 4.0, "coordinates": {"latitude": 53.709966, "longitude": 10.131952}, "transactions": [], "price": "\u20ac\u20ac", "location": {"address1": "Herrenhausallee 9", "address2": null, "address3": null, "city": "Hamburg", "zip_code": "22397", "country": "DE", "state": "HH", "display_address": ["Herrenhausallee 9", "22397 Hamburg", "Germany"]}, "phone": "+494060765397", "display_phone": "+49 40 60765397", "distance": 911.3397776607816}, {"id": "SrkadK_qU1ViIRukZ0IhoQ", "alias": "gastst\u00e4tte-alter-heidkrug-kayhude", "name": "Gastst\u00e4tte Alter Heidkrug", "image_url": "https://s3-media1.fl.yelpcdn.com/bphoto/i4K0ytlzYo0x9fS-TQowWQ/o.jpg", "is_closed": false, "url": "https://www.yelp.com/biz/gastst%C3%A4tte-alter-heidkrug-kayhude?adjust_creative=hBJOknVQJ58S5goQyjmwRw&utm_campaign=yelp_api_v3&utm_medium=api_v3_business_search&utm_source=hBJOknVQJ58S5goQyjmwRw", "review_count": 33, "categories": [{"alias": "german", "title": "German"}], "rating": 4.0, "coordinates": {"latitude": 53.7486, "longitude": 10.1264}, "transactions": [], "price": "\u20ac\u20ac", "location": {"address1": "Segeberger Str. 10", "address2": null, "address3": null, "city": "Kayhude", "zip_code": "23863", "country": "DE", "state": "SH", "display_address": ["Segeberger Str. 10", "23863 Kayhude", "Germany"]}, "phone": "+49406070252", "display_phone": "+49 40 6070252", "distance": 3577.4383512693917}, {"id": "hz50-hDcuY8KxhG5S4xLDg", "alias": "gasthaus-offen-hamburg", "name": "Gasthaus Offen", "image_url": "https://s3-media2.fl.yelpcdn.com/bphoto/z60mHTwqI2onQiOeUjFPSg/o.jpg", "is_closed": false, "url": "https://www.yelp.com/biz/gasthaus-offen-hamburg?adjust_creative=hBJOknVQJ58S5goQyjmwRw&utm_campaign=yelp_api_v3&utm_medium=api_v3_business_search&utm_source=hBJOknVQJ58S5goQyjmwRw", "review_count": 55, "categories": [{"alias": "german", "title": "German"}], "rating": 4.0, "coordinates": {"latitude": 53.6865, "longitude": 10.105}, "transactions": [], "price": "\u20ac\u20ac", "location": {"address1": "Lemsahler Dorfstr. 39", "address2": null, "address3": null, "city": "Hamburg", "zip_code": "22397", "country": "DE", "state": "HH", "display_address": ["Lemsahler Dorfstr. 39", "22397 Hamburg", "Germany"]}, "phone": "+49406083835", "display_phone": "+49 40 6083835", "distance": 3548.9469569940306}, {"id": "TvXUyRWBFExD8Wpv0iCkXw", "alias": "caros-konditorei-und-davids-caf\u00e9-hamburg", "name": "caros konditorei und davids caf\u00e9", "image_url": "https://s3-media2.fl.yelpcdn.com/bphoto/m7coPZEcBFtM7UBI4l98uw/o.jpg", "is_closed": false, "url": "https://www.yelp.com/biz/caros-konditorei-und-davids-caf%C3%A9-hamburg?adjust_creative=hBJOknVQJ58S5goQyjmwRw&utm_campaign=yelp_api_v3&utm_medium=api_v3_business_search&utm_source=hBJOknVQJ58S5goQyjmwRw", "review_count": 12, "categories": [{"alias": "cakeshop", "title": "Patisserie/Cake Shop"}, {"alias": "cafes", "title": "Cafes"}], "rating": 4.5, "coordinates": {"latitude": 53.708009, "longitude": 10.108087}, "transactions": [], "price": "\u20ac\u20ac\u20ac", "location": {"address1": "Duvenstedter Damm 45", "address2": "", "address3": "", "city": "Hamburg", "zip_code": "22397", "country": "DE", "state": "HH", "display_address": ["Duvenstedter Damm 45", "22397 Hamburg", "Germany"]}, "phone": "+494024439468", "display_phone": "+49 40 24439468", "distance": 1388.5577299342483}, {"id": "dwwCa9FmB9iqg4f-0QMgVQ", "alias": "restaurant-zum-haselknick-hamburg", "name": "Restaurant zum Haselknick", "image_url": "https://s3-media4.fl.yelpcdn.com/bphoto/LfUgcMoKxm4AtIbxgZzdbg/o.jpg", "is_closed": false, "url": "https://www.yelp.com/biz/restaurant-zum-haselknick-hamburg?adjust_creative=hBJOknVQJ58S5goQyjmwRw&utm_campaign=yelp_api_v3&utm_medium=api_v3_business_search&utm_source=hBJOknVQJ58S5goQyjmwRw", "review_count": 7, "categories": [{"alias": "german", "title": "German"}], "rating": 4.0, "coordinates": {"latitude": 53.6932272340552, "longitude": 10.1185979515594}, "transactions": [], "price": "\u20ac", "location": {"address1": "Haselknick 77", "address2": "", "address3": "", "city": "Hamburg", "zip_code": "22397", "country": "DE", "state": "HH", "display_address": ["Haselknick 77", "22397 Hamburg", "Germany"]}, "phone": "+49406050494", "display_phone": "+49 40 6050494", "distance": 2605.0175204987972}, {"id": "dvB6oLtP1vQ0CqotRJuELg", "alias": "alsterschleuse-tangstedt", "name": "Alsterschleuse", "image_url": "https://s3-media2.fl.yelpcdn.com/bphoto/ArewhkXYBLBf6d4SvPE8aQ/o.jpg", "is_closed": false, "url": "https://www.yelp.com/biz/alsterschleuse-tangstedt?adjust_creative=hBJOknVQJ58S5goQyjmwRw&utm_campaign=yelp_api_v3&utm_medium=api_v3_business_search&utm_source=hBJOknVQJ58S5goQyjmwRw", "review_count": 3, "categories": [{"alias": "mediterranean", "title": "Mediterranean"}, {"alias": "italian", "title": "Italian"}], "rating": 3.5, "coordinates": {"latitude": 53.75301, "longitude": 10.13827}, "transactions": [], "location": {"address1": "Ehlersberg 26", "address2": "", "address3": "", "city": "Tangstedt", "zip_code": "22889", "country": "DE", "state": "SH", "display_address": ["Ehlersberg 26", "22889 Tangstedt", "Germany"]}, "phone": "+4941092134080", "display_phone": "+49 4109 2134080", "distance": 4167.118989865184}, {"id": "LACckalF24FdKUnuGEB3FQ", "alias": "rio-grande-hamburg-6", "name": "Rio Grande", "image_url": "https://s3-media1.fl.yelpcdn.com/bphoto/cu9QzBIXNR43OqEdFMjaVQ/o.jpg", "is_closed": false, "url": "https://www.yelp.com/biz/rio-grande-hamburg-6?adjust_creative=hBJOknVQJ58S5goQyjmwRw&utm_campaign=yelp_api_v3&utm_medium=api_v3_business_search&utm_source=hBJOknVQJ58S5goQyjmwRw", "review_count": 40, "categories": [{"alias": "steak", "title": "Steakhouses"}, {"alias": "tradamerican", "title": "American (Traditional)"}], "rating": 3.5, "coordinates": {"latitude": 53.70887, "longitude": 10.10634}, "transactions": [], "price": "\u20ac\u20ac", "location": {"address1": "Duvenstedter Damm 72", "address2": "", "address3": "", "city": "Hamburg", "zip_code": "22397", "country": "DE", "state": "HH", "display_address": ["Duvenstedter Damm 72", "22397 Hamburg", "Germany"]}, "phone": "+494064419300", "display_phone": "+49 40 64419300", "distance": 1413.7046160788614}, {"id": "_hxqSzun5OLd6d1mBZdD6A", "alias": "taverna-petros-and-marietta-hamburg", "name": "Taverna Petros & Marietta", "image_url": "https://s3-media1.fl.yelpcdn.com/bphoto/Ga5yBMjksrcsliXHNWPxEg/o.jpg", "is_closed": false, "url": "https://www.yelp.com/biz/taverna-petros-and-marietta-hamburg?adjust_creative=hBJOknVQJ58S5goQyjmwRw&utm_campaign=yelp_api_v3&utm_medium=api_v3_business_search&utm_source=hBJOknVQJ58S5goQyjmwRw", "review_count": 14, "categories": [{"alias": "greek", "title": "Greek"}], "rating": 3.5, "coordinates": {"latitude": 53.70565, "longitude": 10.10657}, "transactions": [], "price": "\u20ac\u20ac", "location": {"address1": "Im Ellernbusch 41", "address2": "", "address3": "", "city": "Hamburg", "zip_code": "22397", "country": "DE", "state": "HH", "display_address": ["Im Ellernbusch 41", "22397 Hamburg", "Germany"]}, "phone": "+49406071733", "display_phone": "+49 40 6071733", "distance": 1638.48295220665}, {"id": "mxT59tks7phC1hUiaqMAJA", "alias": "gasthaus-quellenhof-aubert-fromm\u00e9-hamburg", "name": "Gasthaus Quellenhof Aubert Fromm\u00e9", "image_url": "https://s3-media2.fl.yelpcdn.com/bphoto/7UQJ0pSOgXBWrqp88VmuAg/o.jpg", "is_closed": false, "url": "https://www.yelp.com/biz/gasthaus-quellenhof-aubert-fromm%C3%A9-hamburg?adjust_creative=hBJOknVQJ58S5goQyjmwRw&utm_campaign=yelp_api_v3&utm_medium=api_v3_business_search&utm_source=hBJOknVQJ58S5goQyjmwRw", "review_count": 19, "categories": [{"alias": "cafes", "title": "Cafes"}, {"alias": "german", "title": "German"}], "rating": 3.5, "coordinates": {"latitude": 53.6847, "longitude": 10.1175}, "transactions": [], "price": "\u20ac\u20ac", "location": {"address1": "Rodenbeker Str. 126", "address2": null, "address3": null, "city": "Hamburg", "zip_code": "22395", "country": "DE", "state": "HH", "display_address": ["Rodenbeker Str. 126", "22395 Hamburg", "Germany"]}, "phone": "+49406049228", "display_phone": "+49 40 6049228", "distance": 3555.12417731945}, {"id": "m_V1tGdPNMKHiK2AQbuKKQ", "alias": "duvenstedter-eiscaf\u00e9-hamburg-2", "name": "Duvenstedter Eiscaf\u00e9", "image_url": "https://s3-media2.fl.yelpcdn.com/bphoto/tI70Wf2bTa2eH2rURHYp5Q/o.jpg", "is_closed": false, "url": "https://www.yelp.com/biz/duvenstedter-eiscaf%C3%A9-hamburg-2?adjust_creative=hBJOknVQJ58S5goQyjmwRw&utm_campaign=yelp_api_v3&utm_medium=api_v3_business_search&utm_source=hBJOknVQJ58S5goQyjmwRw", "review_count": 30, "categories": [{"alias": "icecream", "title": "Ice Cream & Frozen Yogurt"}, {"alias": "breakfast_brunch", "title": "Breakfast & Brunch"}, {"alias": "cafes", "title": "Cafes"}], "rating": 4.0, "coordinates": {"latitude": 53.70825, "longitude": 10.1047}, "transactions": [], "price": "\u20ac\u20ac", "location": {"address1": "Poppenb\u00fctteler Chaussee 8", "address2": null, "address3": null, "city": "Hamburg", "zip_code": "22397", "country": "DE", "state": "HH", "display_address": ["Poppenb\u00fctteler Chaussee 8", "22397 Hamburg", "Germany"]}, "phone": "+494060761377", "display_phone": "+49 40 60761377", "distance": 1539.9652319116835}, {"id": "jEExdSHO_hWAyiNh7SkDdw", "alias": "restaurant-landhaus-ohlstedt-hamburg", "name": "Restaurant Landhaus Ohlstedt", "image_url": "https://s3-media1.fl.yelpcdn.com/bphoto/u5kyzRpGLcfY9RrR8zVJug/o.jpg", "is_closed": false, "url": "https://www.yelp.com/biz/restaurant-landhaus-ohlstedt-hamburg?adjust_creative=hBJOknVQJ58S5goQyjmwRw&utm_campaign=yelp_api_v3&utm_medium=api_v3_business_search&utm_source=hBJOknVQJ58S5goQyjmwRw", "review_count": 16, "categories": [{"alias": "german", "title": "German"}, {"alias": "breakfast_brunch", "title": "Breakfast & Brunch"}], "rating": 3.5, "coordinates": {"latitude": 53.69562, "longitude": 10.13842}, "transactions": [], "price": "\u20ac\u20ac", "location": {"address1": "Alte Dorfstr. 5", "address2": null, "address3": null, "city": "Hamburg", "zip_code": "22397", "country": "DE", "state": "HH", "display_address": ["Alte Dorfstr. 5", "22397 Hamburg", "Germany"]}, "phone": "+49406056700", "display_phone": "+49 40 6056700", "distance": 2508.459550560682}, {"id": "g6-fQG5tkTmKufTKxJxS9Q", "alias": "isi-grill-hamburg", "name": "Isi Grill", "image_url": "https://s3-media2.fl.yelpcdn.com/bphoto/XWXJNxPuuWnRGs8_gr_j0A/o.jpg", "is_closed": false, "url": "https://www.yelp.com/biz/isi-grill-hamburg?adjust_creative=hBJOknVQJ58S5goQyjmwRw&utm_campaign=yelp_api_v3&utm_medium=api_v3_business_search&utm_source=hBJOknVQJ58S5goQyjmwRw", "review_count": 10, "categories": [{"alias": "hotdogs", "title": "Fast Food"}, {"alias": "pizza", "title": "Pizza"}, {"alias": "kebab", "title": "Kebab"}], "rating": 4.0, "coordinates": {"latitude": 53.6784228, "longitude": 10.1472348}, "transactions": [], "price": "\u20ac", "location": {"address1": "Hamburger Str. 103", "address2": null, "address3": null, "city": "Hamburg", "zip_code": "22949", "country": "DE", "state": "HH", "display_address": ["Hamburger Str. 103", "22949 Hamburg", "Germany"]}, "phone": "+494060559903", "display_phone": "+49 40 60559903", "distance": 4509.5107334810555}, {"id": "APvIA_7ssxgC0atmQEFMcg", "alias": "burgerkultour-food-truck-hamburg-2", "name": "BurgerKultour Food Truck", "image_url": "https://s3-media4.fl.yelpcdn.com/bphoto/KoAuwalMnlAO8139MmdYBQ/o.jpg", "is_closed": false, "url": "https://www.yelp.com/biz/burgerkultour-food-truck-hamburg-2?adjust_creative=hBJOknVQJ58S5goQyjmwRw&utm_campaign=yelp_api_v3&utm_medium=api_v3_business_search&utm_source=hBJOknVQJ58S5goQyjmwRw", "review_count": 3, "categories": [{"alias": "foodtrucks", "title": "Food Trucks"}, {"alias": "burgers", "title": "Burgers"}], "rating": 4.5, "coordinates": {"latitude": 53.57154, "longitude": 9.95575}, "transactions": [], "price": "\u20ac\u20ac", "location": {"address1": "", "address2": "", "address3": "", "city": "Hamburg", "zip_code": "20259", "country": "DE", "state": "HH", "display_address": ["20259 Hamburg", "Germany"]}, "phone": "+4917626055122", "display_phone": "+49 176 26055122", "distance": 19575.810021965324}, {"id": "cGIKCcR0wZszz8VldC2-7g", "alias": "currywerk-hamburg", "name": "curryWERK", "image_url": "https://s3-media4.fl.yelpcdn.com/bphoto/j_ZPQAB6JrAru84VDuLiRA/o.jpg", "is_closed": false, "url": "https://www.yelp.com/biz/currywerk-hamburg?adjust_creative=hBJOknVQJ58S5goQyjmwRw&utm_campaign=yelp_api_v3&utm_medium=api_v3_business_search&utm_source=hBJOknVQJ58S5goQyjmwRw", "review_count": 1, "categories": [{"alias": "foodtrucks", "title": "Food Trucks"}, {"alias": "currysausage", "title": "Curry Sausage"}], "rating": 4.0, "coordinates": {"latitude": 53.5498886108398, "longitude": 9.94732189178467}, "transactions": [], "price": "\u20ac\u20ac", "location": {"address1": "", "address2": "", "address3": "", "city": "Hamburg", "zip_code": "22767", "country": "DE", "state": "HH", "display_address": ["22767 Hamburg", "Germany"]}, "phone": "+4917632443433", "display_phone": "+49 176 32443433", "distance": 22125.58547171482}]