[{"id": "on79th3DxeROda17sy3p0A", "alias": "ristorante-dani-bargteheide", "name": "Ristorante Dani", "image_url": "https://s3-media2.fl.yelpcdn.com/bphoto/FhT2SO75xajgp3v5fIprjw/o.jpg", "is_closed": false, "url": "https://www.yelp.com/biz/ristorante-dani-bargteheide?adjust_creative=hBJOknVQJ58S5goQyjmwRw&utm_campaign=yelp_api_v3&utm_medium=api_v3_business_search&utm_source=hBJOknVQJ58S5goQyjmwRw", "review_count": 2, "categories": [{"alias": "italian", "title": "Italian"}], "rating": 4.5, "coordinates": {"latitude": 53.730215, "longitude": 10.268918}, "transactions": [], "location": {"address1": "Vo\u00dfkuhlenweg 2", "address2": "", "address3": "", "city": "Bargteheide", "zip_code": "22941", "country": "DE", "state": "SH", "display_address": ["Vo\u00dfkuhlenweg 2", "22941 Bargteheide", "Germany"]}, "phone": "+4945329756151", "display_phone": "+49 4532 9756151", "distance": 2320.7865609412092}, {"id": "DiEBiia4iKSD0SH5qCdGJw", "alias": "restaurant-utspann-bargteheide", "name": "Restaurant Utspann", "image_url": "https://s3-media4.fl.yelpcdn.com/bphoto/sYlG8L4MQWDSjjSP_nZvPA/o.jpg", "is_closed": false, "url": "https://www.yelp.com/biz/restaurant-utspann-bargteheide?adjust_creative=hBJOknVQJ58S5goQyjmwRw&utm_campaign=yelp_api_v3&utm_medium=api_v3_business_search&utm_source=hBJOknVQJ58S5goQyjmwRw", "review_count": 36, "categories": [{"alias": "german", "title": "German"}], "rating": 4.5, "coordinates": {"latitude": 53.72845, "longitude": 10.25957}, "transactions": [], "price": "\u20ac\u20ac\u20ac", "location": {"address1": "Hamburger Str. 1", "address2": "", "address3": "", "city": "Bargteheide", "zip_code": "22941", "country": "DE", "state": "SH", "display_address": ["Hamburger Str. 1", "22941 Bargteheide", "Germany"]}, "phone": "+4945326220", "display_phone": "+49 4532 6220", "distance": 1760.7873779345869}, {"id": "_XPUcNbemTXSQDHu760orw", "alias": "papillon-bargteheide-3", "name": "Papillon", "image_url": "https://s3-media4.fl.yelpcdn.com/bphoto/pwP871KidKJ1c-JZMaMkQQ/o.jpg", "is_closed": false, "url": "https://www.yelp.com/biz/papillon-bargteheide-3?adjust_creative=hBJOknVQJ58S5goQyjmwRw&utm_campaign=yelp_api_v3&utm_medium=api_v3_business_search&utm_source=hBJOknVQJ58S5goQyjmwRw", "review_count": 3, "categories": [{"alias": "international", "title": "International"}, {"alias": "german", "title": "German"}], "rating": 4.5, "coordinates": {"latitude": 53.7277762, "longitude": 10.2585978}, "transactions": [], "price": "\u20ac\u20ac", "location": {"address1": "Hamburger Str. 3", "address2": "", "address3": "", "city": "Bargteheide", "zip_code": "22941", "country": "DE", "state": "SH", "display_address": ["Hamburger Str. 3", "22941 Bargteheide", "Germany"]}, "phone": "+494532266504", "display_phone": "+49 4532 266504", "distance": 1663.0109769622227}, {"id": "GTC-Als8WldkK053ufr0Aw", "alias": "restaurant-bangkok-ahrensburg-3", "name": "Restaurant Bangkok", "image_url": "https://s3-media2.fl.yelpcdn.com/bphoto/S3Fa82IYr6sYKasiDS-2Ow/o.jpg", "is_closed": false, "url": "https://www.yelp.com/biz/restaurant-bangkok-ahrensburg-3?adjust_creative=hBJOknVQJ58S5goQyjmwRw&utm_campaign=yelp_api_v3&utm_medium=api_v3_business_search&utm_source=hBJOknVQJ58S5goQyjmwRw", "review_count": 25, "categories": [{"alias": "thai", "title": "Thai"}], "rating": 4.0, "coordinates": {"latitude": 53.673249, "longitude": 10.239954}, "transactions": [], "price": "\u20ac", "location": {"address1": "Lohe 2- 4", "address2": "", "address3": "", "city": "Ahrensburg", "zip_code": "22926", "country": "DE", "state": "SH", "display_address": ["Lohe 2- 4", "22926 Ahrensburg", "Germany"]}, "phone": "+494102x9810498", "display_phone": "+49 4102 ext. 9810498", "distance": 4684.144041916801}, {"id": "I2n3AOTaIzLy1660OXSLcw", "alias": "tu-huus-bargteheide", "name": "Tu Huus", "image_url": "", "is_closed": false, "url": "https://www.yelp.com/biz/tu-huus-bargteheide?adjust_creative=hBJOknVQJ58S5goQyjmwRw&utm_campaign=yelp_api_v3&utm_medium=api_v3_business_search&utm_source=hBJOknVQJ58S5goQyjmwRw", "review_count": 2, "categories": [{"alias": "german", "title": "German"}], "rating": 4.5, "coordinates": {"latitude": 53.7274, "longitude": 10.2575}, "transactions": [], "location": {"address1": "Lindenstr. 1", "address2": null, "address3": null, "city": "Bargteheide", "zip_code": "22941", "country": "DE", "state": "SH", "display_address": ["Lindenstr. 1", "22941 Bargteheide", "Germany"]}, "phone": "+494532203900", "display_phone": "+49 4532 203900", "distance": 1588.8426688191737}, {"id": "X0fV5kVP5s7V1rkp-QFA5Q", "alias": "ristorante-da-mimmo-bargteheide", "name": "Ristorante Da Mimmo", "image_url": "https://s3-media1.fl.yelpcdn.com/bphoto/mDMwkb0PEu_i7RvhWH_G-A/o.jpg", "is_closed": false, "url": "https://www.yelp.com/biz/ristorante-da-mimmo-bargteheide?adjust_creative=hBJOknVQJ58S5goQyjmwRw&utm_campaign=yelp_api_v3&utm_medium=api_v3_business_search&utm_source=hBJOknVQJ58S5goQyjmwRw", "review_count": 32, "categories": [{"alias": "italian", "title": "Italian"}], "rating": 4.5, "coordinates": {"latitude": 53.72893, "longitude": 10.26329}, "transactions": [], "price": "\u20ac\u20ac", "location": {"address1": "Mittelweg 17", "address2": "", "address3": "", "city": "Bargteheide", "zip_code": "22941", "country": "DE", "state": "SH", "display_address": ["Mittelweg 17", "22941 Bargteheide", "Germany"]}, "phone": "+49453222326", "display_phone": "+49 4532 22326", "distance": 1948.7445296203125}, {"id": "9BoptuqV6JKp816-hL0rxw", "alias": "kroatien-restaurant-mediterraneo-ahrensburg-4", "name": "Kroatien Restaurant Mediterraneo", "image_url": "https://s3-media1.fl.yelpcdn.com/bphoto/0l52YvMZbBZdSOww8rigOA/o.jpg", "is_closed": false, "url": "https://www.yelp.com/biz/kroatien-restaurant-mediterraneo-ahrensburg-4?adjust_creative=hBJOknVQJ58S5goQyjmwRw&utm_campaign=yelp_api_v3&utm_medium=api_v3_business_search&utm_source=hBJOknVQJ58S5goQyjmwRw", "review_count": 9, "categories": [{"alias": "bowling", "title": "Bowling"}, {"alias": "mediterranean", "title": "Mediterranean"}], "rating": 4.0, "coordinates": {"latitude": 53.6803176227514, "longitude": 10.2351419627666}, "transactions": [], "price": "\u20ac\u20ac\u20ac", "location": {"address1": "Reeshoop 48", "address2": null, "address3": "", "city": "Ahrensburg", "zip_code": "22926", "country": "DE", "state": "SH", "display_address": ["Reeshoop 48", "22926 Ahrensburg", "Germany"]}, "phone": "+4941024737184", "display_phone": "+49 4102 4737184", "distance": 3937.8649612229574}, {"id": "HSmwnP1V3kpZwG-6pDGKKA", "alias": "einstein-bargteheide-3", "name": "Einstein", "image_url": "https://s3-media2.fl.yelpcdn.com/bphoto/Ntf8UKh5iWXnlys8L0m5JA/o.jpg", "is_closed": false, "url": "https://www.yelp.com/biz/einstein-bargteheide-3?adjust_creative=hBJOknVQJ58S5goQyjmwRw&utm_campaign=yelp_api_v3&utm_medium=api_v3_business_search&utm_source=hBJOknVQJ58S5goQyjmwRw", "review_count": 11, "categories": [{"alias": "italian", "title": "Italian"}], "rating": 4.5, "coordinates": {"latitude": 53.728752, "longitude": 10.261447}, "transactions": [], "price": "\u20ac\u20ac", "location": {"address1": "Theodor-Storm-Str. 1 b+c", "address2": "", "address3": "", "city": "Bargteheide", "zip_code": "22941", "country": "DE", "state": "SH", "display_address": ["Theodor-Storm-Str. 1 b+c", "22941 Bargteheide", "Germany"]}, "phone": "+4945324004886", "display_phone": "+49 4532 4004886", "distance": 1859.1331406888598}, {"id": "aNOvBOorVbu5n3m7xP8sqg", "alias": "freizeitzentrum-lohe-bargteheide", "name": "Freizeitzentrum Lohe", "image_url": "https://s3-media2.fl.yelpcdn.com/bphoto/qna7_Xu-pCtgn2LArdL8vA/o.jpg", "is_closed": false, "url": "https://www.yelp.com/biz/freizeitzentrum-lohe-bargteheide?adjust_creative=hBJOknVQJ58S5goQyjmwRw&utm_campaign=yelp_api_v3&utm_medium=api_v3_business_search&utm_source=hBJOknVQJ58S5goQyjmwRw", "review_count": 1, "categories": [{"alias": "tennis", "title": "Tennis"}, {"alias": "bowling", "title": "Bowling"}, {"alias": "german", "title": "German"}], "rating": 5.0, "coordinates": {"latitude": 53.72323, "longitude": 10.2676}, "transactions": [], "price": "\u20ac\u20ac", "location": {"address1": "Robert-Bosch-Weg 2", "address2": null, "address3": null, "city": "Bargteheide", "zip_code": "22941", "country": "DE", "state": "SH", "display_address": ["Robert-Bosch-Weg 2", "22941 Bargteheide", "Germany"]}, "phone": "+49453222120", "display_phone": "+49 4532 22120", "distance": 1808.8788529283288}, {"id": "4beQdw054mnucH9AUEObBA", "alias": "le-marron-ahrensburg", "name": "Le Marron", "image_url": "https://s3-media3.fl.yelpcdn.com/bphoto/bxBPcQGBLS244zRkjdaDBw/o.jpg", "is_closed": false, "url": "https://www.yelp.com/biz/le-marron-ahrensburg?adjust_creative=hBJOknVQJ58S5goQyjmwRw&utm_campaign=yelp_api_v3&utm_medium=api_v3_business_search&utm_source=hBJOknVQJ58S5goQyjmwRw", "review_count": 5, "categories": [{"alias": "mediterranean", "title": "Mediterranean"}], "rating": 4.5, "coordinates": {"latitude": 53.6815649957513, "longitude": 10.242217643521}, "transactions": [], "price": "\u20ac\u20ac", "location": {"address1": "L\u00fcbecker Str. 10 a", "address2": null, "address3": null, "city": "Ahrensburg", "zip_code": "22926", "country": "DE", "state": "SH", "display_address": ["L\u00fcbecker Str. 10 a", "22926 Ahrensburg", "Germany"]}, "phone": "+494102230400", "display_phone": "+49 4102 230400", "distance": 3751.9296510481145}, {"id": "7EC5erPOA8iTczH4xxoh9g", "alias": "restaurant-taj-mahal-ahrensburg", "name": "Restaurant Taj Mahal", "image_url": "https://s3-media4.fl.yelpcdn.com/bphoto/zdRNbF-TszZITApboKsIFw/o.jpg", "is_closed": false, "url": "https://www.yelp.com/biz/restaurant-taj-mahal-ahrensburg?adjust_creative=hBJOknVQJ58S5goQyjmwRw&utm_campaign=yelp_api_v3&utm_medium=api_v3_business_search&utm_source=hBJOknVQJ58S5goQyjmwRw", "review_count": 10, "categories": [{"alias": "indpak", "title": "Indian"}], "rating": 4.5, "coordinates": {"latitude": 53.675, "longitude": 10.2403}, "transactions": [], "price": "\u20ac\u20ac", "location": {"address1": "Gro\u00dfe Str. 15", "address2": null, "address3": null, "city": "Ahrensburg", "zip_code": "22926", "country": "DE", "state": "SH", "display_address": ["Gro\u00dfe Str. 15", "22926 Ahrensburg", "Germany"]}, "phone": "+494102888888", "display_phone": "+49 4102 888888", "distance": 4487.7567642744325}, {"id": "ZCzNsnKcLcBcbnL4lW2AAA", "alias": "la-rusticana-bargteheide", "name": "La Rusticana", "image_url": "https://s3-media2.fl.yelpcdn.com/bphoto/vIXQdeKKKTKX0D9fKy-26g/o.jpg", "is_closed": false, "url": "https://www.yelp.com/biz/la-rusticana-bargteheide?adjust_creative=hBJOknVQJ58S5goQyjmwRw&utm_campaign=yelp_api_v3&utm_medium=api_v3_business_search&utm_source=hBJOknVQJ58S5goQyjmwRw", "review_count": 2, "categories": [{"alias": "italian", "title": "Italian"}], "rating": 4.0, "coordinates": {"latitude": 53.72871, "longitude": 10.25919}, "transactions": [], "price": "\u20ac\u20ac", "location": {"address1": "Jersbeker Str. 2", "address2": "", "address3": "", "city": "Bargteheide", "zip_code": "22941", "country": "DE", "state": "SH", "display_address": ["Jersbeker Str. 2", "22941 Bargteheide", "Germany"]}, "phone": "+4945322664556", "display_phone": "+49 4532 2664556", "distance": 1767.8639528908282}, {"id": "rWkR5DswacH0QqeJSIUpew", "alias": "fotiou-delingsdorf", "name": "Fotiou", "image_url": "https://s3-media4.fl.yelpcdn.com/bphoto/u_KgUCzbITYjo7eepyRtiA/o.jpg", "is_closed": false, "url": "https://www.yelp.com/biz/fotiou-delingsdorf?adjust_creative=hBJOknVQJ58S5goQyjmwRw&utm_campaign=yelp_api_v3&utm_medium=api_v3_business_search&utm_source=hBJOknVQJ58S5goQyjmwRw", "review_count": 5, "categories": [{"alias": "greek", "title": "Greek"}], "rating": 4.0, "coordinates": {"latitude": 53.7084668147889, "longitude": 10.2514946615631}, "transactions": [], "location": {"address1": "L\u00fcbecker Str. 15", "address2": "", "address3": "", "city": "Delingsdorf", "zip_code": "22941", "country": "DE", "state": "SH", "display_address": ["L\u00fcbecker Str. 15", "22941 Delingsdorf", "Germany"]}, "phone": "+4945322882674", "display_phone": "+49 4532 2882674", "distance": 878.3151587452451}, {"id": "tmxq61VUBMQDZsD6Lhyhbw", "alias": "zum-fasanenhof-jersbek", "name": "Zum Fasanenhof", "image_url": "https://s3-media3.fl.yelpcdn.com/bphoto/8IN155QIed3A1Dp48VCHkA/o.jpg", "is_closed": false, "url": "https://www.yelp.com/biz/zum-fasanenhof-jersbek?adjust_creative=hBJOknVQJ58S5goQyjmwRw&utm_campaign=yelp_api_v3&utm_medium=api_v3_business_search&utm_source=hBJOknVQJ58S5goQyjmwRw", "review_count": 19, "categories": [{"alias": "german", "title": "German"}], "rating": 3.5, "coordinates": {"latitude": 53.7422, "longitude": 10.2202}, "transactions": [], "price": "\u20ac\u20ac", "location": {"address1": "Allee 18", "address2": null, "address3": null, "city": "Jersbek", "zip_code": "22941", "country": "DE", "state": "SH", "display_address": ["Allee 18", "22941 Jersbek", "Germany"]}, "phone": "+4945321849", "display_phone": "+49 4532 1849", "distance": 3401.032226564006}, {"id": "2xJdUgZ9P-92zk7EHboT8g", "alias": "greco-bistro-grill-ahrensburg", "name": "Greco Bistro Grill", "image_url": "https://s3-media3.fl.yelpcdn.com/bphoto/oU1zL0jxN7dsKXOIEz3lww/o.jpg", "is_closed": false, "url": "https://www.yelp.com/biz/greco-bistro-grill-ahrensburg?adjust_creative=hBJOknVQJ58S5goQyjmwRw&utm_campaign=yelp_api_v3&utm_medium=api_v3_business_search&utm_source=hBJOknVQJ58S5goQyjmwRw", "review_count": 6, "categories": [{"alias": "greek", "title": "Greek"}], "rating": 4.5, "coordinates": {"latitude": 53.6748, "longitude": 10.2401}, "transactions": [], "price": "\u20ac", "location": {"address1": "Gro\u00dfe Str. 15", "address2": null, "address3": null, "city": "Ahrensburg", "zip_code": "22926", "country": "DE", "state": "SH", "display_address": ["Gro\u00dfe Str. 15", "22926 Ahrensburg", "Germany"]}, "phone": "+49410257065", "display_phone": "+49 4102 57065", "distance": 4510.818858661699}, {"id": "zEvsuL1x5IFy3LkUNbgkuA", "alias": "due-fratelli-bargteheide", "name": "Due Fratelli", "image_url": "https://s3-media2.fl.yelpcdn.com/bphoto/xQyNx8P3ZKn07CwMQ2NaTQ/o.jpg", "is_closed": false, "url": "https://www.yelp.com/biz/due-fratelli-bargteheide?adjust_creative=hBJOknVQJ58S5goQyjmwRw&utm_campaign=yelp_api_v3&utm_medium=api_v3_business_search&utm_source=hBJOknVQJ58S5goQyjmwRw", "review_count": 3, "categories": [{"alias": "italian", "title": "Italian"}], "rating": 3.5, "coordinates": {"latitude": 53.7285894015292, "longitude": 10.2592865595245}, "transactions": [], "price": "\u20ac\u20ac", "location": {"address1": "Jersbeker Str. 2", "address2": "", "address3": "", "city": "Bargteheide", "zip_code": "22941", "country": "DE", "state": "SH", "display_address": ["Jersbeker Str. 2", "22941 Bargteheide", "Germany"]}, "phone": "+4945322664556", "display_phone": "+49 4532 2664556", "distance": 1763.5044948622985}, {"id": "b6jkW83-l6Hbt8AimMrY4w", "alias": "coffee-lounge-bargteheide", "name": "Coffee Lounge", "image_url": "https://s3-media1.fl.yelpcdn.com/bphoto/QWRbkYIQkrZqKKfe9lhuig/o.jpg", "is_closed": false, "url": "https://www.yelp.com/biz/coffee-lounge-bargteheide?adjust_creative=hBJOknVQJ58S5goQyjmwRw&utm_campaign=yelp_api_v3&utm_medium=api_v3_business_search&utm_source=hBJOknVQJ58S5goQyjmwRw", "review_count": 8, "categories": [{"alias": "cafes", "title": "Cafes"}], "rating": 4.5, "coordinates": {"latitude": 53.7299, "longitude": 10.2669128}, "transactions": [], "price": "\u20ac\u20ac\u20ac\u20ac", "location": {"address1": "Rathausstr. 24", "address2": "", "address3": "", "city": "Bargteheide", "zip_code": "22941", "country": "DE", "state": "SH", "display_address": ["Rathausstr. 24", "22941 Bargteheide", "Germany"]}, "phone": "+494532400384", "display_phone": "+49 4532 400384", "distance": 2185.3708916665414}, {"id": "jq6s0C9nD7I0yTDcYzgkfg", "alias": "berlin-millj\u00f6h-ahrensburg", "name": "Berlin Millj\u00f6h", "image_url": "https://s3-media2.fl.yelpcdn.com/bphoto/eVhwIEpASXhOwg4b8IFZMQ/o.jpg", "is_closed": false, "url": "https://www.yelp.com/biz/berlin-millj%C3%B6h-ahrensburg?adjust_creative=hBJOknVQJ58S5goQyjmwRw&utm_campaign=yelp_api_v3&utm_medium=api_v3_business_search&utm_source=hBJOknVQJ58S5goQyjmwRw", "review_count": 28, "categories": [{"alias": "german", "title": "German"}, {"alias": "beergarden", "title": "Beer Garden"}], "rating": 4.0, "coordinates": {"latitude": 53.6757848, "longitude": 10.2394167}, "transactions": [], "price": "\u20ac\u20ac", "location": {"address1": "Gro\u00dfe Str. 15a", "address2": null, "address3": null, "city": "Ahrensburg", "zip_code": "22926", "country": "DE", "state": "SH", "display_address": ["Gro\u00dfe Str. 15a", "22926 Ahrensburg", "Germany"]}, "phone": "+49410252919", "display_phone": "+49 4102 52919", "distance": 4404.910868242366}, {"id": "tusH6Bmt_h4qz_1bT5GI8A", "alias": "glantz-und-gloria-delingsdorf", "name": "Glantz & Gloria", "image_url": "https://s3-media1.fl.yelpcdn.com/bphoto/VzISEGBvNsjqheouI6dLpg/o.jpg", "is_closed": false, "url": "https://www.yelp.com/biz/glantz-und-gloria-delingsdorf?adjust_creative=hBJOknVQJ58S5goQyjmwRw&utm_campaign=yelp_api_v3&utm_medium=api_v3_business_search&utm_source=hBJOknVQJ58S5goQyjmwRw", "review_count": 46, "categories": [{"alias": "german", "title": "German"}, {"alias": "diners", "title": "Diners"}], "rating": 3.5, "coordinates": {"latitude": 53.7055, "longitude": 10.2515}, "transactions": [], "price": "\u20ac\u20ac\u20ac", "location": {"address1": "Hamburger Str. 2b", "address2": null, "address3": null, "city": "Delingsdorf", "zip_code": "22941", "country": "DE", "state": "SH", "display_address": ["Hamburger Str. 2b", "22941 Delingsdorf", "Germany"]}, "phone": "+494532280559", "display_phone": "+49 4532 280559", "distance": 1174.7443762598969}, {"id": "qYTvuySiY8_VOcUK71e5fg", "alias": "croquodil-bargteheide", "name": "Croquodil", "image_url": "https://s3-media3.fl.yelpcdn.com/bphoto/8K7pHPG5YslGreIWFKsnuQ/o.jpg", "is_closed": false, "url": "https://www.yelp.com/biz/croquodil-bargteheide?adjust_creative=hBJOknVQJ58S5goQyjmwRw&utm_campaign=yelp_api_v3&utm_medium=api_v3_business_search&utm_source=hBJOknVQJ58S5goQyjmwRw", "review_count": 22, "categories": [{"alias": "northerngerman", "title": "Northern German"}, {"alias": "foodstands", "title": "Food Stands"}], "rating": 4.5, "coordinates": {"latitude": 53.730048, "longitude": 10.263487}, "transactions": [], "price": "\u20ac", "location": {"address1": "Mittelweg 15", "address2": null, "address3": null, "city": "Bargteheide", "zip_code": "22941", "country": "DE", "state": "SH", "display_address": ["Mittelweg 15", "22941 Bargteheide", "Germany"]}, "phone": "+49453223232", "display_phone": "+49 4532 23232", "distance": 2054.8440999782124}, {"id": "GNxt00GlvwJzU6b2oNf22A", "alias": "pizza-taxi-bargteheide", "name": "Pizza Taxi", "image_url": "https://s3-media2.fl.yelpcdn.com/bphoto/DIe-Id_zes7HupEvhqyeAw/o.jpg", "is_closed": false, "url": "https://www.yelp.com/biz/pizza-taxi-bargteheide?adjust_creative=hBJOknVQJ58S5goQyjmwRw&utm_campaign=yelp_api_v3&utm_medium=api_v3_business_search&utm_source=hBJOknVQJ58S5goQyjmwRw", "review_count": 7, "categories": [{"alias": "pizza", "title": "Pizza"}], "rating": 4.5, "coordinates": {"latitude": 53.7287122, "longitude": 10.2585178}, "transactions": [], "price": "\u20ac\u20ac\u20ac\u20ac", "location": {"address1": "Jersbeker Str. 2", "address2": "", "address3": "", "city": "Bargteheide", "zip_code": "22941", "country": "DE", "state": "SH", "display_address": ["Jersbeker Str. 2", "22941 Bargteheide", "Germany"]}, "phone": "+4945329751022", "display_phone": "+49 4532 9751022", "distance": 1748.2012392982813}, {"id": "4RaYQKt4zNbSLspYska-hw", "alias": "dubrovnik-bargteheide", "name": "Dubrovnik", "image_url": "https://s3-media2.fl.yelpcdn.com/bphoto/isl95tLwXQHlkm_vR0PTqw/o.jpg", "is_closed": false, "url": "https://www.yelp.com/biz/dubrovnik-bargteheide?adjust_creative=hBJOknVQJ58S5goQyjmwRw&utm_campaign=yelp_api_v3&utm_medium=api_v3_business_search&utm_source=hBJOknVQJ58S5goQyjmwRw", "review_count": 2, "categories": [{"alias": "mediterranean", "title": "Mediterranean"}, {"alias": "international", "title": "International"}, {"alias": "steak", "title": "Steakhouses"}], "rating": 4.0, "coordinates": {"latitude": 53.723155, "longitude": 10.266758}, "transactions": [], "location": {"address1": "Robert-Bosch-Weg 3", "address2": "", "address3": "", "city": "Bargteheide", "zip_code": "22941", "country": "DE", "state": "SH", "display_address": ["Robert-Bosch-Weg 3", "22941 Bargteheide", "Germany"]}, "phone": "+494532x2679370", "display_phone": "+49 4532 ext. 2679370", "distance": 1692.1067797431413}, {"id": "rtEjibpio_YraQOU8AB3jg", "alias": "credo-bargteheide", "name": "Credo", "image_url": "https://s3-media1.fl.yelpcdn.com/bphoto/1TJSaxdR03l7E-VPVtWMDw/o.jpg", "is_closed": false, "url": "https://www.yelp.com/biz/credo-bargteheide?adjust_creative=hBJOknVQJ58S5goQyjmwRw&utm_campaign=yelp_api_v3&utm_medium=api_v3_business_search&utm_source=hBJOknVQJ58S5goQyjmwRw", "review_count": 1, "categories": [{"alias": "international", "title": "International"}], "rating": 4.0, "coordinates": {"latitude": 53.72901, "longitude": 10.26923}, "transactions": [], "price": "\u20ac\u20ac", "location": {"address1": "Bahnhofstr. 5a", "address2": "", "address3": "", "city": "Bargteheide", "zip_code": "22941", "country": "DE", "state": "SH", "display_address": ["Bahnhofstr. 5a", "22941 Bargteheide", "Germany"]}, "phone": "", "display_phone": "", "distance": 2220.8459038613655}, {"id": "Zke2xY2vMOVX0MwUDGV5Yw", "alias": "schmidtchen-ahrensburg-3", "name": "Schmidtchen", "image_url": "https://s3-media2.fl.yelpcdn.com/bphoto/a20Wx7FBPrfPRJCtZaAFSA/o.jpg", "is_closed": false, "url": "https://www.yelp.com/biz/schmidtchen-ahrensburg-3?adjust_creative=hBJOknVQJ58S5goQyjmwRw&utm_campaign=yelp_api_v3&utm_medium=api_v3_business_search&utm_source=hBJOknVQJ58S5goQyjmwRw", "review_count": 1, "categories": [{"alias": "cafes", "title": "Cafes"}, {"alias": "bakeries", "title": "Bakeries"}, {"alias": "breakfast_brunch", "title": "Breakfast & Brunch"}], "rating": 4.0, "coordinates": {"latitude": 53.67227, "longitude": 10.2399799}, "transactions": [], "location": {"address1": "Manhagener Allee 8", "address2": "", "address3": null, "city": "Ahrensburg", "zip_code": "22926", "country": "DE", "state": "SH", "display_address": ["Manhagener Allee 8", "22926 Ahrensburg", "Germany"]}, "phone": "+4941022180151", "display_phone": "+49 4102 2180151", "distance": 4792.5304338693}, {"id": "4GkNM5czryu7wrLurCrnSA", "alias": "restaurant-strehl-ahrensburg-2", "name": "Restaurant Strehl", "image_url": "https://s3-media2.fl.yelpcdn.com/bphoto/opzw9-5TgccXmJ2ddbJA_A/o.jpg", "is_closed": false, "url": "https://www.yelp.com/biz/restaurant-strehl-ahrensburg-2?adjust_creative=hBJOknVQJ58S5goQyjmwRw&utm_campaign=yelp_api_v3&utm_medium=api_v3_business_search&utm_source=hBJOknVQJ58S5goQyjmwRw", "review_count": 13, "categories": [{"alias": "catering", "title": "Caterers"}, {"alias": "german", "title": "German"}], "rating": 3.5, "coordinates": {"latitude": 53.6804, "longitude": 10.235}, "transactions": [], "price": "\u20ac\u20ac", "location": {"address1": "Reeshoop 50", "address2": null, "address3": null, "city": "Ahrensburg", "zip_code": "22926", "country": "DE", "state": "SH", "display_address": ["Reeshoop 50", "22926 Ahrensburg", "Germany"]}, "phone": "+49410241261", "display_phone": "+49 4102 41261", "distance": 3930.3351151086113}, {"id": "ATbEdZFx3P_WdKFf61EJwg", "alias": "orfeo-greco-bargteheide", "name": "Orfeo Greco", "image_url": "https://s3-media4.fl.yelpcdn.com/bphoto/spG_-OeaD2vglRbBiJZEJQ/o.jpg", "is_closed": false, "url": "https://www.yelp.com/biz/orfeo-greco-bargteheide?adjust_creative=hBJOknVQJ58S5goQyjmwRw&utm_campaign=yelp_api_v3&utm_medium=api_v3_business_search&utm_source=hBJOknVQJ58S5goQyjmwRw", "review_count": 10, "categories": [{"alias": "greek", "title": "Greek"}], "rating": 4.0, "coordinates": {"latitude": 53.7286, "longitude": 10.2615}, "transactions": [], "price": "\u20ac\u20ac", "location": {"address1": "Am Markt 6", "address2": null, "address3": null, "city": "Bargteheide", "zip_code": "22941", "country": "DE", "state": "SH", "display_address": ["Am Markt 6", "22941 Bargteheide", "Germany"]}, "phone": "+494532261776", "display_phone": "+49 4532 261776", "distance": 1847.6178906199575}, {"id": "EA_eMoKrim3_9srIh4siwg", "alias": "new-long-ahrensburg", "name": "New Long", "image_url": "https://s3-media3.fl.yelpcdn.com/bphoto/_QtZznlgmYfEhyQnd59hbw/o.jpg", "is_closed": false, "url": "https://www.yelp.com/biz/new-long-ahrensburg?adjust_creative=hBJOknVQJ58S5goQyjmwRw&utm_campaign=yelp_api_v3&utm_medium=api_v3_business_search&utm_source=hBJOknVQJ58S5goQyjmwRw", "review_count": 11, "categories": [{"alias": "thai", "title": "Thai"}, {"alias": "chinese", "title": "Chinese"}], "rating": 4.5, "coordinates": {"latitude": 53.6747411800218, "longitude": 10.238852524477}, "transactions": [], "price": "\u20ac\u20ac", "location": {"address1": "Gro\u00dfe Str. 16 - 20", "address2": "", "address3": "", "city": "Ahrensburg", "zip_code": "22926", "country": "DE", "state": "SH", "display_address": ["Gro\u00dfe Str. 16 - 20", "22926 Ahrensburg", "Germany"]}, "phone": "+49410232883", "display_phone": "+49 4102 32883", "distance": 4523.62313432953}, {"id": "0Ndzh9sFL1h9QQpaX7P32Q", "alias": "new-mongolei-ahrensburg", "name": "New Mongolei", "image_url": "https://s3-media3.fl.yelpcdn.com/bphoto/tBD-eN8NxmJqOHWTFsAdLA/o.jpg", "is_closed": false, "url": "https://www.yelp.com/biz/new-mongolei-ahrensburg?adjust_creative=hBJOknVQJ58S5goQyjmwRw&utm_campaign=yelp_api_v3&utm_medium=api_v3_business_search&utm_source=hBJOknVQJ58S5goQyjmwRw", "review_count": 6, "categories": [{"alias": "mongolian", "title": "Mongolian"}, {"alias": "chinese", "title": "Chinese"}], "rating": 3.5, "coordinates": {"latitude": 53.675824, "longitude": 10.240166}, "transactions": [], "price": "\u20ac\u20ac", "location": {"address1": "Gro\u00dfe Str. 9", "address2": "", "address3": "", "city": "Ahrensburg", "zip_code": "22926", "country": "DE", "state": "SH", "display_address": ["Gro\u00dfe Str. 9", "22926 Ahrensburg", "Germany"]}, "phone": "+4941026917988", "display_phone": "+49 4102 6917988", "distance": 4399.091498019157}, {"id": "Tnsh7aKifb9ZnnIHw9XbeA", "alias": "pascha-grill-imbiss-bargteheide", "name": "Pascha Grill-Imbiss", "image_url": "https://s3-media3.fl.yelpcdn.com/bphoto/zubOl4c7vdOHI9WbbIYjqA/o.jpg", "is_closed": false, "url": "https://www.yelp.com/biz/pascha-grill-imbiss-bargteheide?adjust_creative=hBJOknVQJ58S5goQyjmwRw&utm_campaign=yelp_api_v3&utm_medium=api_v3_business_search&utm_source=hBJOknVQJ58S5goQyjmwRw", "review_count": 1, "categories": [{"alias": "hotdogs", "title": "Fast Food"}], "rating": 4.0, "coordinates": {"latitude": 53.7283715, "longitude": 10.2590634}, "transactions": [], "price": "\u20ac", "location": {"address1": "Hamburger Str. 2", "address2": "", "address3": "", "city": "Bargteheide", "zip_code": "22941", "country": "DE", "state": "SH", "display_address": ["Hamburger Str. 2", "22941 Bargteheide", "Germany"]}, "phone": "+494532400742", "display_phone": "+49 4532 400742", "distance": 1735.1872793336715}, {"id": "xBWobvwGsxbkIR2QC5CXZg", "alias": "b\u00fcrgervereinshaus-ahrensburg", "name": "B\u00fcrgervereinshaus", "image_url": "", "is_closed": false, "url": "https://www.yelp.com/biz/b%C3%BCrgervereinshaus-ahrensburg?adjust_creative=hBJOknVQJ58S5goQyjmwRw&utm_campaign=yelp_api_v3&utm_medium=api_v3_business_search&utm_source=hBJOknVQJ58S5goQyjmwRw", "review_count": 1, "categories": [{"alias": "cafes", "title": "Cafes"}, {"alias": "coffee", "title": "Coffee & Tea"}], "rating": 4.0, "coordinates": {"latitude": 53.68, "longitude": 10.2388}, "transactions": [], "location": {"address1": "Bagatelle", "address2": null, "address3": null, "city": "Ahrensburg", "zip_code": "22926", "country": "DE", "state": "SH", "display_address": ["Bagatelle", "22926 Ahrensburg", "Germany"]}, "phone": "", "display_phone": "", "distance": 3941.664863167049}, {"id": "S5pNSNXlN5RYHHkLl3mAOw", "alias": "onkel-curry-ahrensburg", "name": "Onkel Curry", "image_url": "https://s3-media4.fl.yelpcdn.com/bphoto/k1R0Edpwx6RiIqmE3Ft9Lw/o.jpg", "is_closed": false, "url": "https://www.yelp.com/biz/onkel-curry-ahrensburg?adjust_creative=hBJOknVQJ58S5goQyjmwRw&utm_campaign=yelp_api_v3&utm_medium=api_v3_business_search&utm_source=hBJOknVQJ58S5goQyjmwRw", "review_count": 10, "categories": [{"alias": "foodtrucks", "title": "Food Trucks"}, {"alias": "currysausage", "title": "Curry Sausage"}], "rating": 4.0, "coordinates": {"latitude": 53.691216, "longitude": 10.25406}, "transactions": [], "price": "\u20ac\u20ac", "location": {"address1": "Kornkamp 50", "address2": "", "address3": null, "city": "Ahrensburg", "zip_code": "22926", "country": "DE", "state": "SH", "display_address": ["Kornkamp 50", "22926 Ahrensburg", "Germany"]}, "phone": "+494064504620", "display_phone": "+49 40 64504620", "distance": 2744.810738207341}, {"id": "NZk6OGbt1BBe44qmSrcidg", "alias": "zentrum-grill-bargteheide", "name": "Zentrum Grill", "image_url": "https://s3-media4.fl.yelpcdn.com/bphoto/vFUORLs3SDmtUidVxb2VPw/o.jpg", "is_closed": false, "url": "https://www.yelp.com/biz/zentrum-grill-bargteheide?adjust_creative=hBJOknVQJ58S5goQyjmwRw&utm_campaign=yelp_api_v3&utm_medium=api_v3_business_search&utm_source=hBJOknVQJ58S5goQyjmwRw", "review_count": 7, "categories": [{"alias": "hotdogs", "title": "Fast Food"}, {"alias": "currysausage", "title": "Curry Sausage"}, {"alias": "foodstands", "title": "Food Stands"}], "rating": 3.5, "coordinates": {"latitude": 53.7299, "longitude": 10.263}, "transactions": [], "price": "\u20ac\u20ac", "location": {"address1": "Mittelweg 8a", "address2": null, "address3": null, "city": "Bargteheide", "zip_code": "22941", "country": "DE", "state": "SH", "display_address": ["Mittelweg 8a", "22941 Bargteheide", "Germany"]}, "phone": "+491626130755", "display_phone": "+49 162 6130755", "distance": 2016.1661310703983}, {"id": "9gJPnkhX8xGN-9AwQ9T9oQ", "alias": "cafe-gold-ahrensburg", "name": "Cafe GOLD", "image_url": "https://s3-media4.fl.yelpcdn.com/bphoto/F_imZjd1RIkxGChyOsKsIQ/o.jpg", "is_closed": false, "url": "https://www.yelp.com/biz/cafe-gold-ahrensburg?adjust_creative=hBJOknVQJ58S5goQyjmwRw&utm_campaign=yelp_api_v3&utm_medium=api_v3_business_search&utm_source=hBJOknVQJ58S5goQyjmwRw", "review_count": 5, "categories": [{"alias": "cafes", "title": "Cafes"}, {"alias": "homedecor", "title": "Home Decor"}, {"alias": "antiques", "title": "Antiques"}], "rating": 4.0, "coordinates": {"latitude": 53.68131, "longitude": 10.2441099}, "transactions": [], "price": "\u20ac", "location": {"address1": "L\u00fcbecker Str. 6", "address2": null, "address3": "", "city": "Ahrensburg", "zip_code": "22926", "country": "DE", "state": "SH", "display_address": ["L\u00fcbecker Str. 6", "22926 Ahrensburg", "Germany"]}, "phone": "+4941026649596", "display_phone": "+49 4102 6649596", "distance": 3823.4741706509863}, {"id": "vadqEeJNhdU9V_ojE2rm_g", "alias": "casa-grande-bargteheide", "name": "Casa Grande", "image_url": "https://s3-media3.fl.yelpcdn.com/bphoto/LGeijJrGgpJ4GgItBkEGRQ/o.jpg", "is_closed": false, "url": "https://www.yelp.com/biz/casa-grande-bargteheide?adjust_creative=hBJOknVQJ58S5goQyjmwRw&utm_campaign=yelp_api_v3&utm_medium=api_v3_business_search&utm_source=hBJOknVQJ58S5goQyjmwRw", "review_count": 9, "categories": [{"alias": "steak", "title": "Steakhouses"}, {"alias": "lounges", "title": "Lounges"}], "rating": 4.0, "coordinates": {"latitude": 53.730095, "longitude": 10.267528}, "transactions": [], "price": "\u20ac\u20ac", "location": {"address1": "Rathausstr. 25b", "address2": "", "address3": "", "city": "Bargteheide", "zip_code": "22941", "country": "DE", "state": "SH", "display_address": ["Rathausstr. 25b", "22941 Bargteheide", "Germany"]}, "phone": "+494532283439", "display_phone": "+49 4532 283439", "distance": 2226.5662821077817}, {"id": "r3UV7OserloX8rHJfrftpQ", "alias": "asia-snack-bargteheide", "name": "Asia Snack", "image_url": "https://s3-media3.fl.yelpcdn.com/bphoto/N7yVq83BJxX_IaiulJjNKA/o.jpg", "is_closed": false, "url": "https://www.yelp.com/biz/asia-snack-bargteheide?adjust_creative=hBJOknVQJ58S5goQyjmwRw&utm_campaign=yelp_api_v3&utm_medium=api_v3_business_search&utm_source=hBJOknVQJ58S5goQyjmwRw", "review_count": 14, "categories": [{"alias": "chinese", "title": "Chinese"}], "rating": 3.5, "coordinates": {"latitude": 53.7292968, "longitude": 10.2605803}, "transactions": [], "price": "\u20ac", "location": {"address1": "Am Markt 7", "address2": "", "address3": "", "city": "Bargteheide", "zip_code": "22941", "country": "DE", "state": "SH", "display_address": ["Am Markt 7", "22941 Bargteheide", "Germany"]}, "phone": "+4945329798905", "display_phone": "+49 4532 9798905", "distance": 1876.0018726249016}, {"id": "f4QeydE1uJaPgmdO0zyr3w", "alias": "china-restaurant-huy-hoang-ahrensburg", "name": "China-Restaurant Huy-Hoang", "image_url": "https://s3-media2.fl.yelpcdn.com/bphoto/WMEMhl81BMPyjWDWQlqrzQ/o.jpg", "is_closed": false, "url": "https://www.yelp.com/biz/china-restaurant-huy-hoang-ahrensburg?adjust_creative=hBJOknVQJ58S5goQyjmwRw&utm_campaign=yelp_api_v3&utm_medium=api_v3_business_search&utm_source=hBJOknVQJ58S5goQyjmwRw", "review_count": 7, "categories": [{"alias": "chinese", "title": "Chinese"}], "rating": 4.5, "coordinates": {"latitude": 53.6735, "longitude": 10.2388}, "transactions": [], "price": "\u20ac\u20ac", "location": {"address1": "Rathausplatz 25", "address2": null, "address3": null, "city": "Ahrensburg", "zip_code": "22926", "country": "DE", "state": "SH", "display_address": ["Rathausplatz 25", "22926 Ahrensburg", "Germany"]}, "phone": "+49410259528", "display_phone": "+49 4102 59528", "distance": 4661.434370177556}, {"id": "_NBjYDwhLREyYyMyfufOiw", "alias": "essbar-ahrensburg-ahrensburg", "name": "essbar Ahrensburg", "image_url": "https://s3-media2.fl.yelpcdn.com/bphoto/d9Aj-2wnLh-aE6IIOUF-Yw/o.jpg", "is_closed": false, "url": "https://www.yelp.com/biz/essbar-ahrensburg-ahrensburg?adjust_creative=hBJOknVQJ58S5goQyjmwRw&utm_campaign=yelp_api_v3&utm_medium=api_v3_business_search&utm_source=hBJOknVQJ58S5goQyjmwRw", "review_count": 1, "categories": [{"alias": "bistros", "title": "Bistros"}], "rating": 4.0, "coordinates": {"latitude": 53.689015, "longitude": 10.258887}, "transactions": [], "price": "\u20ac", "location": {"address1": "Ewige Weide 6", "address2": "", "address3": "", "city": "Ahrensburg", "zip_code": "22926", "country": "DE", "state": "SH", "display_address": ["Ewige Weide 6", "22926 Ahrensburg", "Germany"]}, "phone": "+494102472375", "display_phone": "+49 4102 472375", "distance": 3107.7341424916967}, {"id": "HTASV4IKcqZN7P2kfrwhQQ", "alias": "pizzaservice-king-bargteheide", "name": "Pizzaservice King", "image_url": "https://s3-media2.fl.yelpcdn.com/bphoto/QXtT7WqT9ZI57tFz9ob7Ig/o.jpg", "is_closed": false, "url": "https://www.yelp.com/biz/pizzaservice-king-bargteheide?adjust_creative=hBJOknVQJ58S5goQyjmwRw&utm_campaign=yelp_api_v3&utm_medium=api_v3_business_search&utm_source=hBJOknVQJ58S5goQyjmwRw", "review_count": 1, "categories": [{"alias": "pizza", "title": "Pizza"}, {"alias": "hotdogs", "title": "Fast Food"}], "rating": 4.0, "coordinates": {"latitude": 53.7287122, "longitude": 10.2585178}, "transactions": [], "price": "\u20ac\u20ac", "location": {"address1": "Jersbeker Str.2", "address2": "", "address3": "", "city": "Bargteheide", "zip_code": "22941", "country": "DE", "state": "SH", "display_address": ["Jersbeker Str.2", "22941 Bargteheide", "Germany"]}, "phone": "+4945327039", "display_phone": "+49 4532 7039", "distance": 1748.2012392982813}, {"id": "rHwrVneRAkKRHclKjtgi7Q", "alias": "s\u00f6bentein-ahrensburg", "name": "S\u00f6bentein", "image_url": "https://s3-media3.fl.yelpcdn.com/bphoto/p8T6o4gTCp11MNqioPdScA/o.jpg", "is_closed": false, "url": "https://www.yelp.com/biz/s%C3%B6bentein-ahrensburg?adjust_creative=hBJOknVQJ58S5goQyjmwRw&utm_campaign=yelp_api_v3&utm_medium=api_v3_business_search&utm_source=hBJOknVQJ58S5goQyjmwRw", "review_count": 4, "categories": [{"alias": "german", "title": "German"}, {"alias": "cafes", "title": "Cafes"}], "rating": 4.0, "coordinates": {"latitude": 53.67696, "longitude": 10.24034}, "transactions": [], "price": "\u20ac\u20ac", "location": {"address1": "Am Alten Markt 17", "address2": "", "address3": null, "city": "Ahrensburg", "zip_code": "22926", "country": "DE", "state": "SH", "display_address": ["Am Alten Markt 17", "22926 Ahrensburg", "Germany"]}, "phone": "+494102805329", "display_phone": "+49 4102 805329", "distance": 4279.601415821585}, {"id": "cQ5CCF1YzJLkfp33Zhh6ig", "alias": "berlin-d\u00f6ner-bargteheide", "name": "Berlin D\u00f6ner", "image_url": "https://s3-media3.fl.yelpcdn.com/bphoto/GnkT_0rIyHNOuEvenn7f_g/o.jpg", "is_closed": false, "url": "https://www.yelp.com/biz/berlin-d%C3%B6ner-bargteheide?adjust_creative=hBJOknVQJ58S5goQyjmwRw&utm_campaign=yelp_api_v3&utm_medium=api_v3_business_search&utm_source=hBJOknVQJ58S5goQyjmwRw", "review_count": 8, "categories": [{"alias": "kebab", "title": "Kebab"}, {"alias": "hotdogs", "title": "Fast Food"}], "rating": 3.5, "coordinates": {"latitude": 53.72875, "longitude": 10.26909}, "transactions": [], "price": "\u20ac", "location": {"address1": "Bahnhofstr. 7", "address2": "", "address3": "", "city": "Bargteheide", "zip_code": "22941", "country": "DE", "state": "SH", "display_address": ["Bahnhofstr. 7", "22941 Bargteheide", "Germany"]}, "phone": "+4945329181051", "display_phone": "+49 4532 9181051", "distance": 2194.328724774731}, {"id": "3emsLbdBi4PHclK8kuFhPg", "alias": "schlemmerst\u00fcbchen-ahrensburg", "name": "Schlemmerst\u00fcbchen", "image_url": "", "is_closed": false, "url": "https://www.yelp.com/biz/schlemmerst%C3%BCbchen-ahrensburg?adjust_creative=hBJOknVQJ58S5goQyjmwRw&utm_campaign=yelp_api_v3&utm_medium=api_v3_business_search&utm_source=hBJOknVQJ58S5goQyjmwRw", "review_count": 1, "categories": [{"alias": "foodstands", "title": "Food Stands"}], "rating": 5.0, "coordinates": {"latitude": 53.673183095609, "longitude": 10.2374708429222}, "transactions": [], "location": {"address1": "Rathausstr. 24", "address2": "", "address3": null, "city": "Ahrensburg", "zip_code": "22926", "country": "DE", "state": "SH", "display_address": ["Rathausstr. 24", "22926 Ahrensburg", "Germany"]}, "phone": "+4941021330", "display_phone": "+49 4102 1330", "distance": 4704.627066044208}, {"id": "7HDhzAe10JF5-r7b41h6dw", "alias": "cocktailbar-zeitlos-ahrensburg", "name": "Cocktailbar Zeitlos", "image_url": "https://s3-media3.fl.yelpcdn.com/bphoto/ARHx864oZOPYyPcRbC2-dw/o.jpg", "is_closed": false, "url": "https://www.yelp.com/biz/cocktailbar-zeitlos-ahrensburg?adjust_creative=hBJOknVQJ58S5goQyjmwRw&utm_campaign=yelp_api_v3&utm_medium=api_v3_business_search&utm_source=hBJOknVQJ58S5goQyjmwRw", "review_count": 1, "categories": [{"alias": "cocktailbars", "title": "Cocktail Bars"}, {"alias": "cafes", "title": "Cafes"}], "rating": 5.0, "coordinates": {"latitude": 53.6741674975278, "longitude": 10.2392771850331}, "transactions": [], "location": {"address1": "Gro\u00dfe Str. 40", "address2": "", "address3": null, "city": "Ahrensburg", "zip_code": "22926", "country": "DE", "state": "SH", "display_address": ["Gro\u00dfe Str. 40", "22926 Ahrensburg", "Germany"]}, "phone": "+4941028247472", "display_phone": "+49 4102 8247472", "distance": 4584.911701861056}, {"id": "JOq6siJT8d6dz-C3EICOyA", "alias": "go-asia-ahrensburg", "name": "Go-Asia", "image_url": "https://s3-media4.fl.yelpcdn.com/bphoto/UTJ0dTyRXZe60puNdE_Vng/o.jpg", "is_closed": false, "url": "https://www.yelp.com/biz/go-asia-ahrensburg?adjust_creative=hBJOknVQJ58S5goQyjmwRw&utm_campaign=yelp_api_v3&utm_medium=api_v3_business_search&utm_source=hBJOknVQJ58S5goQyjmwRw", "review_count": 4, "categories": [{"alias": "panasian", "title": "Pan Asian"}], "rating": 5.0, "coordinates": {"latitude": 53.6743852, "longitude": 10.2381118}, "transactions": [], "price": "\u20ac\u20ac", "location": {"address1": "Gro\u00dfe Str. 24", "address2": "", "address3": "", "city": "Ahrensburg", "zip_code": "22926", "country": "DE", "state": "SH", "display_address": ["Gro\u00dfe Str. 24", "22926 Ahrensburg", "Germany"]}, "phone": "+494102667875", "display_phone": "+49 4102 667875", "distance": 4567.453548812165}, {"id": "XxOP1O3vQGLvuoodWk68Aw", "alias": "ok-pizza-ahrensburg", "name": "OK Pizza", "image_url": "https://s3-media4.fl.yelpcdn.com/bphoto/dQ1dw8W9WuZKwuw11ZwSwQ/o.jpg", "is_closed": false, "url": "https://www.yelp.com/biz/ok-pizza-ahrensburg?adjust_creative=hBJOknVQJ58S5goQyjmwRw&utm_campaign=yelp_api_v3&utm_medium=api_v3_business_search&utm_source=hBJOknVQJ58S5goQyjmwRw", "review_count": 6, "categories": [{"alias": "pizza", "title": "Pizza"}], "rating": 3.5, "coordinates": {"latitude": 53.6752525088791, "longitude": 10.239392441608}, "transactions": [], "price": "\u20ac\u20ac\u20ac", "location": {"address1": "Gro\u00dfe Str. 16 - 20", "address2": "", "address3": "", "city": "Ahrensburg", "zip_code": "22926", "country": "DE", "state": "SH", "display_address": ["Gro\u00dfe Str. 16 - 20", "22926 Ahrensburg", "Germany"]}, "phone": "+49410240555", "display_phone": "+49 4102 40555", "distance": 4464.040245309654}, {"id": "KSd_Z8iubV7SySmgcQYimA", "alias": "ruges-croque-shop-ahrensburg", "name": "Ruge's Croque-Shop", "image_url": "https://s3-media2.fl.yelpcdn.com/bphoto/fS3AQPrX6Kec9YcwEANWOA/o.jpg", "is_closed": false, "url": "https://www.yelp.com/biz/ruges-croque-shop-ahrensburg?adjust_creative=hBJOknVQJ58S5goQyjmwRw&utm_campaign=yelp_api_v3&utm_medium=api_v3_business_search&utm_source=hBJOknVQJ58S5goQyjmwRw", "review_count": 22, "categories": [{"alias": "german", "title": "German"}, {"alias": "sandwiches", "title": "Sandwiches"}], "rating": 4.0, "coordinates": {"latitude": 53.67266, "longitude": 10.2387599}, "transactions": [], "price": "\u20ac\u20ac", "location": {"address1": "Rondeel 8", "address2": null, "address3": null, "city": "Ahrensburg", "zip_code": "22926", "country": "DE", "state": "SH", "display_address": ["Rondeel 8", "22926 Ahrensburg", "Germany"]}, "phone": "+49410232200", "display_phone": "+49 4102 32200", "distance": 4748.003348592786}, {"id": "r4kA6f5qtmq8yNL1ktmJgQ", "alias": "bella-vita-ahrensburg", "name": "Bella Vita", "image_url": "https://s3-media1.fl.yelpcdn.com/bphoto/Xv_rK0yJJ8nIPD9kHyN4Zg/o.jpg", "is_closed": false, "url": "https://www.yelp.com/biz/bella-vita-ahrensburg?adjust_creative=hBJOknVQJ58S5goQyjmwRw&utm_campaign=yelp_api_v3&utm_medium=api_v3_business_search&utm_source=hBJOknVQJ58S5goQyjmwRw", "review_count": 6, "categories": [{"alias": "italian", "title": "Italian"}], "rating": 4.0, "coordinates": {"latitude": 53.675805, "longitude": 10.240527}, "transactions": [], "price": "\u20ac\u20ac", "location": {"address1": "Gro\u00dfe Str. 9 c", "address2": "", "address3": "", "city": "Ahrensburg", "zip_code": "22926", "country": "DE", "state": "SH", "display_address": ["Gro\u00dfe Str. 9 c", "22926 Ahrensburg", "Germany"]}, "phone": "+49410231762", "display_phone": "+49 4102 31762", "distance": 4397.497409999988}, {"id": "XTuU1n66kfvYIuQZqsR2Gg", "alias": "sch\u00fctzenhof-bargteheide", "name": "Sch\u00fctzenhof", "image_url": "https://s3-media1.fl.yelpcdn.com/bphoto/w2DEOg7nuP_WMS-F0Zw3jw/o.jpg", "is_closed": false, "url": "https://www.yelp.com/biz/sch%C3%BCtzenhof-bargteheide?adjust_creative=hBJOknVQJ58S5goQyjmwRw&utm_campaign=yelp_api_v3&utm_medium=api_v3_business_search&utm_source=hBJOknVQJ58S5goQyjmwRw", "review_count": 2, "categories": [{"alias": "german", "title": "German"}], "rating": 3.5, "coordinates": {"latitude": 53.73173, "longitude": 10.25296}, "transactions": [], "price": "\u20ac\u20ac", "location": {"address1": "Jersbeker Str. 36", "address2": null, "address3": null, "city": "Bargteheide", "zip_code": "22941", "country": "DE", "state": "SH", "display_address": ["Jersbeker Str. 36", "22941 Bargteheide", "Germany"]}, "phone": "+49453222994", "display_phone": "+49 4532 22994", "distance": 1905.9656844061471}, {"id": "KGT38jeItcezg_MIg6lQyg", "alias": "remember-caf\u00e9-restaurant-cocktailbar-bargteheide", "name": "Remember Caf\u00e9-Restaurant-Cocktailbar", "image_url": "https://s3-media3.fl.yelpcdn.com/bphoto/Q8dqPqO_xA8gTbfT9M3S_Q/o.jpg", "is_closed": false, "url": "https://www.yelp.com/biz/remember-caf%C3%A9-restaurant-cocktailbar-bargteheide?adjust_creative=hBJOknVQJ58S5goQyjmwRw&utm_campaign=yelp_api_v3&utm_medium=api_v3_business_search&utm_source=hBJOknVQJ58S5goQyjmwRw", "review_count": 22, "categories": [{"alias": "cafes", "title": "Cafes"}, {"alias": "german", "title": "German"}, {"alias": "cocktailbars", "title": "Cocktail Bars"}], "rating": 3.0, "coordinates": {"latitude": 53.7298, "longitude": 10.2616}, "transactions": [], "price": "\u20ac\u20ac", "location": {"address1": "Am Markt 13", "address2": null, "address3": null, "city": "Bargteheide", "zip_code": "22941", "country": "DE", "state": "SH", "display_address": ["Am Markt 13", "22941 Bargteheide", "Germany"]}, "phone": "+494532287359", "display_phone": "+49 4532 287359", "distance": 1959.96409370305}, {"id": "CB428jsOtLG8E4jiQlkB4w", "alias": "dailyfresh-ahrensburg", "name": "Dailyfresh", "image_url": "https://s3-media2.fl.yelpcdn.com/bphoto/wWniJ4FP-e8k28543rWi3Q/o.jpg", "is_closed": false, "url": "https://www.yelp.com/biz/dailyfresh-ahrensburg?adjust_creative=hBJOknVQJ58S5goQyjmwRw&utm_campaign=yelp_api_v3&utm_medium=api_v3_business_search&utm_source=hBJOknVQJ58S5goQyjmwRw", "review_count": 4, "categories": [{"alias": "salad", "title": "Salad"}, {"alias": "bistros", "title": "Bistros"}], "rating": 5.0, "coordinates": {"latitude": 53.6724892, "longitude": 10.2382803}, "transactions": [], "price": "\u20ac", "location": {"address1": "Hamburger Str. 3-5", "address2": "", "address3": "", "city": "Ahrensburg", "zip_code": "22926", "country": "DE", "state": "SH", "display_address": ["Hamburger Str. 3-5", "22926 Ahrensburg", "Germany"]}, "phone": "+494102824431", "display_phone": "+49 4102 824431", "distance": 4788.607854033386}, {"id": "-yL4ATEG50oqELr-3FuhyQ", "alias": "philoxenia-bargteheide-2", "name": "Philoxenia", "image_url": "https://s3-media1.fl.yelpcdn.com/bphoto/m8-KS93HJLkpeKACpgf-Vg/o.jpg", "is_closed": false, "url": "https://www.yelp.com/biz/philoxenia-bargteheide-2?adjust_creative=hBJOknVQJ58S5goQyjmwRw&utm_campaign=yelp_api_v3&utm_medium=api_v3_business_search&utm_source=hBJOknVQJ58S5goQyjmwRw", "review_count": 17, "categories": [{"alias": "greek", "title": "Greek"}], "rating": 3.5, "coordinates": {"latitude": 53.7296037, "longitude": 10.2657536}, "transactions": [], "price": "\u20ac\u20ac", "location": {"address1": "Baumschulenstr. 19", "address2": null, "address3": null, "city": "Bargteheide", "zip_code": "22941", "country": "DE", "state": "SH", "display_address": ["Baumschulenstr. 19", "22941 Bargteheide", "Germany"]}, "phone": "+49453221619", "display_phone": "+49 4532 21619", "distance": 2110.1963270800284}, {"id": "EgKY7oSwxMHGMLiqGiIOWA", "alias": "tapas-und-wein-bar-ahrensburg", "name": "Tapas & Wein Bar", "image_url": "https://s3-media1.fl.yelpcdn.com/bphoto/e0yt1A9M-1JW8cSfPnIDpg/o.jpg", "is_closed": false, "url": "https://www.yelp.com/biz/tapas-und-wein-bar-ahrensburg?adjust_creative=hBJOknVQJ58S5goQyjmwRw&utm_campaign=yelp_api_v3&utm_medium=api_v3_business_search&utm_source=hBJOknVQJ58S5goQyjmwRw", "review_count": 11, "categories": [{"alias": "tapas", "title": "Tapas Bars"}, {"alias": "spanish", "title": "Spanish"}], "rating": 3.5, "coordinates": {"latitude": 53.68177, "longitude": 10.24226}, "transactions": [], "price": "\u20ac\u20ac\u20ac", "location": {"address1": "L\u00fcbecker Str. 10 a", "address2": "", "address3": "", "city": "Ahrensburg", "zip_code": "22926", "country": "DE", "state": "SH", "display_address": ["L\u00fcbecker Str. 10 a", "22926 Ahrensburg", "Germany"]}, "phone": "+4941022300", "display_phone": "+49 4102 2300", "distance": 3733.1263585693555}, {"id": "ONOZStpGX8Nn0UtFiXXzVw", "alias": "selale-ahrensburg", "name": "Selale", "image_url": "", "is_closed": false, "url": "https://www.yelp.com/biz/selale-ahrensburg?adjust_creative=hBJOknVQJ58S5goQyjmwRw&utm_campaign=yelp_api_v3&utm_medium=api_v3_business_search&utm_source=hBJOknVQJ58S5goQyjmwRw", "review_count": 1, "categories": [{"alias": "turkish", "title": "Turkish"}], "rating": 4.0, "coordinates": {"latitude": 53.6762279, "longitude": 10.2392492}, "transactions": [], "location": {"address1": "Bei der alten Kate 6", "address2": "", "address3": "", "city": "Ahrensburg", "zip_code": "22926", "country": "DE", "state": "SH", "display_address": ["Bei der alten Kate 6", "22926 Ahrensburg", "Germany"]}, "phone": "+4941026912361", "display_phone": "+49 4102 6912361", "distance": 4356.696074696164}, {"id": "Ef_MpC422pbYB_9rruoBFQ", "alias": "block-house-ahrensburg", "name": "Block House", "image_url": "https://s3-media2.fl.yelpcdn.com/bphoto/-k2VT7KitdEWBdwKqtpyqw/o.jpg", "is_closed": false, "url": "https://www.yelp.com/biz/block-house-ahrensburg?adjust_creative=hBJOknVQJ58S5goQyjmwRw&utm_campaign=yelp_api_v3&utm_medium=api_v3_business_search&utm_source=hBJOknVQJ58S5goQyjmwRw", "review_count": 34, "categories": [{"alias": "steak", "title": "Steakhouses"}], "rating": 4.0, "coordinates": {"latitude": 53.6751, "longitude": 10.2404}, "transactions": [], "price": "\u20ac\u20ac\u20ac", "location": {"address1": "Gro\u00dfe Str. 13", "address2": null, "address3": null, "city": "Ahrensburg", "zip_code": "22926", "country": "DE", "state": "SH", "display_address": ["Gro\u00dfe Str. 13", "22926 Ahrensburg", "Germany"]}, "phone": "+49410254314", "display_phone": "+49 4102 54314", "distance": 4476.237121082772}, {"id": "zdvVMN4s0wk7Rn4DxjU4Nw", "alias": "cake-and-coffee-ahrensburg", "name": "Cake & Coffee", "image_url": "https://s3-media2.fl.yelpcdn.com/bphoto/FzoqemyvSDFCO01SEt7mpw/o.jpg", "is_closed": false, "url": "https://www.yelp.com/biz/cake-and-coffee-ahrensburg?adjust_creative=hBJOknVQJ58S5goQyjmwRw&utm_campaign=yelp_api_v3&utm_medium=api_v3_business_search&utm_source=hBJOknVQJ58S5goQyjmwRw", "review_count": 2, "categories": [{"alias": "cafes", "title": "Cafes"}, {"alias": "coffee", "title": "Coffee & Tea"}], "rating": 4.0, "coordinates": {"latitude": 53.67371, "longitude": 10.23894}, "transactions": [], "location": {"address1": "Gro\u00dfe Str. 42", "address2": null, "address3": null, "city": "Ahrensburg", "zip_code": "22926", "country": "DE", "state": "SH", "display_address": ["Gro\u00dfe Str. 42", "22926 Ahrensburg", "Germany"]}, "phone": "+494102983174", "display_phone": "+49 4102 983174", "distance": 4622.352795649872}, {"id": "TAfqyQEh0__QlLylFOTaGw", "alias": "china-restaurant-yau-ahrensburg", "name": "China-Restaurant Yau", "image_url": "", "is_closed": false, "url": "https://www.yelp.com/biz/china-restaurant-yau-ahrensburg?adjust_creative=hBJOknVQJ58S5goQyjmwRw&utm_campaign=yelp_api_v3&utm_medium=api_v3_business_search&utm_source=hBJOknVQJ58S5goQyjmwRw", "review_count": 1, "categories": [{"alias": "chinese", "title": "Chinese"}], "rating": 5.0, "coordinates": {"latitude": 53.6757, "longitude": 10.2369}, "transactions": [], "price": "\u20ac\u20ac\u20ac", "location": {"address1": "Reeshoop 16", "address2": null, "address3": null, "city": "Ahrensburg", "zip_code": "22926", "country": "DE", "state": "SH", "display_address": ["Reeshoop 16", "22926 Ahrensburg", "Germany"]}, "phone": "+49410257800", "display_phone": "+49 4102 57800", "distance": 4430.508749664611}, {"id": "eXJVATOCTFSv2jhsQWGUCQ", "alias": "croque-shop-imbi\u00dfbetriebe-ahrensburg-3", "name": "Croque Shop Imbi\u00dfbetriebe", "image_url": "https://s3-media3.fl.yelpcdn.com/bphoto/zwaPBOkqWJxDozfezOtAoQ/o.jpg", "is_closed": false, "url": "https://www.yelp.com/biz/croque-shop-imbi%C3%9Fbetriebe-ahrensburg-3?adjust_creative=hBJOknVQJ58S5goQyjmwRw&utm_campaign=yelp_api_v3&utm_medium=api_v3_business_search&utm_source=hBJOknVQJ58S5goQyjmwRw", "review_count": 1, "categories": [{"alias": "hotdogs", "title": "Fast Food"}], "rating": 1.0, "coordinates": {"latitude": 53.6726717117947, "longitude": 10.2387651559083}, "transactions": [], "location": {"address1": "Rondeel 8", "address2": null, "address3": null, "city": "Ahrensburg", "zip_code": "22926", "country": "DE", "state": "SH", "display_address": ["Rondeel 8", "22926 Ahrensburg", "Germany"]}, "phone": "+49410232200", "display_phone": "+49 4102 32200", "distance": 4753.408010420477}, {"id": "KX5viLCOnnASgNtKgZNfdg", "alias": "big-d\u00f6ner-ahrensburg", "name": "Big-D\u00f6ner", "image_url": "https://s3-media1.fl.yelpcdn.com/bphoto/s5NisHTc_gtpmwDNvA4BLQ/o.jpg", "is_closed": false, "url": "https://www.yelp.com/biz/big-d%C3%B6ner-ahrensburg?adjust_creative=hBJOknVQJ58S5goQyjmwRw&utm_campaign=yelp_api_v3&utm_medium=api_v3_business_search&utm_source=hBJOknVQJ58S5goQyjmwRw", "review_count": 3, "categories": [{"alias": "kebab", "title": "Kebab"}], "rating": 4.0, "coordinates": {"latitude": 53.6743852, "longitude": 10.2381118}, "transactions": [], "price": "\u20ac\u20ac", "location": {"address1": "Klaus-Groth-Str. 2 - 4", "address2": "", "address3": "", "city": "Ahrensburg", "zip_code": "22926", "country": "DE", "state": "SH", "display_address": ["Klaus-Groth-Str. 2 - 4", "22926 Ahrensburg", "Germany"]}, "phone": "+4917647049817", "display_phone": "+49 176 47049817", "distance": 4567.453548812165}, {"id": "a9zTyvX_iY0jygqIfuqjJg", "alias": "d\u00f6ner-harem-ahrensburg", "name": "D\u00f6ner-Harem", "image_url": "https://s3-media2.fl.yelpcdn.com/bphoto/KoLUsGxu4aVGI6jLjjB02A/o.jpg", "is_closed": false, "url": "https://www.yelp.com/biz/d%C3%B6ner-harem-ahrensburg?adjust_creative=hBJOknVQJ58S5goQyjmwRw&utm_campaign=yelp_api_v3&utm_medium=api_v3_business_search&utm_source=hBJOknVQJ58S5goQyjmwRw", "review_count": 6, "categories": [{"alias": "kebab", "title": "Kebab"}], "rating": 3.0, "coordinates": {"latitude": 53.6729, "longitude": 10.2362}, "transactions": [], "price": "\u20ac\u20ac", "location": {"address1": "Manfred-Samusch-Str. 1", "address2": null, "address3": null, "city": "Ahrensburg", "zip_code": "22926", "country": "DE", "state": "SH", "display_address": ["Manfred-Samusch-Str. 1", "22926 Ahrensburg", "Germany"]}, "phone": "+49410253091", "display_phone": "+49 4102 53091", "distance": 4745.112831290379}, {"id": "WN7cuBMNTQ9-yhtKw1kLzQ", "alias": "richters-im-golfclub-jersbek-jersbek", "name": "Richter's im Golfclub Jersbek", "image_url": "", "is_closed": false, "url": "https://www.yelp.com/biz/richters-im-golfclub-jersbek-jersbek?adjust_creative=hBJOknVQJ58S5goQyjmwRw&utm_campaign=yelp_api_v3&utm_medium=api_v3_business_search&utm_source=hBJOknVQJ58S5goQyjmwRw", "review_count": 1, "categories": [{"alias": "restaurants", "title": "Restaurants"}], "rating": 3.0, "coordinates": {"latitude": 53.7477, "longitude": 10.2336}, "transactions": [], "location": {"address1": "Oberteicher Weg", "address2": null, "address3": null, "city": "Jersbek", "zip_code": "22941", "country": "DE", "state": "SH", "display_address": ["Oberteicher Weg", "22941 Jersbek", "Germany"]}, "phone": "+49453220950", "display_phone": "+49 4532 20950", "distance": 3679.092332896466}, {"id": "zFysaJzQwC8uav4Ka08aww", "alias": "mendoza-ahrensburg", "name": "Mendoza", "image_url": "https://s3-media1.fl.yelpcdn.com/bphoto/YuanUbthkb73UWDBOhnPBQ/o.jpg", "is_closed": false, "url": "https://www.yelp.com/biz/mendoza-ahrensburg?adjust_creative=hBJOknVQJ58S5goQyjmwRw&utm_campaign=yelp_api_v3&utm_medium=api_v3_business_search&utm_source=hBJOknVQJ58S5goQyjmwRw", "review_count": 8, "categories": [{"alias": "bistros", "title": "Bistros"}, {"alias": "steak", "title": "Steakhouses"}], "rating": 4.0, "coordinates": {"latitude": 53.6725, "longitude": 10.24098}, "transactions": [], "location": {"address1": "Neue Str. 9", "address2": "", "address3": null, "city": "Ahrensburg", "zip_code": "22926", "country": "DE", "state": "SH", "display_address": ["Neue Str. 9", "22926 Ahrensburg", "Germany"]}, "phone": "+4941022057779", "display_phone": "+49 4102 2057779", "distance": 4766.531478441872}, {"id": "vYzdcrNTGdpLbSbgCWeTaQ", "alias": "leckere-bratwurst-bude-ahrensburg", "name": "Leckere Bratwurst Bude", "image_url": "", "is_closed": false, "url": "https://www.yelp.com/biz/leckere-bratwurst-bude-ahrensburg?adjust_creative=hBJOknVQJ58S5goQyjmwRw&utm_campaign=yelp_api_v3&utm_medium=api_v3_business_search&utm_source=hBJOknVQJ58S5goQyjmwRw", "review_count": 1, "categories": [{"alias": "currysausage", "title": "Curry Sausage"}], "rating": 4.0, "coordinates": {"latitude": 53.6764136, "longitude": 10.2378854}, "transactions": [], "price": "\u20ac", "location": {"address1": "Kornkamp 34", "address2": "", "address3": "", "city": "Ahrensburg", "zip_code": "22926", "country": "DE", "state": "SH", "display_address": ["Kornkamp 34", "22926 Ahrensburg", "Germany"]}, "phone": "", "display_phone": "", "distance": 4344.5050297765765}, {"id": "7xNC4Frn4ZBQ-MdMrze4AA", "alias": "caligo-coffee-ahrensburg-2", "name": "Caligo Coffee", "image_url": "https://s3-media4.fl.yelpcdn.com/bphoto/w1YfA3-ta3TOnPDjy0vNnw/o.jpg", "is_closed": false, "url": "https://www.yelp.com/biz/caligo-coffee-ahrensburg-2?adjust_creative=hBJOknVQJ58S5goQyjmwRw&utm_campaign=yelp_api_v3&utm_medium=api_v3_business_search&utm_source=hBJOknVQJ58S5goQyjmwRw", "review_count": 21, "categories": [{"alias": "cafes", "title": "Cafes"}], "rating": 4.0, "coordinates": {"latitude": 53.673167, "longitude": 10.238838}, "transactions": [], "price": "\u20ac\u20ac", "location": {"address1": "Rondeel 4", "address2": null, "address3": null, "city": "Ahrensburg", "zip_code": "22926", "country": "DE", "state": "SH", "display_address": ["Rondeel 4", "22926 Ahrensburg", "Germany"]}, "phone": "", "display_phone": "", "distance": 4698.126419163501}, {"id": "RuoKg2MqRvWAbpbvY5Q2-w", "alias": "effes-grill-ahrensburg", "name": "Effes Grill", "image_url": "", "is_closed": false, "url": "https://www.yelp.com/biz/effes-grill-ahrensburg?adjust_creative=hBJOknVQJ58S5goQyjmwRw&utm_campaign=yelp_api_v3&utm_medium=api_v3_business_search&utm_source=hBJOknVQJ58S5goQyjmwRw", "review_count": 14, "categories": [{"alias": "kebab", "title": "Kebab"}, {"alias": "bbq", "title": "Barbeque"}], "rating": 3.5, "coordinates": {"latitude": 53.6736905, "longitude": 10.2400128}, "transactions": [], "price": "\u20ac", "location": {"address1": "Gro\u00dfe Str. 35", "address2": null, "address3": null, "city": "Ahrensburg", "zip_code": "22926", "country": "DE", "state": "SH", "display_address": ["Gro\u00dfe Str. 35", "22926 Ahrensburg", "Germany"]}, "phone": "+494102458357", "display_phone": "+49 4102 458357", "distance": 4634.296612902173}, {"id": "7DT39R64fx3OxYm5ahIt9g", "alias": "eiscafe-la-volpe-ahrensburg", "name": "Eiscafe La Volpe", "image_url": "https://s3-media3.fl.yelpcdn.com/bphoto/OvND0RyZjqRIh-2o67kaog/o.jpg", "is_closed": false, "url": "https://www.yelp.com/biz/eiscafe-la-volpe-ahrensburg?adjust_creative=hBJOknVQJ58S5goQyjmwRw&utm_campaign=yelp_api_v3&utm_medium=api_v3_business_search&utm_source=hBJOknVQJ58S5goQyjmwRw", "review_count": 7, "categories": [{"alias": "icecream", "title": "Ice Cream & Frozen Yogurt"}, {"alias": "cafes", "title": "Cafes"}, {"alias": "coffee", "title": "Coffee & Tea"}], "rating": 5.0, "coordinates": {"latitude": 53.6732, "longitude": 10.2376}, "transactions": [], "price": "\u20ac\u20ac", "location": {"address1": "Rathausplatz 25", "address2": null, "address3": null, "city": "Ahrensburg", "zip_code": "22926", "country": "DE", "state": "SH", "display_address": ["Rathausplatz 25", "22926 Ahrensburg", "Germany"]}, "phone": "+49410250130", "display_phone": "+49 4102 50130", "distance": 4701.901074202003}, {"id": "0xkPxwwWkQpsembjKyjg_A", "alias": "die-k\u00f6nigliche-wurst-ahrensburg", "name": "Die K\u00f6nigliche Wurst", "image_url": "https://s3-media1.fl.yelpcdn.com/bphoto/nrt1YhE7NU07j_F92q1OlQ/o.jpg", "is_closed": false, "url": "https://www.yelp.com/biz/die-k%C3%B6nigliche-wurst-ahrensburg?adjust_creative=hBJOknVQJ58S5goQyjmwRw&utm_campaign=yelp_api_v3&utm_medium=api_v3_business_search&utm_source=hBJOknVQJ58S5goQyjmwRw", "review_count": 1, "categories": [{"alias": "currysausage", "title": "Curry Sausage"}, {"alias": "bbq", "title": "Barbeque"}, {"alias": "foodstands", "title": "Food Stands"}], "rating": 2.0, "coordinates": {"latitude": 53.673693, "longitude": 10.2395457}, "transactions": [], "price": "\u20ac\u20ac\u20ac", "location": {"address1": "Gro\u00dfe Str. 43", "address2": null, "address3": null, "city": "Ahrensburg", "zip_code": "22926", "country": "DE", "state": "SH", "display_address": ["Gro\u00dfe Str. 43", "22926 Ahrensburg", "Germany"]}, "phone": "+4941028914713", "display_phone": "+49 4102 8914713", "distance": 4636.179789560362}, {"id": "5JSnV2Zy0YUcxK0WiBGCGg", "alias": "villa-romana-ahrensburg", "name": "Villa Romana", "image_url": "https://s3-media2.fl.yelpcdn.com/bphoto/6BY1KIF-TkWws7kr9H8oRw/o.jpg", "is_closed": false, "url": "https://www.yelp.com/biz/villa-romana-ahrensburg?adjust_creative=hBJOknVQJ58S5goQyjmwRw&utm_campaign=yelp_api_v3&utm_medium=api_v3_business_search&utm_source=hBJOknVQJ58S5goQyjmwRw", "review_count": 4, "categories": [{"alias": "italian", "title": "Italian"}], "rating": 4.0, "coordinates": {"latitude": 53.6761124665944, "longitude": 10.2392913401127}, "transactions": [], "price": "\u20ac\u20ac\u20ac", "location": {"address1": "Bei der Alten Kate 6", "address2": "", "address3": "", "city": "Ahrensburg", "zip_code": "22926", "country": "DE", "state": "SH", "display_address": ["Bei der Alten Kate 6", "22926 Ahrensburg", "Germany"]}, "phone": "+4941026672596", "display_phone": "+49 4102 6672596", "distance": 4369.259780284727}, {"id": "uKGytQa7ogSmVv6uSPHucA", "alias": "eiscafe-il-gelato-ahrensburg", "name": "Eiscafe Il Gelato", "image_url": "https://s3-media1.fl.yelpcdn.com/bphoto/-PA1dOLX47ZxEs_ZJKDcag/o.jpg", "is_closed": false, "url": "https://www.yelp.com/biz/eiscafe-il-gelato-ahrensburg?adjust_creative=hBJOknVQJ58S5goQyjmwRw&utm_campaign=yelp_api_v3&utm_medium=api_v3_business_search&utm_source=hBJOknVQJ58S5goQyjmwRw", "review_count": 4, "categories": [{"alias": "icecream", "title": "Ice Cream & Frozen Yogurt"}, {"alias": "cafes", "title": "Cafes"}, {"alias": "coffee", "title": "Coffee & Tea"}], "rating": 4.0, "coordinates": {"latitude": 53.6747, "longitude": 10.2401}, "transactions": [], "price": "\u20ac\u20ac", "location": {"address1": "Gro\u00dfe Str. 17", "address2": null, "address3": null, "city": "Ahrensburg", "zip_code": "22926", "country": "DE", "state": "SH", "display_address": ["Gro\u00dfe Str. 17", "22926 Ahrensburg", "Germany"]}, "phone": "+49410230838", "display_phone": "+49 4102 30838", "distance": 4521.913058613186}, {"id": "APvIA_7ssxgC0atmQEFMcg", "alias": "burgerkultour-food-truck-hamburg-2", "name": "BurgerKultour Food Truck", "image_url": "https://s3-media4.fl.yelpcdn.com/bphoto/KoAuwalMnlAO8139MmdYBQ/o.jpg", "is_closed": false, "url": "https://www.yelp.com/biz/burgerkultour-food-truck-hamburg-2?adjust_creative=hBJOknVQJ58S5goQyjmwRw&utm_campaign=yelp_api_v3&utm_medium=api_v3_business_search&utm_source=hBJOknVQJ58S5goQyjmwRw", "review_count": 3, "categories": [{"alias": "foodtrucks", "title": "Food Trucks"}, {"alias": "burgers", "title": "Burgers"}], "rating": 4.5, "coordinates": {"latitude": 53.57154, "longitude": 9.95575}, "transactions": [], "price": "\u20ac\u20ac", "location": {"address1": "", "address2": "", "address3": "", "city": "Hamburg", "zip_code": "20259", "country": "DE", "state": "HH", "display_address": ["20259 Hamburg", "Germany"]}, "phone": "+4917626055122", "display_phone": "+49 176 26055122", "distance": 24875.835610122518}, {"id": "za1i9pGduEAeTsDkRLju2A", "alias": "bistro-basler-ahrensburg", "name": "Bistro Basler", "image_url": "https://s3-media2.fl.yelpcdn.com/bphoto/467wUIyZ88eh4809Sy_2-g/o.jpg", "is_closed": false, "url": "https://www.yelp.com/biz/bistro-basler-ahrensburg?adjust_creative=hBJOknVQJ58S5goQyjmwRw&utm_campaign=yelp_api_v3&utm_medium=api_v3_business_search&utm_source=hBJOknVQJ58S5goQyjmwRw", "review_count": 1, "categories": [{"alias": "breakfast_brunch", "title": "Breakfast & Brunch"}, {"alias": "canteen", "title": "Canteen"}], "rating": 3.0, "coordinates": {"latitude": 53.693006, "longitude": 10.266129}, "transactions": [], "location": {"address1": "An der Strusbek 60 - 62", "address2": "", "address3": null, "city": "Ahrensburg", "zip_code": "22926", "country": "DE", "state": "SH", "display_address": ["An der Strusbek 60 - 62", "22926 Ahrensburg", "Germany"]}, "phone": "+494102463568", "display_phone": "+49 4102 463568", "distance": 2848.853371837824}, {"id": "cGIKCcR0wZszz8VldC2-7g", "alias": "currywerk-hamburg", "name": "curryWERK", "image_url": "https://s3-media4.fl.yelpcdn.com/bphoto/j_ZPQAB6JrAru84VDuLiRA/o.jpg", "is_closed": false, "url": "https://www.yelp.com/biz/currywerk-hamburg?adjust_creative=hBJOknVQJ58S5goQyjmwRw&utm_campaign=yelp_api_v3&utm_medium=api_v3_business_search&utm_source=hBJOknVQJ58S5goQyjmwRw", "review_count": 1, "categories": [{"alias": "foodtrucks", "title": "Food Trucks"}, {"alias": "currysausage", "title": "Curry Sausage"}], "rating": 4.0, "coordinates": {"latitude": 53.5498886108398, "longitude": 9.94732189178467}, "transactions": [], "price": "\u20ac\u20ac", "location": {"address1": "", "address2": "", "address3": "", "city": "Hamburg", "zip_code": "22767", "country": "DE", "state": "HH", "display_address": ["22767 Hamburg", "Germany"]}, "phone": "+4917632443433", "display_phone": "+49 176 32443433", "distance": 27186.49453572108}, {"id": "32oc98cbPR8STNDUnoPCSg", "alias": "cafe-gerads-ahrensburg", "name": "Cafe-Gerads", "image_url": "", "is_closed": false, "url": "https://www.yelp.com/biz/cafe-gerads-ahrensburg?adjust_creative=hBJOknVQJ58S5goQyjmwRw&utm_campaign=yelp_api_v3&utm_medium=api_v3_business_search&utm_source=hBJOknVQJ58S5goQyjmwRw", "review_count": 5, "categories": [{"alias": "cafes", "title": "Cafes"}, {"alias": "coffee", "title": "Coffee & Tea"}], "rating": 3.0, "coordinates": {"latitude": 53.6723419, "longitude": 10.2379449}, "transactions": [], "location": {"address1": "Hamburger Str.  7", "address2": null, "address3": null, "city": "Ahrensburg", "zip_code": "22926", "country": "DE", "state": "SH", "display_address": ["Hamburger Str.  7", "22926 Ahrensburg", "Germany"]}, "phone": "", "display_phone": "", "distance": 4794.683631093948}]