[{"id": "Grb8z5E-aUEYCeIy8FTCng", "alias": "restaurant-am-brook-henners-stuuv-tangstedt", "name": "Restaurant am Brook - Henners Stuuv", "image_url": "https://s3-media2.fl.yelpcdn.com/bphoto/09nUTzuPt3owrLjdyOcBMg/o.jpg", "is_closed": false, "url": "https://www.yelp.com/biz/restaurant-am-brook-henners-stuuv-tangstedt?adjust_creative=hBJOknVQJ58S5goQyjmwRw&utm_campaign=yelp_api_v3&utm_medium=api_v3_business_search&utm_source=hBJOknVQJ58S5goQyjmwRw", "review_count": 1, "categories": [{"alias": "german", "title": "German"}], "rating": 4.0, "coordinates": {"latitude": 53.7389603, "longitude": 10.1586199}, "transactions": [], "location": {"address1": "Wiemerskamper Weg 133", "address2": "", "address3": "", "city": "Tangstedt", "zip_code": "22889", "country": "DE", "state": "SH", "display_address": ["Wiemerskamper Weg 133", "22889 Tangstedt", "Germany"]}, "phone": "+4915224278853", "display_phone": "+49 1522 4278853", "distance": 3008.8444590434915}, {"id": "OBMxtGUY2M0uR9ZDJESQCw", "alias": "zum-dorfkrug-am-gutshof-ammersbek", "name": "Zum Dorfkrug am Gutshof", "image_url": "", "is_closed": false, "url": "https://www.yelp.com/biz/zum-dorfkrug-am-gutshof-ammersbek?adjust_creative=hBJOknVQJ58S5goQyjmwRw&utm_campaign=yelp_api_v3&utm_medium=api_v3_business_search&utm_source=hBJOknVQJ58S5goQyjmwRw", "review_count": 1, "categories": [{"alias": "german", "title": "German"}], "rating": 5.0, "coordinates": {"latitude": 53.691685, "longitude": 10.165921}, "transactions": [], "location": {"address1": "Am Gutshof 1", "address2": null, "address3": null, "city": "Ammersbek", "zip_code": "22949", "country": "DE", "state": "SH", "display_address": ["Am Gutshof 1", "22949 Ammersbek", "Germany"]}, "phone": "+494074129645", "display_phone": "+49 40 74129645", "distance": 2958.135960359588}, {"id": "tUzeOrsR-8KAHItbnCKQeA", "alias": "china-ente-ha-ammersbek", "name": "China Ente Ha", "image_url": "https://s3-media1.fl.yelpcdn.com/bphoto/A1wVmkXBW1jB5rkDp9BvgA/o.jpg", "is_closed": false, "url": "https://www.yelp.com/biz/china-ente-ha-ammersbek?adjust_creative=hBJOknVQJ58S5goQyjmwRw&utm_campaign=yelp_api_v3&utm_medium=api_v3_business_search&utm_source=hBJOknVQJ58S5goQyjmwRw", "review_count": 5, "categories": [{"alias": "chinese", "title": "Chinese"}], "rating": 4.0, "coordinates": {"latitude": 53.6920240862307, "longitude": 10.1684083319408}, "transactions": [], "price": "\u20ac\u20ac", "location": {"address1": "L\u00fcbecker Str. 8-10", "address2": null, "address3": null, "city": "Ammersbek", "zip_code": "22949", "country": "DE", "state": "SH", "display_address": ["L\u00fcbecker Str. 8-10", "22949 Ammersbek", "Germany"]}, "phone": "+49406050533", "display_phone": "+49 40 6050533", "distance": 2848.2157921028697}, {"id": "jttUzCQqE8-y8v_49Edtsw", "alias": "zum-pferdestall-am-gutshof-ammersbek", "name": "Zum Pferdestall am Gutshof", "image_url": "", "is_closed": false, "url": "https://www.yelp.com/biz/zum-pferdestall-am-gutshof-ammersbek?adjust_creative=hBJOknVQJ58S5goQyjmwRw&utm_campaign=yelp_api_v3&utm_medium=api_v3_business_search&utm_source=hBJOknVQJ58S5goQyjmwRw", "review_count": 1, "categories": [{"alias": "german", "title": "German"}], "rating": 4.0, "coordinates": {"latitude": 53.69169, "longitude": 10.16593}, "transactions": [], "location": {"address1": "Am Gutshof 1", "address2": null, "address3": null, "city": "Ammersbek", "zip_code": "22949", "country": "DE", "state": "SH", "display_address": ["Am Gutshof 1", "22949 Ammersbek", "Germany"]}, "phone": "+494074129645", "display_phone": "+49 40 74129645", "distance": 2958.135960359588}, {"id": "EDK_j12cIyv66gMJHO8PiA", "alias": "gasthaus-waldesruh-bargfeld-stegen", "name": "Gasthaus Waldesruh", "image_url": "https://s3-media3.fl.yelpcdn.com/bphoto/30rPAQ9d3hj2-qkXT00qUg/o.jpg", "is_closed": false, "url": "https://www.yelp.com/biz/gasthaus-waldesruh-bargfeld-stegen?adjust_creative=hBJOknVQJ58S5goQyjmwRw&utm_campaign=yelp_api_v3&utm_medium=api_v3_business_search&utm_source=hBJOknVQJ58S5goQyjmwRw", "review_count": 2, "categories": [{"alias": "german", "title": "German"}, {"alias": "guesthouses", "title": "Guest Houses"}], "rating": 3.0, "coordinates": {"latitude": 53.7483, "longitude": 10.1737}, "transactions": [], "price": "\u20ac\u20ac", "location": {"address1": "Forstweg 2", "address2": null, "address3": null, "city": "Bargfeld-Stegen", "zip_code": "23863", "country": "DE", "state": "SH", "display_address": ["Forstweg 2", "23863 Bargfeld-Stegen", "Germany"]}, "phone": "+49453222192", "display_phone": "+49 4532 22192", "distance": 3668.6957993824994}]