[{"id": "r30ZxQzx0ydgzkz6KsiELA", "alias": "zur-linde-ellerhoop", "name": "Zur Linde", "image_url": "https://s3-media3.fl.yelpcdn.com/bphoto/y66Js8YmvaEHltV9D2SBBQ/o.jpg", "is_closed": false, "url": "https://www.yelp.com/biz/zur-linde-ellerhoop?adjust_creative=hBJOknVQJ58S5goQyjmwRw&utm_campaign=yelp_api_v3&utm_medium=api_v3_business_search&utm_source=hBJOknVQJ58S5goQyjmwRw", "review_count": 5, "categories": [{"alias": "restaurants", "title": "Restaurants"}], "rating": 4.5, "coordinates": {"latitude": 53.72835, "longitude": 9.77222}, "transactions": [], "price": "\u20ac\u20ac\u20ac", "location": {"address1": "barmstedter str.  23", "address2": null, "address3": null, "city": "Ellerhoop", "zip_code": "25373", "country": "DE", "state": "SH", "display_address": ["barmstedter str.  23", "25373 Ellerhoop", "Germany"]}, "phone": "+494120200", "display_phone": "+49 4120 200", "distance": 1289.6188713528786}, {"id": "Dfc-2WYroti35vIYjQjRTw", "alias": "hotel-kr\u00f6gers-gasthof-tornesch-2", "name": "Hotel Kr\u00f6ger's Gasthof", "image_url": "https://s3-media3.fl.yelpcdn.com/bphoto/ymNPblFMy8ElYC5_dXYC_w/o.jpg", "is_closed": false, "url": "https://www.yelp.com/biz/hotel-kr%C3%B6gers-gasthof-tornesch-2?adjust_creative=hBJOknVQJ58S5goQyjmwRw&utm_campaign=yelp_api_v3&utm_medium=api_v3_business_search&utm_source=hBJOknVQJ58S5goQyjmwRw", "review_count": 3, "categories": [{"alias": "german", "title": "German"}], "rating": 3.5, "coordinates": {"latitude": 53.7088, "longitude": 9.74103}, "transactions": [], "location": {"address1": "Ahrenloher Str. 169", "address2": null, "address3": null, "city": "Tornesch", "zip_code": "25436", "country": "DE", "state": "SH", "display_address": ["Ahrenloher Str. 169", "25436 Tornesch", "Germany"]}, "phone": "+49412297870", "display_phone": "+49 4122 97870", "distance": 1706.666115647312}, {"id": "Sp2fW1cyG7G_zW1FX1gsoA", "alias": "burger-king-tornesch", "name": "Burger King", "image_url": "", "is_closed": false, "url": "https://www.yelp.com/biz/burger-king-tornesch?adjust_creative=hBJOknVQJ58S5goQyjmwRw&utm_campaign=yelp_api_v3&utm_medium=api_v3_business_search&utm_source=hBJOknVQJ58S5goQyjmwRw", "review_count": 3, "categories": [{"alias": "hotdogs", "title": "Fast Food"}, {"alias": "burgers", "title": "Burgers"}], "rating": 4.0, "coordinates": {"latitude": 53.71401, "longitude": 9.76504}, "transactions": [], "price": "\u20ac", "location": {"address1": "Lise-Meitner-Allee 999", "address2": null, "address3": null, "city": "Tornesch", "zip_code": "25436", "country": "DE", "state": "SH", "display_address": ["Lise-Meitner-Allee 999", "25436 Tornesch", "Germany"]}, "phone": "+494120708927", "display_phone": "+49 4120 708927", "distance": 557.0752397027964}, {"id": "sp9sqA9Jf-VLuOgoekEWsw", "alias": "columbus-grill-pinneberg", "name": "Columbus Grill", "image_url": "https://s3-media4.fl.yelpcdn.com/bphoto/WMvFChlRZ3IGDgesDUSghw/o.jpg", "is_closed": false, "url": "https://www.yelp.com/biz/columbus-grill-pinneberg?adjust_creative=hBJOknVQJ58S5goQyjmwRw&utm_campaign=yelp_api_v3&utm_medium=api_v3_business_search&utm_source=hBJOknVQJ58S5goQyjmwRw", "review_count": 3, "categories": [{"alias": "german", "title": "German"}], "rating": 4.0, "coordinates": {"latitude": 53.7568, "longitude": 9.76472}, "transactions": [], "location": {"address1": "Elmshorner Str. 12", "address2": null, "address3": null, "city": "Pinneberg", "zip_code": "25421", "country": "DE", "state": "SH", "display_address": ["Elmshorner Str. 12", "25421 Pinneberg", "Germany"]}, "phone": "+49410156456", "display_phone": "+49 4101 56456", "distance": 4178.505919317471}, {"id": "2jzIbZsfzca5drJYk7JwbQ", "alias": "the-bao-bros-hamburg-2", "name": "The Bao Bros", "image_url": "https://s3-media1.fl.yelpcdn.com/bphoto/vUMA4Y35x3UwZk6fMJfZRw/o.jpg", "is_closed": false, "url": "https://www.yelp.com/biz/the-bao-bros-hamburg-2?adjust_creative=hBJOknVQJ58S5goQyjmwRw&utm_campaign=yelp_api_v3&utm_medium=api_v3_business_search&utm_source=hBJOknVQJ58S5goQyjmwRw", "review_count": 2, "categories": [{"alias": "foodtrucks", "title": "Food Trucks"}, {"alias": "burgers", "title": "Burgers"}], "rating": 4.0, "coordinates": {"latitude": 53.5533409118652, "longitude": 9.99246978759766}, "transactions": [], "price": "\u20ac", "location": {"address1": "", "address2": "", "address3": "", "city": "Hamburg", "zip_code": "", "country": "DE", "state": "HH", "display_address": ["Hamburg", "Germany"]}, "phone": "+4915140700076", "display_phone": "+49 1514 0700076", "distance": 24239.65864869832}]