[{"id": "ZQz5Ymoqjjg8NJ81EFATfA", "alias": "vietstreet-norderstedt", "name": "VietStreet", "image_url": "https://s3-media1.fl.yelpcdn.com/bphoto/LU4Uw_TTiF2IhCRSU4xZKw/o.jpg", "is_closed": false, "url": "https://www.yelp.com/biz/vietstreet-norderstedt?adjust_creative=hBJOknVQJ58S5goQyjmwRw&utm_campaign=yelp_api_v3&utm_medium=api_v3_business_search&utm_source=hBJOknVQJ58S5goQyjmwRw", "review_count": 6, "categories": [{"alias": "vietnamese", "title": "Vietnamese"}], "rating": 4.0, "coordinates": {"latitude": 53.687892795006, "longitude": 10.0393799319863}, "transactions": [], "price": "\u20ac", "location": {"address1": "Mittelstr. 60", "address2": "", "address3": null, "city": "Norderstedt", "zip_code": "22851", "country": "DE", "state": "SH", "display_address": ["Mittelstr. 60", "22851 Norderstedt", "Germany"]}, "phone": "+494080007488", "display_phone": "+49 40 80007488", "distance": 3591.1515965485614}, {"id": "fsqoTlQ1pGsdfp_QG74qeA", "alias": "barolo-norderstedt", "name": "Barolo", "image_url": "https://s3-media2.fl.yelpcdn.com/bphoto/zNqdQDcNMjYHd6JfCa7S9g/o.jpg", "is_closed": false, "url": "https://www.yelp.com/biz/barolo-norderstedt?adjust_creative=hBJOknVQJ58S5goQyjmwRw&utm_campaign=yelp_api_v3&utm_medium=api_v3_business_search&utm_source=hBJOknVQJ58S5goQyjmwRw", "review_count": 35, "categories": [{"alias": "italian", "title": "Italian"}], "rating": 4.0, "coordinates": {"latitude": 53.6942, "longitude": 10.045}, "transactions": [], "price": "\u20ac\u20ac", "location": {"address1": "Segeberger Chaussee 241", "address2": null, "address3": null, "city": "Norderstedt", "zip_code": "22851", "country": "DE", "state": "SH", "display_address": ["Segeberger Chaussee 241", "22851 Norderstedt", "Germany"]}, "phone": "+494052901110", "display_phone": "+49 40 52901110", "distance": 2798.9734806828737}, {"id": "d4iSYmQqtBJBTI1lVs66Xw", "alias": "china-restaurant-maixims-norderstedt", "name": "China Restaurant Maixims", "image_url": "https://s3-media3.fl.yelpcdn.com/bphoto/84313GFm4u_3mXIA3mfkAQ/o.jpg", "is_closed": false, "url": "https://www.yelp.com/biz/china-restaurant-maixims-norderstedt?adjust_creative=hBJOknVQJ58S5goQyjmwRw&utm_campaign=yelp_api_v3&utm_medium=api_v3_business_search&utm_source=hBJOknVQJ58S5goQyjmwRw", "review_count": 8, "categories": [{"alias": "chinese", "title": "Chinese"}], "rating": 4.0, "coordinates": {"latitude": 53.6948, "longitude": 10.0455}, "transactions": [], "price": "\u20ac", "location": {"address1": "Segeberger Chaussee 273", "address2": null, "address3": null, "city": "Norderstedt", "zip_code": "22851", "country": "DE", "state": "SH", "display_address": ["Segeberger Chaussee 273", "22851 Norderstedt", "Germany"]}, "phone": "+49405291628", "display_phone": "+49 40 5291628", "distance": 2724.5980139023086}, {"id": "k1yWZr86bXB5c4dibQFqEw", "alias": "trio-wilstedt-tangstedt", "name": "Trio Wilstedt", "image_url": "https://s3-media3.fl.yelpcdn.com/bphoto/A-iWVyaAtL9JvJpUsgzbQQ/o.jpg", "is_closed": false, "url": "https://www.yelp.com/biz/trio-wilstedt-tangstedt?adjust_creative=hBJOknVQJ58S5goQyjmwRw&utm_campaign=yelp_api_v3&utm_medium=api_v3_business_search&utm_source=hBJOknVQJ58S5goQyjmwRw", "review_count": 3, "categories": [{"alias": "steak", "title": "Steakhouses"}, {"alias": "italian", "title": "Italian"}], "rating": 4.5, "coordinates": {"latitude": 53.7509129250373, "longitude": 10.0654503008912}, "transactions": [], "price": "\u20ac\u20ac", "location": {"address1": "Weg am Sportplatz 15", "address2": "", "address3": null, "city": "Tangstedt", "zip_code": "22889", "country": "DE", "state": "SH", "display_address": ["Weg am Sportplatz 15", "22889 Tangstedt", "Germany"]}, "phone": "+4941092524424", "display_phone": "+49 4109 2524424", "distance": 3771.8001503083096}, {"id": "5rYAw50zft7w9SYX4grhvw", "alias": "torhaus-tangstedt", "name": "Torhaus", "image_url": "https://s3-media2.fl.yelpcdn.com/bphoto/P7Wzb_vGzaiN2nSuD7dQKA/o.jpg", "is_closed": false, "url": "https://www.yelp.com/biz/torhaus-tangstedt?adjust_creative=hBJOknVQJ58S5goQyjmwRw&utm_campaign=yelp_api_v3&utm_medium=api_v3_business_search&utm_source=hBJOknVQJ58S5goQyjmwRw", "review_count": 1, "categories": [{"alias": "german", "title": "German"}], "rating": 5.0, "coordinates": {"latitude": 53.735816, "longitude": 10.081191}, "transactions": [], "price": "\u20ac\u20ac", "location": {"address1": "Gut Tangstedt", "address2": "Beekmoorweg 11", "address3": "", "city": "Tangstedt", "zip_code": "22889", "country": "DE", "state": "SH", "display_address": ["Gut Tangstedt", "Beekmoorweg 11", "22889 Tangstedt", "Germany"]}, "phone": "+4941095594519", "display_phone": "+49 4109 5594519", "distance": 2409.627448795039}, {"id": "Yv7-W_pf1dJFzw5PYuj72g", "alias": "zur-glash\u00fctte-norderstedt", "name": "Zur Glash\u00fctte", "image_url": "", "is_closed": false, "url": "https://www.yelp.com/biz/zur-glash%C3%BCtte-norderstedt?adjust_creative=hBJOknVQJ58S5goQyjmwRw&utm_campaign=yelp_api_v3&utm_medium=api_v3_business_search&utm_source=hBJOknVQJ58S5goQyjmwRw", "review_count": 6, "categories": [{"alias": "german", "title": "German"}], "rating": 4.0, "coordinates": {"latitude": 53.6975, "longitude": 10.0502}, "transactions": [], "location": {"address1": "Segeberger Chaussee 309", "address2": null, "address3": null, "city": "Norderstedt", "zip_code": "22851", "country": "DE", "state": "SH", "display_address": ["Segeberger Chaussee 309", "22851 Norderstedt", "Germany"]}, "phone": "+49405298660", "display_phone": "+49 40 5298660", "distance": 2327.132806616589}, {"id": "OM_AaoDLC5413uortWkAaw", "alias": "restaurant-eichenstuben-norderstedt", "name": "Restaurant Eichenstuben", "image_url": "", "is_closed": false, "url": "https://www.yelp.com/biz/restaurant-eichenstuben-norderstedt?adjust_creative=hBJOknVQJ58S5goQyjmwRw&utm_campaign=yelp_api_v3&utm_medium=api_v3_business_search&utm_source=hBJOknVQJ58S5goQyjmwRw", "review_count": 2, "categories": [{"alias": "international", "title": "International"}, {"alias": "german", "title": "German"}], "rating": 4.0, "coordinates": {"latitude": 53.6868, "longitude": 10.0379}, "transactions": [], "location": {"address1": "Mittelstr. 54", "address2": null, "address3": null, "city": "Norderstedt", "zip_code": "22851", "country": "DE", "state": "SH", "display_address": ["Mittelstr. 54", "22851 Norderstedt", "Germany"]}, "phone": "+49405240046", "display_phone": "+49 40 5240046", "distance": 3742.9884726935848}, {"id": "xlc6skZRN6aGNn07l-2N0A", "alias": "restaurant-windm\u00fchle-tangstedt", "name": "Restaurant Windm\u00fchle", "image_url": "https://s3-media2.fl.yelpcdn.com/bphoto/_qedS9dT1DyxVLN0knawLQ/o.jpg", "is_closed": false, "url": "https://www.yelp.com/biz/restaurant-windm%C3%BChle-tangstedt?adjust_creative=hBJOknVQJ58S5goQyjmwRw&utm_campaign=yelp_api_v3&utm_medium=api_v3_business_search&utm_source=hBJOknVQJ58S5goQyjmwRw", "review_count": 14, "categories": [{"alias": "german", "title": "German"}, {"alias": "international", "title": "International"}], "rating": 4.0, "coordinates": {"latitude": 53.7347, "longitude": 10.0862}, "transactions": [], "price": "\u20ac\u20ac", "location": {"address1": "Hauptstr. 96", "address2": null, "address3": null, "city": "Tangstedt", "zip_code": "22889", "country": "DE", "state": "SH", "display_address": ["Hauptstr. 96", "22889 Tangstedt", "Germany"]}, "phone": "+4941099217", "display_phone": "+49 4109 9217", "distance": 2491.266389172878}, {"id": "APvIA_7ssxgC0atmQEFMcg", "alias": "burgerkultour-food-truck-hamburg-2", "name": "BurgerKultour Food Truck", "image_url": "https://s3-media4.fl.yelpcdn.com/bphoto/KoAuwalMnlAO8139MmdYBQ/o.jpg", "is_closed": false, "url": "https://www.yelp.com/biz/burgerkultour-food-truck-hamburg-2?adjust_creative=hBJOknVQJ58S5goQyjmwRw&utm_campaign=yelp_api_v3&utm_medium=api_v3_business_search&utm_source=hBJOknVQJ58S5goQyjmwRw", "review_count": 3, "categories": [{"alias": "foodtrucks", "title": "Food Trucks"}, {"alias": "burgers", "title": "Burgers"}], "rating": 4.5, "coordinates": {"latitude": 53.57154, "longitude": 9.95575}, "transactions": [], "price": "\u20ac\u20ac", "location": {"address1": "", "address2": "", "address3": "", "city": "Hamburg", "zip_code": "20259", "country": "DE", "state": "HH", "display_address": ["20259 Hamburg", "Germany"]}, "phone": "+4917626055122", "display_phone": "+49 176 26055122", "distance": 17695.45399013839}, {"id": "cGIKCcR0wZszz8VldC2-7g", "alias": "currywerk-hamburg", "name": "curryWERK", "image_url": "https://s3-media4.fl.yelpcdn.com/bphoto/j_ZPQAB6JrAru84VDuLiRA/o.jpg", "is_closed": false, "url": "https://www.yelp.com/biz/currywerk-hamburg?adjust_creative=hBJOknVQJ58S5goQyjmwRw&utm_campaign=yelp_api_v3&utm_medium=api_v3_business_search&utm_source=hBJOknVQJ58S5goQyjmwRw", "review_count": 1, "categories": [{"alias": "foodtrucks", "title": "Food Trucks"}, {"alias": "currysausage", "title": "Curry Sausage"}], "rating": 4.0, "coordinates": {"latitude": 53.5498886108398, "longitude": 9.94732189178467}, "transactions": [], "price": "\u20ac\u20ac", "location": {"address1": "", "address2": "", "address3": "", "city": "Hamburg", "zip_code": "22767", "country": "DE", "state": "HH", "display_address": ["22767 Hamburg", "Germany"]}, "phone": "+4917632443433", "display_phone": "+49 176 32443433", "distance": 20309.445331465617}]